{"status":true,"message":"","result":[{"server_id":9,"name":"Uncletopia | Atlanta | 1 | All Maps","name_short":"atl-1","host":"atl-1.us.uncletopia.com","port":27015,"enabled":true,"region":"us-east","cc":"us","latitude":33.753746,"longitude":-84.38633,"reserved":0,"last_update":"0001-01-01T00:00:00Z","name_a2s":"Uncletopia | Atlanta | 1 | All Maps","protocol":17,"map":"koth_harvest_final","folder":"tf","game":"Team Fortress","app_id":440,"player_count":24,"max_players":24,"Bots":0,"server_type":"Dedicated","server_os":"Linux","password":true,"vac":true,"version":"7961495","steam_id":85568392924469982,"keywords":["cp","nocrits","nodmgspread","uncletopia"],"game_id":440,"stv_port":27016,"stv_name":"Uncletopia | Atlanta | 1 | All Maps | STV","players":[{"user_id":314,"name":"Bladestorm, Hydro enthusiast","steam_id":76561198094852944,"connected_time":1861000000000,"state":"active","ping":81},{"user_id":325,"name":"Dr.Inkmix(femboy)","steam_id":76561198854070384,"connected_time":734000000000,"state":"active","ping":117},{"user_id":319,"name":"Motreir","steam_id":76561198151717946,"connected_time":1057000000000,"state":"active","ping":78},{"user_id":298,"name":"dantheman","steam_id":76561199486390813,"connected_time":2728000000000,"state":"active","ping":60},{"user_id":321,"name":"Kilian","steam_id":76561197964374101,"connected_time":980000000000,"state":"active","ping":103},{"user_id":299,"name":"G/3","steam_id":76561198234844188,"connected_time":2725000000000,"state":"active","ping":156},{"user_id":330,"name":"lurid","steam_id":76561199134999203,"connected_time":397000000000,"state":"active","ping":59},{"user_id":300,"name":"fishies :)","steam_id":76561198317943203,"connected_time":2721000000000,"state":"active","ping":110},{"user_id":294,"name":"mycoolcucumber","steam_id":76561198177586211,"connected_time":3313000000000,"state":"active","ping":76},{"user_id":245,"name":"Heathcliff","steam_id":76561198044288534,"connected_time":7104000000000,"state":"active","ping":60},{"user_id":301,"name":"Erchius (she/her)","steam_id":76561198256892300,"connected_time":2721000000000,"state":"active","ping":50},{"user_id":280,"name":"Ok-Par","steam_id":76561199221067945,"connected_time":4253000000000,"state":"active","ping":74},{"user_id":308,"name":"AmC","steam_id":76561198109731140,"connected_time":2398000000000,"state":"active","ping":109},{"user_id":318,"name":"loot","steam_id":76561198069954956,"connected_time":1059000000000,"state":"active","ping":50},{"user_id":316,"name":"Kuri","steam_id":76561199037050183,"connected_time":1065000000000,"state":"active","ping":87},{"user_id":327,"name":"slafflow","steam_id":76561199381012350,"connected_time":693000000000,"state":"active","ping":91},{"user_id":303,"name":"lynt","steam_id":76561198988333976,"connected_time":2701000000000,"state":"active","ping":45},{"user_id":213,"name":"Maddox","steam_id":76561198115569313,"connected_time":10984000000000,"state":"active","ping":63},{"user_id":331,"name":"Captain","steam_id":76561198061029780,"connected_time":248000000000,"state":"active","ping":74},{"user_id":306,"name":"Jin Gulilo","steam_id":76561198065151242,"connected_time":2564000000000,"state":"active","ping":60},{"user_id":332,"name":"Pirus and Crips","steam_id":76561198395577807,"connected_time":80000000000,"state":"active","ping":80},{"user_id":323,"name":"Bankaroo","steam_id":76561198810571270,"connected_time":946000000000,"state":"active","ping":107},{"user_id":311,"name":"Punchy","steam_id":76561198200000641,"connected_time":2125000000000,"state":"active","ping":62},{"user_id":309,"name":"[igam] ajay173","steam_id":76561198259234584,"connected_time":2395000000000,"state":"active","ping":75}]},{"server_id":104,"name":"Uncletopia | Atlanta | 2 | All Maps","name_short":"atl-2","host":"atl-1.us.uncletopia.com","port":27025,"enabled":true,"region":"us-east","cc":"us","latitude":33.753746,"longitude":-84.38633,"reserved":0,"last_update":"0001-01-01T00:00:00Z","name_a2s":"Uncletopia | Atlanta | 2 | All Maps","protocol":17,"map":"pl_enclosure_final","folder":"tf","game":"Team Fortress","app_id":440,"player_count":12,"max_players":24,"Bots":0,"server_type":"Dedicated","server_os":"Linux","password":true,"vac":true,"version":"7961495","steam_id":85568392924469983,"keywords":["nocrits","nodmgspread","payload","uncletopia"],"game_id":440,"stv_port":27026,"stv_name":"Uncletopia | Atlanta | 2 | All Maps | STV","players":[{"user_id":293,"name":"w1n7er_2171","steam_id":76561198404029964,"connected_time":57000000000,"state":"active","ping":165},{"user_id":294,"name":"grape","steam_id":76561198976352881,"connected_time":44000000000,"state":"active","ping":90},{"user_id":272,"name":"OWEENIE","steam_id":76561198083135927,"connected_time":1880000000000,"state":"active","ping":58},{"user_id":285,"name":"Alpha","steam_id":76561199482290132,"connected_time":1122000000000,"state":"active","ping":65},{"user_id":295,"name":"Freyja","steam_id":76561198207412177,"connected_time":0,"state":"spawning","ping":25},{"user_id":267,"name":"guitarfreak","steam_id":76561198139851357,"connected_time":2354000000000,"state":"active","ping":65},{"user_id":261,"name":"tunaa","steam_id":76561198362763159,"connected_time":2675000000000,"state":"active","ping":92},{"user_id":289,"name":"remina","steam_id":76561198046091954,"connected_time":755000000000,"state":"active","ping":75},{"user_id":290,"name":"R0B0T115","steam_id":76561198058907429,"connected_time":230000000000,"state":"active","ping":57},{"user_id":264,"name":"atigdng","steam_id":76561199342154280,"connected_time":2543000000000,"state":"active","ping":49},{"user_id":216,"name":"Bagel","steam_id":76561198167747447,"connected_time":6347000000000,"state":"active","ping":69},{"user_id":250,"name":"GoodleShoes/ttv","steam_id":76561198030993521,"connected_time":3338000000000,"state":"active","ping":80}]},{"server_id":400,"name":"Uncletopia | Atlanta | 3 | Stopwatch","name_short":"atl-3","host":"atl-1.us.uncletopia.com","port":27035,"enabled":true,"region":"us-east","cc":"us","latitude":33.753746,"longitude":-84.38633,"reserved":0,"last_update":"0001-01-01T00:00:00Z","name_a2s":"Uncletopia | Atlanta | 3 | Stopwatch","protocol":17,"map":"workshop/pl_badwater_pro_v12.ugc2142942074","folder":"tf","game":"Team Fortress","app_id":440,"player_count":0,"max_players":24,"Bots":0,"server_type":"Dedicated","server_os":"Linux","password":true,"vac":true,"version":"7961495","steam_id":85568392924515187,"keywords":["nocrits","nodmgspread","payload","uncletopia"],"game_id":440,"stv_port":27036,"stv_name":"Uncletopia | Atlanta | 3 | Stopwatch | STV","players":null},{"server_id":401,"name":"Uncletopia | Atlanta | 4 | Community","name_short":"atl-4","host":"atl-1.us.uncletopia.com","port":27045,"enabled":true,"region":"us-east","cc":"us","latitude":33.753746,"longitude":-84.38633,"reserved":0,"last_update":"0001-01-01T00:00:00Z","name_a2s":"Uncletopia | Atlanta | 4 | Community","protocol":17,"map":"workshop/pl_vigil_rc10.ugc1266210012","folder":"tf","game":"Team Fortress","app_id":440,"player_count":3,"max_players":24,"Bots":0,"server_type":"Dedicated","server_os":"Linux","password":true,"vac":true,"version":"7961495","steam_id":85568392924515188,"keywords":["nocrits","nodmgspread","payload","uncletopia"],"game_id":440,"stv_port":27046,"stv_name":"Uncletopia | Atlanta | 4 | Community | STV","players":[{"user_id":28,"name":"barbecuesteve","steam_id":76561198048819671,"connected_time":1612000000000,"state":"active","ping":34},{"user_id":29,"name":"mz.maggie4","steam_id":76561198866614956,"connected_time":1515000000000,"state":"spawning","ping":110},{"user_id":32,"name":"east","steam_id":76561198867427025,"connected_time":248000000000,"state":"spawning","ping":261}]},{"server_id":2,"name":"Uncletopia | Chicago | 1 | All Maps","name_short":"chi-1","host":"chi-1.us.uncletopia.com","port":27015,"enabled":true,"region":"us-central","cc":"us","latitude":41.881832,"longitude":-87.62318,"reserved":0,"last_update":"0001-01-01T00:00:00Z","name_a2s":"Uncletopia | Chicago | 1 | All Maps","protocol":17,"map":"pl_goldrush","folder":"tf","game":"Team Fortress","app_id":440,"player_count":24,"max_players":24,"Bots":0,"server_type":"Dedicated","server_os":"Linux","password":true,"vac":true,"version":"7961495","steam_id":85568392924469984,"keywords":["nocrits","nodmgspread","payload","uncletopia"],"game_id":440,"stv_port":27016,"stv_name":"Uncletopia | Chicago | 1 | All Maps | STV","players":[{"user_id":356,"name":"Yam Jazzy Jim","steam_id":76561198000788950,"connected_time":4644000000000,"state":"active","ping":69},{"user_id":397,"name":"when","steam_id":76561198443289583,"connected_time":1300000000000,"state":"active","ping":54},{"user_id":374,"name":"Kirby.exe","steam_id":76561198242714582,"connected_time":3576000000000,"state":"active","ping":61},{"user_id":390,"name":"psycho   joe","steam_id":76561198135656828,"connected_time":1482000000000,"state":"active","ping":52},{"user_id":410,"name":"Poop Deck Joe","steam_id":76561198271397568,"connected_time":878000000000,"state":"active","ping":89},{"user_id":412,"name":"THORNFIELDGAMER","steam_id":76561199087167473,"connected_time":637000000000,"state":"active","ping":75},{"user_id":400,"name":"HeavyThunder","steam_id":76561198123016538,"connected_time":1232000000000,"state":"active","ping":108},{"user_id":392,"name":"SoftAvocado","steam_id":76561198278375987,"connected_time":1455000000000,"state":"active","ping":70},{"user_id":393,"name":"the glunk","steam_id":76561199020292844,"connected_time":1445000000000,"state":"active","ping":68},{"user_id":372,"name":"Your Local Queer Librarian","steam_id":76561198013077080,"connected_time":3617000000000,"state":"active","ping":45},{"user_id":363,"name":"Jeff","steam_id":76561198050929005,"connected_time":4290000000000,"state":"active","ping":53},{"user_id":377,"name":"wroh2801","steam_id":76561199103292218,"connected_time":3439000000000,"state":"active","ping":51},{"user_id":330,"name":"gaming elliptical","steam_id":76561198013456569,"connected_time":7923000000000,"state":"active","ping":46},{"user_id":371,"name":"Nobody","steam_id":76561198286486517,"connected_time":3630000000000,"state":"active","ping":65},{"user_id":417,"name":"Nephs","steam_id":76561198136763403,"connected_time":78000000000,"state":"active","ping":74},{"user_id":413,"name":"LogicGate","steam_id":76561199189481990,"connected_time":459000000000,"state":"active","ping":74},{"user_id":414,"name":"Provocator","steam_id":76561197961830410,"connected_time":343000000000,"state":"active","ping":63},{"user_id":402,"name":"C++yberbug 2077","steam_id":76561199068102571,"connected_time":1217000000000,"state":"active","ping":158},{"user_id":379,"name":"sailor","steam_id":76561198091015050,"connected_time":3116000000000,"state":"active","ping":52},{"user_id":411,"name":"Mint Jelly","steam_id":76561197991286751,"connected_time":795000000000,"state":"active","ping":48},{"user_id":385,"name":"DinkleBerg","steam_id":76561198891626233,"connected_time":2019000000000,"state":"active","ping":69},{"user_id":403,"name":"Papillon","steam_id":76561198049725849,"connected_time":1213000000000,"state":"active","ping":75},{"user_id":407,"name":"Stoopnagle","steam_id":76561198011942560,"connected_time":972000000000,"state":"active","ping":95},{"user_id":416,"name":"xxxsinpadres","steam_id":76561198366873419,"connected_time":142000000000,"state":"active","ping":63}]},{"server_id":106,"name":"Uncletopia | Chicago | 2 | All Maps","name_short":"chi-2","host":"chi-1.us.uncletopia.com","port":27025,"enabled":true,"region":"us-central","cc":"us","latitude":41.881832,"longitude":-87.62318,"reserved":0,"last_update":"0001-01-01T00:00:00Z","name_a2s":"Uncletopia | Chicago | 2 | All Maps","protocol":17,"map":"plr_bananabay","folder":"tf","game":"Team Fortress","app_id":440,"player_count":23,"max_players":24,"Bots":0,"server_type":"Dedicated","server_os":"Linux","password":true,"vac":true,"version":"7961495","steam_id":85568392924469985,"keywords":["nocrits","nodmgspread","payload","uncletopia"],"game_id":440,"stv_port":27026,"stv_name":"Uncletopia | Chicago | 2 | All Maps | STV","players":[{"user_id":527,"name":"CookieDragon","steam_id":76561198143751336,"connected_time":6485000000000,"state":"active","ping":50},{"user_id":620,"name":"turnip","steam_id":76561197999375941,"connected_time":245000000000,"state":"active","ping":78},{"user_id":588,"name":"The Weatherman is fucking dying","steam_id":76561198000445420,"connected_time":1657000000000,"state":"active","ping":71},{"user_id":611,"name":"Soy King","steam_id":76561198263025614,"connected_time":858000000000,"state":"active","ping":90},{"user_id":538,"name":"inshallah","steam_id":76561198165212575,"connected_time":5744000000000,"state":"active","ping":74},{"user_id":616,"name":"mrappledumb","steam_id":76561199133590774,"connected_time":752000000000,"state":"active","ping":64},{"user_id":600,"name":"29palms","steam_id":76561198095104925,"connected_time":1364000000000,"state":"active","ping":120},{"user_id":586,"name":"The Fiend","steam_id":76561199229771413,"connected_time":1689000000000,"state":"active","ping":54},{"user_id":612,"name":"Wiggee","steam_id":76561197972792989,"connected_time":827000000000,"state":"active","ping":65},{"user_id":604,"name":"The Looker","steam_id":76561198272961376,"connected_time":1260000000000,"state":"active","ping":69},{"user_id":602,"name":"jimmyfnaf172198yay","steam_id":76561198311446636,"connected_time":1354000000000,"state":"active","ping":59},{"user_id":618,"name":"your moms car","steam_id":76561199389283507,"connected_time":714000000000,"state":"active","ping":62},{"user_id":454,"name":"creature","steam_id":76561198216695681,"connected_time":11243000000000,"state":"active","ping":49},{"user_id":621,"name":"Kellyn Nova \\\\SQC//","steam_id":76561198064588009,"connected_time":3000000000,"state":"spawning","ping":59},{"user_id":608,"name":"-_-","steam_id":76561198005773253,"connected_time":1071000000000,"state":"active","ping":56},{"user_id":598,"name":"Blaze","steam_id":76561198043797702,"connected_time":1552000000000,"state":"active","ping":52},{"user_id":613,"name":"ShortenedName","steam_id":76561198079337360,"connected_time":816000000000,"state":"active","ping":63},{"user_id":605,"name":"Emerald_Knight","steam_id":76561198067372868,"connected_time":1246000000000,"state":"active","ping":44},{"user_id":619,"name":"moon","steam_id":76561199187008629,"connected_time":404000000000,"state":"active","ping":66},{"user_id":464,"name":"OH BOY","steam_id":76561199052273428,"connected_time":10897000000000,"state":"active","ping":50},{"user_id":615,"name":"Vince Offer","steam_id":76561198991008825,"connected_time":769000000000,"state":"active","ping":74},{"user_id":513,"name":"Beebo, Son of Beebo","steam_id":76561198055948497,"connected_time":7281000000000,"state":"active","ping":54},{"user_id":617,"name":"Gnaash","steam_id":76561198940657194,"connected_time":743000000000,"state":"active","ping":89}]},{"server_id":402,"name":"Uncletopia | Chicago | 3 | All Maps","name_short":"chi-3","host":"chi-1.us.uncletopia.com","port":27035,"enabled":true,"region":"us-central","cc":"us","latitude":41.881832,"longitude":-87.62318,"reserved":0,"last_update":"0001-01-01T00:00:00Z","name_a2s":"Uncletopia | Chicago | 3 | All Maps","protocol":17,"map":"koth_lakeside_final","folder":"tf","game":"Team Fortress","app_id":440,"player_count":0,"max_players":24,"Bots":0,"server_type":"Dedicated","server_os":"Linux","password":true,"vac":true,"version":"7961495","steam_id":85568392924515191,"keywords":["cp","nocrits","nodmgspread","uncletopia"],"game_id":440,"stv_port":27036,"stv_name":"Uncletopia | Chicago | 3 | All Maps | STV","players":null},{"server_id":403,"name":"Uncletopia | Chicago | 4 | All Maps","name_short":"chi-4","host":"chi-1.us.uncletopia.com","port":27045,"enabled":true,"region":"us-central","cc":"us","latitude":41.881832,"longitude":-87.62318,"reserved":0,"last_update":"0001-01-01T00:00:00Z","name_a2s":"Uncletopia | Chicago | 4 | All Maps","protocol":17,"map":"cp_gorge","folder":"tf","game":"Team Fortress","app_id":440,"player_count":24,"max_players":24,"Bots":0,"server_type":"Dedicated","server_os":"Linux","password":true,"vac":true,"version":"7961495","steam_id":85568392924515193,"keywords":["cp","nocrits","nodmgspread","uncletopia"],"game_id":440,"stv_port":27046,"stv_name":"Uncletopia | Chicago | 4 | All Maps | STV","players":[{"user_id":410,"name":"Detective Dank™","steam_id":76561198195665690,"connected_time":2773000000000,"state":"active","ping":54},{"user_id":440,"name":"Capt.Swag","steam_id":76561198088340994,"connected_time":183000000000,"state":"active","ping":62},{"user_id":435,"name":"Gordon R. laz","steam_id":76561198133102865,"connected_time":638000000000,"state":"active","ping":67},{"user_id":409,"name":"Nepeta ™","steam_id":76561198964321336,"connected_time":2934000000000,"state":"active","ping":76},{"user_id":438,"name":"Louis Litt","steam_id":76561198170859755,"connected_time":270000000000,"state":"active","ping":69},{"user_id":426,"name":"Cooldog","steam_id":76561198080548713,"connected_time":1268000000000,"state":"active","ping":61},{"user_id":363,"name":"FutabaUchiha","steam_id":76561199436467630,"connected_time":6189000000000,"state":"active","ping":76},{"user_id":441,"name":"Sicko Mode (Chris Pratt Cover)","steam_id":76561198315786174,"connected_time":161000000000,"state":"active","ping":72},{"user_id":323,"name":"Goob Oy","steam_id":76561198889932456,"connected_time":8827000000000,"state":"active","ping":58},{"user_id":442,"name":"fudo myoo","steam_id":76561198456258164,"connected_time":136000000000,"state":"active","ping":76},{"user_id":422,"name":"Wierd Round","steam_id":76561197969205852,"connected_time":1315000000000,"state":"active","ping":71},{"user_id":436,"name":"thankfully","steam_id":76561198277979851,"connected_time":373000000000,"state":"active","ping":100},{"user_id":429,"name":"Mailer","steam_id":76561198062690074,"connected_time":1051000000000,"state":"active","ping":141},{"user_id":443,"name":"Engineer2650","steam_id":76561198121410799,"connected_time":133000000000,"state":"active","ping":69},{"user_id":434,"name":"TommySalami69","steam_id":76561198180275926,"connected_time":669000000000,"state":"active","ping":78},{"user_id":387,"name":"og biden pack cart","steam_id":76561198253731826,"connected_time":4111000000000,"state":"active","ping":63},{"user_id":413,"name":"Decapitation Station","steam_id":76561198201796098,"connected_time":2601000000000,"state":"active","ping":82},{"user_id":430,"name":"Nic0","steam_id":76561198305690218,"connected_time":966000000000,"state":"active","ping":70},{"user_id":447,"name":"Looge","steam_id":76561198155483586,"connected_time":91000000000,"state":"active","ping":60},{"user_id":444,"name":"JiggleCakes","steam_id":76561199005649151,"connected_time":124000000000,"state":"active","ping":91},{"user_id":423,"name":"Porvolt","steam_id":76561198101366567,"connected_time":1298000000000,"state":"active","ping":49},{"user_id":403,"name":"Harbor Seal","steam_id":76561198162631724,"connected_time":3344000000000,"state":"active","ping":68},{"user_id":437,"name":"exa*✩‧₊˚","steam_id":76561198044511912,"connected_time":326000000000,"state":"active","ping":99},{"user_id":446,"name":"jeff","steam_id":76561198059450566,"connected_time":112000000000,"state":"active","ping":65}]},{"server_id":36,"name":"Uncletopia | Chicago | 5 | All Maps","name_short":"chi-5","host":"chi-2.us.uncletopia.com","port":27015,"enabled":true,"region":"us-central","cc":"us","latitude":41.881832,"longitude":-87.62318,"reserved":0,"last_update":"0001-01-01T00:00:00Z","name_a2s":"Uncletopia | Chicago | 5 | All Maps","protocol":17,"map":"koth_highpass","folder":"tf","game":"Team Fortress","app_id":440,"player_count":0,"max_players":24,"Bots":0,"server_type":"Dedicated","server_os":"Linux","password":true,"vac":true,"version":"7961495","steam_id":85568392924866362,"keywords":["cp","nocrits","nodmgspread","uncletopia"],"game_id":440,"stv_port":27016,"stv_name":"Uncletopia | Chicago | 5 | All Maps | STV","players":null},{"server_id":37,"name":"Uncletopia | Chicago | 6 | All Maps","name_short":"chi-6","host":"chi-2.us.uncletopia.com","port":27025,"enabled":true,"region":"us-central","cc":"us","latitude":41.881832,"longitude":-87.62318,"reserved":0,"last_update":"0001-01-01T00:00:00Z","name_a2s":"Uncletopia | Chicago | 6 | All Maps","protocol":17,"map":"cp_snakewater_final1","folder":"tf","game":"Team Fortress","app_id":440,"player_count":24,"max_players":24,"Bots":0,"server_type":"Dedicated","server_os":"Linux","password":true,"vac":true,"version":"7961495","steam_id":85568392924866363,"keywords":["cp","nocrits","nodmgspread","uncletopia"],"game_id":440,"stv_port":27026,"stv_name":"Uncletopia | Chicago | 6 | All Maps | STV","players":[{"user_id":207,"name":"bnob?","steam_id":76561198965284387,"connected_time":1524000000000,"state":"active","ping":59},{"user_id":234,"name":"Storebrand Vegeta","steam_id":76561197999105221,"connected_time":246000000000,"state":"active","ping":76},{"user_id":217,"name":"Untermensch","steam_id":76561198149634242,"connected_time":1018000000000,"state":"active","ping":84},{"user_id":232,"name":"DaveAtDublin","steam_id":76561198162386715,"connected_time":553000000000,"state":"active","ping":59},{"user_id":219,"name":"FlameShake","steam_id":76561198084021005,"connected_time":935000000000,"state":"active","ping":61},{"user_id":209,"name":"PageBoiSkull","steam_id":76561198237353578,"connected_time":1477000000000,"state":"active","ping":98},{"user_id":222,"name":"MikeLovesRabbit","steam_id":76561197997742625,"connected_time":888000000000,"state":"active","ping":48},{"user_id":143,"name":"Waos","steam_id":76561198329179651,"connected_time":5244000000000,"state":"active","ping":108},{"user_id":236,"name":"Wulvaryne","steam_id":76561199501209338,"connected_time":68000000000,"state":"active","ping":71},{"user_id":109,"name":"Joey Lemons","steam_id":76561198068104187,"connected_time":7403000000000,"state":"active","ping":30},{"user_id":221,"name":"mkl","steam_id":76561197986401685,"connected_time":899000000000,"state":"active","ping":85},{"user_id":223,"name":"KritzKow","steam_id":76561198086164003,"connected_time":833000000000,"state":"active","ping":92},{"user_id":230,"name":"IlikeChowMien","steam_id":76561199466131782,"connected_time":640000000000,"state":"active","ping":73},{"user_id":167,"name":"Roomsky","steam_id":76561198012827494,"connected_time":3466000000000,"state":"active","ping":89},{"user_id":183,"name":"KYLE KYLESON","steam_id":76561198021920887,"connected_time":3051000000000,"state":"active","ping":44},{"user_id":199,"name":"Rock Kickass","steam_id":76561198450510841,"connected_time":2522000000000,"state":"active","ping":105},{"user_id":169,"name":"NASA PEEPO","steam_id":76561198024982267,"connected_time":3411000000000,"state":"active","ping":96},{"user_id":224,"name":"Sham Cow","steam_id":76561198064556977,"connected_time":828000000000,"state":"active","ping":90},{"user_id":211,"name":"dog eggs","steam_id":76561197960411847,"connected_time":1363000000000,"state":"active","ping":61},{"user_id":212,"name":"Lemon","steam_id":76561199001451079,"connected_time":1342000000000,"state":"active","ping":60},{"user_id":225,"name":"Spoon ½","steam_id":76561198032696548,"connected_time":827000000000,"state":"active","ping":162},{"user_id":184,"name":"something bagel for ur broke as","steam_id":76561198004882625,"connected_time":3050000000000,"state":"active","ping":105},{"user_id":235,"name":"Stop voting for PL","steam_id":76561198138420251,"connected_time":95000000000,"state":"active","ping":60},{"user_id":231,"name":"jerome seinfeld","steam_id":76561198034955422,"connected_time":633000000000,"state":"active","ping":139}]},{"server_id":38,"name":"Uncletopia | Chicago | 7 | Stopwatch","name_short":"chi-7","host":"chi-2.us.uncletopia.com","port":27035,"enabled":true,"region":"us-central","cc":"us","latitude":41.881832,"longitude":-87.62318,"reserved":0,"last_update":"0001-01-01T00:00:00Z","name_a2s":"Uncletopia | Chicago | 7 | Stopwatch","protocol":17,"map":"cp_metalworks","folder":"tf","game":"Team Fortress","app_id":440,"player_count":0,"max_players":24,"Bots":0,"server_type":"Dedicated","server_os":"Linux","password":true,"vac":true,"version":"7961495","steam_id":85568392924866364,"keywords":["cp","nocrits","nodmgspread","uncletopia"],"game_id":440,"stv_port":27036,"stv_name":"Uncletopia | Chicago | 7 | Stopwatch | STV","players":null},{"server_id":39,"name":"Uncletopia | Chicago | 8 | Community","name_short":"chi-8","host":"chi-2.us.uncletopia.com","port":27045,"enabled":true,"region":"us-central","cc":"us","latitude":41.881832,"longitude":-87.62318,"reserved":0,"last_update":"0001-01-01T00:00:00Z","name_a2s":"Uncletopia | Chicago | 8 | Community","protocol":17,"map":"workshop/koth_slaughter_rc1.ugc1712845210","folder":"tf","game":"Team Fortress","app_id":440,"player_count":0,"max_players":24,"Bots":0,"server_type":"Dedicated","server_os":"Linux","password":true,"vac":true,"version":"7961495","steam_id":85568392924866365,"keywords":["cp","nocrits","nodmgspread","uncletopia"],"game_id":440,"stv_port":27046,"stv_name":"Uncletopia | Chicago | 8 | Community | STV","players":null},{"server_id":8,"name":"Uncletopia | Dallas | 1 | All Maps","name_short":"dal-1","host":"dal-1.us.uncletopia.com","port":27015,"enabled":true,"region":"us-central","cc":"us","latitude":32.779167,"longitude":-96.80889,"reserved":0,"last_update":"0001-01-01T00:00:00Z","name_a2s":"Uncletopia | Dallas | 1 | All Maps","protocol":17,"map":"koth_cascade","folder":"tf","game":"Team Fortress","app_id":440,"player_count":0,"max_players":24,"Bots":0,"server_type":"Dedicated","server_os":"Linux","password":true,"vac":true,"version":"7961495","steam_id":85568392924469986,"keywords":["cp","nocrits","nodmgspread","uncletopia"],"game_id":440,"stv_port":27016,"stv_name":"Uncletopia | Dallas | 1 | All Maps | STV","players":null},{"server_id":108,"name":"Uncletopia | Dallas | 2 | All Maps","name_short":"dal-2","host":"dal-1.us.uncletopia.com","port":27025,"enabled":true,"region":"us-central","cc":"us","latitude":32.779167,"longitude":-96.80889,"reserved":0,"last_update":"0001-01-01T00:00:00Z","name_a2s":"Uncletopia | Dallas | 2 | All Maps","protocol":17,"map":"pl_snowycoast","folder":"tf","game":"Team Fortress","app_id":440,"player_count":24,"max_players":24,"Bots":0,"server_type":"Dedicated","server_os":"Linux","password":true,"vac":true,"version":"7961495","steam_id":85568392924469988,"keywords":["nocrits","nodmgspread","payload","uncletopia"],"game_id":440,"stv_port":27026,"stv_name":"Uncletopia | Dallas | 2 | All Maps | STV","players":[{"user_id":246,"name":"serf","steam_id":76561198010991875,"connected_time":1281000000000,"state":"active","ping":81},{"user_id":244,"name":"rf","steam_id":76561198195359229,"connected_time":1324000000000,"state":"active","ping":96},{"user_id":194,"name":"Skeleton Guts™","steam_id":76561198042212602,"connected_time":6141000000000,"state":"active","ping":53},{"user_id":230,"name":"Drakon","steam_id":76561198078210822,"connected_time":2883000000000,"state":"active","ping":76},{"user_id":218,"name":"corviraptor (certified failgirl","steam_id":76561198058284392,"connected_time":4159000000000,"state":"active","ping":51},{"user_id":236,"name":"Female Gamer","steam_id":76561199366482682,"connected_time":2140000000000,"state":"active","ping":98},{"user_id":235,"name":"what the fuck is an adverb","steam_id":76561199026721822,"connected_time":2338000000000,"state":"active","ping":85},{"user_id":227,"name":"Tmiracle","steam_id":76561198052375275,"connected_time":3239000000000,"state":"active","ping":78},{"user_id":249,"name":"frank","steam_id":76561198137777483,"connected_time":1036000000000,"state":"active","ping":88},{"user_id":228,"name":"Mellou","steam_id":76561198212048740,"connected_time":3041000000000,"state":"active","ping":41},{"user_id":149,"name":"Certified Hood Classic","steam_id":76561199086159354,"connected_time":8447000000000,"state":"active","ping":45},{"user_id":209,"name":"qawzse543","steam_id":76561198049425694,"connected_time":4859000000000,"state":"active","ping":119},{"user_id":252,"name":"Queuetimeevent","steam_id":76561198079438423,"connected_time":360000000000,"state":"active","ping":63},{"user_id":248,"name":"Hamuktakali","steam_id":76561198039625579,"connected_time":1058000000000,"state":"active","ping":61},{"user_id":250,"name":"Jovo","steam_id":76561197993265970,"connected_time":895000000000,"state":"active","ping":104},{"user_id":241,"name":"Kenku","steam_id":76561199086762926,"connected_time":1685000000000,"state":"active","ping":70},{"user_id":232,"name":"OwningTundra2","steam_id":76561198936893224,"connected_time":2633000000000,"state":"active","ping":47},{"user_id":215,"name":"Pupcubus","steam_id":76561198057986869,"connected_time":4424000000000,"state":"active","ping":72},{"user_id":231,"name":"ORIGIN","steam_id":76561199486746463,"connected_time":2878000000000,"state":"active","ping":50},{"user_id":238,"name":"bottom pride burger","steam_id":76561198322247602,"connected_time":1978000000000,"state":"active","ping":97},{"user_id":243,"name":"femboy =＾● ⋏ ●＾=","steam_id":76561199052450127,"connected_time":1414000000000,"state":"active","ping":67},{"user_id":207,"name":"Average GHOST (Vocaloid) Listen","steam_id":76561199471951160,"connected_time":4976000000000,"state":"active","ping":53},{"user_id":214,"name":"QuartzGeek","steam_id":76561199011674698,"connected_time":4437000000000,"state":"active","ping":60},{"user_id":251,"name":"brains","steam_id":76561198197388678,"connected_time":633000000000,"state":"active","ping":56}]},{"server_id":404,"name":"Uncletopia | Dallas | 3 | All Maps","name_short":"dal-3","host":"dal-1.us.uncletopia.com","port":27035,"enabled":true,"region":"us-central","cc":"us","latitude":32.779167,"longitude":-96.80889,"reserved":0,"last_update":"0001-01-01T00:00:00Z","name_a2s":"Uncletopia | Dallas | 3 | All Maps","protocol":17,"map":"cp_snakewater_final1","folder":"tf","game":"Team Fortress","app_id":440,"player_count":24,"max_players":24,"Bots":0,"server_type":"Dedicated","server_os":"Linux","password":true,"vac":true,"version":"7961495","steam_id":85568392924515219,"keywords":["cp","nocrits","nodmgspread","uncletopia"],"game_id":440,"stv_port":27036,"stv_name":"Uncletopia | Dallas | 3 | All Maps | STV","players":[{"user_id":354,"name":"green bean","steam_id":76561198113099204,"connected_time":4561000000000,"state":"active","ping":75},{"user_id":390,"name":"Smug","steam_id":76561198448205229,"connected_time":1633000000000,"state":"active","ping":60},{"user_id":324,"name":"Rappy \u003c3","steam_id":76561198105613110,"connected_time":6163000000000,"state":"active","ping":75},{"user_id":391,"name":"Raz","steam_id":76561198002426150,"connected_time":1611000000000,"state":"active","ping":55},{"user_id":387,"name":"The Abominable Frenchman","steam_id":76561198023811302,"connected_time":1645000000000,"state":"active","ping":58},{"user_id":348,"name":"Lezabel","steam_id":76561198970753261,"connected_time":4794000000000,"state":"active","ping":75},{"user_id":403,"name":"Cactus™ ♥","steam_id":76561198036441270,"connected_time":418000000000,"state":"active","ping":103},{"user_id":327,"name":"rapscallion","steam_id":76561198188722751,"connected_time":6141000000000,"state":"active","ping":90},{"user_id":386,"name":"Λlxium","steam_id":76561198131272900,"connected_time":1647000000000,"state":"active","ping":78},{"user_id":404,"name":"adam0o0","steam_id":76561198052250279,"connected_time":350000000000,"state":"active","ping":63},{"user_id":400,"name":"DMM","steam_id":76561198065426171,"connected_time":833000000000,"state":"active","ping":60},{"user_id":344,"name":"Your Loyal Familiar","steam_id":76561198106476075,"connected_time":5017000000000,"state":"active","ping":75},{"user_id":406,"name":"Van Tastic","steam_id":76561198063855523,"connected_time":178000000000,"state":"active","ping":44},{"user_id":407,"name":"sanxi's cave","steam_id":76561199034371191,"connected_time":124000000000,"state":"active","ping":179},{"user_id":402,"name":"Blimps Inc. ©","steam_id":76561198058462765,"connected_time":545000000000,"state":"active","ping":50},{"user_id":384,"name":"ATLS1 | Strange Festive","steam_id":76561198050385093,"connected_time":2346000000000,"state":"active","ping":88},{"user_id":372,"name":"faze waadden","steam_id":76561198325569425,"connected_time":3022000000000,"state":"active","ping":89},{"user_id":388,"name":"BREAD MANN","steam_id":76561198949379945,"connected_time":1645000000000,"state":"active","ping":94},{"user_id":373,"name":"faze pantalla","steam_id":76561198250215734,"connected_time":3020000000000,"state":"active","ping":90},{"user_id":377,"name":"Nibelsnarf (She/They)","steam_id":76561198137642054,"connected_time":2815000000000,"state":"active","ping":60},{"user_id":405,"name":"Aof","steam_id":76561198090646309,"connected_time":263000000000,"state":"active","ping":77},{"user_id":401,"name":"LudicrousRed","steam_id":76561199047437703,"connected_time":714000000000,"state":"active","ping":47},{"user_id":382,"name":"Nyriss","steam_id":76561198098631397,"connected_time":2376000000000,"state":"active","ping":75},{"user_id":397,"name":"nelly modelo","steam_id":76561198044875206,"connected_time":1383000000000,"state":"active","ping":95}]},{"server_id":405,"name":"Uncletopia | Dallas | 4 | Community","name_short":"dal-4","host":"dal-1.us.uncletopia.com","port":27045,"enabled":true,"region":"us-central","cc":"us","latitude":32.779167,"longitude":-96.80889,"reserved":0,"last_update":"0001-01-01T00:00:00Z","name_a2s":"Uncletopia | Dallas | 4 | Community","protocol":17,"map":"workshop/koth_synthetic_rc6a.ugc1549817316","folder":"tf","game":"Team Fortress","app_id":440,"player_count":0,"max_players":24,"Bots":0,"server_type":"Dedicated","server_os":"Linux","password":true,"vac":true,"version":"7961495","steam_id":85568392924515220,"keywords":["cp","nocrits","nodmgspread","uncletopia"],"game_id":440,"stv_port":27046,"stv_name":"Uncletopia | Dallas | 4 | Community | STV","players":null},{"server_id":5,"name":"Uncletopia | Frankfurt | 1 | All Maps","name_short":"frk-1","host":"frk-1.de.uncletopia.com","port":27015,"enabled":true,"region":"eu","cc":"de","latitude":50.110924,"longitude":8.682127,"reserved":0,"last_update":"0001-01-01T00:00:00Z","name_a2s":"Uncletopia | Frankfurt | 1 | All Maps","protocol":17,"map":"koth_highpass","folder":"tf","game":"Team Fortress","app_id":440,"player_count":0,"max_players":24,"Bots":0,"server_type":"Dedicated","server_os":"Linux","password":true,"vac":true,"version":"7961495","steam_id":85568392924469989,"keywords":["cp","nocrits","nodmgspread","uncletopia"],"game_id":440,"stv_port":27016,"stv_name":"Uncletopia | Frankfurt | 1 | All Maps | STV","players":null},{"server_id":110,"name":"Uncletopia | Frankfurt | 2 | All Maps","name_short":"frk-2","host":"frk-1.de.uncletopia.com","port":27025,"enabled":true,"region":"eu","cc":"de","latitude":50.110924,"longitude":8.682127,"reserved":0,"last_update":"0001-01-01T00:00:00Z","name_a2s":"Uncletopia | Frankfurt | 2 | All Maps","protocol":17,"map":"pl_badwater","folder":"tf","game":"Team Fortress","app_id":440,"player_count":24,"max_players":24,"Bots":0,"server_type":"Dedicated","server_os":"Linux","password":true,"vac":true,"version":"7961495","steam_id":85568392924469990,"keywords":["nocrits","nodmgspread","payload","uncletopia"],"game_id":440,"stv_port":27026,"stv_name":"Uncletopia | Frankfurt | 2 | All Maps | STV","players":[{"user_id":677,"name":"Clos :3","steam_id":76561198141926855,"connected_time":2375000000000,"state":"active","ping":98},{"user_id":663,"name":"Tumulus","steam_id":76561199164225741,"connected_time":3151000000000,"state":"active","ping":73},{"user_id":682,"name":"Springfield Crack","steam_id":76561198044818161,"connected_time":1883000000000,"state":"active","ping":92},{"user_id":659,"name":"H-say","steam_id":76561198177400362,"connected_time":3630000000000,"state":"active","ping":71},{"user_id":691,"name":"Swayer","steam_id":76561198056192460,"connected_time":1566000000000,"state":"active","ping":66},{"user_id":664,"name":"random critz wizard","steam_id":76561198019416262,"connected_time":3148000000000,"state":"active","ping":75},{"user_id":695,"name":"sunshine and rainbows!","steam_id":76561199313282353,"connected_time":545000000000,"state":"active","ping":73},{"user_id":651,"name":"kavun","steam_id":76561198023461869,"connected_time":3952000000000,"state":"active","ping":77},{"user_id":650,"name":"Bill_nye_epic","steam_id":76561199216249214,"connected_time":4098000000000,"state":"active","ping":129},{"user_id":674,"name":"Scout","steam_id":76561198992898803,"connected_time":2758000000000,"state":"active","ping":61},{"user_id":689,"name":"generic alias","steam_id":76561198271607226,"connected_time":1670000000000,"state":"active","ping":86},{"user_id":665,"name":"Clydios","steam_id":76561198332311225,"connected_time":3138000000000,"state":"active","ping":89},{"user_id":624,"name":"tr1ckster133","steam_id":76561198055421844,"connected_time":5859000000000,"state":"active","ping":46},{"user_id":657,"name":"syms","steam_id":76561198066679812,"connected_time":3723000000000,"state":"active","ping":64},{"user_id":699,"name":"dEzZe ツ","steam_id":76561197960291106,"connected_time":388000000000,"state":"active","ping":53},{"user_id":694,"name":"Cloudberry","steam_id":76561198035612538,"connected_time":1346000000000,"state":"active","ping":58},{"user_id":638,"name":"Lemon","steam_id":76561198188535947,"connected_time":4649000000000,"state":"active","ping":69},{"user_id":656,"name":"Dei Genetrix","steam_id":76561198305678122,"connected_time":3733000000000,"state":"active","ping":65},{"user_id":671,"name":"Super medyk","steam_id":76561198170125887,"connected_time":2967000000000,"state":"active","ping":60},{"user_id":692,"name":"Dr.Disrespect","steam_id":76561198043820228,"connected_time":1495000000000,"state":"active","ping":45},{"user_id":658,"name":"kurd","steam_id":76561198116530769,"connected_time":3712000000000,"state":"active","ping":87},{"user_id":698,"name":"dexter","steam_id":76561198937297906,"connected_time":437000000000,"state":"active","ping":80},{"user_id":686,"name":"Drillboy Jenkins","steam_id":76561198160497421,"connected_time":1799000000000,"state":"active","ping":78},{"user_id":687,"name":"Ch4bby","steam_id":76561198058792875,"connected_time":1798000000000,"state":"active","ping":61}]},{"server_id":308,"name":"Uncletopia | Frankfurt | 3 | All Maps","name_short":"frk-3","host":"frk-1.de.uncletopia.com","port":27035,"enabled":true,"region":"eu","cc":"de","latitude":50.110924,"longitude":8.682127,"reserved":0,"last_update":"0001-01-01T00:00:00Z","name_a2s":"Uncletopia | Frankfurt | 3 | All Maps","protocol":17,"map":"koth_viaduct","folder":"tf","game":"Team Fortress","app_id":440,"player_count":8,"max_players":24,"Bots":0,"server_type":"Dedicated","server_os":"Linux","password":true,"vac":true,"version":"7961495","steam_id":85568392924504274,"keywords":["cp","nocrits","nodmgspread","uncletopia"],"game_id":440,"stv_port":27036,"stv_name":"Uncletopia | Frankfurt | 3 | All Maps | STV","players":[{"user_id":251,"name":"B∞p | ❤Fasto❤","steam_id":76561198118298527,"connected_time":3236000000000,"state":"active","ping":62},{"user_id":252,"name":"B∞p | ❤Hina❤","steam_id":76561198058465921,"connected_time":3212000000000,"state":"active","ping":47},{"user_id":253,"name":"Void Gear ™","steam_id":76561198067697930,"connected_time":3179000000000,"state":"active","ping":51},{"user_id":254,"name":"Goro Majima","steam_id":76561198003040222,"connected_time":2988000000000,"state":"active","ping":55},{"user_id":239,"name":"spy","steam_id":76561199402711007,"connected_time":4173000000000,"state":"active","ping":113},{"user_id":268,"name":"el payaso","steam_id":76561199380864529,"connected_time":225000000000,"state":"active","ping":144},{"user_id":258,"name":"tr4ce","steam_id":76561198085296732,"connected_time":2348000000000,"state":"active","ping":46},{"user_id":269,"name":"woople","steam_id":76561198076625889,"connected_time":65000000000,"state":"active","ping":89}]},{"server_id":309,"name":"Uncletopia | Frankfurt | 4 | All Maps","name_short":"frk-4","host":"frk-1.de.uncletopia.com","port":27045,"enabled":true,"region":"eu","cc":"de","latitude":50.110924,"longitude":8.682127,"reserved":0,"last_update":"0001-01-01T00:00:00Z","name_a2s":"Uncletopia | Frankfurt | 4 | All Maps","protocol":17,"map":"koth_king","folder":"tf","game":"Team Fortress","app_id":440,"player_count":24,"max_players":24,"Bots":0,"server_type":"Dedicated","server_os":"Linux","password":true,"vac":true,"version":"7961495","steam_id":85568392924504275,"keywords":["cp","nocrits","nodmgspread","uncletopia"],"game_id":440,"stv_port":27046,"stv_name":"Uncletopia | Frankfurt | 4 | All Maps | STV","players":[{"user_id":647,"name":"HOI","steam_id":76561198061182117,"connected_time":3414000000000,"state":"active","ping":60},{"user_id":695,"name":"Snokie Boi","steam_id":76561198081126247,"connected_time":585000000000,"state":"active","ping":58},{"user_id":675,"name":"decriminalise goblins","steam_id":76561198048257605,"connected_time":1068000000000,"state":"active","ping":70},{"user_id":617,"name":"Larry Penus","steam_id":76561198207546233,"connected_time":5809000000000,"state":"active","ping":57},{"user_id":634,"name":"agent youppii","steam_id":76561198055264447,"connected_time":4659000000000,"state":"active","ping":67},{"user_id":673,"name":"rmz.ssj","steam_id":76561198329613930,"connected_time":1245000000000,"state":"active","ping":60},{"user_id":676,"name":"w","steam_id":76561198037136870,"connected_time":1059000000000,"state":"active","ping":70},{"user_id":664,"name":"Cabbch","steam_id":76561198045955679,"connected_time":2479000000000,"state":"active","ping":53},{"user_id":678,"name":"orange :DDDDD","steam_id":76561198963378933,"connected_time":960000000000,"state":"active","ping":58},{"user_id":679,"name":"A FRANCEPERSON","steam_id":76561198798803845,"connected_time":954000000000,"state":"active","ping":49},{"user_id":699,"name":"Salt_Shaker309","steam_id":76561198086931010,"connected_time":199000000000,"state":"active","ping":52},{"user_id":681,"name":"nebuden","steam_id":76561198307037169,"connected_time":940000000000,"state":"active","ping":65},{"user_id":700,"name":"Wattseyy","steam_id":76561198248567360,"connected_time":39000000000,"state":"active","ping":46},{"user_id":696,"name":"lexapro dellirium","steam_id":76561199221733094,"connected_time":483000000000,"state":"active","ping":75},{"user_id":684,"name":"stun","steam_id":76561198276681691,"connected_time":906000000000,"state":"active","ping":60},{"user_id":685,"name":"akciq ⁧⁧respect","steam_id":76561198390963456,"connected_time":876000000000,"state":"active","ping":80},{"user_id":687,"name":"scharque","steam_id":76561198071227039,"connected_time":821000000000,"state":"active","ping":64},{"user_id":688,"name":"Доныч Дон","steam_id":76561198168270604,"connected_time":804000000000,"state":"active","ping":78},{"user_id":689,"name":"Михайло Соколино","steam_id":76561197995814132,"connected_time":769000000000,"state":"active","ping":78},{"user_id":605,"name":"Vershal Smershal","steam_id":76561198116223995,"connected_time":6901000000000,"state":"active","ping":60},{"user_id":690,"name":"fuo","steam_id":76561197995536944,"connected_time":763000000000,"state":"active","ping":47},{"user_id":692,"name":"UZBEKISTANIUM PEDISOW","steam_id":76561198162558110,"connected_time":737000000000,"state":"active","ping":85},{"user_id":660,"name":"green spy","steam_id":76561198080064268,"connected_time":2808000000000,"state":"active","ping":61},{"user_id":701,"name":"sokige","steam_id":76561198167112371,"connected_time":23000000000,"state":"spawning","ping":91}]},{"server_id":310,"name":"Uncletopia | Frankfurt | 5 | All Maps","name_short":"frk-5","host":"frk-1.de.uncletopia.com","port":27055,"enabled":true,"region":"eu","cc":"de","latitude":50.110924,"longitude":8.682127,"reserved":0,"last_update":"0001-01-01T00:00:00Z","name_a2s":"Uncletopia | Frankfurt | 5 | All Maps","protocol":17,"map":"pl_borneo","folder":"tf","game":"Team Fortress","app_id":440,"player_count":0,"max_players":24,"Bots":0,"server_type":"Dedicated","server_os":"Linux","password":true,"vac":true,"version":"7961495","steam_id":85568392924504277,"keywords":["nocrits","nodmgspread","payload","uncletopia"],"game_id":440,"stv_port":27056,"stv_name":"Uncletopia | Frankfurt | 5 | All Maps | STV","players":null},{"server_id":311,"name":"Uncletopia | Frankfurt | 6 | All Maps","name_short":"frk-6","host":"frk-1.de.uncletopia.com","port":27065,"enabled":true,"region":"eu","cc":"de","latitude":50.110924,"longitude":8.682127,"reserved":0,"last_update":"0001-01-01T00:00:00Z","name_a2s":"Uncletopia | Frankfurt | 6 | All Maps","protocol":17,"map":"pl_badwater","folder":"tf","game":"Team Fortress","app_id":440,"player_count":24,"max_players":24,"Bots":0,"server_type":"Dedicated","server_os":"Linux","password":true,"vac":true,"version":"7961495","steam_id":85568392924504278,"keywords":["nocrits","nodmgspread","payload","uncletopia"],"game_id":440,"stv_port":27066,"stv_name":"Uncletopia | Frankfurt | 6 | All Maps | STV","players":[{"user_id":549,"name":"Lucky Number 13","steam_id":76561198043951279,"connected_time":3884000000000,"state":"active","ping":86},{"user_id":573,"name":"Onions","steam_id":76561198150195195,"connected_time":1580000000000,"state":"active","ping":62},{"user_id":517,"name":"TzKAT","steam_id":76561198977290008,"connected_time":5737000000000,"state":"active","ping":49},{"user_id":593,"name":"FiuffyDaisy!","steam_id":76561198241732704,"connected_time":130000000000,"state":"active","ping":54},{"user_id":579,"name":"\u003e\u003c\u003e","steam_id":76561198152392309,"connected_time":1209000000000,"state":"active","ping":45},{"user_id":580,"name":"blurry","steam_id":76561198884908952,"connected_time":1191000000000,"state":"active","ping":64},{"user_id":565,"name":"Pong Lenis","steam_id":76561198039251333,"connected_time":2030000000000,"state":"active","ping":95},{"user_id":587,"name":"☦ ЗВЕР ☦","steam_id":76561198001174470,"connected_time":266000000000,"state":"active","ping":63},{"user_id":592,"name":"Lyncurion","steam_id":76561199260022725,"connected_time":149000000000,"state":"active","ping":67},{"user_id":518,"name":"RatWithHat","steam_id":76561198292377805,"connected_time":5734000000000,"state":"active","ping":73},{"user_id":586,"name":"Hat Lover","steam_id":76561198312283433,"connected_time":434000000000,"state":"active","ping":75},{"user_id":600,"name":"tone' (real)","steam_id":76561198055552635,"connected_time":29000000000,"state":"active","ping":45},{"user_id":541,"name":"Waffel","steam_id":76561198113552009,"connected_time":4548000000000,"state":"active","ping":105},{"user_id":548,"name":"Efeca","steam_id":76561198018923829,"connected_time":3893000000000,"state":"active","ping":64},{"user_id":544,"name":"Lance Corporal Boiled Egg","steam_id":76561197989717358,"connected_time":4250000000000,"state":"active","ping":65},{"user_id":591,"name":"tapeworms!","steam_id":76561198069649097,"connected_time":164000000000,"state":"active","ping":63},{"user_id":594,"name":"Seigneur Des Cendres","steam_id":76561199249206889,"connected_time":106000000000,"state":"active","ping":90},{"user_id":596,"name":"Dimi","steam_id":76561198070894569,"connected_time":98000000000,"state":"active","ping":92},{"user_id":589,"name":"REN","steam_id":76561198000596385,"connected_time":183000000000,"state":"active","ping":57},{"user_id":582,"name":"this shit laced im tweakin","steam_id":76561198080524596,"connected_time":1156000000000,"state":"active","ping":58},{"user_id":584,"name":"hananamanna","steam_id":76561198006570285,"connected_time":516000000000,"state":"active","ping":103},{"user_id":590,"name":"General Petrov","steam_id":76561198027204104,"connected_time":167000000000,"state":"active","ping":65},{"user_id":571,"name":"_420_StopItDudeCmon","steam_id":76561197997146481,"connected_time":1716000000000,"state":"active","ping":52},{"user_id":585,"name":"Stealth Pilot","steam_id":76561198972606557,"connected_time":492000000000,"state":"active","ping":156}]},{"server_id":23,"name":"Uncletopia | Frankfurt | 7 | Stopwatch","name_short":"frk-7","host":"frk-1.de.uncletopia.com","port":27075,"enabled":true,"region":"eu","cc":"de","latitude":50.110924,"longitude":8.682127,"reserved":0,"last_update":"0001-01-01T00:00:00Z","name_a2s":"Uncletopia | Frankfurt | 7 | Stopwatch","protocol":17,"map":"koth_highpass","folder":"tf","game":"Team Fortress","app_id":440,"player_count":0,"max_players":24,"Bots":0,"server_type":"Dedicated","server_os":"Linux","password":true,"vac":true,"version":"7961495","steam_id":85568392924742827,"keywords":["cp","nocrits","nodmgspread","uncletopia"],"game_id":440,"stv_port":27076,"stv_name":"Uncletopia | Frankfurt | 7 | Stopwatch | STV","players":null},{"server_id":24,"name":"Uncletopia | Frankfurt | 8 | Community","name_short":"frk-8","host":"frk-1.de.uncletopia.com","port":27085,"enabled":true,"region":"eu","cc":"de","latitude":50.110924,"longitude":8.682127,"reserved":0,"last_update":"0001-01-01T00:00:00Z","name_a2s":"Uncletopia | Frankfurt | 8 | Community","protocol":17,"map":"workshop/koth_ashville_final.ugc2130459942","folder":"tf","game":"Team Fortress","app_id":440,"player_count":0,"max_players":24,"Bots":0,"server_type":"Dedicated","server_os":"Linux","password":true,"vac":true,"version":"7961495","steam_id":85568392924742828,"keywords":["cp","nocrits","nodmgspread","uncletopia"],"game_id":440,"stv_port":27086,"stv_name":"Uncletopia | Frankfurt | 8 | Community | STV","players":null},{"server_id":202,"name":"Uncletopia | Hong Kong | 1 | All Maps","name_short":"hgk-1","host":"hgk-1.hk.uncletopia.com","port":27015,"enabled":true,"region":"asia","cc":"hk","latitude":22.302711,"longitude":114.177216,"reserved":0,"last_update":"0001-01-01T00:00:00Z","name_a2s":"Uncletopia | Hong Kong | 1 | All Maps","protocol":17,"map":"cp_gravelpit","folder":"tf","game":"Team Fortress","app_id":440,"player_count":0,"max_players":24,"Bots":0,"server_type":"Dedicated","server_os":"Linux","password":true,"vac":true,"version":"7961495","steam_id":85568392924494504,"keywords":["cp","nocrits","nodmgspread","uncletopia"],"game_id":440,"stv_port":27016,"stv_name":"Uncletopia | Hong Kong | 1 | All Maps | STV","players":null},{"server_id":1,"name":"Uncletopia | Los Angeles | 1 | All Maps","name_short":"lax-1","host":"lax-1.us.uncletopia.com","port":27015,"enabled":true,"region":"us-west","cc":"us","latitude":33.94279,"longitude":-118.41004,"reserved":0,"last_update":"0001-01-01T00:00:00Z","name_a2s":"Uncletopia | Los Angeles | 1 | All Maps","protocol":17,"map":"cp_snakewater_final1","folder":"tf","game":"Team Fortress","app_id":440,"player_count":0,"max_players":24,"Bots":0,"server_type":"Dedicated","server_os":"Linux","password":true,"vac":true,"version":"7961495","steam_id":85568392924469991,"keywords":["cp","nocrits","nodmgspread","uncletopia"],"game_id":440,"stv_port":27016,"stv_name":"Uncletopia | Los Angeles | 1 | All Maps | STV","players":null},{"server_id":112,"name":"Uncletopia | Los Angeles | 2 | All Maps","name_short":"lax-2","host":"lax-1.us.uncletopia.com","port":27025,"enabled":true,"region":"us-west","cc":"us","latitude":33.94279,"longitude":-118.41004,"reserved":0,"last_update":"0001-01-01T00:00:00Z","name_a2s":"Uncletopia | Los Angeles | 2 | All Maps","protocol":17,"map":"koth_cascade","folder":"tf","game":"Team Fortress","app_id":440,"player_count":0,"max_players":24,"Bots":0,"server_type":"Dedicated","server_os":"Linux","password":true,"vac":true,"version":"7961495","steam_id":85568392924469992,"keywords":["cp","nocrits","nodmgspread","uncletopia"],"game_id":440,"stv_port":27026,"stv_name":"Uncletopia | Los Angeles | 2 | All Maps | STV","players":null},{"server_id":324,"name":"Uncletopia | Los Angeles | 3 | All Maps","name_short":"lax-3","host":"lax-1.us.uncletopia.com","port":27035,"enabled":true,"region":"us-west","cc":"us","latitude":33.94279,"longitude":-118.41004,"reserved":0,"last_update":"0001-01-01T00:00:00Z","name_a2s":"Uncletopia | Los Angeles | 3 | All Maps","protocol":17,"map":"pl_barnblitz","folder":"tf","game":"Team Fortress","app_id":440,"player_count":24,"max_players":24,"Bots":0,"server_type":"Dedicated","server_os":"Linux","password":true,"vac":true,"version":"7961495","steam_id":85568392924510198,"keywords":["nocrits","nodmgspread","payload","uncletopia"],"game_id":440,"stv_port":27036,"stv_name":"Uncletopia | Los Angeles | 3 | All Maps | STV","players":[{"user_id":268,"name":"Zykron","steam_id":76561199056400800,"connected_time":3376000000000,"state":"active","ping":50},{"user_id":297,"name":"deity main","steam_id":76561199251639888,"connected_time":1362000000000,"state":"active","ping":115},{"user_id":320,"name":"Alice in Rubberland","steam_id":76561198087328346,"connected_time":121000000000,"state":"active","ping":100},{"user_id":267,"name":"Riltreks","steam_id":76561198800482183,"connected_time":3398000000000,"state":"active","ping":83},{"user_id":308,"name":"Mikke","steam_id":76561198170234003,"connected_time":615000000000,"state":"active","ping":58},{"user_id":310,"name":"crumbles","steam_id":76561198168707036,"connected_time":446000000000,"state":"active","ping":63},{"user_id":208,"name":"Drake from State Farm","steam_id":76561199069029812,"connected_time":8476000000000,"state":"active","ping":68},{"user_id":303,"name":"Seshreb","steam_id":76561198846614634,"connected_time":1191000000000,"state":"active","ping":81},{"user_id":304,"name":"Antonpirulero10","steam_id":76561198253036781,"connected_time":1174000000000,"state":"active","ping":71},{"user_id":315,"name":"JadeJellinair","steam_id":76561198968382119,"connected_time":306000000000,"state":"active","ping":103},{"user_id":265,"name":"Grim","steam_id":76561198016978310,"connected_time":3533000000000,"state":"active","ping":56},{"user_id":313,"name":"chesterwnimitz","steam_id":76561198062664377,"connected_time":412000000000,"state":"active","ping":77},{"user_id":299,"name":"_Ati","steam_id":76561198339777801,"connected_time":1323000000000,"state":"active","ping":60},{"user_id":305,"name":"kenny101theboi","steam_id":76561199479373336,"connected_time":1160000000000,"state":"active","ping":45},{"user_id":311,"name":"mublerking","steam_id":76561198069465213,"connected_time":436000000000,"state":"active","ping":118},{"user_id":312,"name":"Varia Maius","steam_id":76561198249997376,"connected_time":430000000000,"state":"active","ping":106},{"user_id":229,"name":"cielael","steam_id":76561198043971956,"connected_time":6964000000000,"state":"active","ping":45},{"user_id":314,"name":"WillieMakit","steam_id":76561197985391684,"connected_time":359000000000,"state":"active","ping":53},{"user_id":318,"name":"Odd Life","steam_id":76561198244979998,"connected_time":156000000000,"state":"active","ping":55},{"user_id":295,"name":"oobner","steam_id":76561198864545608,"connected_time":1695000000000,"state":"active","ping":60},{"user_id":300,"name":"callie","steam_id":76561198131833567,"connected_time":1266000000000,"state":"active","ping":59},{"user_id":307,"name":"plutonium isotope","steam_id":76561198319442494,"connected_time":961000000000,"state":"active","ping":56},{"user_id":294,"name":"AckWhack","steam_id":76561199060503258,"connected_time":1957000000000,"state":"active","ping":51},{"user_id":319,"name":"SLiPpeRyJoe.nosound","steam_id":76561197977206359,"connected_time":155000000000,"state":"active","ping":99}]},{"server_id":25,"name":"Uncletopia | Los Angeles | 4 | Stopwatch","name_short":"lax-4","host":"lax-1.us.uncletopia.com","port":27045,"enabled":true,"region":"us-west","cc":"us","latitude":33.94279,"longitude":-118.41004,"reserved":0,"last_update":"0001-01-01T00:00:00Z","name_a2s":"Uncletopia | Los Angeles | 4 | Stopwatch","protocol":17,"map":"pl_swiftwater_final1","folder":"tf","game":"Team Fortress","app_id":440,"player_count":0,"max_players":24,"Bots":0,"server_type":"Dedicated","server_os":"Linux","password":true,"vac":true,"version":"7961495","steam_id":85568392924510199,"keywords":["nocrits","nodmgspread","payload","uncletopia"],"game_id":440,"stv_port":27046,"stv_name":"Uncletopia | Los Angeles | 4 | Stopwatch | STV","players":null},{"server_id":11,"name":"Uncletopia | London | 1 | All Maps","name_short":"lon-1","host":"lon-1.uk.uncletopia.com","port":27015,"enabled":true,"region":"eu","cc":"gb","latitude":51.509865,"longitude":-0.118092,"reserved":0,"last_update":"0001-01-01T00:00:00Z","name_a2s":"Uncletopia | London | 1 | All Maps","protocol":17,"map":"pl_borneo","folder":"tf","game":"Team Fortress","app_id":440,"player_count":24,"max_players":24,"Bots":0,"server_type":"Dedicated","server_os":"Linux","password":true,"vac":true,"version":"7961495","steam_id":85568392924367362,"keywords":["nocrits","nodmgspread","payload","uncletopia"],"game_id":440,"stv_port":27016,"stv_name":"Uncletopia | London | 1 | All Maps | STV","players":[{"user_id":870,"name":"sushii","steam_id":76561198297987372,"connected_time":7676000000000,"state":"active","ping":53},{"user_id":849,"name":"Minimi","steam_id":76561198873850443,"connected_time":10412000000000,"state":"active","ping":44},{"user_id":873,"name":"ber","steam_id":76561197993892057,"connected_time":7259000000000,"state":"active","ping":91},{"user_id":904,"name":"ashley","steam_id":76561198448551449,"connected_time":3984000000000,"state":"active","ping":28},{"user_id":866,"name":"whimsy. (live)","steam_id":76561198878171763,"connected_time":8264000000000,"state":"active","ping":47},{"user_id":915,"name":"Juan.Gonzalez.2005","steam_id":76561198805184411,"connected_time":3357000000000,"state":"active","ping":64},{"user_id":933,"name":"mr consistent","steam_id":76561198051400878,"connected_time":654000000000,"state":"active","ping":54},{"user_id":892,"name":"AFerociousTeddyBearSlayer","steam_id":76561198247447256,"connected_time":5580000000000,"state":"active","ping":49},{"user_id":927,"name":"Aaron","steam_id":76561197990046953,"connected_time":1901000000000,"state":"active","ping":49},{"user_id":903,"name":"Meannaise","steam_id":76561198353496134,"connected_time":4267000000000,"state":"active","ping":54},{"user_id":931,"name":"BreadBubbles","steam_id":76561198174332826,"connected_time":738000000000,"state":"active","ping":55},{"user_id":929,"name":"cov (flick's nephew)","steam_id":76561198328047855,"connected_time":1036000000000,"state":"active","ping":83},{"user_id":909,"name":"obi","steam_id":76561198040154461,"connected_time":3613000000000,"state":"active","ping":65},{"user_id":887,"name":"bear girl gwen","steam_id":76561198198872409,"connected_time":6092000000000,"state":"active","ping":45},{"user_id":906,"name":"camm","steam_id":76561199059328260,"connected_time":3897000000000,"state":"active","ping":127},{"user_id":912,"name":"Kahvi","steam_id":76561198723244199,"connected_time":3414000000000,"state":"active","ping":80},{"user_id":896,"name":"Snake-chan","steam_id":76561199044755854,"connected_time":4816000000000,"state":"active","ping":87},{"user_id":935,"name":"shenanigan","steam_id":76561198043452925,"connected_time":305000000000,"state":"active","ping":75},{"user_id":921,"name":"beebo","steam_id":76561199120277007,"connected_time":2976000000000,"state":"active","ping":44},{"user_id":934,"name":"Clown Girl :o)","steam_id":76561198074657015,"connected_time":578000000000,"state":"active","ping":61},{"user_id":922,"name":"super mario deleted sex scene","steam_id":76561198033499175,"connected_time":2770000000000,"state":"active","ping":128},{"user_id":857,"name":"KnugenIV","steam_id":76561198127091993,"connected_time":8930000000000,"state":"active","ping":86},{"user_id":926,"name":"heal","steam_id":76561198046754534,"connected_time":1912000000000,"state":"active","ping":93},{"user_id":860,"name":"shooer!","steam_id":76561198110531281,"connected_time":8836000000000,"state":"active","ping":52}]},{"server_id":114,"name":"Uncletopia | London | 2 | All Maps","name_short":"lon-2","host":"lon-1.uk.uncletopia.com","port":27025,"enabled":true,"region":"eu","cc":"gb","latitude":51.509865,"longitude":-0.118092,"reserved":0,"last_update":"0001-01-01T00:00:00Z","name_a2s":"Uncletopia | London | 2 | All Maps","protocol":17,"map":"pl_borneo","folder":"tf","game":"Team Fortress","app_id":440,"player_count":24,"max_players":24,"Bots":0,"server_type":"Dedicated","server_os":"Linux","password":true,"vac":true,"version":"7961495","steam_id":85568392924470941,"keywords":["nocrits","nodmgspread","payload","uncletopia"],"game_id":440,"stv_port":27026,"stv_name":"Uncletopia | London | 2 | All Maps | STV","players":[{"user_id":738,"name":"Junkrat simp","steam_id":76561198134378108,"connected_time":856000000000,"state":"active","ping":69},{"user_id":723,"name":"Alibi","steam_id":76561198061845595,"connected_time":1402000000000,"state":"active","ping":47},{"user_id":724,"name":"dolo","steam_id":76561198206672297,"connected_time":1382000000000,"state":"active","ping":56},{"user_id":725,"name":"Warped","steam_id":76561197989916494,"connected_time":1361000000000,"state":"active","ping":41},{"user_id":714,"name":"free back real estate","steam_id":76561197999437155,"connected_time":1918000000000,"state":"active","ping":42},{"user_id":747,"name":"W","steam_id":76561198273623211,"connected_time":372000000000,"state":"active","ping":88},{"user_id":726,"name":"=BaFFe= Krakenpots","steam_id":76561198106600025,"connected_time":1355000000000,"state":"active","ping":43},{"user_id":727,"name":"aja","steam_id":76561198972253395,"connected_time":1332000000000,"state":"active","ping":41},{"user_id":746,"name":"Coac","steam_id":76561198085265740,"connected_time":428000000000,"state":"active","ping":75},{"user_id":739,"name":"[SpA]Scatterbrain","steam_id":76561197998639769,"connected_time":816000000000,"state":"active","ping":45},{"user_id":703,"name":"golfmastr","steam_id":76561198993144124,"connected_time":2792000000000,"state":"active","ping":65},{"user_id":696,"name":"SparkyDoodles - Artist","steam_id":76561198060128235,"connected_time":3442000000000,"state":"active","ping":51},{"user_id":736,"name":"ikcikoR","steam_id":76561198208906749,"connected_time":969000000000,"state":"active","ping":70},{"user_id":716,"name":"fernandobmwm355555","steam_id":76561198086609447,"connected_time":1845000000000,"state":"active","ping":59},{"user_id":729,"name":"the quotient rule","steam_id":76561198188642265,"connected_time":1324000000000,"state":"active","ping":46},{"user_id":748,"name":"finn","steam_id":76561198366652456,"connected_time":329000000000,"state":"active","ping":72},{"user_id":743,"name":"⛧ AlphaSatanOmega ⛧","steam_id":76561198035125511,"connected_time":635000000000,"state":"active","ping":121},{"user_id":709,"name":"pezza","steam_id":76561197995173247,"connected_time":2228000000000,"state":"active","ping":46},{"user_id":751,"name":"...","steam_id":76561199102883421,"connected_time":194000000000,"state":"active","ping":131},{"user_id":718,"name":"ChebJeb","steam_id":76561198981377081,"connected_time":1839000000000,"state":"active","ping":117},{"user_id":734,"name":"Tomboy Mold","steam_id":76561198106455841,"connected_time":1000000000000,"state":"active","ping":60},{"user_id":745,"name":"Hydroxianchaos","steam_id":76561198043786828,"connected_time":556000000000,"state":"active","ping":131},{"user_id":750,"name":"D_Ink","steam_id":76561198267716662,"connected_time":289000000000,"state":"active","ping":31},{"user_id":752,"name":"Marcel","steam_id":76561198348686648,"connected_time":132000000000,"state":"active","ping":45}]},{"server_id":320,"name":"Uncletopia | London | 3 | All Maps","name_short":"lon-3","host":"lon-1.uk.uncletopia.com","port":27035,"enabled":true,"region":"eu","cc":"gb","latitude":51.509865,"longitude":-0.118092,"reserved":0,"last_update":"0001-01-01T00:00:00Z","name_a2s":"Uncletopia | London | 3 | All Maps","protocol":17,"map":"koth_cascade","folder":"tf","game":"Team Fortress","app_id":440,"player_count":0,"max_players":24,"Bots":0,"server_type":"Dedicated","server_os":"Linux","password":true,"vac":true,"version":"7961495","steam_id":85568392924510192,"keywords":["cp","nocrits","nodmgspread","uncletopia"],"game_id":440,"stv_port":27036,"stv_name":"Uncletopia | London | 3 | All Maps | STV","players":null},{"server_id":321,"name":"Uncletopia | London | 4 | All Maps","name_short":"lon-4","host":"lon-1.uk.uncletopia.com","port":27045,"enabled":true,"region":"eu","cc":"gb","latitude":51.509865,"longitude":-0.118092,"reserved":0,"last_update":"0001-01-01T00:00:00Z","name_a2s":"Uncletopia | London | 4 | All Maps","protocol":17,"map":"ctf_2fort","folder":"tf","game":"Team Fortress","app_id":440,"player_count":8,"max_players":24,"Bots":0,"server_type":"Dedicated","server_os":"Linux","password":true,"vac":true,"version":"7961495","steam_id":85568392924510193,"keywords":["ctf","nocrits","nodmgspread","uncletopia"],"game_id":440,"stv_port":27046,"stv_name":"Uncletopia | London | 4 | All Maps | STV","players":[{"user_id":673,"name":"Piss Hauling","steam_id":76561198906119845,"connected_time":814000000000,"state":"active","ping":202},{"user_id":664,"name":"Gagiclunk","steam_id":76561199194862650,"connected_time":1803000000000,"state":"active","ping":42},{"user_id":672,"name":"Team Fortress 2","steam_id":76561199482033587,"connected_time":1009000000000,"state":"active","ping":37},{"user_id":590,"name":"Lego Piece 6629","steam_id":76561198330040827,"connected_time":7782000000000,"state":"active","ping":40},{"user_id":657,"name":"The Blood Starved Beast","steam_id":76561198067879051,"connected_time":2862000000000,"state":"active","ping":84},{"user_id":620,"name":"Henry","steam_id":76561198108018305,"connected_time":5720000000000,"state":"active","ping":77},{"user_id":631,"name":"Laru","steam_id":76561197998838438,"connected_time":4713000000000,"state":"active","ping":62},{"user_id":654,"name":"mary","steam_id":76561198014828037,"connected_time":3147000000000,"state":"active","ping":53}]},{"server_id":21,"name":"Uncletopia | London | 5 | All Maps","name_short":"lon-5","host":"lon-1.uk.uncletopia.com","port":27055,"enabled":true,"region":"eu","cc":"gb","latitude":51.509865,"longitude":-0.118092,"reserved":0,"last_update":"0001-01-01T00:00:00Z","name_a2s":"Uncletopia | London | 5 | All Maps","protocol":17,"map":"pl_pier","folder":"tf","game":"Team Fortress","app_id":440,"player_count":24,"max_players":24,"Bots":0,"server_type":"Dedicated","server_os":"Linux","password":true,"vac":true,"version":"7961495","steam_id":85568392924742829,"keywords":["nocrits","nodmgspread","payload","uncletopia"],"game_id":440,"stv_port":27056,"stv_name":"Uncletopia | London | 5 | All Maps | STV","players":[{"user_id":374,"name":"Serjunpe","steam_id":76561198072310880,"connected_time":3375000000000,"state":"active","ping":57},{"user_id":396,"name":"number 1 weezer enjoyer","steam_id":76561198074464755,"connected_time":2617000000000,"state":"active","ping":54},{"user_id":375,"name":"medium poopies 1337","steam_id":76561197966234980,"connected_time":3364000000000,"state":"active","ping":59},{"user_id":376,"name":"Sócrates","steam_id":76561198086810778,"connected_time":3360000000000,"state":"active","ping":57},{"user_id":426,"name":"cuddles","steam_id":76561198805181599,"connected_time":467000000000,"state":"active","ping":44},{"user_id":404,"name":"Huskai","steam_id":76561198141512362,"connected_time":2249000000000,"state":"active","ping":42},{"user_id":366,"name":"Psychicpie","steam_id":76561198126065206,"connected_time":6342000000000,"state":"active","ping":55},{"user_id":425,"name":"Idiot Doomspiral","steam_id":76561198104785078,"connected_time":631000000000,"state":"active","ping":53},{"user_id":378,"name":"i am like the killer7","steam_id":76561198084641126,"connected_time":3336000000000,"state":"active","ping":68},{"user_id":423,"name":"=flashpoint=","steam_id":76561197976774456,"connected_time":863000000000,"state":"active","ping":47},{"user_id":380,"name":"danielmg_21","steam_id":76561198273609678,"connected_time":3184000000000,"state":"active","ping":71},{"user_id":381,"name":"Gift me a Counter Case","steam_id":76561198037917273,"connected_time":3183000000000,"state":"active","ping":67},{"user_id":382,"name":"Jomitero","steam_id":76561198042102721,"connected_time":3171000000000,"state":"active","ping":63},{"user_id":383,"name":"Venwood","steam_id":76561198126973175,"connected_time":3131000000000,"state":"active","ping":45},{"user_id":384,"name":"Doctor Marijuana","steam_id":76561198288289879,"connected_time":3126000000000,"state":"active","ping":46},{"user_id":416,"name":"Qwerty","steam_id":76561198023525894,"connected_time":1503000000000,"state":"active","ping":80},{"user_id":419,"name":"Panzerwaffle","steam_id":76561198030382800,"connected_time":953000000000,"state":"active","ping":45},{"user_id":420,"name":"tone","steam_id":76561197975301462,"connected_time":947000000000,"state":"active","ping":74},{"user_id":421,"name":"Jim RocketFinger","steam_id":76561198011690583,"connected_time":943000000000,"state":"active","ping":87},{"user_id":427,"name":"Fearly","steam_id":76561198798684016,"connected_time":420000000000,"state":"active","ping":83},{"user_id":417,"name":"hunterjos","steam_id":76561198066072577,"connected_time":1042000000000,"state":"active","ping":80},{"user_id":392,"name":"1 toke 4 mars bars","steam_id":76561198056460000,"connected_time":2820000000000,"state":"active","ping":51},{"user_id":428,"name":"WiDam","steam_id":76561198005976631,"connected_time":210000000000,"state":"active","ping":129},{"user_id":422,"name":"God Of Pancakes","steam_id":76561198074535608,"connected_time":876000000000,"state":"active","ping":75}]},{"server_id":22,"name":"Uncletopia | London | 6 | All Maps","name_short":"lon-6","host":"lon-1.uk.uncletopia.com","port":27065,"enabled":true,"region":"eu","cc":"gb","latitude":51.509865,"longitude":-0.118092,"reserved":0,"last_update":"0001-01-01T00:00:00Z","name_a2s":"Uncletopia | London | 6 | All Maps","protocol":17,"map":"pl_upward","folder":"tf","game":"Team Fortress","app_id":440,"player_count":22,"max_players":24,"Bots":0,"server_type":"Dedicated","server_os":"Linux","password":true,"vac":true,"version":"7961495","steam_id":85568392924742830,"keywords":["nocrits","nodmgspread","payload","uncletopia"],"game_id":440,"stv_port":27066,"stv_name":"Uncletopia | London | 6 | All Maps | STV","players":[{"user_id":373,"name":"Maoma112","steam_id":76561199012536447,"connected_time":107000000000,"state":"active","ping":63},{"user_id":371,"name":"angry russian man","steam_id":76561198386712795,"connected_time":502000000000,"state":"active","ping":46},{"user_id":358,"name":"godmodule","steam_id":76561198165995444,"connected_time":1877000000000,"state":"active","ping":70},{"user_id":352,"name":"Jakk","steam_id":76561198041537908,"connected_time":2072000000000,"state":"active","ping":57},{"user_id":340,"name":"Barack Obama","steam_id":76561198840150558,"connected_time":3252000000000,"state":"active","ping":75},{"user_id":380,"name":"The Subway Scientist","steam_id":76561198193757646,"connected_time":5000000000,"state":"spawning","ping":59},{"user_id":363,"name":"Feels Good","steam_id":76561198058030054,"connected_time":1676000000000,"state":"active","ping":91},{"user_id":375,"name":"Desnot","steam_id":76561198862581894,"connected_time":52000000000,"state":"active","ping":63},{"user_id":376,"name":"Snowingle","steam_id":76561199222526482,"connected_time":34000000000,"state":"active","ping":75},{"user_id":341,"name":"ThatOneMedic","steam_id":76561199044419505,"connected_time":3203000000000,"state":"active","ping":55},{"user_id":370,"name":"irritable vowel syndrome","steam_id":76561198117033273,"connected_time":553000000000,"state":"active","ping":53},{"user_id":344,"name":"MELON USK","steam_id":76561198132788284,"connected_time":2679000000000,"state":"active","ping":32},{"user_id":377,"name":"MEOWRON","steam_id":76561198423803012,"connected_time":31000000000,"state":"active","ping":54},{"user_id":359,"name":"travis","steam_id":76561198138119811,"connected_time":1835000000000,"state":"active","ping":43},{"user_id":378,"name":"geriatric joel","steam_id":76561198132922827,"connected_time":30000000000,"state":"active","ping":30},{"user_id":379,"name":"rynz500","steam_id":76561198043872361,"connected_time":13000000000,"state":"active","ping":140},{"user_id":381,"name":":þ","steam_id":76561198170334258,"connected_time":4000000000,"state":"spawning","ping":67},{"user_id":367,"name":"Necro (Monkey Mode)","steam_id":76561198143041756,"connected_time":1123000000000,"state":"active","ping":74},{"user_id":382,"name":"Nutter Butter","steam_id":76561198068610437,"connected_time":2000000000,"state":"connecting","ping":0},{"user_id":372,"name":"Pterodactyl P. Jones","steam_id":76561198017513012,"connected_time":457000000000,"state":"active","ping":58},{"user_id":350,"name":"tired","steam_id":76561198046838168,"connected_time":2293000000000,"state":"active","ping":56},{"user_id":326,"name":"Hyppy ja liipasin pohjaan :D","steam_id":76561198080669698,"connected_time":4285000000000,"state":"active","ping":72}]},{"server_id":40,"name":"Uncletopia | London | 7 | Stopwatch","name_short":"lon-7","host":"lon-1.uk.uncletopia.com","port":27075,"enabled":true,"region":"eu","cc":"gb","latitude":51.509865,"longitude":-0.118092,"reserved":0,"last_update":"0001-01-01T00:00:00Z","name_a2s":"Uncletopia | London | 7 | Stopwatch","protocol":17,"map":"koth_lakeside_final","folder":"tf","game":"Team Fortress","app_id":440,"player_count":0,"max_players":24,"Bots":0,"server_type":"Dedicated","server_os":"Linux","password":true,"vac":true,"version":"7961495","steam_id":85568392924964314,"keywords":["cp","nocrits","nodmgspread","uncletopia"],"game_id":440,"stv_port":27076,"stv_name":"Uncletopia | London | 7 | Stopwatch | STV","players":null},{"server_id":41,"name":"Uncletopia | London | 8 | Community","name_short":"lon-8","host":"lon-1.uk.uncletopia.com","port":27085,"enabled":true,"region":"eu","cc":"gb","latitude":51.509865,"longitude":-0.118092,"reserved":0,"last_update":"0001-01-01T00:00:00Z","name_a2s":"Uncletopia | London | 8 | Community","protocol":17,"map":"workshop/cp_indulge.ugc528106646","folder":"tf","game":"Team Fortress","app_id":440,"player_count":0,"max_players":24,"Bots":0,"server_type":"Dedicated","server_os":"Linux","password":true,"vac":true,"version":"7961495","steam_id":85568392924964315,"keywords":["cp","nocrits","nodmgspread","uncletopia"],"game_id":440,"stv_port":27086,"stv_name":"Uncletopia | London | 8 | Community | STV","players":null},{"server_id":300,"name":"Uncletopia | Montréal | 1 | One Thousand Uncles","name_short":"mtl-1","host":"mtl-1.ca.uncletopia.com","port":27015,"enabled":true,"region":"us-east","cc":"ca","latitude":45.50889,"longitude":-73.56167,"reserved":0,"last_update":"0001-01-01T00:00:00Z","name_a2s":"Uncletopia | Montréal | 1 | One Thousand Uncles","protocol":17,"map":"pl_chilly","folder":"tf","game":"Team Fortress","app_id":440,"player_count":0,"max_players":32,"Bots":0,"server_type":"Dedicated","server_os":"Linux","password":true,"vac":true,"version":"7961495","steam_id":85568392924500087,"keywords":["alltalk","danepve","increased_maxplayers","norespawntime","payload","uncletopia"],"game_id":440,"stv_port":0,"stv_name":"","players":null},{"server_id":301,"name":"Uncletopia | Montréal | 2 | One Thousand Uncles","name_short":"mtl-2","host":"mtl-1.ca.uncletopia.com","port":27025,"enabled":true,"region":"us-east","cc":"ca","latitude":45.50889,"longitude":-73.56167,"reserved":0,"last_update":"0001-01-01T00:00:00Z","name_a2s":"Uncletopia | Montréal | 2 | One Thousand Uncles","protocol":17,"map":"pl_chilly","folder":"tf","game":"Team Fortress","app_id":440,"player_count":0,"max_players":32,"Bots":0,"server_type":"Dedicated","server_os":"Linux","password":true,"vac":true,"version":"7961495","steam_id":85568392924500088,"keywords":["alltalk","danepve","increased_maxplayers","norespawntime","payload","uncletopia"],"game_id":440,"stv_port":0,"stv_name":"","players":null},{"server_id":302,"name":"Uncletopia | Montréal | 3 | One Thousand Uncles","name_short":"mtl-3","host":"mtl-1.ca.uncletopia.com","port":27035,"enabled":true,"region":"us-east","cc":"ca","latitude":45.50889,"longitude":-73.56167,"reserved":0,"last_update":"0001-01-01T00:00:00Z","name_a2s":"Uncletopia | Montréal | 3 | One Thousand Uncles","protocol":17,"map":"pl_goldrush","folder":"tf","game":"Team Fortress","app_id":440,"player_count":0,"max_players":32,"Bots":0,"server_type":"Dedicated","server_os":"Linux","password":true,"vac":true,"version":"7961495","steam_id":85568392924500089,"keywords":["alltalk","danepve","increased_maxplayers","norespawntime","payload","uncletopia"],"game_id":440,"stv_port":0,"stv_name":"","players":null},{"server_id":13,"name":"Uncletopia | New York City | 1 | All Maps","name_short":"nyc-1","host":"nyc-1.us.uncletopia.com","port":27015,"enabled":true,"region":"us-east","cc":"us","latitude":40.73061,"longitude":-73.93524,"reserved":0,"last_update":"0001-01-01T00:00:00Z","name_a2s":"Uncletopia | New York City | 1 | All Maps","protocol":17,"map":"pl_swiftwater_final1","folder":"tf","game":"Team Fortress","app_id":440,"player_count":24,"max_players":24,"Bots":0,"server_type":"Dedicated","server_os":"Linux","password":true,"vac":true,"version":"7961495","steam_id":85568392924469993,"keywords":["nocrits","nodmgspread","payload","uncletopia"],"game_id":440,"stv_port":27016,"stv_name":"Uncletopia | New York City | 1 | All Maps | STV","players":[{"user_id":548,"name":"The_Epic_Conclusion","steam_id":76561198084250179,"connected_time":2181000000000,"state":"active","ping":52},{"user_id":530,"name":"Lennu","steam_id":76561198060730154,"connected_time":3958000000000,"state":"active","ping":59},{"user_id":569,"name":"Infinity","steam_id":76561199134919099,"connected_time":234000000000,"state":"active","ping":44},{"user_id":566,"name":"Flyinglab","steam_id":76561198042161408,"connected_time":322000000000,"state":"active","ping":46},{"user_id":559,"name":"milk","steam_id":76561198813251405,"connected_time":1001000000000,"state":"active","ping":53},{"user_id":567,"name":"CASR","steam_id":76561199122040210,"connected_time":310000000000,"state":"active","ping":68},{"user_id":482,"name":"Raizen","steam_id":76561199092445367,"connected_time":7710000000000,"state":"active","ping":60},{"user_id":544,"name":"thrompo","steam_id":76561197996845059,"connected_time":2620000000000,"state":"active","ping":44},{"user_id":516,"name":"The All-Seeing Tim","steam_id":76561198075510786,"connected_time":4937000000000,"state":"active","ping":90},{"user_id":520,"name":"SLaPPy- oNaSiS","steam_id":76561198009286862,"connected_time":4887000000000,"state":"active","ping":61},{"user_id":570,"name":"Doffy","steam_id":76561198307816360,"connected_time":226000000000,"state":"active","ping":92},{"user_id":556,"name":"Hellmonger","steam_id":76561198016058155,"connected_time":1219000000000,"state":"active","ping":51},{"user_id":547,"name":"Orange Triangle","steam_id":76561198320498182,"connected_time":2291000000000,"state":"active","ping":75},{"user_id":557,"name":"not a good idea","steam_id":76561198032259680,"connected_time":1183000000000,"state":"active","ping":61},{"user_id":512,"name":"A Cat","steam_id":76561198221549132,"connected_time":4971000000000,"state":"active","ping":109},{"user_id":571,"name":"Hankel Tom (The Hankeler)","steam_id":76561199446367874,"connected_time":140000000000,"state":"active","ping":74},{"user_id":531,"name":"Intrepid","steam_id":76561198125321034,"connected_time":3775000000000,"state":"active","ping":54},{"user_id":549,"name":"Marco","steam_id":76561198061122153,"connected_time":1928000000000,"state":"active","ping":77},{"user_id":529,"name":"Melonfrog","steam_id":76561198389885427,"connected_time":4047000000000,"state":"active","ping":116},{"user_id":561,"name":"tooth","steam_id":76561197986437643,"connected_time":853000000000,"state":"active","ping":50},{"user_id":422,"name":"CRAZY engineer","steam_id":76561198887937902,"connected_time":11608000000000,"state":"active","ping":55},{"user_id":552,"name":"Hormone Tyrant","steam_id":76561198057571424,"connected_time":1621000000000,"state":"active","ping":66},{"user_id":541,"name":"Eager99","steam_id":76561198975382876,"connected_time":2812000000000,"state":"active","ping":75},{"user_id":572,"name":"Plinko","steam_id":76561198884912425,"connected_time":139000000000,"state":"active","ping":44}]},{"server_id":14,"name":"Uncletopia | New York City | 2 | All Maps","name_short":"nyc-2","host":"nyc-1.us.uncletopia.com","port":27025,"enabled":true,"region":"us-east","cc":"us","latitude":40.73061,"longitude":-73.93524,"reserved":0,"last_update":"0001-01-01T00:00:00Z","name_a2s":"Uncletopia | New York City | 2 | All Maps","protocol":17,"map":"pl_borneo","folder":"tf","game":"Team Fortress","app_id":440,"player_count":24,"max_players":24,"Bots":0,"server_type":"Dedicated","server_os":"Linux","password":true,"vac":true,"version":"7961495","steam_id":85568392924469994,"keywords":["nocrits","nodmgspread","payload","uncletopia"],"game_id":440,"stv_port":27026,"stv_name":"Uncletopia | New York City | 2 | All Maps | STV","players":[{"user_id":347,"name":"nitori","steam_id":76561198143018098,"connected_time":345000000000,"state":"active","ping":51},{"user_id":346,"name":"Madrox Who?","steam_id":76561197988859134,"connected_time":411000000000,"state":"active","ping":76},{"user_id":338,"name":"SWEET BRUTE (ARTIST)","steam_id":76561198001680876,"connected_time":847000000000,"state":"active","ping":51},{"user_id":327,"name":"bob","steam_id":76561198274522348,"connected_time":1274000000000,"state":"active","ping":31},{"user_id":348,"name":"shield","steam_id":76561198976876859,"connected_time":323000000000,"state":"active","ping":86},{"user_id":304,"name":"Nerrrd_","steam_id":76561198870129960,"connected_time":2788000000000,"state":"active","ping":45},{"user_id":349,"name":"SpectreBurn","steam_id":76561198163300780,"connected_time":321000000000,"state":"active","ping":61},{"user_id":354,"name":"dr peppah chug!","steam_id":76561198068835693,"connected_time":214000000000,"state":"active","ping":86},{"user_id":351,"name":"Strangelove","steam_id":76561198353773611,"connected_time":300000000000,"state":"active","ping":86},{"user_id":353,"name":"short bus enthusiast","steam_id":76561198069380992,"connected_time":255000000000,"state":"active","ping":89},{"user_id":324,"name":"Goomby","steam_id":76561198079416561,"connected_time":1649000000000,"state":"active","ping":72},{"user_id":352,"name":"Augustus Gloop","steam_id":76561198145561348,"connected_time":291000000000,"state":"active","ping":77},{"user_id":339,"name":"HoneyMug","steam_id":76561198799721454,"connected_time":791000000000,"state":"active","ping":66},{"user_id":340,"name":"cee","steam_id":76561198420893458,"connected_time":780000000000,"state":"active","ping":94},{"user_id":334,"name":"Izzy6398","steam_id":76561198075542748,"connected_time":992000000000,"state":"active","ping":59},{"user_id":302,"name":"Drake the Pixel","steam_id":76561198131824401,"connected_time":3080000000000,"state":"active","ping":45},{"user_id":336,"name":"moson","steam_id":76561198043943405,"connected_time":922000000000,"state":"active","ping":57},{"user_id":343,"name":"TuxTheAstronaut","steam_id":76561198249141126,"connected_time":461000000000,"state":"active","ping":59},{"user_id":329,"name":"nhbiker","steam_id":76561198081277675,"connected_time":1232000000000,"state":"active","ping":45},{"user_id":345,"name":"Xquo","steam_id":76561198129005384,"connected_time":430000000000,"state":"active","ping":63},{"user_id":330,"name":"Liver stealer","steam_id":76561199029954287,"connected_time":1209000000000,"state":"active","ping":125},{"user_id":322,"name":"Chris P. Bacon","steam_id":76561198000851038,"connected_time":1760000000000,"state":"active","ping":45},{"user_id":332,"name":"Jason","steam_id":76561198107058140,"connected_time":1147000000000,"state":"active","ping":49},{"user_id":356,"name":"Thilo","steam_id":76561197987278784,"connected_time":100000000000,"state":"active","ping":63}]},{"server_id":15,"name":"Uncletopia | New York City | 3 | Stopwatch","name_short":"nyc-3","host":"nyc-1.us.uncletopia.com","port":27035,"enabled":true,"region":"us-east","cc":"us","latitude":40.73061,"longitude":-73.93524,"reserved":0,"last_update":"0001-01-01T00:00:00Z","name_a2s":"Uncletopia | New York City | 3 | Stopwatch","protocol":17,"map":"workshop/koth_product_final.ugc454272353","folder":"tf","game":"Team Fortress","app_id":440,"player_count":0,"max_players":24,"Bots":0,"server_type":"Dedicated","server_os":"Linux","password":true,"vac":true,"version":"7961495","steam_id":85568392924742820,"keywords":["cp","nocrits","nodmgspread","uncletopia"],"game_id":440,"stv_port":27036,"stv_name":"Uncletopia | New York City | 3 | Stopwatch | STV","players":null},{"server_id":16,"name":"Uncletopia | New York City | 4 | Community","name_short":"nyc-4","host":"nyc-1.us.uncletopia.com","port":27045,"enabled":true,"region":"us-east","cc":"us","latitude":40.73061,"longitude":-73.93524,"reserved":0,"last_update":"0001-01-01T00:00:00Z","name_a2s":"Uncletopia | New York City | 4 | Community","protocol":17,"map":"workshop/pl_divulgence_b4b.ugc2884808746","folder":"tf","game":"Team Fortress","app_id":440,"player_count":0,"max_players":24,"Bots":0,"server_type":"Dedicated","server_os":"Linux","password":true,"vac":true,"version":"7961495","steam_id":85568392924742821,"keywords":["nocrits","nodmgspread","payload","uncletopia"],"game_id":440,"stv_port":27046,"stv_name":"Uncletopia | New York City | 4 | Community | STV","players":null},{"server_id":142,"name":"Uncletopia | São Paulo | 1 | All Maps","name_short":"sao-1","host":"sao-1.br.uncletopia.com","port":27015,"enabled":true,"region":"sa","cc":"br","latitude":-23.533773,"longitude":-46.62529,"reserved":0,"last_update":"0001-01-01T00:00:00Z","name_a2s":"Uncletopia | São Paulo | 1 | All Maps","protocol":17,"map":"koth_lakeside_final","folder":"tf","game":"Team Fortress","app_id":440,"player_count":0,"max_players":24,"Bots":0,"server_type":"Dedicated","server_os":"Linux","password":true,"vac":true,"version":"7961495","steam_id":85568392924469996,"keywords":["cp","nocrits","nodmgspread","uncletopia"],"game_id":440,"stv_port":27016,"stv_name":"Uncletopia | São Paulo | 1 | All Maps | STV","players":null},{"server_id":143,"name":"Uncletopia | São Paulo | 2 | Community","name_short":"sao-2","host":"sao-2.br.uncletopia.com","port":27015,"enabled":true,"region":"sa","cc":"br","latitude":-23.533773,"longitude":-46.62529,"reserved":0,"last_update":"0001-01-01T00:00:00Z","name_a2s":"Uncletopia | São Paulo | 2 | Community","protocol":17,"map":"workshop/koth_synthetic_rc6a.ugc1549817316","folder":"tf","game":"Team Fortress","app_id":440,"player_count":0,"max_players":24,"Bots":0,"server_type":"Dedicated","server_os":"Linux","password":true,"vac":true,"version":"7961495","steam_id":85568392924485349,"keywords":["cp","nocrits","nodmgspread","uncletopia"],"game_id":440,"stv_port":27016,"stv_name":"Uncletopia | São Paulo | 2 | Community | STV","players":null},{"server_id":7,"name":"Uncletopia | Seattle | 1 | All Maps","name_short":"sea-1","host":"sea-1.us.uncletopia.com","port":27015,"enabled":true,"region":"us-west","cc":"us","latitude":47.608013,"longitude":-122.33517,"reserved":0,"last_update":"0001-01-01T00:00:00Z","name_a2s":"Uncletopia | Seattle | 1 | All Maps","protocol":17,"map":"pl_snowycoast","folder":"tf","game":"Team Fortress","app_id":440,"player_count":24,"max_players":24,"Bots":0,"server_type":"Dedicated","server_os":"Linux","password":true,"vac":true,"version":"7961495","steam_id":85568392924469997,"keywords":["nocrits","nodmgspread","payload","uncletopia"],"game_id":440,"stv_port":27016,"stv_name":"Uncletopia | Seattle | 1 | All Maps | STV","players":[{"user_id":237,"name":"Nom Skirrett","steam_id":76561198014600788,"connected_time":12737000000000,"state":"active","ping":60},{"user_id":363,"name":"Vincent Van Bro","steam_id":76561197966919802,"connected_time":3075000000000,"state":"active","ping":45},{"user_id":397,"name":"the voices in your head","steam_id":76561199317488285,"connected_time":531000000000,"state":"active","ping":95},{"user_id":396,"name":"doro","steam_id":76561198099041747,"connected_time":559000000000,"state":"active","ping":81},{"user_id":185,"name":"Katie XXII","steam_id":76561198135534297,"connected_time":17073000000000,"state":"active","ping":48},{"user_id":393,"name":"kaede","steam_id":76561198345528370,"connected_time":750000000000,"state":"active","ping":58},{"user_id":405,"name":"yinkies(refurbished)","steam_id":76561198055089667,"connected_time":61000000000,"state":"active","ping":49},{"user_id":379,"name":"Keamy","steam_id":76561199471434875,"connected_time":2240000000000,"state":"active","ping":45},{"user_id":398,"name":"Don't Fuckle with Shuckle","steam_id":76561199020102367,"connected_time":528000000000,"state":"active","ping":123},{"user_id":406,"name":"Amateur Glaswegian","steam_id":76561198030851956,"connected_time":37000000000,"state":"active","ping":55},{"user_id":388,"name":"fish (2:3)","steam_id":76561198134331073,"connected_time":1385000000000,"state":"active","ping":50},{"user_id":400,"name":"unhelpful engineer","steam_id":76561198103960265,"connected_time":502000000000,"state":"active","ping":105},{"user_id":389,"name":"I_Want_A_Soft_Taco","steam_id":76561198225561352,"connected_time":1247000000000,"state":"active","ping":93},{"user_id":390,"name":"triph","steam_id":76561198067196509,"connected_time":1232000000000,"state":"active","ping":90},{"user_id":365,"name":"HAT-WEARING™ Maggot Gamer Cat","steam_id":76561197973992705,"connected_time":2866000000000,"state":"active","ping":66},{"user_id":404,"name":"GriDLocK; T0T4113D","steam_id":76561197999816631,"connected_time":337000000000,"state":"active","ping":58},{"user_id":334,"name":"RiceFarmer","steam_id":76561198869180993,"connected_time":5456000000000,"state":"active","ping":46},{"user_id":394,"name":"xoms","steam_id":76561199068623664,"connected_time":725000000000,"state":"active","ping":54},{"user_id":373,"name":"♩Karmism♩","steam_id":76561199453410299,"connected_time":2267000000000,"state":"active","ping":136},{"user_id":362,"name":"tmm (theManMan)","steam_id":76561199488457138,"connected_time":3294000000000,"state":"active","ping":57},{"user_id":403,"name":"caca sniffer","steam_id":76561199099914725,"connected_time":380000000000,"state":"active","ping":56},{"user_id":395,"name":"PopcornBucketGames","steam_id":76561199089562026,"connected_time":637000000000,"state":"active","ping":36},{"user_id":351,"name":"the girl scout","steam_id":76561198350685969,"connected_time":3789000000000,"state":"active","ping":142},{"user_id":402,"name":"dairy","steam_id":76561198047270339,"connected_time":489000000000,"state":"active","ping":58}]},{"server_id":119,"name":"Uncletopia | Seattle | 2 | All Maps","name_short":"sea-2","host":"sea-1.us.uncletopia.com","port":27025,"enabled":true,"region":"us-west","cc":"us","latitude":47.608013,"longitude":-122.33517,"reserved":0,"last_update":"0001-01-01T00:00:00Z","name_a2s":"Uncletopia | Seattle | 2 | All Maps","protocol":17,"map":"cp_gorge","folder":"tf","game":"Team Fortress","app_id":440,"player_count":24,"max_players":24,"Bots":0,"server_type":"Dedicated","server_os":"Linux","password":true,"vac":true,"version":"7961495","steam_id":85568392924469998,"keywords":["cp","nocrits","nodmgspread","uncletopia"],"game_id":440,"stv_port":27026,"stv_name":"Uncletopia | Seattle | 2 | All Maps | STV","players":[{"user_id":214,"name":"ATHEIST TIL I REALIZED I AM GOD","steam_id":76561199190800520,"connected_time":192000000000,"state":"active","ping":39},{"user_id":179,"name":"(ngv) Antwan","steam_id":76561198018017318,"connected_time":1853000000000,"state":"active","ping":53},{"user_id":175,"name":"Zagadka","steam_id":76561198132307436,"connected_time":2376000000000,"state":"active","ping":68},{"user_id":220,"name":"wrldwide","steam_id":76561198841016072,"connected_time":51000000000,"state":"active","ping":46},{"user_id":216,"name":"cool beans","steam_id":76561198321591685,"connected_time":131000000000,"state":"active","ping":70},{"user_id":174,"name":"ölümün tatlısıyım","steam_id":76561198213385439,"connected_time":2967000000000,"state":"active","ping":67},{"user_id":182,"name":"Day Man","steam_id":76561198067154807,"connected_time":1506000000000,"state":"active","ping":48},{"user_id":183,"name":"hoOmIN","steam_id":76561198334947079,"connected_time":1192000000000,"state":"active","ping":67},{"user_id":217,"name":"my mom","steam_id":76561199225201569,"connected_time":130000000000,"state":"active","ping":107},{"user_id":212,"name":"Tsunami","steam_id":76561198097188001,"connected_time":226000000000,"state":"active","ping":41},{"user_id":198,"name":"SilentScott","steam_id":76561198236688652,"connected_time":621000000000,"state":"active","ping":46},{"user_id":188,"name":"FireQuiz","steam_id":76561198107357249,"connected_time":868000000000,"state":"active","ping":45},{"user_id":219,"name":"hey! lighten up buddy! :3","steam_id":76561198333985626,"connected_time":91000000000,"state":"active","ping":90},{"user_id":218,"name":"choi","steam_id":76561198053669887,"connected_time":124000000000,"state":"active","ping":81},{"user_id":194,"name":"Booba","steam_id":76561198150959184,"connected_time":665000000000,"state":"active","ping":60},{"user_id":167,"name":"Arkell","steam_id":76561198135884882,"connected_time":3445000000000,"state":"active","ping":48},{"user_id":195,"name":"TylertheImperial","steam_id":76561199401195068,"connected_time":651000000000,"state":"active","ping":86},{"user_id":197,"name":"i gotta pee","steam_id":76561198084668937,"connected_time":624000000000,"state":"active","ping":113},{"user_id":199,"name":"Skeptical","steam_id":76561198038261789,"connected_time":607000000000,"state":"active","ping":49},{"user_id":202,"name":"I microwave fish","steam_id":76561198011603359,"connected_time":591000000000,"state":"active","ping":121},{"user_id":201,"name":"ODDLOG","steam_id":76561198397624578,"connected_time":600000000000,"state":"active","ping":109},{"user_id":203,"name":"Jimmy Fallon","steam_id":76561198069131730,"connected_time":586000000000,"state":"active","ping":48},{"user_id":204,"name":"JibJabs de Blabsty","steam_id":76561198406731414,"connected_time":570000000000,"state":"active","ping":65},{"user_id":211,"name":"Dextersbrain","steam_id":76561198011831579,"connected_time":378000000000,"state":"active","ping":54}]},{"server_id":406,"name":"Uncletopia | Seattle | 3 | Stopwatch","name_short":"sea-3","host":"sea-1.us.uncletopia.com","port":27035,"enabled":true,"region":"us-west","cc":"us","latitude":47.608013,"longitude":-122.33517,"reserved":0,"last_update":"0001-01-01T00:00:00Z","name_a2s":"Uncletopia | Seattle | 3 | Stopwatch","protocol":17,"map":"workshop/koth_clearcut_b15.ugc2107050255","folder":"tf","game":"Team Fortress","app_id":440,"player_count":0,"max_players":24,"Bots":0,"server_type":"Dedicated","server_os":"Linux","password":true,"vac":true,"version":"7961495","steam_id":85568392924515217,"keywords":["cp","nocrits","nodmgspread","uncletopia"],"game_id":440,"stv_port":27036,"stv_name":"Uncletopia | Seattle | 3 | Stopwatch | STV","players":null},{"server_id":17,"name":"Uncletopia | San Francisco | 1 | All Maps","name_short":"sfo-1","host":"sfo-1.us.uncletopia.com","port":27015,"enabled":true,"region":"us-west","cc":"us","latitude":37.77397,"longitude":-122.4313,"reserved":0,"last_update":"0001-01-01T00:00:00Z","name_a2s":"Uncletopia | San Francisco | 1 | All Maps","protocol":17,"map":"pl_badwater","folder":"tf","game":"Team Fortress","app_id":440,"player_count":24,"max_players":24,"Bots":0,"server_type":"Dedicated","server_os":"Linux","password":true,"vac":true,"version":"7961495","steam_id":85568392924469999,"keywords":["nocrits","nodmgspread","payload","uncletopia"],"game_id":440,"stv_port":27016,"stv_name":"Uncletopia | San Francisco | 1 | All Maps | STV","players":[{"user_id":137,"name":"jfrizzle420","steam_id":76561198105544691,"connected_time":2325000000000,"state":"active","ping":115},{"user_id":173,"name":"minerkid2004","steam_id":76561198044262827,"connected_time":531000000000,"state":"active","ping":48},{"user_id":179,"name":"Sonny","steam_id":76561198042243689,"connected_time":405000000000,"state":"active","ping":44},{"user_id":149,"name":"imng","steam_id":76561198014988031,"connected_time":1945000000000,"state":"active","ping":91},{"user_id":108,"name":"Caspian","steam_id":76561199041466962,"connected_time":4029000000000,"state":"active","ping":39},{"user_id":174,"name":"fL0","steam_id":76561197990989939,"connected_time":468000000000,"state":"active","ping":60},{"user_id":123,"name":"Oktayey","steam_id":76561198143213426,"connected_time":2937000000000,"state":"active","ping":48},{"user_id":140,"name":"Real","steam_id":76561198405830028,"connected_time":2289000000000,"state":"active","ping":65},{"user_id":161,"name":"PlasticPepsiCan","steam_id":76561199226783116,"connected_time":1189000000000,"state":"active","ping":55},{"user_id":165,"name":"Cornelius","steam_id":76561198123447388,"connected_time":1065000000000,"state":"active","ping":90},{"user_id":176,"name":"delight","steam_id":76561197980280272,"connected_time":442000000000,"state":"active","ping":60},{"user_id":177,"name":"batheman63","steam_id":76561198881818552,"connected_time":439000000000,"state":"active","ping":101},{"user_id":126,"name":"Maid 'n' China","steam_id":76561198423392976,"connected_time":2855000000000,"state":"active","ping":43},{"user_id":147,"name":"IsolateWolf","steam_id":76561198449684254,"connected_time":2091000000000,"state":"active","ping":128},{"user_id":146,"name":"Telushealth","steam_id":76561199422760247,"connected_time":2147000000000,"state":"active","ping":65},{"user_id":148,"name":"FI LO","steam_id":76561198976530881,"connected_time":2087000000000,"state":"active","ping":54},{"user_id":130,"name":"UnusualTofu","steam_id":76561198060103750,"connected_time":2724000000000,"state":"active","ping":51},{"user_id":166,"name":"Chad the Sex Haver","steam_id":76561198058236528,"connected_time":988000000000,"state":"active","ping":72},{"user_id":160,"name":"Dim","steam_id":76561198061411324,"connected_time":1415000000000,"state":"active","ping":98},{"user_id":171,"name":"magunyamu","steam_id":76561198823083676,"connected_time":622000000000,"state":"active","ping":70},{"user_id":167,"name":"hyazz","steam_id":76561199100342013,"connected_time":971000000000,"state":"active","ping":60},{"user_id":170,"name":"Guapote","steam_id":76561199187895660,"connected_time":908000000000,"state":"active","ping":55},{"user_id":154,"name":"KhorneBread ︻デ 一","steam_id":76561198097069958,"connected_time":1863000000000,"state":"active","ping":111},{"user_id":178,"name":"ronald_stackerusa55","steam_id":76561198150406851,"connected_time":424000000000,"state":"active","ping":45}]},{"server_id":18,"name":"Uncletopia | San Francisco | 2 | All Maps","name_short":"sfo-2","host":"sfo-1.us.uncletopia.com","port":27025,"enabled":true,"region":"us-west","cc":"us","latitude":37.77397,"longitude":-122.4313,"reserved":0,"last_update":"0001-01-01T00:00:00Z","name_a2s":"Uncletopia | San Francisco | 2 | All Maps","protocol":17,"map":"cp_process_final","folder":"tf","game":"Team Fortress","app_id":440,"player_count":0,"max_players":24,"Bots":0,"server_type":"Dedicated","server_os":"Linux","password":true,"vac":true,"version":"7961495","steam_id":85568392924470000,"keywords":["cp","nocrits","nodmgspread","uncletopia"],"game_id":440,"stv_port":27026,"stv_name":"Uncletopia | San Francisco | 2 | All Maps | STV","players":null},{"server_id":19,"name":"Uncletopia | San Francisco | 3 | Stopwatch","name_short":"sfo-3","host":"sfo-1.us.uncletopia.com","port":27035,"enabled":true,"region":"us-west","cc":"us","latitude":37.77397,"longitude":-122.4313,"reserved":0,"last_update":"0001-01-01T00:00:00Z","name_a2s":"Uncletopia | San Francisco | 3 | Stopwatch","protocol":17,"map":"cp_granary","folder":"tf","game":"Team Fortress","app_id":440,"player_count":0,"max_players":24,"Bots":0,"server_type":"Dedicated","server_os":"Linux","password":true,"vac":true,"version":"7961495","steam_id":85568392924742824,"keywords":["cp","nocrits","nodmgspread","uncletopia"],"game_id":440,"stv_port":27036,"stv_name":"Uncletopia | San Francisco | 3 | Stopwatch | STV","players":null},{"server_id":20,"name":"Uncletopia | San Francisco | 4 | Community","name_short":"sfo-4","host":"sfo-1.us.uncletopia.com","port":27045,"enabled":true,"region":"us-west","cc":"us","latitude":37.77397,"longitude":-122.4313,"reserved":0,"last_update":"0001-01-01T00:00:00Z","name_a2s":"Uncletopia | San Francisco | 4 | Community","protocol":17,"map":"workshop/pl_barnblitz_pro7.ugc582280235","folder":"tf","game":"Team Fortress","app_id":440,"player_count":0,"max_players":24,"Bots":0,"server_type":"Dedicated","server_os":"Linux","password":true,"vac":true,"version":"7961495","steam_id":85568392924742826,"keywords":["nocrits","nodmgspread","payload","uncletopia"],"game_id":440,"stv_port":27046,"stv_name":"Uncletopia | San Francisco | 4 | Community | STV","players":null},{"server_id":141,"name":"Uncletopia | Sydney | 1 | All Maps","name_short":"syd-1","host":"syd-1.au.uncletopia.com","port":27015,"enabled":true,"region":"au","cc":"au","latitude":-33.865143,"longitude":151.2099,"reserved":0,"last_update":"0001-01-01T00:00:00Z","name_a2s":"Uncletopia | Sydney | 1 | All Maps","protocol":17,"map":"koth_nucleus","folder":"tf","game":"Team Fortress","app_id":440,"player_count":0,"max_players":24,"Bots":0,"server_type":"Dedicated","server_os":"Linux","password":true,"vac":true,"version":"7961495","steam_id":85568392924470001,"keywords":["cp","nocrits","nodmgspread","uncletopia"],"game_id":440,"stv_port":27016,"stv_name":"Uncletopia | Sydney | 1 | All Maps | STV","players":null},{"server_id":123,"name":"Uncletopia | Sydney | 2 | All Maps","name_short":"syd-2","host":"syd-1.au.uncletopia.com","port":27025,"enabled":true,"region":"au","cc":"au","latitude":-33.865143,"longitude":151.2099,"reserved":0,"last_update":"0001-01-01T00:00:00Z","name_a2s":"Uncletopia | Sydney | 2 | All Maps","protocol":17,"map":"cp_fastlane","folder":"tf","game":"Team Fortress","app_id":440,"player_count":0,"max_players":24,"Bots":0,"server_type":"Dedicated","server_os":"Linux","password":true,"vac":true,"version":"7961495","steam_id":85568392924470002,"keywords":["cp","nocrits","nodmgspread","uncletopia"],"game_id":440,"stv_port":27026,"stv_name":"Uncletopia | Sydney | 2 | All Maps | STV","players":null},{"server_id":395,"name":"Uncletopia | Sydney | 3 | All Maps","name_short":"syd-3","host":"syd-1.au.uncletopia.com","port":27035,"enabled":true,"region":"au","cc":"au","latitude":-33.865143,"longitude":151.2099,"reserved":0,"last_update":"0001-01-01T00:00:00Z","name_a2s":"Uncletopia | Sydney | 3 | All Maps","protocol":17,"map":"cp_metalworks","folder":"tf","game":"Team Fortress","app_id":440,"player_count":0,"max_players":24,"Bots":0,"server_type":"Dedicated","server_os":"Linux","password":true,"vac":true,"version":"7961495","steam_id":85568392925194467,"keywords":["cp","nocrits","nodmgspread","uncletopia"],"game_id":440,"stv_port":27036,"stv_name":"Uncletopia | Sydney | 3 | All Maps | STV","players":null},{"server_id":396,"name":"Uncletopia | Sydney | 4 | All Maps","name_short":"syd-4","host":"syd-1.au.uncletopia.com","port":27045,"enabled":true,"region":"au","cc":"au","latitude":-33.865143,"longitude":151.2099,"reserved":0,"last_update":"0001-01-01T00:00:00Z","name_a2s":"Uncletopia | Sydney | 4 | All Maps","protocol":17,"map":"koth_cascade","folder":"tf","game":"Team Fortress","app_id":440,"player_count":0,"max_players":24,"Bots":0,"server_type":"Dedicated","server_os":"Linux","password":true,"vac":true,"version":"7961495","steam_id":85568392925397958,"keywords":["cp","nocrits","nodmgspread","uncletopia"],"game_id":440,"stv_port":27046,"stv_name":"Uncletopia | Sydney | 4 | All Maps | STV","players":null},{"server_id":58,"name":"Uncletopia | Sydney | 5 | Stopwatch","name_short":"syd-5","host":"syd-1.au.uncletopia.com","port":27055,"enabled":true,"region":"au","cc":"au","latitude":-33.865143,"longitude":151.2099,"reserved":0,"last_update":"0001-01-01T00:00:00Z","name_a2s":"Uncletopia | Sydney | 5 | Stopwatch","protocol":17,"map":"workshop/koth_product_final.ugc454272353","folder":"tf","game":"Team Fortress","app_id":440,"player_count":0,"max_players":24,"Bots":0,"server_type":"Dedicated","server_os":"Linux","password":true,"vac":true,"version":"7961495","steam_id":85568392925397959,"keywords":["cp","nocrits","nodmgspread","uncletopia"],"game_id":440,"stv_port":27056,"stv_name":"Uncletopia | Sydney | 5 | Stopwatch | STV","players":null},{"server_id":59,"name":"Uncletopia | Sydney | 6 | Community","name_short":"syd-6","host":"syd-1.au.uncletopia.com","port":27065,"enabled":true,"region":"au","cc":"au","latitude":-33.865143,"longitude":151.2099,"reserved":0,"last_update":"0001-01-01T00:00:00Z","name_a2s":"Uncletopia | Sydney | 6 | Community","protocol":17,"map":"workshop/koth_trenchfoot_ab1.ugc731436616","folder":"tf","game":"Team Fortress","app_id":440,"player_count":0,"max_players":24,"Bots":0,"server_type":"Dedicated","server_os":"Linux","password":true,"vac":true,"version":"7961495","steam_id":85568392925397960,"keywords":["cp","nocrits","nodmgspread","uncletopia"],"game_id":440,"stv_port":27066,"stv_name":"Uncletopia | Sydney | 6 | Community | STV","players":null},{"server_id":49,"name":"Uncletopia | Warsaw | 1 | One Thousand Uncles","name_short":"waw-1","host":"waw-1.pl.uncletopia.com","port":27015,"enabled":true,"region":"eu","cc":"pl","latitude":52.2297,"longitude":21.017532,"reserved":0,"last_update":"0001-01-01T00:00:00Z","name_a2s":"Uncletopia | Warsaw | 1 | One Thousand Uncles","protocol":17,"map":"pl_badwater","folder":"tf","game":"Team Fortress","app_id":440,"player_count":25,"max_players":32,"Bots":16,"server_type":"Dedicated","server_os":"Linux","password":true,"vac":true,"version":"7961495","steam_id":85568392925397850,"keywords":["alltalk","bots","danepve","increased_maxplayers","norespawntime","payload","uncletopia"],"game_id":440,"stv_port":0,"stv_name":"","players":[{"user_id":864,"name":"S0m30n3","steam_id":76561198081290166,"connected_time":4902000000000,"state":"active","ping":81},{"user_id":896,"name":"Ballin","steam_id":76561198034253525,"connected_time":2046000000000,"state":"active","ping":83},{"user_id":901,"name":"Monte Carlo","steam_id":76561198171189413,"connected_time":1259000000000,"state":"active","ping":109},{"user_id":897,"name":"aydar.ochirov","steam_id":76561199411028859,"connected_time":1707000000000,"state":"active","ping":177},{"user_id":893,"name":"babijon","steam_id":76561199283633044,"connected_time":2581000000000,"state":"active","ping":105},{"user_id":905,"name":"MGE King","steam_id":76561198099259340,"connected_time":521000000000,"state":"active","ping":53},{"user_id":906,"name":"Pyroneer","steam_id":76561199368746761,"connected_time":71000000000,"state":"active","ping":90},{"user_id":899,"name":"JcB","steam_id":76561199379318828,"connected_time":1475000000000,"state":"active","ping":35},{"user_id":794,"name":"BaleBlast","steam_id":76561198116569443,"connected_time":9458000000000,"state":"active","ping":70}]},{"server_id":50,"name":"Uncletopia | Warsaw | 2 | One Thousand Uncles","name_short":"waw-2","host":"waw-1.pl.uncletopia.com","port":27025,"enabled":true,"region":"eu","cc":"pl","latitude":52.2297,"longitude":21.017532,"reserved":0,"last_update":"0001-01-01T00:00:00Z","name_a2s":"Uncletopia | Warsaw | 2 | One Thousand Uncles","protocol":17,"map":"pl_hoodoo_final","folder":"tf","game":"Team Fortress","app_id":440,"player_count":0,"max_players":32,"Bots":0,"server_type":"Dedicated","server_os":"Linux","password":true,"vac":true,"version":"7961495","steam_id":85568392925397851,"keywords":["alltalk","danepve","increased_maxplayers","norespawntime","payload","uncletopia"],"game_id":440,"stv_port":0,"stv_name":"","players":null},{"server_id":51,"name":"Uncletopia | Warsaw | 3 | All Maps","name_short":"waw-3","host":"waw-1.pl.uncletopia.com","port":27035,"enabled":true,"region":"eu","cc":"pl","latitude":52.2297,"longitude":21.017532,"reserved":0,"last_update":"0001-01-01T00:00:00Z","name_a2s":"Uncletopia | Warsaw | 3 | All Maps","protocol":17,"map":"pl_frontier_final","folder":"tf","game":"Team Fortress","app_id":440,"player_count":0,"max_players":24,"Bots":0,"server_type":"Dedicated","server_os":"Linux","password":true,"vac":true,"version":"7961495","steam_id":85568392925397852,"keywords":["nocrits","nodmgspread","payload","uncletopia"],"game_id":440,"stv_port":27036,"stv_name":"Uncletopia | Warsaw | 3 | All Maps | STV","players":null},{"server_id":52,"name":"Uncletopia | Warsaw | 4 | All Maps","name_short":"waw-4","host":"waw-1.pl.uncletopia.com","port":27045,"enabled":true,"region":"eu","cc":"pl","latitude":52.2297,"longitude":21.017532,"reserved":0,"last_update":"0001-01-01T00:00:00Z","name_a2s":"Uncletopia | Warsaw | 4 | All Maps","protocol":17,"map":"koth_lakeside_final","folder":"tf","game":"Team Fortress","app_id":440,"player_count":0,"max_players":24,"Bots":0,"server_type":"Dedicated","server_os":"Linux","password":true,"vac":true,"version":"7961495","steam_id":85568392925397853,"keywords":["cp","nocrits","nodmgspread","uncletopia"],"game_id":440,"stv_port":27046,"stv_name":"Uncletopia | Warsaw | 4 | All Maps | STV","players":null},{"server_id":53,"name":"Uncletopia | Warsaw | 5 | Stopwatch","name_short":"waw-5","host":"waw-1.pl.uncletopia.com","port":27055,"enabled":true,"region":"eu","cc":"pl","latitude":52.2297,"longitude":21.017532,"reserved":0,"last_update":"0001-01-01T00:00:00Z","name_a2s":"Uncletopia | Warsaw | 5 | Stopwatch","protocol":17,"map":"koth_lakeside_final","folder":"tf","game":"Team Fortress","app_id":440,"player_count":2,"max_players":24,"Bots":0,"server_type":"Dedicated","server_os":"Linux","password":true,"vac":true,"version":"7961495","steam_id":85568392925397854,"keywords":["cp","nocrits","nodmgspread","uncletopia"],"game_id":440,"stv_port":27056,"stv_name":"Uncletopia | Warsaw | 5 | Stopwatch | STV","players":[{"user_id":33,"name":"Femboy Gaming","steam_id":76561199044887428,"connected_time":266000000000,"state":"active","ping":56},{"user_id":34,"name":"Foxyna95","steam_id":76561198441182886,"connected_time":224000000000,"state":"active","ping":62}]},{"server_id":54,"name":"Uncletopia | Warsaw | 6 | Community","name_short":"waw-6","host":"waw-1.pl.uncletopia.com","port":27065,"enabled":true,"region":"eu","cc":"pl","latitude":52.2297,"longitude":21.017532,"reserved":0,"last_update":"0001-01-01T00:00:00Z","name_a2s":"Uncletopia | Warsaw | 6 | Community","protocol":17,"map":"workshop/koth_slaughter_rc1.ugc1712845210","folder":"tf","game":"Team Fortress","app_id":440,"player_count":0,"max_players":24,"Bots":0,"server_type":"Dedicated","server_os":"Linux","password":true,"vac":true,"version":"7961495","steam_id":85568392925397856,"keywords":["cp","nocrits","nodmgspread","uncletopia"],"game_id":440,"stv_port":27066,"stv_name":"Uncletopia | Warsaw | 6 | Community | STV","players":null}]}