{"status":true,"message":"","result":[{"server_id":2,"name":"Uncletopia | Chicago | 1 | All Maps","name_short":"chi-1","host":"chi-1.us.uncletopia.com","port":27015,"enabled":true,"region":"us-central","cc":"us","latitude":41.881832,"longitude":-87.62318,"reserved":0,"last_update":"0001-01-01T00:00:00Z","name_a2s":"Uncletopia | Chicago | 1 | All Maps","protocol":17,"map":"koth_lakeside_final","folder":"tf","game":"Team Fortress","app_id":440,"player_count":0,"max_players":24,"Bots":0,"server_type":"Dedicated","server_os":"Linux","password":true,"vac":true,"version":"7932396","steam_id":85568392924469984,"keywords":["cp","nocrits","nodmgspread","uncletopia"],"game_id":440,"stv_port":27016,"stv_name":"Uncletopia | Chicago | 1 | All Maps | STV","players":null},{"server_id":106,"name":"Uncletopia | Chicago | 2 | All Maps","name_short":"chi-2","host":"chi-1.us.uncletopia.com","port":27025,"enabled":true,"region":"us-central","cc":"us","latitude":41.881832,"longitude":-87.62318,"reserved":0,"last_update":"0001-01-01T00:00:00Z","name_a2s":"Uncletopia | Chicago | 2 | All Maps","protocol":17,"map":"koth_harvest_final","folder":"tf","game":"Team Fortress","app_id":440,"player_count":24,"max_players":24,"Bots":0,"server_type":"Dedicated","server_os":"Linux","password":true,"vac":true,"version":"7932396","steam_id":85568392924469985,"keywords":["cp","nocrits","nodmgspread","uncletopia"],"game_id":440,"stv_port":27026,"stv_name":"Uncletopia | Chicago | 2 | All Maps | STV","players":[{"user_id":251,"name":"StompOnYourFace!!!!","steam_id":76561198065581117,"connected_time":1164000000000,"state":"active","ping":62},{"user_id":228,"name":"Apple Whisky","steam_id":76561198272258299,"connected_time":3184000000000,"state":"active","ping":72},{"user_id":257,"name":"c64guy","steam_id":76561198023022744,"connected_time":372000000000,"state":"active","ping":59},{"user_id":244,"name":"indi","steam_id":76561198045917538,"connected_time":1950000000000,"state":"active","ping":50},{"user_id":264,"name":"stall","steam_id":76561199152861652,"connected_time":106000000000,"state":"active","ping":50},{"user_id":258,"name":"TwistedJasper","steam_id":76561198192325429,"connected_time":362000000000,"state":"active","ping":99},{"user_id":236,"name":"lynt","steam_id":76561198988333976,"connected_time":2533000000000,"state":"active","ping":55},{"user_id":247,"name":"Shattered Glass","steam_id":76561198116835391,"connected_time":1802000000000,"state":"active","ping":85},{"user_id":263,"name":"pipis","steam_id":76561198140971525,"connected_time":248000000000,"state":"active","ping":68},{"user_id":188,"name":"pinky","steam_id":76561199109784776,"connected_time":6829000000000,"state":"active","ping":46},{"user_id":194,"name":"Copus","steam_id":76561199011708421,"connected_time":6590000000000,"state":"active","ping":63},{"user_id":212,"name":"gamerlegend47","steam_id":76561198122776598,"connected_time":4777000000000,"state":"active","ping":66},{"user_id":205,"name":"ashely miami","steam_id":76561197993236478,"connected_time":5773000000000,"state":"active","ping":87},{"user_id":255,"name":"x3 ‚ô°","steam_id":76561198132011077,"connected_time":485000000000,"state":"active","ping":59},{"user_id":237,"name":"Sir Loincloth","steam_id":76561198033073991,"connected_time":2517000000000,"state":"active","ping":77},{"user_id":259,"name":"jarrettconsult","steam_id":76561198249998262,"connected_time":355000000000,"state":"active","ping":86},{"user_id":250,"name":"Milk","steam_id":76561198892311722,"connected_time":1383000000000,"state":"active","ping":94},{"user_id":197,"name":"lazyhead","steam_id":76561198044358804,"connected_time":6435000000000,"state":"active","ping":47},{"user_id":231,"name":"Chiki","steam_id":76561198063590320,"connected_time":2962000000000,"state":"active","ping":71},{"user_id":185,"name":"ttv/lilirouxxx","steam_id":76561198000522179,"connected_time":6901000000000,"state":"active","ping":70},{"user_id":248,"name":"Bonk Co.","steam_id":76561198009355408,"connected_time":1769000000000,"state":"active","ping":101},{"user_id":249,"name":"LerN","steam_id":76561198083463877,"connected_time":1712000000000,"state":"active","ping":49},{"user_id":262,"name":"a table","steam_id":76561198158461279,"connected_time":262000000000,"state":"active","ping":63},{"user_id":253,"name":"yenseii","steam_id":76561198304265800,"connected_time":1076000000000,"state":"active","ping":75}]},{"server_id":402,"name":"Uncletopia | Chicago | 3 | All Maps","name_short":"chi-3","host":"chi-1.us.uncletopia.com","port":27035,"enabled":true,"region":"us-central","cc":"us","latitude":41.881832,"longitude":-87.62318,"reserved":0,"last_update":"0001-01-01T00:00:00Z","name_a2s":"Uncletopia | Chicago | 3 | All Maps","protocol":17,"map":"pl_badwater","folder":"tf","game":"Team Fortress","app_id":440,"player_count":0,"max_players":24,"Bots":0,"server_type":"Dedicated","server_os":"Linux","password":true,"vac":true,"version":"7932396","steam_id":85568392924515191,"keywords":["nocrits","nodmgspread","payload","uncletopia"],"game_id":440,"stv_port":27036,"stv_name":"Uncletopia | Chicago | 3 | All Maps | STV","players":null},{"server_id":403,"name":"Uncletopia | Chicago | 4 | All Maps","name_short":"chi-4","host":"chi-1.us.uncletopia.com","port":27045,"enabled":true,"region":"us-central","cc":"us","latitude":41.881832,"longitude":-87.62318,"reserved":0,"last_update":"0001-01-01T00:00:00Z","name_a2s":"Uncletopia | Chicago | 4 | All Maps","protocol":17,"map":"cp_process_final","folder":"tf","game":"Team Fortress","app_id":440,"player_count":0,"max_players":24,"Bots":0,"server_type":"Dedicated","server_os":"Linux","password":true,"vac":true,"version":"7932396","steam_id":85568392924515193,"keywords":["cp","nocrits","nodmgspread","uncletopia"],"game_id":440,"stv_port":27046,"stv_name":"Uncletopia | Chicago | 4 | All Maps | STV","players":null},{"server_id":36,"name":"Uncletopia | Chicago | 5 | All Maps","name_short":"chi-5","host":"chi-2.us.uncletopia.com","port":27015,"enabled":true,"region":"us-central","cc":"us","latitude":41.881832,"longitude":-87.62318,"reserved":0,"last_update":"0001-01-01T00:00:00Z","name_a2s":"Uncletopia | Chicago | 5 | All Maps","protocol":17,"map":"cp_dustbowl","folder":"tf","game":"Team Fortress","app_id":440,"player_count":24,"max_players":24,"Bots":0,"server_type":"Dedicated","server_os":"Linux","password":true,"vac":true,"version":"7932396","steam_id":85568392924866362,"keywords":["cp","nocrits","nodmgspread","uncletopia"],"game_id":440,"stv_port":27016,"stv_name":"Uncletopia | Chicago | 5 | All Maps | STV","players":[{"user_id":296,"name":"Limitless","steam_id":76561198057139998,"connected_time":728000000000,"state":"active","ping":86},{"user_id":311,"name":"Tamaguen","steam_id":76561198041478553,"connected_time":253000000000,"state":"active","ping":82},{"user_id":304,"name":"Mattacam","steam_id":76561198862289471,"connected_time":587000000000,"state":"active","ping":119},{"user_id":297,"name":"Sunflower","steam_id":76561198081223793,"connected_time":714000000000,"state":"active","ping":58},{"user_id":277,"name":"--_Cook_--","steam_id":76561198080855748,"connected_time":2512000000000,"state":"active","ping":54},{"user_id":293,"name":"donut","steam_id":76561198076635466,"connected_time":1089000000000,"state":"active","ping":62},{"user_id":272,"name":"[TSG] Turner's Chocolate Milk","steam_id":76561198058963288,"connected_time":2930000000000,"state":"active","ping":62},{"user_id":295,"name":"tristessa","steam_id":76561198160335315,"connected_time":730000000000,"state":"active","ping":42},{"user_id":298,"name":"Cinna","steam_id":76561198997579674,"connected_time":674000000000,"state":"active","ping":50},{"user_id":299,"name":"bluliciouscow","steam_id":76561198839866507,"connected_time":652000000000,"state":"active","ping":100},{"user_id":300,"name":"S–°–ê–¢–¢–ïR","steam_id":76561198405168492,"connected_time":650000000000,"state":"active","ping":84},{"user_id":301,"name":"Flippityflop","steam_id":76561198086692908,"connected_time":637000000000,"state":"active","ping":119},{"user_id":306,"name":"Mkwhackertracker","steam_id":76561198128343704,"connected_time":423000000000,"state":"active","ping":60},{"user_id":305,"name":"Boot Mcstink","steam_id":76561199226873917,"connected_time":540000000000,"state":"active","ping":77},{"user_id":307,"name":"AnthonyZeNerdyPandaWolf","steam_id":76561198153449208,"connected_time":410000000000,"state":"active","ping":78},{"user_id":291,"name":"C Papi","steam_id":76561198027779564,"connected_time":1372000000000,"state":"active","ping":56},{"user_id":284,"name":"Stargazer","steam_id":76561198075490415,"connected_time":2014000000000,"state":"active","ping":67},{"user_id":256,"name":"Freewave","steam_id":76561198156282541,"connected_time":4183000000000,"state":"active","ping":52},{"user_id":262,"name":"nullptr","steam_id":76561198111790388,"connected_time":3804000000000,"state":"active","ping":83},{"user_id":309,"name":"|TX-Terror|","steam_id":76561197967079229,"connected_time":399000000000,"state":"active","ping":68},{"user_id":268,"name":"Ashes!","steam_id":76561197998475441,"connected_time":3407000000000,"state":"active","ping":89},{"user_id":294,"name":"V!CT!M","steam_id":76561198962721502,"connected_time":944000000000,"state":"active","ping":68},{"user_id":310,"name":"turntechGodhead","steam_id":76561198113793427,"connected_time":393000000000,"state":"active","ping":74},{"user_id":274,"name":"BirBinGo","steam_id":76561198356529600,"connected_time":2836000000000,"state":"active","ping":73}]},{"server_id":37,"name":"Uncletopia | Chicago | 6 | All Maps","name_short":"chi-6","host":"chi-2.us.uncletopia.com","port":27025,"enabled":true,"region":"us-central","cc":"us","latitude":41.881832,"longitude":-87.62318,"reserved":0,"last_update":"0001-01-01T00:00:00Z","name_a2s":"Uncletopia | Chicago | 6 | All Maps","protocol":17,"map":"koth_viaduct","folder":"tf","game":"Team Fortress","app_id":440,"player_count":1,"max_players":24,"Bots":0,"server_type":"Dedicated","server_os":"Linux","password":true,"vac":true,"version":"7932396","steam_id":85568392924866363,"keywords":["cp","nocrits","nodmgspread","uncletopia"],"game_id":440,"stv_port":27026,"stv_name":"Uncletopia | Chicago | 6 | All Maps | STV","players":[{"user_id":7,"name":"Varie","steam_id":76561199454930210,"connected_time":195000000000,"state":"active","ping":71}]},{"server_id":38,"name":"Uncletopia | Chicago | 7 | Stopwatch Beta","name_short":"chi-7","host":"chi-2.us.uncletopia.com","port":27035,"enabled":true,"region":"us-central","cc":"us","latitude":41.881832,"longitude":-87.62318,"reserved":0,"last_update":"0001-01-01T00:00:00Z","name_a2s":"Uncletopia | Chicago | 7 | Stopwatch Beta","protocol":17,"map":"pl_borneo","folder":"tf","game":"Team Fortress","app_id":440,"player_count":0,"max_players":24,"Bots":0,"server_type":"Dedicated","server_os":"Linux","password":true,"vac":true,"version":"7932396","steam_id":85568392924866364,"keywords":["nocrits","nodmgspread","payload","uncletopia"],"game_id":440,"stv_port":27036,"stv_name":"Uncletopia | Chicago | 7 | Stopwatch Beta | STV","players":null},{"server_id":39,"name":"Uncletopia | Chicago | 8 | Community","name_short":"chi-8","host":"chi-2.us.uncletopia.com","port":27045,"enabled":true,"region":"us-central","cc":"us","latitude":41.881832,"longitude":-87.62318,"reserved":0,"last_update":"0001-01-01T00:00:00Z","name_a2s":"Uncletopia | Chicago | 8 | Community","protocol":17,"map":"koth_viaduct","folder":"tf","game":"Team Fortress","app_id":440,"player_count":0,"max_players":24,"Bots":0,"server_type":"Dedicated","server_os":"Linux","password":true,"vac":true,"version":"7932396","steam_id":85568392924866365,"keywords":["cp","nocrits","nodmgspread","uncletopia"],"game_id":440,"stv_port":27046,"stv_name":"Uncletopia | Chicago | 8 | Community | STV","players":null},{"server_id":8,"name":"Uncletopia | Dallas | 1 | All Maps","name_short":"dal-1","host":"dal-1.us.uncletopia.com","port":27015,"enabled":true,"region":"us-central","cc":"us","latitude":32.779167,"longitude":-96.80889,"reserved":0,"last_update":"0001-01-01T00:00:00Z","name_a2s":"Uncletopia | Dallas | 1 | All Maps","protocol":17,"map":"cp_dustbowl","folder":"tf","game":"Team Fortress","app_id":440,"player_count":22,"max_players":24,"Bots":0,"server_type":"Dedicated","server_os":"Linux","password":true,"vac":true,"version":"7932396","steam_id":85568392924469986,"keywords":["cp","nocrits","nodmgspread","uncletopia"],"game_id":440,"stv_port":27016,"stv_name":"Uncletopia | Dallas | 1 | All Maps | STV","players":[{"user_id":85,"name":"‰Ω†Â•Ω","steam_id":76561198873043242,"connected_time":2994000000000,"state":"active","ping":141},{"user_id":111,"name":"Urist McDwarf","steam_id":76561198164004939,"connected_time":1057000000000,"state":"active","ping":101},{"user_id":117,"name":"Soju","steam_id":76561198044130442,"connected_time":152000000000,"state":"active","ping":54},{"user_id":113,"name":"wafflehamster2000","steam_id":76561198849161820,"connected_time":1038000000000,"state":"active","ping":86},{"user_id":69,"name":"ZeFizzyPop‚Ñ¢","steam_id":76561198258104981,"connected_time":4064000000000,"state":"active","ping":75},{"user_id":97,"name":"\"Bill\"","steam_id":76561199089554379,"connected_time":2259000000000,"state":"active","ping":84},{"user_id":94,"name":"Nahvee","steam_id":76561198119759695,"connected_time":2265000000000,"state":"active","ping":64},{"user_id":108,"name":"FEESH EGG","steam_id":76561198164699517,"connected_time":1196000000000,"state":"active","ping":84},{"user_id":106,"name":"Unk","steam_id":76561198031717617,"connected_time":1378000000000,"state":"active","ping":75},{"user_id":78,"name":"Shadoe","steam_id":76561198218577281,"connected_time":3722000000000,"state":"active","ping":74},{"user_id":107,"name":"arinet","steam_id":76561198052572890,"connected_time":1202000000000,"state":"active","ping":89},{"user_id":96,"name":"Red‚Ñ¢","steam_id":76561198028926092,"connected_time":2261000000000,"state":"active","ping":44},{"user_id":112,"name":"sand","steam_id":76561198214390228,"connected_time":1054000000000,"state":"active","ping":85},{"user_id":27,"name":"endo","steam_id":76561197995204381,"connected_time":6887000000000,"state":"active","ping":77},{"user_id":48,"name":"little buddy","steam_id":76561198066619792,"connected_time":6203000000000,"state":"active","ping":69},{"user_id":67,"name":"TTV/ChadMorningWood","steam_id":76561198139832291,"connected_time":4403000000000,"state":"active","ping":61},{"user_id":61,"name":"Glaceon","steam_id":76561198177715869,"connected_time":4711000000000,"state":"active","ping":65},{"user_id":104,"name":"Fake21","steam_id":76561198282065071,"connected_time":1834000000000,"state":"active","ping":53},{"user_id":93,"name":"Jonah Gaming","steam_id":76561198040969743,"connected_time":2654000000000,"state":"active","ping":73},{"user_id":100,"name":"dweamy","steam_id":76561198119181880,"connected_time":2202000000000,"state":"active","ping":60},{"user_id":110,"name":"Jamie","steam_id":76561198917309036,"connected_time":1118000000000,"state":"active","ping":84},{"user_id":90,"name":"Still Alive","steam_id":76561198042523000,"connected_time":2838000000000,"state":"active","ping":74}]},{"server_id":108,"name":"Uncletopia | Dallas | 2 | All Maps","name_short":"dal-2","host":"dal-1.us.uncletopia.com","port":27025,"enabled":true,"region":"us-central","cc":"us","latitude":32.779167,"longitude":-96.80889,"reserved":0,"last_update":"0001-01-01T00:00:00Z","name_a2s":"Uncletopia | Dallas | 2 | All Maps","protocol":17,"map":"koth_highpass","folder":"tf","game":"Team Fortress","app_id":440,"player_count":0,"max_players":24,"Bots":0,"server_type":"Dedicated","server_os":"Linux","password":true,"vac":true,"version":"7932396","steam_id":85568392924469988,"keywords":["cp","nocrits","nodmgspread","uncletopia"],"game_id":440,"stv_port":27026,"stv_name":"Uncletopia | Dallas | 2 | All Maps | STV","players":null},{"server_id":5,"name":"Uncletopia | Frankfurt | 1 | All Maps","name_short":"frk-1","host":"frk-1.de.uncletopia.com","port":27015,"enabled":true,"region":"eu","cc":"de","latitude":50.110924,"longitude":8.682127,"reserved":0,"last_update":"0001-01-01T00:00:00Z","name_a2s":"Uncletopia | Frankfurt | 1 | All Maps","protocol":17,"map":"pl_barnblitz","folder":"tf","game":"Team Fortress","app_id":440,"player_count":24,"max_players":24,"Bots":0,"server_type":"Dedicated","server_os":"Linux","password":true,"vac":true,"version":"7932396","steam_id":85568392924469989,"keywords":["nocrits","nodmgspread","payload","uncletopia"],"game_id":440,"stv_port":27016,"stv_name":"Uncletopia | Frankfurt | 1 | All Maps | STV","players":[{"user_id":245,"name":"imrealylazy","steam_id":76561198878574518,"connected_time":1489000000000,"state":"active","ping":61},{"user_id":243,"name":"poopoocum","steam_id":76561198180641206,"connected_time":1547000000000,"state":"active","ping":64},{"user_id":272,"name":"Remizer","steam_id":76561198799755616,"connected_time":352000000000,"state":"active","ping":60},{"user_id":228,"name":"Veir≈´ Viseris","steam_id":76561197989857176,"connected_time":2054000000000,"state":"active","ping":71},{"user_id":273,"name":"Dandroid7","steam_id":76561198947673092,"connected_time":311000000000,"state":"active","ping":51},{"user_id":100,"name":"Sensei","steam_id":76561198383582429,"connected_time":9525000000000,"state":"active","ping":88},{"user_id":269,"name":"pad6z23h8s","steam_id":76561198880756741,"connected_time":762000000000,"state":"active","ping":79},{"user_id":277,"name":"smile","steam_id":76561198365841841,"connected_time":214000000000,"state":"active","ping":80},{"user_id":267,"name":"Edling","steam_id":76561199111565357,"connected_time":788000000000,"state":"active","ping":88},{"user_id":271,"name":"Mint","steam_id":76561198105502303,"connected_time":585000000000,"state":"active","ping":56},{"user_id":240,"name":"Haggabah,WhoPliesTheUmbralPath","steam_id":76561198846984399,"connected_time":1595000000000,"state":"active","ping":84},{"user_id":265,"name":"Michael","steam_id":76561198003146906,"connected_time":834000000000,"state":"active","ping":60},{"user_id":257,"name":"The Creator of Sex","steam_id":76561198385989487,"connected_time":1094000000000,"state":"active","ping":150},{"user_id":199,"name":"James","steam_id":76561198168882012,"connected_time":3457000000000,"state":"active","ping":64},{"user_id":274,"name":"Valkyrie","steam_id":76561198998403448,"connected_time":294000000000,"state":"active","ping":94},{"user_id":174,"name":"Nyhde","steam_id":76561198012771416,"connected_time":5101000000000,"state":"active","ping":89},{"user_id":263,"name":"bad farter","steam_id":76561198261853441,"connected_time":862000000000,"state":"active","ping":60},{"user_id":250,"name":"Leifrü¶å","steam_id":76561198076271106,"connected_time":1200000000000,"state":"active","ping":71},{"user_id":226,"name":"Operunter","steam_id":76561198059937616,"connected_time":2419000000000,"state":"active","ping":69},{"user_id":262,"name":"john fortress","steam_id":76561198013237629,"connected_time":916000000000,"state":"active","ping":111},{"user_id":259,"name":"player with 0 skill","steam_id":76561198002451113,"connected_time":1041000000000,"state":"active","ping":105},{"user_id":255,"name":"Livicron","steam_id":76561199133754491,"connected_time":1136000000000,"state":"active","ping":69},{"user_id":268,"name":"Doriian","steam_id":76561198071438810,"connected_time":782000000000,"state":"active","ping":87},{"user_id":276,"name":"Chicken hunter","steam_id":76561198359966356,"connected_time":279000000000,"state":"active","ping":114}]},{"server_id":110,"name":"Uncletopia | Frankfurt | 2 | All Maps","name_short":"frk-2","host":"frk-1.de.uncletopia.com","port":27025,"enabled":true,"region":"eu","cc":"de","latitude":50.110924,"longitude":8.682127,"reserved":0,"last_update":"0001-01-01T00:00:00Z","name_a2s":"Uncletopia | Frankfurt | 2 | All Maps","protocol":17,"map":"pl_pier","folder":"tf","game":"Team Fortress","app_id":440,"player_count":24,"max_players":24,"Bots":0,"server_type":"Dedicated","server_os":"Linux","password":true,"vac":true,"version":"7932396","steam_id":85568392924469990,"keywords":["nocrits","nodmgspread","payload","uncletopia"],"game_id":440,"stv_port":27026,"stv_name":"Uncletopia | Frankfurt | 2 | All Maps | STV","players":[{"user_id":172,"name":"howabe","steam_id":76561197996486818,"connected_time":985000000000,"state":"active","ping":54},{"user_id":154,"name":"The Wolf Leader","steam_id":76561198038007462,"connected_time":1549000000000,"state":"active","ping":86},{"user_id":187,"name":"halow","steam_id":76561198061505163,"connected_time":45000000000,"state":"active","ping":91},{"user_id":156,"name":"bald elite","steam_id":76561198087377610,"connected_time":1528000000000,"state":"active","ping":92},{"user_id":185,"name":"D√•vid","steam_id":76561198184135755,"connected_time":176000000000,"state":"active","ping":60},{"user_id":158,"name":"el piano","steam_id":76561198030155915,"connected_time":1515000000000,"state":"active","ping":73},{"user_id":184,"name":"JayKey","steam_id":76561198008847925,"connected_time":305000000000,"state":"active","ping":56},{"user_id":160,"name":"V4ren","steam_id":76561198063138371,"connected_time":1506000000000,"state":"active","ping":61},{"user_id":171,"name":"concorde","steam_id":76561198111134021,"connected_time":1007000000000,"state":"active","ping":102},{"user_id":188,"name":"Dommy","steam_id":76561197990864747,"connected_time":29000000000,"state":"active","ping":47},{"user_id":174,"name":"DIErector of death","steam_id":76561199217741639,"connected_time":683000000000,"state":"active","ping":103},{"user_id":186,"name":"Thors","steam_id":76561197968739075,"connected_time":72000000000,"state":"active","ping":45},{"user_id":183,"name":"Lubi Animal","steam_id":76561199041620433,"connected_time":460000000000,"state":"active","ping":47},{"user_id":180,"name":"ARTI","steam_id":76561199446989613,"connected_time":601000000000,"state":"active","ping":82},{"user_id":177,"name":"Daan77","steam_id":76561198129940468,"connected_time":660000000000,"state":"active","ping":70},{"user_id":155,"name":"the boogly","steam_id":76561198354604708,"connected_time":1549000000000,"state":"active","ping":148},{"user_id":178,"name":"jerf(pls make me woman)","steam_id":76561199213901239,"connected_time":640000000000,"state":"active","ping":59},{"user_id":182,"name":"Qwerty","steam_id":76561198023525894,"connected_time":568000000000,"state":"active","ping":86},{"user_id":165,"name":"‚ôÇ Animan ‚ôÇ Studios ‚ôÇ","steam_id":76561198308302932,"connected_time":1431000000000,"state":"active","ping":98},{"user_id":120,"name":"aww yeah","steam_id":76561197992978878,"connected_time":3361000000000,"state":"active","ping":78},{"user_id":173,"name":"tallen","steam_id":76561198061708595,"connected_time":708000000000,"state":"active","ping":77},{"user_id":140,"name":"joachym","steam_id":76561198428579761,"connected_time":2379000000000,"state":"active","ping":58},{"user_id":167,"name":"powej","steam_id":76561198056381418,"connected_time":1279000000000,"state":"active","ping":46},{"user_id":152,"name":"Coca162","steam_id":76561198230656540,"connected_time":1951000000000,"state":"active","ping":48}]},{"server_id":308,"name":"Uncletopia | Frankfurt | 3 | All Maps","name_short":"frk-3","host":"frk-1.de.uncletopia.com","port":27035,"enabled":true,"region":"eu","cc":"de","latitude":50.110924,"longitude":8.682127,"reserved":0,"last_update":"0001-01-01T00:00:00Z","name_a2s":"Uncletopia | Frankfurt | 3 | All Maps","protocol":17,"map":"koth_cascade","folder":"tf","game":"Team Fortress","app_id":440,"player_count":3,"max_players":24,"Bots":0,"server_type":"Dedicated","server_os":"Linux","password":true,"vac":true,"version":"7932396","steam_id":85568392924504274,"keywords":["cp","nocrits","nodmgspread","uncletopia"],"game_id":440,"stv_port":27036,"stv_name":"Uncletopia | Frankfurt | 3 | All Maps | STV","players":[{"user_id":281,"name":"iakozachek","steam_id":76561198421867219,"connected_time":1196000000000,"state":"active","ping":115},{"user_id":285,"name":"Dr. Ludwig","steam_id":76561198269672107,"connected_time":187000000000,"state":"active","ping":46},{"user_id":275,"name":"Batman","steam_id":76561199041636597,"connected_time":1850000000000,"state":"active","ping":62}]},{"server_id":309,"name":"Uncletopia | Frankfurt | 4 | All Maps","name_short":"frk-4","host":"frk-1.de.uncletopia.com","port":27045,"enabled":true,"region":"eu","cc":"de","latitude":50.110924,"longitude":8.682127,"reserved":0,"last_update":"0001-01-01T00:00:00Z","name_a2s":"Uncletopia | Frankfurt | 4 | All Maps","protocol":17,"map":"pl_barnblitz","folder":"tf","game":"Team Fortress","app_id":440,"player_count":24,"max_players":24,"Bots":0,"server_type":"Dedicated","server_os":"Linux","password":true,"vac":true,"version":"7932396","steam_id":85568392924504275,"keywords":["nocrits","nodmgspread","payload","uncletopia"],"game_id":440,"stv_port":27046,"stv_name":"Uncletopia | Frankfurt | 4 | All Maps | STV","players":[{"user_id":427,"name":"Miloleopard","steam_id":76561199196616680,"connected_time":3747000000000,"state":"active","ping":73},{"user_id":473,"name":"Registered Sex Defender","steam_id":76561198039836567,"connected_time":856000000000,"state":"active","ping":55},{"user_id":478,"name":"Apulaite (Gin)","steam_id":76561198093458326,"connected_time":232000000000,"state":"active","ping":55},{"user_id":417,"name":"darkwater","steam_id":76561197986978738,"connected_time":4483000000000,"state":"active","ping":60},{"user_id":444,"name":"MrKampfCookie","steam_id":76561198085490175,"connected_time":2757000000000,"state":"active","ping":41},{"user_id":450,"name":"lambardziambar","steam_id":76561198277281267,"connected_time":2277000000000,"state":"active","ping":88},{"user_id":466,"name":"Chillrend | #SaveTF2","steam_id":76561198452963141,"connected_time":1256000000000,"state":"active","ping":75},{"user_id":394,"name":"Kekster","steam_id":76561198302448192,"connected_time":6612000000000,"state":"active","ping":42},{"user_id":463,"name":"papaja","steam_id":76561199216208960,"connected_time":1627000000000,"state":"active","ping":77},{"user_id":453,"name":"shirtokiya","steam_id":76561198963599425,"connected_time":2056000000000,"state":"active","ping":50},{"user_id":454,"name":"Gharth","steam_id":76561198056633551,"connected_time":2009000000000,"state":"active","ping":54},{"user_id":467,"name":"peso enjoyer","steam_id":76561198798177799,"connected_time":1252000000000,"state":"active","ping":76},{"user_id":462,"name":"Chromega","steam_id":76561199075307750,"connected_time":1688000000000,"state":"active","ping":54},{"user_id":468,"name":"BD[PL]","steam_id":76561198115995871,"connected_time":1237000000000,"state":"active","ping":84},{"user_id":438,"name":"Portal2Player","steam_id":76561198062870114,"connected_time":2909000000000,"state":"active","ping":166},{"user_id":476,"name":"Nelkobud","steam_id":76561198115606282,"connected_time":791000000000,"state":"active","ping":69},{"user_id":474,"name":"ARYZON","steam_id":76561198070705087,"connected_time":852000000000,"state":"active","ping":45},{"user_id":481,"name":"PingouinPoilu","steam_id":76561198025089253,"connected_time":58000000000,"state":"active","ping":67},{"user_id":475,"name":"lore","steam_id":76561198120984188,"connected_time":840000000000,"state":"active","ping":69},{"user_id":479,"name":"dakotztda","steam_id":76561198044189114,"connected_time":228000000000,"state":"active","ping":59},{"user_id":477,"name":"dunduu","steam_id":76561198875240717,"connected_time":787000000000,"state":"active","ping":66},{"user_id":383,"name":"Nornia","steam_id":76561198040509712,"connected_time":7874000000000,"state":"active","ping":60},{"user_id":447,"name":"Snailiad","steam_id":76561198123389475,"connected_time":2621000000000,"state":"active","ping":68},{"user_id":464,"name":"Sir Sandvich","steam_id":76561198213908089,"connected_time":1267000000000,"state":"active","ping":83}]},{"server_id":310,"name":"Uncletopia | Frankfurt | 5 | All Maps","name_short":"frk-5","host":"frk-1.de.uncletopia.com","port":27055,"enabled":true,"region":"eu","cc":"de","latitude":50.110924,"longitude":8.682127,"reserved":0,"last_update":"0001-01-01T00:00:00Z","name_a2s":"Uncletopia | Frankfurt | 5 | All Maps","protocol":17,"map":"pl_pier","folder":"tf","game":"Team Fortress","app_id":440,"player_count":24,"max_players":24,"Bots":0,"server_type":"Dedicated","server_os":"Linux","password":true,"vac":true,"version":"7932396","steam_id":85568392924504277,"keywords":["nocrits","nodmgspread","payload","uncletopia"],"game_id":440,"stv_port":27056,"stv_name":"Uncletopia | Frankfurt | 5 | All Maps | STV","players":[{"user_id":196,"name":"After8","steam_id":76561198090750865,"connected_time":2585000000000,"state":"active","ping":64},{"user_id":225,"name":"GoatLord1","steam_id":76561198157964544,"connected_time":763000000000,"state":"active","ping":62},{"user_id":221,"name":":)","steam_id":76561198039964082,"connected_time":883000000000,"state":"active","ping":65},{"user_id":238,"name":"Kestrel","steam_id":76561198144033005,"connected_time":380000000000,"state":"active","ping":61},{"user_id":242,"name":"The Green Uncle","steam_id":76561198257163156,"connected_time":235000000000,"state":"active","ping":61},{"user_id":216,"name":"snoop","steam_id":76561198015669667,"connected_time":1167000000000,"state":"active","ping":82},{"user_id":236,"name":"Romultra","steam_id":76561198354105082,"connected_time":530000000000,"state":"active","ping":46},{"user_id":157,"name":"mixxxa_french","steam_id":76561198085098243,"connected_time":6206000000000,"state":"active","ping":113},{"user_id":229,"name":"·êØ Â±± ·é∂","steam_id":76561198379252103,"connected_time":721000000000,"state":"active","ping":91},{"user_id":219,"name":"just_adhenz1284 #SaveTF2","steam_id":76561198293654671,"connected_time":954000000000,"state":"active","ping":179},{"user_id":230,"name":"WolfmanCZ","steam_id":76561199157141414,"connected_time":702000000000,"state":"active","ping":67},{"user_id":231,"name":"Luuk","steam_id":76561198088266026,"connected_time":692000000000,"state":"active","ping":54},{"user_id":233,"name":"Intruder","steam_id":76561198156128173,"connected_time":659000000000,"state":"active","ping":75},{"user_id":189,"name":"orange my beloved","steam_id":76561198798803845,"connected_time":3565000000000,"state":"active","ping":46},{"user_id":237,"name":"TheEventGuy","steam_id":76561197972797744,"connected_time":508000000000,"state":"active","ping":64},{"user_id":234,"name":"Artificial.Ignorance","steam_id":76561198453090180,"connected_time":658000000000,"state":"active","ping":178},{"user_id":194,"name":"BenteBent","steam_id":76561198297920637,"connected_time":2876000000000,"state":"active","ping":46},{"user_id":190,"name":"KUMI","steam_id":76561198089207719,"connected_time":3397000000000,"state":"active","ping":83},{"user_id":223,"name":"f.fred04 #save_tf2","steam_id":76561198311701465,"connected_time":792000000000,"state":"active","ping":100},{"user_id":239,"name":"BELADIT","steam_id":76561198011911501,"connected_time":346000000000,"state":"active","ping":73},{"user_id":183,"name":"Egtu","steam_id":76561198013757235,"connected_time":3906000000000,"state":"active","ping":55},{"user_id":224,"name":"–ü—É–∫—Å–µ–ª—å","steam_id":76561198294425174,"connected_time":781000000000,"state":"active","ping":75},{"user_id":208,"name":"Femboy Lilli","steam_id":76561198090146457,"connected_time":1769000000000,"state":"active","ping":54},{"user_id":243,"name":"Toaster1337","steam_id":76561198103706881,"connected_time":99000000000,"state":"active","ping":67}]},{"server_id":311,"name":"Uncletopia | Frankfurt | 6 | All Maps","name_short":"frk-6","host":"frk-1.de.uncletopia.com","port":27065,"enabled":true,"region":"eu","cc":"de","latitude":50.110924,"longitude":8.682127,"reserved":0,"last_update":"0001-01-01T00:00:00Z","name_a2s":"Uncletopia | Frankfurt | 6 | All Maps","protocol":17,"map":"koth_viaduct","folder":"tf","game":"Team Fortress","app_id":440,"player_count":0,"max_players":24,"Bots":0,"server_type":"Dedicated","server_os":"Linux","password":true,"vac":true,"version":"7932396","steam_id":85568392924504278,"keywords":["cp","nocrits","nodmgspread","uncletopia"],"game_id":440,"stv_port":27066,"stv_name":"Uncletopia | Frankfurt | 6 | All Maps | STV","players":null},{"server_id":23,"name":"Uncletopia | Frankfurt | 7 | Stopwatch Beta","name_short":"frk-7","host":"frk-1.de.uncletopia.com","port":27075,"enabled":true,"region":"eu","cc":"de","latitude":50.110924,"longitude":8.682127,"reserved":0,"last_update":"0001-01-01T00:00:00Z","name_a2s":"Uncletopia | Frankfurt | 7 | Stopwatch Beta","protocol":17,"map":"pl_snowycoast","folder":"tf","game":"Team Fortress","app_id":440,"player_count":0,"max_players":24,"Bots":0,"server_type":"Dedicated","server_os":"Linux","password":true,"vac":true,"version":"7932396","steam_id":85568392924742827,"keywords":["nocrits","nodmgspread","payload","uncletopia"],"game_id":440,"stv_port":27076,"stv_name":"Uncletopia | Frankfurt | 7 | Stopwatch Beta | STV","players":null},{"server_id":24,"name":"Uncletopia | Frankfurt | 8 | Community","name_short":"frk-8","host":"frk-1.de.uncletopia.com","port":27085,"enabled":true,"region":"eu","cc":"de","latitude":50.110924,"longitude":8.682127,"reserved":0,"last_update":"0001-01-01T00:00:00Z","name_a2s":"Uncletopia | Frankfurt | 8 | Community","protocol":17,"map":"pl_barnblitz","folder":"tf","game":"Team Fortress","app_id":440,"player_count":7,"max_players":24,"Bots":0,"server_type":"Dedicated","server_os":"Linux","password":true,"vac":true,"version":"7932396","steam_id":85568392924742828,"keywords":["nocrits","nodmgspread","payload","uncletopia"],"game_id":440,"stv_port":27086,"stv_name":"Uncletopia | Frankfurt | 8 | Community | STV","players":[{"user_id":5,"name":"kh","steam_id":76561198161142802,"connected_time":952000000000,"state":"active","ping":71},{"user_id":6,"name":"Manneeeeeeeeeeeh","steam_id":76561198184298342,"connected_time":946000000000,"state":"active","ping":90},{"user_id":7,"name":"salusaurus","steam_id":76561198347464379,"connected_time":945000000000,"state":"active","ping":99},{"user_id":10,"name":"copium addict | blw.tf","steam_id":76561199401665282,"connected_time":298000000000,"state":"active","ping":94},{"user_id":11,"name":"Rodia","steam_id":76561197968293161,"connected_time":105000000000,"state":"active","ping":60},{"user_id":12,"name":"skille","steam_id":76561198005794325,"connected_time":72000000000,"state":"active","ping":64},{"user_id":13,"name":"Cappuccino","steam_id":76561199065155403,"connected_time":27000000000,"state":"active","ping":54}]},{"server_id":202,"name":"Uncletopia | Hong Kong | 1 | All Maps","name_short":"hgk-1","host":"hgk-1.hk.uncletopia.com","port":27015,"enabled":true,"region":"asia","cc":"hk","latitude":22.302711,"longitude":114.177216,"reserved":0,"last_update":"0001-01-01T00:00:00Z","name_a2s":"Uncletopia | Hong Kong | 1 | All Maps","protocol":17,"map":"cp_mountainlab","folder":"tf","game":"Team Fortress","app_id":440,"player_count":0,"max_players":24,"Bots":0,"server_type":"Dedicated","server_os":"Linux","password":true,"vac":true,"version":"7932396","steam_id":85568392924494504,"keywords":["cp","nocrits","nodmgspread","uncletopia"],"game_id":440,"stv_port":27016,"stv_name":"Uncletopia | Hong Kong | 1 | All Maps | STV","players":null},{"server_id":1,"name":"Uncletopia | Los Angeles | 1 | All Maps","name_short":"lax-1","host":"lax-1.us.uncletopia.com","port":27015,"enabled":true,"region":"us-west","cc":"us","latitude":33.94279,"longitude":-118.41004,"reserved":0,"last_update":"0001-01-01T00:00:00Z","name_a2s":"Uncletopia | Los Angeles | 1 | All Maps","protocol":17,"map":"pl_snowycoast","folder":"tf","game":"Team Fortress","app_id":440,"player_count":0,"max_players":24,"Bots":0,"server_type":"Dedicated","server_os":"Linux","password":true,"vac":true,"version":"7932396","steam_id":85568392924469991,"keywords":["nocrits","nodmgspread","payload","uncletopia"],"game_id":440,"stv_port":27016,"stv_name":"Uncletopia | Los Angeles | 1 | All Maps | STV","players":null},{"server_id":112,"name":"Uncletopia | Los Angeles | 2 | All Maps","name_short":"lax-2","host":"lax-1.us.uncletopia.com","port":27025,"enabled":true,"region":"us-west","cc":"us","latitude":33.94279,"longitude":-118.41004,"reserved":0,"last_update":"0001-01-01T00:00:00Z","name_a2s":"Uncletopia | Los Angeles | 2 | All Maps","protocol":17,"map":"pl_upward","folder":"tf","game":"Team Fortress","app_id":440,"player_count":24,"max_players":24,"Bots":0,"server_type":"Dedicated","server_os":"Linux","password":true,"vac":true,"version":"7932396","steam_id":85568392924469992,"keywords":["nocrits","nodmgspread","payload","uncletopia"],"game_id":440,"stv_port":27026,"stv_name":"Uncletopia | Los Angeles | 2 | All Maps | STV","players":[{"user_id":4,"name":"lonely","steam_id":76561199180338753,"connected_time":3298000000000,"state":"active","ping":76},{"user_id":27,"name":"SNIPER MONKEY","steam_id":76561198403205128,"connected_time":1703000000000,"state":"active","ping":82},{"user_id":57,"name":"Medic Boyfriend","steam_id":76561198104086771,"connected_time":289000000000,"state":"active","ping":44},{"user_id":9,"name":"..flop","steam_id":76561197989058876,"connected_time":2159000000000,"state":"active","ping":60},{"user_id":58,"name":"Joe","steam_id":76561198290315229,"connected_time":274000000000,"state":"active","ping":59},{"user_id":11,"name":"SgtMaj Soggy Titties","steam_id":76561198067732216,"connected_time":2106000000000,"state":"active","ping":92},{"user_id":38,"name":"Jimjonjoe","steam_id":76561199195695913,"connected_time":1390000000000,"state":"active","ping":82},{"user_id":13,"name":"‚í∑‚ì™‚ì™‚ì£‚ì®‚ìí‚ìê‚ìö‚ìî‚ì¢","steam_id":76561198088776421,"connected_time":2027000000000,"state":"active","ping":121},{"user_id":49,"name":"Mr. Pockets","steam_id":76561198053657771,"connected_time":828000000000,"state":"active","ping":56},{"user_id":35,"name":"Dr. Hashbrown","steam_id":76561198410780370,"connected_time":1529000000000,"state":"active","ping":68},{"user_id":59,"name":"DoubleX2000","steam_id":76561198164134387,"connected_time":232000000000,"state":"active","ping":83},{"user_id":39,"name":"shomo","steam_id":76561198158787127,"connected_time":1376000000000,"state":"active","ping":59},{"user_id":55,"name":"Queen Chrysalis","steam_id":76561198061225231,"connected_time":445000000000,"state":"active","ping":74},{"user_id":21,"name":"Oktayey","steam_id":76561198143213426,"connected_time":1868000000000,"state":"active","ping":54},{"user_id":54,"name":"EOAW","steam_id":76561198310451639,"connected_time":490000000000,"state":"active","ping":72},{"user_id":50,"name":"iku","steam_id":76561198847749278,"connected_time":695000000000,"state":"active","ping":73},{"user_id":25,"name":"Lux","steam_id":76561198043146695,"connected_time":1748000000000,"state":"active","ping":111},{"user_id":52,"name":"mineblast99","steam_id":76561199065648954,"connected_time":658000000000,"state":"active","ping":107},{"user_id":53,"name":"non_ai","steam_id":76561198270951938,"connected_time":586000000000,"state":"active","ping":102},{"user_id":60,"name":"Shark","steam_id":76561198219031981,"connected_time":173000000000,"state":"active","ping":125},{"user_id":61,"name":"Enderlord99","steam_id":76561198158152954,"connected_time":168000000000,"state":"active","ping":82},{"user_id":46,"name":"dankalopacus","steam_id":76561198099254868,"connected_time":1064000000000,"state":"active","ping":63},{"user_id":62,"name":"Insane Cringe","steam_id":76561199163905036,"connected_time":168000000000,"state":"active","ping":105},{"user_id":43,"name":"Mort Wrapped in a Chimichanga","steam_id":76561199062764883,"connected_time":1250000000000,"state":"active","ping":56}]},{"server_id":324,"name":"Uncletopia | Los Angeles | 3 | All Maps","name_short":"lax-3","host":"lax-1.us.uncletopia.com","port":27035,"enabled":true,"region":"us-west","cc":"us","latitude":33.94279,"longitude":-118.41004,"reserved":0,"last_update":"0001-01-01T00:00:00Z","name_a2s":"Uncletopia | Los Angeles | 3 | All Maps","protocol":17,"map":"pl_borneo","folder":"tf","game":"Team Fortress","app_id":440,"player_count":0,"max_players":24,"Bots":0,"server_type":"Dedicated","server_os":"Linux","password":true,"vac":true,"version":"7932396","steam_id":85568392924510198,"keywords":["nocrits","nodmgspread","payload","uncletopia"],"game_id":440,"stv_port":27036,"stv_name":"Uncletopia | Los Angeles | 3 | All Maps | STV","players":null},{"server_id":25,"name":"Uncletopia | Los Angeles | 4 | Stopwatch Beta","name_short":"lax-4","host":"lax-1.us.uncletopia.com","port":27045,"enabled":true,"region":"us-west","cc":"us","latitude":33.94279,"longitude":-118.41004,"reserved":0,"last_update":"0001-01-01T00:00:00Z","name_a2s":"Uncletopia | Los Angeles | 4 | Stopwatch Beta","protocol":17,"map":"workshop/koth_clearcut_b15.ugc2107050255","folder":"tf","game":"Team Fortress","app_id":440,"player_count":0,"max_players":24,"Bots":0,"server_type":"Dedicated","server_os":"Linux","password":true,"vac":true,"version":"7932396","steam_id":85568392924510199,"keywords":["cp","nocrits","nodmgspread","uncletopia"],"game_id":440,"stv_port":27046,"stv_name":"Uncletopia | Los Angeles | 4 | Stopwatch Beta | STV","players":null},{"server_id":11,"name":"Uncletopia | London | 1 | All Maps","name_short":"lon-1","host":"lon-1.uk.uncletopia.com","port":27015,"enabled":true,"region":"eu","cc":"gb","latitude":51.509865,"longitude":-0.118092,"reserved":0,"last_update":"0001-01-01T00:00:00Z","name_a2s":"Uncletopia | London | 1 | All Maps","protocol":17,"map":"pl_upward","folder":"tf","game":"Team Fortress","app_id":440,"player_count":24,"max_players":24,"Bots":0,"server_type":"Dedicated","server_os":"Linux","password":true,"vac":true,"version":"7932396","steam_id":85568392924367362,"keywords":["nocrits","nodmgspread","payload","uncletopia"],"game_id":440,"stv_port":27016,"stv_name":"Uncletopia | London | 1 | All Maps | STV","players":[{"user_id":465,"name":"IceDreamer","steam_id":76561197997569989,"connected_time":1802000000000,"state":"active","ping":44},{"user_id":447,"name":"Pepegi","steam_id":76561198001230113,"connected_time":3336000000000,"state":"active","ping":84},{"user_id":478,"name":"Pes Patron","steam_id":76561199004923871,"connected_time":294000000000,"state":"active","ping":95},{"user_id":479,"name":"Theenie","steam_id":76561198029025500,"connected_time":289000000000,"state":"active","ping":59},{"user_id":486,"name":"Commander DM","steam_id":76561198059236770,"connected_time":48000000000,"state":"active","ping":79},{"user_id":482,"name":"Mariny","steam_id":76561198169995378,"connected_time":242000000000,"state":"active","ping":59},{"user_id":483,"name":"aminoxsos","steam_id":76561198839741609,"connected_time":184000000000,"state":"active","ping":66},{"user_id":469,"name":"z29ba2t0t1l301e17 (Song)","steam_id":76561198032359132,"connected_time":1329000000000,"state":"active","ping":46},{"user_id":480,"name":"2fort's silliest soldier","steam_id":76561198128613675,"connected_time":289000000000,"state":"active","ping":75},{"user_id":467,"name":"Seratonin deficient gamer","steam_id":76561198051685232,"connected_time":1386000000000,"state":"active","ping":44},{"user_id":415,"name":"Dog ?","steam_id":76561198347020945,"connected_time":6046000000000,"state":"active","ping":92},{"user_id":449,"name":"griejes","steam_id":76561198053184757,"connected_time":3023000000000,"state":"active","ping":38},{"user_id":481,"name":"Ted Kaczynski","steam_id":76561198064795519,"connected_time":255000000000,"state":"active","ping":61},{"user_id":451,"name":"seigfried","steam_id":76561198047260133,"connected_time":2818000000000,"state":"active","ping":75},{"user_id":412,"name":"Lubrsi","steam_id":76561198040208195,"connected_time":6457000000000,"state":"active","ping":46},{"user_id":450,"name":"Hukka","steam_id":76561198035505355,"connected_time":2827000000000,"state":"active","ping":97},{"user_id":485,"name":"1couver","steam_id":76561198168553215,"connected_time":83000000000,"state":"active","ping":103},{"user_id":462,"name":"gr3821","steam_id":76561198091531010,"connected_time":1996000000000,"state":"active","ping":39},{"user_id":474,"name":"Lucan","steam_id":76561198219195135,"connected_time":784000000000,"state":"active","ping":54},{"user_id":439,"name":"KiT","steam_id":76561198043770371,"connected_time":4048000000000,"state":"active","ping":76},{"user_id":471,"name":"electro","steam_id":76561198024536979,"connected_time":1250000000000,"state":"active","ping":79},{"user_id":473,"name":"‚ù§Ô∏éWarMole‚ù§","steam_id":76561198104248760,"connected_time":895000000000,"state":"active","ping":68},{"user_id":461,"name":"Harex3360 #Savetf2","steam_id":76561199122302529,"connected_time":2318000000000,"state":"active","ping":52},{"user_id":477,"name":"PASTAMAN!!!","steam_id":76561198995641765,"connected_time":323000000000,"state":"active","ping":60}]},{"server_id":114,"name":"Uncletopia | London | 2 | All Maps","name_short":"lon-2","host":"lon-1.uk.uncletopia.com","port":27025,"enabled":true,"region":"eu","cc":"gb","latitude":51.509865,"longitude":-0.118092,"reserved":0,"last_update":"0001-01-01T00:00:00Z","name_a2s":"Uncletopia | London | 2 | All Maps","protocol":17,"map":"pl_badwater","folder":"tf","game":"Team Fortress","app_id":440,"player_count":24,"max_players":24,"Bots":0,"server_type":"Dedicated","server_os":"Linux","password":true,"vac":true,"version":"7932396","steam_id":85568392924470941,"keywords":["nocrits","nodmgspread","payload","uncletopia"],"game_id":440,"stv_port":27026,"stv_name":"Uncletopia | London | 2 | All Maps | STV","players":[{"user_id":302,"name":"clunk","steam_id":76561198836460767,"connected_time":5007000000000,"state":"active","ping":81},{"user_id":378,"name":"Krefa12","steam_id":76561198268375393,"connected_time":1300000000000,"state":"active","ping":91},{"user_id":383,"name":"FilipeLuk","steam_id":76561198150675438,"connected_time":975000000000,"state":"active","ping":67},{"user_id":163,"name":"s a i","steam_id":76561197970379754,"connected_time":15170000000000,"state":"active","ping":62},{"user_id":363,"name":"DroidRanger","steam_id":76561198158858171,"connected_time":2090000000000,"state":"active","ping":63},{"user_id":353,"name":"askulap","steam_id":76561197992018795,"connected_time":2382000000000,"state":"active","ping":87},{"user_id":354,"name":"Twitch:RyukGhostlxrd","steam_id":76561198042545324,"connected_time":2378000000000,"state":"active","ping":104},{"user_id":384,"name":"Umbraprism","steam_id":76561197984504910,"connected_time":772000000000,"state":"active","ping":67},{"user_id":356,"name":":P","steam_id":76561198106399430,"connected_time":2301000000000,"state":"active","ping":36},{"user_id":358,"name":"Penis Contortionist","steam_id":76561198073663784,"connected_time":2281000000000,"state":"active","ping":35},{"user_id":360,"name":"One-Face","steam_id":76561197999384826,"connected_time":2254000000000,"state":"active","ping":62},{"user_id":386,"name":"femboy sniper main","steam_id":76561198119210003,"connected_time":689000000000,"state":"active","ping":101},{"user_id":362,"name":"enter","steam_id":76561198048374516,"connected_time":2163000000000,"state":"active","ping":137},{"user_id":364,"name":"UltimateSlayer","steam_id":76561198384109309,"connected_time":2078000000000,"state":"active","ping":53},{"user_id":365,"name":"quesadilla","steam_id":76561198162873354,"connected_time":2032000000000,"state":"active","ping":139},{"user_id":388,"name":"Dyfed","steam_id":76561198055389492,"connected_time":322000000000,"state":"active","ping":43},{"user_id":367,"name":"Nyst","steam_id":76561198400998400,"connected_time":2019000000000,"state":"active","ping":81},{"user_id":390,"name":"cazador","steam_id":76561198123096922,"connected_time":224000000000,"state":"active","ping":98},{"user_id":379,"name":"Omyskull","steam_id":76561198131711758,"connected_time":1235000000000,"state":"active","ping":68},{"user_id":370,"name":"Peskyplumber64","steam_id":76561198044458330,"connected_time":1992000000000,"state":"active","ping":64},{"user_id":391,"name":"I jazzed myself","steam_id":76561198203016603,"connected_time":144000000000,"state":"active","ping":72},{"user_id":377,"name":"f√©nix","steam_id":76561198083199151,"connected_time":1590000000000,"state":"active","ping":57},{"user_id":296,"name":"sushii","steam_id":76561198297987372,"connected_time":5566000000000,"state":"active","ping":49},{"user_id":385,"name":"skai","steam_id":76561198184881255,"connected_time":770000000000,"state":"active","ping":67}]},{"server_id":320,"name":"Uncletopia | London | 3 | All Maps","name_short":"lon-3","host":"lon-1.uk.uncletopia.com","port":27035,"enabled":true,"region":"eu","cc":"gb","latitude":51.509865,"longitude":-0.118092,"reserved":0,"last_update":"0001-01-01T00:00:00Z","name_a2s":"Uncletopia | London | 3 | All Maps","protocol":17,"map":"pl_borneo","folder":"tf","game":"Team Fortress","app_id":440,"player_count":24,"max_players":24,"Bots":0,"server_type":"Dedicated","server_os":"Linux","password":true,"vac":true,"version":"7932396","steam_id":85568392924510192,"keywords":["nocrits","nodmgspread","payload","uncletopia"],"game_id":440,"stv_port":27036,"stv_name":"Uncletopia | London | 3 | All Maps | STV","players":[{"user_id":77,"name":"Udinese Dion","steam_id":76561198067931573,"connected_time":127000000000,"state":"active","ping":55},{"user_id":41,"name":"FlameTheGame","steam_id":76561198841108519,"connected_time":2974000000000,"state":"active","ping":98},{"user_id":73,"name":"Akkie.","steam_id":76561198017619091,"connected_time":915000000000,"state":"active","ping":63},{"user_id":55,"name":"Soerlssoelss√∂en","steam_id":76561197993060585,"connected_time":2347000000000,"state":"active","ping":83},{"user_id":65,"name":"Hoff","steam_id":76561198138540938,"connected_time":1576000000000,"state":"active","ping":80},{"user_id":13,"name":"Mozzaza","steam_id":76561198156316111,"connected_time":4554000000000,"state":"active","ping":114},{"user_id":78,"name":"A stripper","steam_id":76561198034865891,"connected_time":85000000000,"state":"active","ping":59},{"user_id":71,"name":"Javier dorsaless","steam_id":76561198179324075,"connected_time":1067000000000,"state":"active","ping":66},{"user_id":30,"name":"CEO of Racism","steam_id":76561198211814371,"connected_time":3351000000000,"state":"active","ping":86},{"user_id":21,"name":"lidl","steam_id":76561198895235231,"connected_time":3826000000000,"state":"active","ping":49},{"user_id":22,"name":"Axord","steam_id":76561199289652176,"connected_time":3800000000000,"state":"active","ping":59},{"user_id":76,"name":"NeonNewt","steam_id":76561198066699212,"connected_time":170000000000,"state":"active","ping":55},{"user_id":64,"name":"uNem0_","steam_id":76561198836442412,"connected_time":1679000000000,"state":"active","ping":96},{"user_id":69,"name":"I.AM.THE.BOOP.WHICH.IS.APROACHI","steam_id":76561198049342507,"connected_time":1291000000000,"state":"active","ping":91},{"user_id":28,"name":"UglyTwinYgor","steam_id":76561198132718039,"connected_time":3530000000000,"state":"active","ping":86},{"user_id":66,"name":"Boalition","steam_id":76561198044315302,"connected_time":1538000000000,"state":"active","ping":99},{"user_id":42,"name":"cuddles \u003c3","steam_id":76561198805181599,"connected_time":2968000000000,"state":"active","ping":59},{"user_id":57,"name":"LOBZIK","steam_id":76561198114830120,"connected_time":2149000000000,"state":"active","ping":88},{"user_id":52,"name":"Snake-chan","steam_id":76561199044755854,"connected_time":2679000000000,"state":"active","ping":95},{"user_id":44,"name":"Hexagon","steam_id":76561198151205758,"connected_time":2939000000000,"state":"active","ping":59},{"user_id":49,"name":"OutOfDucks","steam_id":76561198166376227,"connected_time":2863000000000,"state":"active","ping":56},{"user_id":75,"name":"Well, off to hang myself","steam_id":76561198053374944,"connected_time":272000000000,"state":"active","ping":70},{"user_id":51,"name":"Dolcelatte","steam_id":76561198038501770,"connected_time":2762000000000,"state":"active","ping":61},{"user_id":68,"name":"Burpman","steam_id":76561198022897937,"connected_time":1521000000000,"state":"active","ping":49}]},{"server_id":321,"name":"Uncletopia | London | 4 | All Maps","name_short":"lon-4","host":"lon-1.uk.uncletopia.com","port":27045,"enabled":true,"region":"eu","cc":"gb","latitude":51.509865,"longitude":-0.118092,"reserved":0,"last_update":"0001-01-01T00:00:00Z","name_a2s":"Uncletopia | London | 4 | All Maps","protocol":17,"map":"pl_borneo","folder":"tf","game":"Team Fortress","app_id":440,"player_count":24,"max_players":24,"Bots":0,"server_type":"Dedicated","server_os":"Linux","password":true,"vac":true,"version":"7932396","steam_id":85568392924510193,"keywords":["nocrits","nodmgspread","payload","uncletopia"],"game_id":440,"stv_port":27046,"stv_name":"Uncletopia | London | 4 | All Maps | STV","players":[{"user_id":14,"name":"Dr_Agent","steam_id":76561198330355519,"connected_time":1042000000000,"state":"active","ping":66},{"user_id":15,"name":"PUMPKiNH3D","steam_id":76561198412832513,"connected_time":1033000000000,"state":"active","ping":55},{"user_id":16,"name":"TezzRexx","steam_id":76561197965758653,"connected_time":1003000000000,"state":"active","ping":64},{"user_id":18,"name":"The Blue Moon","steam_id":76561198368140755,"connected_time":862000000000,"state":"active","ping":31},{"user_id":22,"name":"Townsend And Sons","steam_id":76561199072698153,"connected_time":632000000000,"state":"active","ping":67},{"user_id":20,"name":"Leonic","steam_id":76561198067699203,"connected_time":833000000000,"state":"active","ping":38},{"user_id":23,"name":"SirDirtbag","steam_id":76561198091890855,"connected_time":617000000000,"state":"active","ping":80},{"user_id":24,"name":"frosty","steam_id":76561198094560834,"connected_time":579000000000,"state":"active","ping":45},{"user_id":37,"name":"Solaire_With_A_Rocket_Launcher","steam_id":76561199156868011,"connected_time":460000000000,"state":"active","ping":84},{"user_id":26,"name":"Just Navlis","steam_id":76561198090479609,"connected_time":564000000000,"state":"active","ping":59},{"user_id":27,"name":"cof","steam_id":76561199128417805,"connected_time":564000000000,"state":"active","ping":67},{"user_id":28,"name":"C.H.E.R.E.P.","steam_id":76561198026938595,"connected_time":553000000000,"state":"active","ping":76},{"user_id":29,"name":"GMsU | Rebikas","steam_id":76561198077053764,"connected_time":550000000000,"state":"active","ping":56},{"user_id":30,"name":"Technic","steam_id":76561198128096130,"connected_time":545000000000,"state":"active","ping":55},{"user_id":31,"name":"Bumblebee","steam_id":76561198033551105,"connected_time":544000000000,"state":"active","ping":75},{"user_id":32,"name":"DelT","steam_id":76561198204007537,"connected_time":537000000000,"state":"active","ping":116},{"user_id":33,"name":"Meerkoet","steam_id":76561198307081127,"connected_time":529000000000,"state":"active","ping":62},{"user_id":34,"name":"Pink ‚ùÄ","steam_id":76561198972047944,"connected_time":506000000000,"state":"active","ping":58},{"user_id":35,"name":"Linoleum","steam_id":76561198531978435,"connected_time":482000000000,"state":"active","ping":60},{"user_id":36,"name":"Greasus (The Shockingly Obese)","steam_id":76561198027738546,"connected_time":471000000000,"state":"active","ping":40},{"user_id":38,"name":"Talent","steam_id":76561198153880354,"connected_time":453000000000,"state":"active","ping":44},{"user_id":39,"name":"Nerdygirl","steam_id":76561197988217409,"connected_time":447000000000,"state":"active","ping":84},{"user_id":40,"name":"Joy","steam_id":76561198155314925,"connected_time":435000000000,"state":"active","ping":54},{"user_id":41,"name":"Yuval","steam_id":76561198241802390,"connected_time":408000000000,"state":"active","ping":117}]},{"server_id":21,"name":"Uncletopia | London | 5 | All Maps","name_short":"lon-5","host":"lon-1.uk.uncletopia.com","port":27055,"enabled":true,"region":"eu","cc":"gb","latitude":51.509865,"longitude":-0.118092,"reserved":0,"last_update":"0001-01-01T00:00:00Z","name_a2s":"Uncletopia | London | 5 | All Maps","protocol":17,"map":"pl_snowycoast","folder":"tf","game":"Team Fortress","app_id":440,"player_count":0,"max_players":24,"Bots":0,"server_type":"Dedicated","server_os":"Linux","password":true,"vac":true,"version":"7932396","steam_id":85568392924742829,"keywords":["nocrits","nodmgspread","payload","uncletopia"],"game_id":440,"stv_port":27056,"stv_name":"Uncletopia | London | 5 | All Maps | STV","players":null},{"server_id":22,"name":"Uncletopia | London | 6 | All Maps","name_short":"lon-6","host":"lon-1.uk.uncletopia.com","port":27065,"enabled":true,"region":"eu","cc":"gb","latitude":51.509865,"longitude":-0.118092,"reserved":0,"last_update":"0001-01-01T00:00:00Z","name_a2s":"Uncletopia | London | 6 | All Maps","protocol":17,"map":"koth_viaduct","folder":"tf","game":"Team Fortress","app_id":440,"player_count":0,"max_players":24,"Bots":0,"server_type":"Dedicated","server_os":"Linux","password":true,"vac":true,"version":"7932396","steam_id":85568392924742830,"keywords":["cp","nocrits","nodmgspread","uncletopia"],"game_id":440,"stv_port":27066,"stv_name":"Uncletopia | London | 6 | All Maps | STV","players":null},{"server_id":40,"name":"Uncletopia | London | 7 | No Payload","name_short":"lon-7","host":"lon-1.uk.uncletopia.com","port":27075,"enabled":true,"region":"eu","cc":"gb","latitude":51.509865,"longitude":-0.118092,"reserved":0,"last_update":"0001-01-01T00:00:00Z","name_a2s":"Uncletopia | London | 7 | No Payload","protocol":17,"map":"koth_cascade","folder":"tf","game":"Team Fortress","app_id":440,"player_count":0,"max_players":24,"Bots":0,"server_type":"Dedicated","server_os":"Linux","password":true,"vac":true,"version":"7932396","steam_id":85568392924964314,"keywords":["cp","nocrits","nodmgspread","uncletopia"],"game_id":440,"stv_port":27076,"stv_name":"Uncletopia | London | 7 | No Payload | STV","players":null},{"server_id":41,"name":"Uncletopia | London | 8 | Community","name_short":"lon-8","host":"lon-1.uk.uncletopia.com","port":27085,"enabled":true,"region":"eu","cc":"gb","latitude":51.509865,"longitude":-0.118092,"reserved":0,"last_update":"0001-01-01T00:00:00Z","name_a2s":"Uncletopia | London | 8 | Community","protocol":17,"map":"workshop/pl_highwood_b13.ugc1769496557","folder":"tf","game":"Team Fortress","app_id":440,"player_count":0,"max_players":24,"Bots":0,"server_type":"Dedicated","server_os":"Linux","password":true,"vac":true,"version":"7932396","steam_id":85568392924964315,"keywords":["nocrits","nodmgspread","payload","uncletopia"],"game_id":440,"stv_port":27086,"stv_name":"Uncletopia | London | 8 | Community | STV","players":null},{"server_id":300,"name":"Uncletopia | Montr√©al | 1 | All Maps","name_short":"mtl-1","host":"mtl-1.ca.uncletopia.com","port":27015,"enabled":true,"region":"us-east","cc":"ca","latitude":45.50889,"longitude":-73.56167,"reserved":0,"last_update":"0001-01-01T00:00:00Z","name_a2s":"Uncletopia | Montr√©al | 1 | All Maps","protocol":17,"map":"cp_altitude","folder":"tf","game":"Team Fortress","app_id":440,"player_count":0,"max_players":24,"Bots":0,"server_type":"Dedicated","server_os":"Linux","password":true,"vac":true,"version":"7932396","steam_id":85568392924500087,"keywords":["cp","nocrits","nodmgspread","uncletopia"],"game_id":440,"stv_port":27016,"stv_name":"Uncletopia | Montr√©al | 1 | All Maps | STV","players":null},{"server_id":301,"name":"Uncletopia | Montr√©al | 2 | All Maps","name_short":"mtl-2","host":"mtl-1.ca.uncletopia.com","port":27025,"enabled":true,"region":"us-east","cc":"ca","latitude":45.50889,"longitude":-73.56167,"reserved":0,"last_update":"0001-01-01T00:00:00Z","name_a2s":"Uncletopia | Montr√©al | 2 | All Maps","protocol":17,"map":"koth_lakeside_final","folder":"tf","game":"Team Fortress","app_id":440,"player_count":0,"max_players":24,"Bots":0,"server_type":"Dedicated","server_os":"Linux","password":true,"vac":true,"version":"7932396","steam_id":85568392924500088,"keywords":["cp","nocrits","nodmgspread","uncletopia"],"game_id":440,"stv_port":27026,"stv_name":"Uncletopia | Montr√©al | 2 | All Maps | STV","players":null},{"server_id":302,"name":"Uncletopia | Montr√©al | 3 | All Maps","name_short":"mtl-3","host":"mtl-1.ca.uncletopia.com","port":27035,"enabled":true,"region":"us-east","cc":"ca","latitude":45.50889,"longitude":-73.56167,"reserved":0,"last_update":"0001-01-01T00:00:00Z","name_a2s":"Uncletopia | Montr√©al | 3 | All Maps","protocol":17,"map":"cp_process_final","folder":"tf","game":"Team Fortress","app_id":440,"player_count":0,"max_players":24,"Bots":0,"server_type":"Dedicated","server_os":"Linux","password":true,"vac":true,"version":"7932396","steam_id":85568392924500089,"keywords":["cp","nocrits","nodmgspread","uncletopia"],"game_id":440,"stv_port":27036,"stv_name":"Uncletopia | Montr√©al | 3 | All Maps | STV","players":null},{"server_id":303,"name":"Uncletopia | Montr√©al | 4 | No Payload","name_short":"mtl-4","host":"mtl-1.ca.uncletopia.com","port":27045,"enabled":true,"region":"us-east","cc":"ca","latitude":45.50889,"longitude":-73.56167,"reserved":0,"last_update":"0001-01-01T00:00:00Z","name_a2s":"Uncletopia | Montr√©al | 4 | No Payload","protocol":17,"map":"cp_snakewater_final1","folder":"tf","game":"Team Fortress","app_id":440,"player_count":0,"max_players":24,"Bots":0,"server_type":"Dedicated","server_os":"Linux","password":true,"vac":true,"version":"7932396","steam_id":85568392924500090,"keywords":["cp","nocrits","nodmgspread","uncletopia"],"game_id":440,"stv_port":27046,"stv_name":"Uncletopia | Montr√©al | 4 | No Payload | STV","players":null},{"server_id":13,"name":"Uncletopia | New York City | 1 | All Maps","name_short":"nyc-1","host":"nyc-1.us.uncletopia.com","port":27015,"enabled":true,"region":"us-east","cc":"us","latitude":40.73061,"longitude":-73.93524,"reserved":0,"last_update":"0001-01-01T00:00:00Z","name_a2s":"Uncletopia | New York City | 1 | All Maps","protocol":17,"map":"pl_snowycoast","folder":"tf","game":"Team Fortress","app_id":440,"player_count":21,"max_players":24,"Bots":0,"server_type":"Dedicated","server_os":"Linux","password":true,"vac":true,"version":"7932396","steam_id":85568392924469993,"keywords":["nocrits","nodmgspread","payload","uncletopia"],"game_id":440,"stv_port":27016,"stv_name":"Uncletopia | New York City | 1 | All Maps | STV","players":[{"user_id":62,"name":"Shino","steam_id":76561198272401589,"connected_time":1387000000000,"state":"active","ping":86},{"user_id":87,"name":"BLACK MAN FROM JOJO","steam_id":76561198272948471,"connected_time":134000000000,"state":"active","ping":71},{"user_id":69,"name":"domolingus III","steam_id":76561198311015886,"connected_time":994000000000,"state":"active","ping":95},{"user_id":90,"name":"Delifru","steam_id":76561198078886946,"connected_time":34000000000,"state":"active","ping":59},{"user_id":78,"name":"Frajer","steam_id":76561198059129680,"connected_time":754000000000,"state":"active","ping":79},{"user_id":85,"name":"Monty","steam_id":76561197993567253,"connected_time":354000000000,"state":"active","ping":118},{"user_id":89,"name":"nelly modelo","steam_id":76561198044875206,"connected_time":96000000000,"state":"active","ping":97},{"user_id":75,"name":"Oopsie Daisy ‚ùã","steam_id":76561198042144492,"connected_time":810000000000,"state":"active","ping":74},{"user_id":82,"name":"Rornir","steam_id":76561198081829615,"connected_time":570000000000,"state":"active","ping":56},{"user_id":39,"name":"wakeupbdot","steam_id":76561198160786631,"connected_time":3379000000000,"state":"active","ping":76},{"user_id":60,"name":"Muad'Dib","steam_id":76561198031071019,"connected_time":1449000000000,"state":"active","ping":59},{"user_id":53,"name":"Redzur","steam_id":76561199384588086,"connected_time":2522000000000,"state":"active","ping":66},{"user_id":84,"name":"Brown_Dream","steam_id":76561198975766145,"connected_time":424000000000,"state":"active","ping":69},{"user_id":65,"name":"hill of the king","steam_id":76561198099491925,"connected_time":1265000000000,"state":"active","ping":75},{"user_id":71,"name":"Newt","steam_id":76561199119569440,"connected_time":959000000000,"state":"active","ping":90},{"user_id":51,"name":"Stolid","steam_id":76561197998506423,"connected_time":2679000000000,"state":"active","ping":125},{"user_id":88,"name":"Petrichor","steam_id":76561198323397375,"connected_time":123000000000,"state":"active","ping":84},{"user_id":79,"name":"Queen Frau the Round","steam_id":76561197999942134,"connected_time":744000000000,"state":"active","ping":60},{"user_id":42,"name":"we're so back","steam_id":76561198058485742,"connected_time":3347000000000,"state":"active","ping":63},{"user_id":80,"name":"Koishi","steam_id":76561198054541054,"connected_time":742000000000,"state":"active","ping":43},{"user_id":81,"name":"ayecodex","steam_id":76561199477598858,"connected_time":741000000000,"state":"active","ping":54}]},{"server_id":14,"name":"Uncletopia | New York City | 2 | All Maps","name_short":"nyc-2","host":"nyc-1.us.uncletopia.com","port":27025,"enabled":true,"region":"us-east","cc":"us","latitude":40.73061,"longitude":-73.93524,"reserved":0,"last_update":"0001-01-01T00:00:00Z","name_a2s":"Uncletopia | New York City | 2 | All Maps","protocol":17,"map":"koth_lakeside_final","folder":"tf","game":"Team Fortress","app_id":440,"player_count":1,"max_players":24,"Bots":0,"server_type":"Dedicated","server_os":"Linux","password":true,"vac":true,"version":"7932396","steam_id":85568392924469994,"keywords":["cp","nocrits","nodmgspread","uncletopia"],"game_id":440,"stv_port":27026,"stv_name":"Uncletopia | New York City | 2 | All Maps | STV","players":[{"user_id":5,"name":"Rambly Dambly","steam_id":76561198844496567,"connected_time":171000000000,"state":"active","ping":30}]},{"server_id":15,"name":"Uncletopia | New York City | 3 | Stopwatch Beta","name_short":"nyc-3","host":"nyc-1.us.uncletopia.com","port":27035,"enabled":true,"region":"us-east","cc":"us","latitude":40.73061,"longitude":-73.93524,"reserved":0,"last_update":"0001-01-01T00:00:00Z","name_a2s":"Uncletopia | New York City | 3 | Stopwatch Beta","protocol":17,"map":"koth_lakeside_final","folder":"tf","game":"Team Fortress","app_id":440,"player_count":0,"max_players":24,"Bots":0,"server_type":"Dedicated","server_os":"Linux","password":true,"vac":true,"version":"7932396","steam_id":85568392924742820,"keywords":["cp","nocrits","nodmgspread","uncletopia"],"game_id":440,"stv_port":27036,"stv_name":"Uncletopia | New York City | 3 | Stopwatch Beta | STV","players":null},{"server_id":16,"name":"Uncletopia | New York City | 4 | Community","name_short":"nyc-4","host":"nyc-1.us.uncletopia.com","port":27045,"enabled":true,"region":"us-east","cc":"us","latitude":40.73061,"longitude":-73.93524,"reserved":0,"last_update":"0001-01-01T00:00:00Z","name_a2s":"Uncletopia | New York City | 4 | Community","protocol":17,"map":"workshop/koth_ashville_final.ugc2130459942","folder":"tf","game":"Team Fortress","app_id":440,"player_count":20,"max_players":24,"Bots":0,"server_type":"Dedicated","server_os":"Linux","password":true,"vac":true,"version":"7932396","steam_id":85568392924742821,"keywords":["cp","nocrits","nodmgspread","uncletopia"],"game_id":440,"stv_port":27046,"stv_name":"Uncletopia | New York City | 4 | Community | STV","players":[{"user_id":180,"name":"bonehead","steam_id":76561199201489468,"connected_time":82000000000,"state":"active","ping":129},{"user_id":158,"name":"Osrio","steam_id":76561198083428069,"connected_time":1544000000000,"state":"active","ping":94},{"user_id":48,"name":"I really enjoy MEN","steam_id":76561198164119602,"connected_time":8654000000000,"state":"active","ping":159},{"user_id":155,"name":"Dr. Cockburn","steam_id":76561199077519353,"connected_time":1748000000000,"state":"active","ping":119},{"user_id":184,"name":"Mecha","steam_id":76561198014927379,"connected_time":12000000000,"state":"spawning","ping":55},{"user_id":181,"name":"Doods","steam_id":76561199172809660,"connected_time":77000000000,"state":"active","ping":174},{"user_id":172,"name":"olivia","steam_id":76561198288130849,"connected_time":749000000000,"state":"active","ping":59},{"user_id":141,"name":"chikin.sauce","steam_id":76561198042464635,"connected_time":2618000000000,"state":"active","ping":95},{"user_id":175,"name":"Boommanchu","steam_id":76561198057491452,"connected_time":620000000000,"state":"active","ping":99},{"user_id":183,"name":"chungy -iwnl-","steam_id":76561198215559840,"connected_time":52000000000,"state":"active","ping":68},{"user_id":150,"name":"brian.dahlmann","steam_id":76561198360431651,"connected_time":1933000000000,"state":"active","ping":71},{"user_id":182,"name":"Medication Woman","steam_id":76561198348965524,"connected_time":75000000000,"state":"active","ping":59},{"user_id":151,"name":"beats","steam_id":76561199245717718,"connected_time":1913000000000,"state":"active","ping":55},{"user_id":174,"name":"ADRIEN BRODY","steam_id":76561198009299473,"connected_time":712000000000,"state":"active","ping":50},{"user_id":145,"name":"LORDO","steam_id":76561198044824675,"connected_time":2366000000000,"state":"active","ping":77},{"user_id":161,"name":"JUST ONE PEPSI","steam_id":76561198084334538,"connected_time":1325000000000,"state":"active","ping":47},{"user_id":100,"name":"Lifial","steam_id":76561198271885819,"connected_time":5199000000000,"state":"active","ping":58},{"user_id":165,"name":"FIzzUS","steam_id":76561198423205141,"connected_time":1077000000000,"state":"active","ping":156},{"user_id":121,"name":"Team Fortress 2","steam_id":76561198180638958,"connected_time":4383000000000,"state":"active","ping":57},{"user_id":168,"name":"Wagemage","steam_id":76561198013625580,"connected_time":1011000000000,"state":"active","ping":64}]},{"server_id":142,"name":"Uncletopia | S√£o Paulo | 1 | All Maps","name_short":"sao-1","host":"sao-1.br.uncletopia.com","port":27015,"enabled":true,"region":"sa","cc":"br","latitude":-23.533773,"longitude":-46.62529,"reserved":0,"last_update":"0001-01-01T00:00:00Z","name_a2s":"Uncletopia | S√£o Paulo | 1 | All Maps","protocol":17,"map":"pl_borneo","folder":"tf","game":"Team Fortress","app_id":440,"player_count":0,"max_players":24,"Bots":0,"server_type":"Dedicated","server_os":"Linux","password":true,"vac":true,"version":"7932396","steam_id":85568392924469996,"keywords":["nocrits","nodmgspread","payload","uncletopia"],"game_id":440,"stv_port":27016,"stv_name":"Uncletopia | S√£o Paulo | 1 | All Maps | STV","players":null},{"server_id":143,"name":"Uncletopia | S√£o Paulo | 2 | All Maps","name_short":"sao-2","host":"sao-2.br.uncletopia.com","port":27015,"enabled":true,"region":"sa","cc":"br","latitude":-23.533773,"longitude":-46.62529,"reserved":0,"last_update":"0001-01-01T00:00:00Z","name_a2s":"Uncletopia | S√£o Paulo | 2 | All Maps","protocol":17,"map":"koth_lakeside_final","folder":"tf","game":"Team Fortress","app_id":440,"player_count":0,"max_players":24,"Bots":0,"server_type":"Dedicated","server_os":"Linux","password":true,"vac":true,"version":"7932396","steam_id":85568392924485349,"keywords":["cp","nocrits","nodmgspread","uncletopia"],"game_id":440,"stv_port":27016,"stv_name":"Uncletopia | S√£o Paulo | 2 | All Maps | STV","players":null},{"server_id":7,"name":"Uncletopia | Seattle | 1 | All Maps","name_short":"sea-1","host":"sea-1.us.uncletopia.com","port":27015,"enabled":true,"region":"us-west","cc":"us","latitude":47.608013,"longitude":-122.33517,"reserved":0,"last_update":"0001-01-01T00:00:00Z","name_a2s":"Uncletopia | Seattle | 1 | All Maps","protocol":17,"map":"pl_pier","folder":"tf","game":"Team Fortress","app_id":440,"player_count":0,"max_players":24,"Bots":0,"server_type":"Dedicated","server_os":"Linux","password":true,"vac":true,"version":"7932396","steam_id":85568392924469997,"keywords":["nocrits","nodmgspread","payload","uncletopia"],"game_id":440,"stv_port":27016,"stv_name":"Uncletopia | Seattle | 1 | All Maps | STV","players":null},{"server_id":119,"name":"Uncletopia | Seattle | 2 | All Maps","name_short":"sea-2","host":"sea-1.us.uncletopia.com","port":27025,"enabled":true,"region":"us-west","cc":"us","latitude":47.608013,"longitude":-122.33517,"reserved":0,"last_update":"0001-01-01T00:00:00Z","name_a2s":"Uncletopia | Seattle | 2 | All Maps","protocol":17,"map":"pl_upward","folder":"tf","game":"Team Fortress","app_id":440,"player_count":21,"max_players":24,"Bots":0,"server_type":"Dedicated","server_os":"Linux","password":true,"vac":true,"version":"7932396","steam_id":85568392924469998,"keywords":["nocrits","nodmgspread","payload","uncletopia"],"game_id":440,"stv_port":27026,"stv_name":"Uncletopia | Seattle | 2 | All Maps | STV","players":[{"user_id":225,"name":"Grify","steam_id":76561198012292317,"connected_time":1505000000000,"state":"active","ping":132},{"user_id":205,"name":"Codeine Demon","steam_id":76561198083936090,"connected_time":3056000000000,"state":"active","ping":59},{"user_id":193,"name":"Patio","steam_id":76561197986082608,"connected_time":3978000000000,"state":"active","ping":54},{"user_id":223,"name":"Aquiles Baeza","steam_id":76561198081053203,"connected_time":1619000000000,"state":"active","ping":99},{"user_id":206,"name":"Radio","steam_id":76561198194821053,"connected_time":2771000000000,"state":"active","ping":45},{"user_id":208,"name":"IsThatAJoJoReference","steam_id":76561198835513424,"connected_time":2467000000000,"state":"active","ping":92},{"user_id":230,"name":"creepycrawler","steam_id":76561198352016831,"connected_time":1254000000000,"state":"active","ping":106},{"user_id":222,"name":"Daz","steam_id":76561198041431938,"connected_time":1654000000000,"state":"active","ping":46},{"user_id":182,"name":"HawkBlaze","steam_id":76561199000152914,"connected_time":5796000000000,"state":"active","ping":114},{"user_id":220,"name":"Thewaffleman141","steam_id":76561198083068694,"connected_time":1736000000000,"state":"active","ping":114},{"user_id":232,"name":"Thequirka","steam_id":76561198968058652,"connected_time":600000000000,"state":"active","ping":51},{"user_id":211,"name":"Dude","steam_id":76561199058616824,"connected_time":2315000000000,"state":"active","ping":86},{"user_id":228,"name":"bodie._.","steam_id":76561198079474904,"connected_time":1453000000000,"state":"active","ping":64},{"user_id":197,"name":"Bug","steam_id":76561198279239047,"connected_time":3689000000000,"state":"active","ping":113},{"user_id":207,"name":"H0UZM@$T3R!!!!1","steam_id":76561198044297170,"connected_time":2589000000000,"state":"active","ping":69},{"user_id":194,"name":"taksss","steam_id":76561198995422051,"connected_time":3978000000000,"state":"active","ping":74},{"user_id":166,"name":"‚éù‚ßπMythicalTwinkie‚ß∏‚é†","steam_id":76561198167969738,"connected_time":6214000000000,"state":"active","ping":53},{"user_id":174,"name":"poofysters","steam_id":76561198800118537,"connected_time":6055000000000,"state":"active","ping":77},{"user_id":233,"name":"poob","steam_id":76561198406728732,"connected_time":38000000000,"state":"active","ping":120},{"user_id":213,"name":"BlazedBunny","steam_id":76561198243610560,"connected_time":2253000000000,"state":"active","ping":75},{"user_id":227,"name":"Big Honk","steam_id":76561198268755194,"connected_time":1463000000000,"state":"active","ping":76}]},{"server_id":406,"name":"Uncletopia | Seattle | 3 | Stopwatch Beta","name_short":"sea-3","host":"sea-1.us.uncletopia.com","port":27035,"enabled":true,"region":"us-west","cc":"us","latitude":47.608013,"longitude":-122.33517,"reserved":0,"last_update":"0001-01-01T00:00:00Z","name_a2s":"Uncletopia | Seattle | 3 | Stopwatch Beta","protocol":17,"map":"workshop/koth_clearcut_b15.ugc2107050255","folder":"tf","game":"Team Fortress","app_id":440,"player_count":0,"max_players":24,"Bots":0,"server_type":"Dedicated","server_os":"Linux","password":true,"vac":true,"version":"7932396","steam_id":85568392924515217,"keywords":["cp","nocrits","nodmgspread","uncletopia"],"game_id":440,"stv_port":27036,"stv_name":"Uncletopia | Seattle | 3 | Stopwatch Beta | STV","players":null},{"server_id":17,"name":"Uncletopia | San Francisco | 1 | All Maps","name_short":"sfo-1","host":"sfo-1.us.uncletopia.com","port":27015,"enabled":true,"region":"us-west","cc":"us","latitude":37.77397,"longitude":-122.4313,"reserved":0,"last_update":"0001-01-01T00:00:00Z","name_a2s":"Uncletopia | San Francisco | 1 | All Maps","protocol":17,"map":"pl_frontier_final","folder":"tf","game":"Team Fortress","app_id":440,"player_count":0,"max_players":24,"Bots":0,"server_type":"Dedicated","server_os":"Linux","password":true,"vac":true,"version":"7932396","steam_id":85568392924469999,"keywords":["nocrits","nodmgspread","payload","uncletopia"],"game_id":440,"stv_port":27016,"stv_name":"Uncletopia | San Francisco | 1 | All Maps | STV","players":null},{"server_id":18,"name":"Uncletopia | San Francisco | 2 | All Maps","name_short":"sfo-2","host":"sfo-1.us.uncletopia.com","port":27025,"enabled":true,"region":"us-west","cc":"us","latitude":37.77397,"longitude":-122.4313,"reserved":0,"last_update":"0001-01-01T00:00:00Z","name_a2s":"Uncletopia | San Francisco | 2 | All Maps","protocol":17,"map":"ctf_turbine","folder":"tf","game":"Team Fortress","app_id":440,"player_count":0,"max_players":24,"Bots":0,"server_type":"Dedicated","server_os":"Linux","password":true,"vac":true,"version":"7932396","steam_id":85568392924470000,"keywords":["ctf","nocrits","nodmgspread","uncletopia"],"game_id":440,"stv_port":27026,"stv_name":"Uncletopia | San Francisco | 2 | All Maps | STV","players":null},{"server_id":19,"name":"Uncletopia | San Francisco | 3 | Stopwatch Beta","name_short":"sfo-3","host":"sfo-1.us.uncletopia.com","port":27035,"enabled":true,"region":"us-west","cc":"us","latitude":37.77397,"longitude":-122.4313,"reserved":0,"last_update":"0001-01-01T00:00:00Z","name_a2s":"Uncletopia | San Francisco | 3 | Stopwatch Beta","protocol":17,"map":"koth_lakeside_final","folder":"tf","game":"Team Fortress","app_id":440,"player_count":0,"max_players":24,"Bots":0,"server_type":"Dedicated","server_os":"Linux","password":true,"vac":true,"version":"7932396","steam_id":85568392924742824,"keywords":["cp","nocrits","nodmgspread","uncletopia"],"game_id":440,"stv_port":27036,"stv_name":"Uncletopia | San Francisco | 3 | Stopwatch Beta | STV","players":null},{"server_id":20,"name":"Uncletopia | San Francisco | 4 | Community","name_short":"sfo-4","host":"sfo-1.us.uncletopia.com","port":27045,"enabled":true,"region":"us-west","cc":"us","latitude":37.77397,"longitude":-122.4313,"reserved":0,"last_update":"0001-01-01T00:00:00Z","name_a2s":"Uncletopia | San Francisco | 4 | Community","protocol":17,"map":"pl_borneo","folder":"tf","game":"Team Fortress","app_id":440,"player_count":0,"max_players":24,"Bots":0,"server_type":"Dedicated","server_os":"Linux","password":true,"vac":true,"version":"7932396","steam_id":85568392924742826,"keywords":["nocrits","nodmgspread","payload","uncletopia"],"game_id":440,"stv_port":27046,"stv_name":"Uncletopia | San Francisco | 4 | Community | STV","players":null},{"server_id":141,"name":"Uncletopia | Sydney | 1 | All Maps","name_short":"syd-1","host":"syd-1.au.uncletopia.com","port":27015,"enabled":true,"region":"au","cc":"au","latitude":-33.865143,"longitude":151.2099,"reserved":0,"last_update":"0001-01-01T00:00:00Z","name_a2s":"Uncletopia | Sydney | 1 | All Maps","protocol":17,"map":"koth_lakeside_final","folder":"tf","game":"Team Fortress","app_id":440,"player_count":0,"max_players":24,"Bots":0,"server_type":"Dedicated","server_os":"Linux","password":true,"vac":true,"version":"7932396","steam_id":85568392924470001,"keywords":["cp","nocrits","nodmgspread","uncletopia"],"game_id":440,"stv_port":27016,"stv_name":"Uncletopia | Sydney | 1 | All Maps | STV","players":null},{"server_id":123,"name":"Uncletopia | Sydney | 2 | All Maps","name_short":"syd-2","host":"syd-1.au.uncletopia.com","port":27025,"enabled":true,"region":"au","cc":"au","latitude":-33.865143,"longitude":151.2099,"reserved":0,"last_update":"0001-01-01T00:00:00Z","name_a2s":"Uncletopia | Sydney | 2 | All Maps","protocol":17,"map":"koth_lakeside_final","folder":"tf","game":"Team Fortress","app_id":440,"player_count":0,"max_players":24,"Bots":0,"server_type":"Dedicated","server_os":"Linux","password":true,"vac":true,"version":"7932396","steam_id":85568392924470002,"keywords":["cp","nocrits","nodmgspread","uncletopia"],"game_id":440,"stv_port":27026,"stv_name":"Uncletopia | Sydney | 2 | All Maps | STV","players":null},{"server_id":395,"name":"Uncletopia | Sydney | 3 | All Maps","name_short":"syd-3","host":"syd-1.au.uncletopia.com","port":27035,"enabled":true,"region":"au","cc":"au","latitude":-33.865143,"longitude":151.2099,"reserved":0,"last_update":"0001-01-01T00:00:00Z","name_a2s":"Uncletopia | Sydney | 3 | All Maps","protocol":17,"map":"cp_process_final","folder":"tf","game":"Team Fortress","app_id":440,"player_count":0,"max_players":24,"Bots":0,"server_type":"Dedicated","server_os":"Linux","password":true,"vac":true,"version":"7932396","steam_id":85568392925194467,"keywords":["cp","nocrits","nodmgspread","uncletopia"],"game_id":440,"stv_port":27036,"stv_name":"Uncletopia | Sydney | 3 | All Maps | STV","players":null},{"server_id":396,"name":"Uncletopia | Sydney | 4 | All Maps","name_short":"syd-4","host":"syd-1.au.uncletopia.com","port":27045,"enabled":true,"region":"au","cc":"au","latitude":-33.865143,"longitude":151.2099,"reserved":0,"last_update":"0001-01-01T00:00:00Z","name_a2s":"Uncletopia | Sydney | 4 | All Maps","protocol":17,"map":"pl_frontier_final","folder":"tf","game":"Team Fortress","app_id":440,"player_count":0,"max_players":24,"Bots":0,"server_type":"Dedicated","server_os":"Linux","password":true,"vac":true,"version":"7932396","steam_id":85568392925397958,"keywords":["nocrits","nodmgspread","payload","uncletopia"],"game_id":440,"stv_port":27046,"stv_name":"Uncletopia | Sydney | 4 | All Maps | STV","players":null},{"server_id":58,"name":"Uncletopia | Sydney | 5 | Stopwatch Beta","name_short":"syd-5","host":"syd-1.au.uncletopia.com","port":27055,"enabled":true,"region":"au","cc":"au","latitude":-33.865143,"longitude":151.2099,"reserved":0,"last_update":"0001-01-01T00:00:00Z","name_a2s":"Uncletopia | Sydney | 5 | Stopwatch Beta","protocol":17,"map":"pl_borneo","folder":"tf","game":"Team Fortress","app_id":440,"player_count":0,"max_players":24,"Bots":0,"server_type":"Dedicated","server_os":"Linux","password":true,"vac":true,"version":"7932396","steam_id":85568392925397959,"keywords":["nocrits","nodmgspread","payload","uncletopia"],"game_id":440,"stv_port":27056,"stv_name":"Uncletopia | Sydney | 5 | Stopwatch Beta | STV","players":null},{"server_id":59,"name":"Uncletopia | Sydney | 6 | Community","name_short":"syd-6","host":"syd-1.au.uncletopia.com","port":27065,"enabled":true,"region":"au","cc":"au","latitude":-33.865143,"longitude":151.2099,"reserved":0,"last_update":"0001-01-01T00:00:00Z","name_a2s":"Uncletopia | Sydney | 6 | Community","protocol":17,"map":"pl_badwater","folder":"tf","game":"Team Fortress","app_id":440,"player_count":0,"max_players":24,"Bots":0,"server_type":"Dedicated","server_os":"Linux","password":true,"vac":true,"version":"7932396","steam_id":85568392925397960,"keywords":["nocrits","nodmgspread","payload","uncletopia"],"game_id":440,"stv_port":27066,"stv_name":"Uncletopia | Sydney | 6 | Community | STV","players":null},{"server_id":49,"name":"Uncletopia | Warsaw | 1 | All Maps","name_short":"waw-1","host":"waw-1.pl.uncletopia.com","port":27015,"enabled":true,"region":"eu","cc":"pl","latitude":52.2297,"longitude":21.017532,"reserved":0,"last_update":"0001-01-01T00:00:00Z","name_a2s":"","protocol":0,"map":"","folder":"","game":"","app_id":0,"player_count":0,"max_players":0,"Bots":0,"server_type":"","server_os":"","password":false,"vac":false,"version":"","steam_id":0,"keywords":null,"game_id":0,"stv_port":0,"stv_name":"","players":null},{"server_id":50,"name":"Uncletopia | Warsaw | 2 | All Maps","name_short":"waw-2","host":"waw-1.pl.uncletopia.com","port":27025,"enabled":true,"region":"eu","cc":"pl","latitude":52.2297,"longitude":21.017532,"reserved":0,"last_update":"0001-01-01T00:00:00Z","name_a2s":"Uncletopia | Warsaw | 2 | All Maps","protocol":17,"map":"cp_altitude","folder":"tf","game":"Team Fortress","app_id":440,"player_count":0,"max_players":24,"Bots":0,"server_type":"Dedicated","server_os":"Linux","password":true,"vac":true,"version":"7932396","steam_id":85568392925397851,"keywords":["cp","nocrits","nodmgspread","uncletopia"],"game_id":440,"stv_port":27026,"stv_name":"Uncletopia | Warsaw | 2 | All Maps | STV","players":null},{"server_id":51,"name":"Uncletopia | Warsaw | 3 | All Maps","name_short":"waw-3","host":"waw-1.pl.uncletopia.com","port":27035,"enabled":true,"region":"eu","cc":"pl","latitude":52.2297,"longitude":21.017532,"reserved":0,"last_update":"0001-01-01T00:00:00Z","name_a2s":"Uncletopia | Warsaw | 3 | All Maps","protocol":17,"map":"koth_lakeside_final","folder":"tf","game":"Team Fortress","app_id":440,"player_count":0,"max_players":24,"Bots":0,"server_type":"Dedicated","server_os":"Linux","password":true,"vac":true,"version":"7932396","steam_id":85568392925397852,"keywords":["cp","nocrits","nodmgspread","uncletopia"],"game_id":440,"stv_port":27036,"stv_name":"Uncletopia | Warsaw | 3 | All Maps | STV","players":null},{"server_id":52,"name":"Uncletopia | Warsaw | 4 | All Maps","name_short":"waw-4","host":"waw-1.pl.uncletopia.com","port":27045,"enabled":true,"region":"eu","cc":"pl","latitude":52.2297,"longitude":21.017532,"reserved":0,"last_update":"0001-01-01T00:00:00Z","name_a2s":"Uncletopia | Warsaw | 4 | All Maps","protocol":17,"map":"pl_pier","folder":"tf","game":"Team Fortress","app_id":440,"player_count":0,"max_players":24,"Bots":0,"server_type":"Dedicated","server_os":"Linux","password":true,"vac":true,"version":"7932396","steam_id":85568392925397853,"keywords":["nocrits","nodmgspread","payload","uncletopia"],"game_id":440,"stv_port":27046,"stv_name":"Uncletopia | Warsaw | 4 | All Maps | STV","players":null},{"server_id":53,"name":"Uncletopia | Warsaw | 5 | Stopwatch Beta","name_short":"waw-5","host":"waw-1.pl.uncletopia.com","port":27055,"enabled":true,"region":"eu","cc":"pl","latitude":52.2297,"longitude":21.017532,"reserved":0,"last_update":"0001-01-01T00:00:00Z","name_a2s":"Uncletopia | Warsaw | 5 | Stopwatch Beta","protocol":17,"map":"cp_granary","folder":"tf","game":"Team Fortress","app_id":440,"player_count":0,"max_players":24,"Bots":0,"server_type":"Dedicated","server_os":"Linux","password":true,"vac":true,"version":"7932396","steam_id":85568392925397854,"keywords":["cp","nocrits","nodmgspread","uncletopia"],"game_id":440,"stv_port":27056,"stv_name":"Uncletopia | Warsaw | 5 | Stopwatch Beta | STV","players":null},{"server_id":54,"name":"Uncletopia | Warsaw | 6 | Community","name_short":"waw-6","host":"waw-1.pl.uncletopia.com","port":27065,"enabled":true,"region":"eu","cc":"pl","latitude":52.2297,"longitude":21.017532,"reserved":0,"last_update":"0001-01-01T00:00:00Z","name_a2s":"Uncletopia | Warsaw | 6 | Community","protocol":17,"map":"workshop/pl_shoreleave_rc2.ugc1238849347","folder":"tf","game":"Team Fortress","app_id":440,"player_count":0,"max_players":24,"Bots":0,"server_type":"Dedicated","server_os":"Linux","password":true,"vac":true,"version":"7932396","steam_id":85568392925397856,"keywords":["nocrits","nodmgspread","payload","uncletopia"],"game_id":440,"stv_port":27066,"stv_name":"Uncletopia | Warsaw | 6 | Community | STV","players":null}]}