{"status":true,"message":"","result":[{"server_id":9,"name":"Uncletopia | Atlanta | 1 | All Maps","name_short":"atl-1","host":"atl-1.us.uncletopia.com","port":27015,"enabled":true,"region":"us-east","cc":"us","latitude":33.753746,"longitude":-84.38633,"reserved":0,"last_update":"0001-01-01T00:00:00Z","name_a2s":"Uncletopia | Atlanta | 1 | All Maps","protocol":17,"map":"cp_gorge","folder":"tf","game":"Team Fortress","app_id":440,"player_count":24,"max_players":24,"Bots":0,"server_type":"Dedicated","server_os":"Linux","password":true,"vac":true,"version":"7742253","steam_id":85568392924469982,"keywords":["cp","nocrits","nodmgspread","uncletopia"],"game_id":440,"stv_port":27016,"stv_name":"Uncletopia | Atlanta | 1 | All Maps | STV","players":[{"user_id":680,"name":"pseudo-sentient subhuman","steam_id":76561198328210524,"connected_time":10526000000000,"state":"active","ping":104},{"user_id":767,"name":"Jbmodfan29","steam_id":76561198430267509,"connected_time":578000000000,"state":"active","ping":64},{"user_id":760,"name":"JimJam","steam_id":76561199002957746,"connected_time":1297000000000,"state":"active","ping":132},{"user_id":768,"name":"Matsui","steam_id":76561198057463587,"connected_time":411000000000,"state":"active","ping":76},{"user_id":747,"name":"VerSaKa","steam_id":76561198052392540,"connected_time":1852000000000,"state":"active","ping":75},{"user_id":741,"name":"Wambo","steam_id":76561198112144392,"connected_time":2348000000000,"state":"active","ping":147},{"user_id":748,"name":"bingus","steam_id":76561199198633203,"connected_time":1744000000000,"state":"active","ping":139},{"user_id":749,"name":"CuM LicKer | bonk man","steam_id":76561198386542309,"connected_time":1737000000000,"state":"active","ping":138},{"user_id":769,"name":"33","steam_id":76561198894676484,"connected_time":349000000000,"state":"active","ping":97},{"user_id":775,"name":"Tuna","steam_id":76561198129907971,"connected_time":128000000000,"state":"active","ping":106},{"user_id":770,"name":"Le Pepp","steam_id":76561198042427803,"connected_time":337000000000,"state":"active","ping":140},{"user_id":740,"name":"Fletcher","steam_id":76561198317846538,"connected_time":2426000000000,"state":"active","ping":61},{"user_id":771,"name":"pocket","steam_id":76561198277169650,"connected_time":270000000000,"state":"active","ping":97},{"user_id":720,"name":"Xbox_Pro_2016","steam_id":76561198176126519,"connected_time":4553000000000,"state":"active","ping":66},{"user_id":756,"name":"Umevol","steam_id":76561198082943489,"connected_time":1518000000000,"state":"active","ping":103},{"user_id":754,"name":"mr_dripnsplash","steam_id":76561199145352716,"connected_time":1629000000000,"state":"active","ping":63},{"user_id":772,"name":"HALO 3","steam_id":76561198020825795,"connected_time":266000000000,"state":"active","ping":66},{"user_id":773,"name":"Trisbone","steam_id":76561198119826352,"connected_time":262000000000,"state":"active","ping":82},{"user_id":766,"name":"Turboluck102","steam_id":76561199129261462,"connected_time":795000000000,"state":"active","ping":64},{"user_id":759,"name":"Radigan","steam_id":76561198069506128,"connected_time":1326000000000,"state":"active","ping":75},{"user_id":774,"name":"Ceol","steam_id":76561198003955789,"connected_time":221000000000,"state":"active","ping":88},{"user_id":739,"name":"im using tilt controls!","steam_id":76561198295690725,"connected_time":2471000000000,"state":"active","ping":54},{"user_id":764,"name":"grace","steam_id":76561198132364510,"connected_time":1030000000000,"state":"active","ping":77},{"user_id":725,"name":"exploitativity","steam_id":76561198041990177,"connected_time":3886000000000,"state":"active","ping":122}]},{"server_id":400,"name":"Uncletopia | Atlanta | 3 | Stopwatch Beta","name_short":"atl-3","host":"atl-1.us.uncletopia.com","port":27035,"enabled":true,"region":"us-east","cc":"us","latitude":33.753746,"longitude":-84.38633,"reserved":0,"last_update":"0001-01-01T00:00:00Z","name_a2s":"Uncletopia | Atlanta | 3 | Stopwatch Beta","protocol":17,"map":"pl_upward","folder":"tf","game":"Team Fortress","app_id":440,"player_count":0,"max_players":24,"Bots":0,"server_type":"Dedicated","server_os":"Linux","password":true,"vac":true,"version":"7742253","steam_id":85568392924515187,"keywords":["nocrits","nodmgspread","payload","uncletopia"],"game_id":440,"stv_port":27036,"stv_name":"Uncletopia | Atlanta | 3 | Stopwatch Beta | STV","players":null},{"server_id":401,"name":"Uncletopia | Atlanta | 4 | No Payload","name_short":"atl-4","host":"atl-1.us.uncletopia.com","port":27045,"enabled":true,"region":"us-east","cc":"us","latitude":33.753746,"longitude":-84.38633,"reserved":0,"last_update":"0001-01-01T00:00:00Z","name_a2s":"Uncletopia | Atlanta | 4 | No Payload","protocol":17,"map":"pl_pier","folder":"tf","game":"Team Fortress","app_id":440,"player_count":0,"max_players":24,"Bots":0,"server_type":"Dedicated","server_os":"Linux","password":true,"vac":true,"version":"7723704","steam_id":85568392924515188,"keywords":["nocrits","nodmgspread","payload","uncletopia"],"game_id":440,"stv_port":27046,"stv_name":"Uncletopia | Atlanta | 4 | No Payload | STV","players":null},{"server_id":2,"name":"Uncletopia | Chicago | 1 | All Maps","name_short":"chi-1","host":"chi-1.us.uncletopia.com","port":27015,"enabled":true,"region":"us-central","cc":"us","latitude":41.881832,"longitude":-87.62318,"reserved":0,"last_update":"0001-01-01T00:00:00Z","name_a2s":"Uncletopia | Chicago | 1 | All Maps","protocol":17,"map":"cp_process_final","folder":"tf","game":"Team Fortress","app_id":440,"player_count":21,"max_players":24,"Bots":0,"server_type":"Dedicated","server_os":"Linux","password":true,"vac":true,"version":"7742253","steam_id":85568392924469984,"keywords":["cp","nocrits","nodmgspread","uncletopia"],"game_id":440,"stv_port":27016,"stv_name":"Uncletopia | Chicago | 1 | All Maps | STV","players":[{"user_id":707,"name":"Gremlin Bird","steam_id":76561198039624549,"connected_time":381000000000,"state":"active","ping":77},{"user_id":706,"name":"guess i'll die...virtually","steam_id":76561199112291386,"connected_time":420000000000,"state":"active","ping":114},{"user_id":676,"name":"MistakesWereMade","steam_id":76561199059220481,"connected_time":3003000000000,"state":"active","ping":98},{"user_id":708,"name":"Mastergimmick","steam_id":76561198995180884,"connected_time":259000000000,"state":"active","ping":49},{"user_id":714,"name":"Kosmo","steam_id":76561198079015843,"connected_time":61000000000,"state":"active","ping":74},{"user_id":699,"name":"we just nuked the building","steam_id":76561198070214668,"connected_time":1172000000000,"state":"active","ping":60},{"user_id":711,"name":"mechiimi ‚òÖ","steam_id":76561198321627268,"connected_time":185000000000,"state":"active","ping":129},{"user_id":583,"name":"Clemont007","steam_id":76561198030935625,"connected_time":11984000000000,"state":"active","ping":120},{"user_id":705,"name":"generic","steam_id":76561198067677576,"connected_time":440000000000,"state":"active","ping":100},{"user_id":713,"name":"123","steam_id":76561199208840863,"connected_time":149000000000,"state":"active","ping":80},{"user_id":675,"name":"Ralsei","steam_id":76561198023352750,"connected_time":3030000000000,"state":"active","ping":83},{"user_id":667,"name":"king of bogers","steam_id":76561198045731295,"connected_time":3896000000000,"state":"active","ping":60},{"user_id":715,"name":"THICC","steam_id":76561198273234133,"connected_time":46000000000,"state":"active","ping":75},{"user_id":704,"name":"Xylemon","steam_id":76561197965297420,"connected_time":756000000000,"state":"active","ping":102},{"user_id":692,"name":"u/unhinged_person","steam_id":76561198085839920,"connected_time":1528000000000,"state":"active","ping":71},{"user_id":716,"name":"Lanky Kong","steam_id":76561198142455488,"connected_time":31000000000,"state":"active","ping":60},{"user_id":717,"name":"Samantha UwUwU \u003c333","steam_id":76561198176786799,"connected_time":8000000000,"state":"active","ping":127},{"user_id":703,"name":"ThomasTheOwl","steam_id":76561199047935788,"connected_time":877000000000,"state":"active","ping":82},{"user_id":690,"name":"NovaSc6ut","steam_id":76561198277163301,"connected_time":1545000000000,"state":"active","ping":60},{"user_id":662,"name":"elyk37","steam_id":76561198124135253,"connected_time":4197000000000,"state":"active","ping":83},{"user_id":697,"name":"big ol' buford","steam_id":76561198290675957,"connected_time":1321000000000,"state":"active","ping":61}]},{"server_id":106,"name":"Uncletopia | Chicago | 2 | All Maps","name_short":"chi-2","host":"chi-1.us.uncletopia.com","port":27025,"enabled":true,"region":"us-central","cc":"us","latitude":41.881832,"longitude":-87.62318,"reserved":0,"last_update":"0001-01-01T00:00:00Z","name_a2s":"Uncletopia | Chicago | 2 | All Maps","protocol":17,"map":"cp_altitude","folder":"tf","game":"Team Fortress","app_id":440,"player_count":0,"max_players":24,"Bots":0,"server_type":"Dedicated","server_os":"Linux","password":true,"vac":true,"version":"7742253","steam_id":85568392924469985,"keywords":["cp","nocrits","nodmgspread","uncletopia"],"game_id":440,"stv_port":27026,"stv_name":"Uncletopia | Chicago | 2 | All Maps | STV","players":null},{"server_id":402,"name":"Uncletopia | Chicago | 3 | All Maps","name_short":"chi-3","host":"chi-1.us.uncletopia.com","port":27035,"enabled":true,"region":"us-central","cc":"us","latitude":41.881832,"longitude":-87.62318,"reserved":0,"last_update":"0001-01-01T00:00:00Z","name_a2s":"Uncletopia | Chicago | 3 | All Maps","protocol":17,"map":"pl_frontier_final","folder":"tf","game":"Team Fortress","app_id":440,"player_count":0,"max_players":24,"Bots":0,"server_type":"Dedicated","server_os":"Linux","password":true,"vac":true,"version":"7742253","steam_id":85568392924515191,"keywords":["nocrits","nodmgspread","payload","uncletopia"],"game_id":440,"stv_port":27036,"stv_name":"Uncletopia | Chicago | 3 | All Maps | STV","players":null},{"server_id":403,"name":"Uncletopia | Chicago | 4 | All Maps","name_short":"chi-4","host":"chi-1.us.uncletopia.com","port":27045,"enabled":true,"region":"us-central","cc":"us","latitude":41.881832,"longitude":-87.62318,"reserved":0,"last_update":"0001-01-01T00:00:00Z","name_a2s":"Uncletopia | Chicago | 4 | All Maps","protocol":17,"map":"pl_snowycoast","folder":"tf","game":"Team Fortress","app_id":440,"player_count":0,"max_players":24,"Bots":0,"server_type":"Dedicated","server_os":"Linux","password":true,"vac":true,"version":"7742253","steam_id":85568392924515193,"keywords":["nocrits","nodmgspread","payload","uncletopia"],"game_id":440,"stv_port":27046,"stv_name":"Uncletopia | Chicago | 4 | All Maps | STV","players":null},{"server_id":36,"name":"Uncletopia | Chicago | 5 | All Maps","name_short":"chi-5","host":"chi-2.us.uncletopia.com","port":27015,"enabled":true,"region":"us-central","cc":"us","latitude":41.881832,"longitude":-87.62318,"reserved":0,"last_update":"0001-01-01T00:00:00Z","name_a2s":"Uncletopia | Chicago | 5 | All Maps","protocol":17,"map":"cp_snakewater_final1","folder":"tf","game":"Team Fortress","app_id":440,"player_count":0,"max_players":24,"Bots":0,"server_type":"Dedicated","server_os":"Linux","password":true,"vac":true,"version":"7742253","steam_id":85568392924866362,"keywords":["cp","nocrits","nodmgspread","uncletopia"],"game_id":440,"stv_port":27016,"stv_name":"Uncletopia | Chicago | 5 | All Maps | STV","players":null},{"server_id":37,"name":"Uncletopia | Chicago | 6 | All Maps","name_short":"chi-6","host":"chi-2.us.uncletopia.com","port":27025,"enabled":true,"region":"us-central","cc":"us","latitude":41.881832,"longitude":-87.62318,"reserved":0,"last_update":"0001-01-01T00:00:00Z","name_a2s":"Uncletopia | Chicago | 6 | All Maps","protocol":17,"map":"koth_lakeside_final","folder":"tf","game":"Team Fortress","app_id":440,"player_count":0,"max_players":24,"Bots":0,"server_type":"Dedicated","server_os":"Linux","password":true,"vac":true,"version":"7742253","steam_id":85568392924866363,"keywords":["cp","nocrits","nodmgspread","uncletopia"],"game_id":440,"stv_port":27026,"stv_name":"Uncletopia | Chicago | 6 | All Maps | STV","players":null},{"server_id":38,"name":"Uncletopia | Chicago | 7 | Stopwatch Beta","name_short":"chi-7","host":"chi-2.us.uncletopia.com","port":27035,"enabled":true,"region":"us-central","cc":"us","latitude":41.881832,"longitude":-87.62318,"reserved":0,"last_update":"0001-01-01T00:00:00Z","name_a2s":"Uncletopia | Chicago | 7 | Stopwatch Beta","protocol":17,"map":"pl_upward","folder":"tf","game":"Team Fortress","app_id":440,"player_count":0,"max_players":24,"Bots":0,"server_type":"Dedicated","server_os":"Linux","password":true,"vac":true,"version":"7742253","steam_id":85568392924866364,"keywords":["nocrits","nodmgspread","payload","uncletopia"],"game_id":440,"stv_port":27036,"stv_name":"Uncletopia | Chicago | 7 | Stopwatch Beta | STV","players":null},{"server_id":39,"name":"Uncletopia | Chicago | 8 | Community","name_short":"chi-8","host":"chi-2.us.uncletopia.com","port":27045,"enabled":true,"region":"us-central","cc":"us","latitude":41.881832,"longitude":-87.62318,"reserved":0,"last_update":"0001-01-01T00:00:00Z","name_a2s":"Uncletopia | Chicago | 8 | Community","protocol":17,"map":"koth_lakeside_final","folder":"tf","game":"Team Fortress","app_id":440,"player_count":0,"max_players":24,"Bots":0,"server_type":"Dedicated","server_os":"Linux","password":true,"vac":true,"version":"7742253","steam_id":85568392924866365,"keywords":["cp","nocrits","nodmgspread","uncletopia"],"game_id":440,"stv_port":27046,"stv_name":"Uncletopia | Chicago | 8 | Community | STV","players":null},{"server_id":8,"name":"Uncletopia | Dallas | 1 | All Maps","name_short":"dal-1","host":"dal-1.us.uncletopia.com","port":27015,"enabled":true,"region":"us-central","cc":"us","latitude":32.779167,"longitude":-96.80889,"reserved":0,"last_update":"0001-01-01T00:00:00Z","name_a2s":"Uncletopia | Dallas | 1 | All Maps","protocol":17,"map":"cp_altitude","folder":"tf","game":"Team Fortress","app_id":440,"player_count":0,"max_players":24,"Bots":0,"server_type":"Dedicated","server_os":"Linux","password":true,"vac":true,"version":"7742253","steam_id":85568392924469986,"keywords":["cp","nocrits","nodmgspread","uncletopia"],"game_id":440,"stv_port":27016,"stv_name":"Uncletopia | Dallas | 1 | All Maps | STV","players":null},{"server_id":108,"name":"Uncletopia | Dallas | 2 | All Maps","name_short":"dal-2","host":"dal-1.us.uncletopia.com","port":27025,"enabled":true,"region":"us-central","cc":"us","latitude":32.779167,"longitude":-96.80889,"reserved":0,"last_update":"0001-01-01T00:00:00Z","name_a2s":"Uncletopia | Dallas | 2 | All Maps","protocol":17,"map":"koth_viaduct","folder":"tf","game":"Team Fortress","app_id":440,"player_count":0,"max_players":24,"Bots":0,"server_type":"Dedicated","server_os":"Linux","password":true,"vac":true,"version":"7742253","steam_id":85568392924469988,"keywords":["cp","nocrits","nodmgspread","uncletopia"],"game_id":440,"stv_port":27026,"stv_name":"Uncletopia | Dallas | 2 | All Maps | STV","players":null},{"server_id":5,"name":"Uncletopia | Frankfurt | 1 | All Maps","name_short":"frk-1","host":"frk-1.de.uncletopia.com","port":27015,"enabled":true,"region":"eu","cc":"de","latitude":50.110924,"longitude":8.682127,"reserved":0,"last_update":"0001-01-01T00:00:00Z","name_a2s":"Uncletopia | Frankfurt | 1 | All Maps","protocol":17,"map":"cp_dustbowl","folder":"tf","game":"Team Fortress","app_id":440,"player_count":24,"max_players":24,"Bots":0,"server_type":"Dedicated","server_os":"Linux","password":true,"vac":true,"version":"7742253","steam_id":85568392924469989,"keywords":["cp","nocrits","nodmgspread","uncletopia"],"game_id":440,"stv_port":27016,"stv_name":"Uncletopia | Frankfurt | 1 | All Maps | STV","players":[{"user_id":88,"name":"fried","steam_id":76561198307522022,"connected_time":2284000000000,"state":"active","ping":58},{"user_id":97,"name":"St√ºmpy","steam_id":76561198255904077,"connected_time":1902000000000,"state":"active","ping":57},{"user_id":82,"name":"The Detective","steam_id":76561198362995682,"connected_time":3076000000000,"state":"active","ping":85},{"user_id":119,"name":"Marc","steam_id":76561198869851742,"connected_time":912000000000,"state":"active","ping":65},{"user_id":117,"name":"‚ô†‚Åß‚Åß  ô·¥Ä Ä·¥õ","steam_id":76561198136534636,"connected_time":988000000000,"state":"active","ping":77},{"user_id":113,"name":"Irbynx","steam_id":76561197980421195,"connected_time":1639000000000,"state":"active","ping":87},{"user_id":98,"name":"Ablativus","steam_id":76561198025698470,"connected_time":1890000000000,"state":"active","ping":76},{"user_id":90,"name":"Carry Krypl","steam_id":76561198136938121,"connected_time":2117000000000,"state":"active","ping":47},{"user_id":100,"name":"olegv11","steam_id":76561197989139964,"connected_time":1864000000000,"state":"active","ping":82},{"user_id":15,"name":"night.s","steam_id":76561198326287823,"connected_time":7361000000000,"state":"active","ping":74},{"user_id":101,"name":"lvl. 50 honkler","steam_id":76561198061688660,"connected_time":1852000000000,"state":"active","ping":98},{"user_id":122,"name":"Mata","steam_id":76561198308191713,"connected_time":493000000000,"state":"active","ping":53},{"user_id":107,"name":"The Bonk Man‚Ñ¢","steam_id":76561199044260792,"connected_time":1808000000000,"state":"active","ping":68},{"user_id":108,"name":"Espa√±aa","steam_id":76561198879587832,"connected_time":1807000000000,"state":"active","ping":82},{"user_id":120,"name":"zwbl (go hard)","steam_id":76561198360811196,"connected_time":762000000000,"state":"active","ping":76},{"user_id":125,"name":"Horiizunn","steam_id":76561198105572423,"connected_time":350000000000,"state":"active","ping":55},{"user_id":116,"name":"Êó©‰∏äÂ•Ω‰∏≠ÂõΩ","steam_id":76561198033205384,"connected_time":1031000000000,"state":"active","ping":64},{"user_id":124,"name":"NEONwarrior234","steam_id":76561198214982895,"connected_time":417000000000,"state":"active","ping":75},{"user_id":115,"name":"Rezolt","steam_id":76561198069074807,"connected_time":1439000000000,"state":"active","ping":110},{"user_id":78,"name":"Izzermann","steam_id":76561199100131945,"connected_time":3504000000000,"state":"active","ping":50},{"user_id":89,"name":"Radical priest","steam_id":76561198110470565,"connected_time":2257000000000,"state":"active","ping":94},{"user_id":118,"name":"Fan","steam_id":76561198440592048,"connected_time":979000000000,"state":"active","ping":70},{"user_id":114,"name":"Dr.Mikic403 HENTAI","steam_id":76561198059347852,"connected_time":1636000000000,"state":"active","ping":89},{"user_id":129,"name":"Tzeentch","steam_id":76561198038862347,"connected_time":143000000000,"state":"active","ping":70}]},{"server_id":110,"name":"Uncletopia | Frankfurt | 2 | All Maps","name_short":"frk-2","host":"frk-1.de.uncletopia.com","port":27025,"enabled":true,"region":"eu","cc":"de","latitude":50.110924,"longitude":8.682127,"reserved":0,"last_update":"0001-01-01T00:00:00Z","name_a2s":"Uncletopia | Frankfurt | 2 | All Maps","protocol":17,"map":"koth_highpass","folder":"tf","game":"Team Fortress","app_id":440,"player_count":0,"max_players":24,"Bots":0,"server_type":"Dedicated","server_os":"Linux","password":true,"vac":true,"version":"7742253","steam_id":85568392924469990,"keywords":["cp","nocrits","nodmgspread","uncletopia"],"game_id":440,"stv_port":27026,"stv_name":"Uncletopia | Frankfurt | 2 | All Maps | STV","players":null},{"server_id":308,"name":"Uncletopia | Frankfurt | 3 | All Maps","name_short":"frk-3","host":"frk-1.de.uncletopia.com","port":27035,"enabled":true,"region":"eu","cc":"de","latitude":50.110924,"longitude":8.682127,"reserved":0,"last_update":"0001-01-01T00:00:00Z","name_a2s":"Uncletopia | Frankfurt | 3 | All Maps","protocol":17,"map":"pl_pier","folder":"tf","game":"Team Fortress","app_id":440,"player_count":0,"max_players":24,"Bots":0,"server_type":"Dedicated","server_os":"Linux","password":true,"vac":true,"version":"7742253","steam_id":85568392924504274,"keywords":["nocrits","nodmgspread","payload","uncletopia"],"game_id":440,"stv_port":27036,"stv_name":"Uncletopia | Frankfurt | 3 | All Maps | STV","players":null},{"server_id":309,"name":"Uncletopia | Frankfurt | 4 | All Maps","name_short":"frk-4","host":"frk-1.de.uncletopia.com","port":27045,"enabled":true,"region":"eu","cc":"de","latitude":50.110924,"longitude":8.682127,"reserved":0,"last_update":"0001-01-01T00:00:00Z","name_a2s":"Uncletopia | Frankfurt | 4 | All Maps","protocol":17,"map":"cp_sunshine","folder":"tf","game":"Team Fortress","app_id":440,"player_count":0,"max_players":24,"Bots":0,"server_type":"Dedicated","server_os":"Linux","password":true,"vac":true,"version":"7742253","steam_id":85568392924504275,"keywords":["cp","nocrits","nodmgspread","uncletopia"],"game_id":440,"stv_port":27046,"stv_name":"Uncletopia | Frankfurt | 4 | All Maps | STV","players":null},{"server_id":310,"name":"Uncletopia | Frankfurt | 5 | All Maps","name_short":"frk-5","host":"frk-1.de.uncletopia.com","port":27055,"enabled":true,"region":"eu","cc":"de","latitude":50.110924,"longitude":8.682127,"reserved":0,"last_update":"0001-01-01T00:00:00Z","name_a2s":"Uncletopia | Frankfurt | 5 | All Maps","protocol":17,"map":"cp_snakewater_final1","folder":"tf","game":"Team Fortress","app_id":440,"player_count":0,"max_players":24,"Bots":0,"server_type":"Dedicated","server_os":"Linux","password":true,"vac":true,"version":"7742253","steam_id":85568392924504277,"keywords":["cp","nocrits","nodmgspread","uncletopia"],"game_id":440,"stv_port":27056,"stv_name":"Uncletopia | Frankfurt | 5 | All Maps | STV","players":null},{"server_id":311,"name":"Uncletopia | Frankfurt | 6 | All Maps","name_short":"frk-6","host":"frk-1.de.uncletopia.com","port":27065,"enabled":true,"region":"eu","cc":"de","latitude":50.110924,"longitude":8.682127,"reserved":0,"last_update":"0001-01-01T00:00:00Z","name_a2s":"Uncletopia | Frankfurt | 6 | All Maps","protocol":17,"map":"koth_lakeside_final","folder":"tf","game":"Team Fortress","app_id":440,"player_count":0,"max_players":24,"Bots":0,"server_type":"Dedicated","server_os":"Linux","password":true,"vac":true,"version":"7742253","steam_id":85568392924504278,"keywords":["cp","nocrits","nodmgspread","uncletopia"],"game_id":440,"stv_port":27066,"stv_name":"Uncletopia | Frankfurt | 6 | All Maps | STV","players":null},{"server_id":23,"name":"Uncletopia | Frankfurt | 7 | Stopwatch Beta","name_short":"frk-7","host":"frk-1.de.uncletopia.com","port":27075,"enabled":true,"region":"eu","cc":"de","latitude":50.110924,"longitude":8.682127,"reserved":0,"last_update":"0001-01-01T00:00:00Z","name_a2s":"Uncletopia | Frankfurt | 7 | Stopwatch Beta","protocol":17,"map":"pl_badwater","folder":"tf","game":"Team Fortress","app_id":440,"player_count":0,"max_players":24,"Bots":0,"server_type":"Dedicated","server_os":"Linux","password":true,"vac":true,"version":"7742253","steam_id":85568392924742827,"keywords":["nocrits","nodmgspread","payload","uncletopia"],"game_id":440,"stv_port":27076,"stv_name":"Uncletopia | Frankfurt | 7 | Stopwatch Beta | STV","players":null},{"server_id":24,"name":"Uncletopia | Frankfurt | 8 | Community","name_short":"frk-8","host":"frk-1.de.uncletopia.com","port":27085,"enabled":true,"region":"eu","cc":"de","latitude":50.110924,"longitude":8.682127,"reserved":0,"last_update":"0001-01-01T00:00:00Z","name_a2s":"Uncletopia | Frankfurt | 8 | Community","protocol":17,"map":"koth_cascade","folder":"tf","game":"Team Fortress","app_id":440,"player_count":0,"max_players":24,"Bots":0,"server_type":"Dedicated","server_os":"Linux","password":true,"vac":true,"version":"7742253","steam_id":85568392924742828,"keywords":["cp","nocrits","nodmgspread","uncletopia"],"game_id":440,"stv_port":27086,"stv_name":"Uncletopia | Frankfurt | 8 | Community | STV","players":null},{"server_id":202,"name":"Uncletopia | Hong Kong | 1 | All Maps","name_short":"hgk-1","host":"hgk-1.hk.uncletopia.com","port":27015,"enabled":true,"region":"asia","cc":"hk","latitude":22.302711,"longitude":114.177216,"reserved":0,"last_update":"0001-01-01T00:00:00Z","name_a2s":"Uncletopia | Hong Kong | 1 | All Maps","protocol":17,"map":"pl_upward","folder":"tf","game":"Team Fortress","app_id":440,"player_count":24,"max_players":24,"Bots":0,"server_type":"Dedicated","server_os":"Linux","password":true,"vac":true,"version":"7742253","steam_id":85568392924494504,"keywords":["nocrits","nodmgspread","payload","uncletopia"],"game_id":440,"stv_port":27016,"stv_name":"Uncletopia | Hong Kong | 1 | All Maps | STV","players":[{"user_id":256,"name":"gonebeef","steam_id":76561199083203270,"connected_time":2284000000000,"state":"active","ping":80},{"user_id":78,"name":"Urotsuki","steam_id":76561198074339034,"connected_time":21180000000000,"state":"active","ping":73},{"user_id":268,"name":"Momoxhien","steam_id":76561198414997429,"connected_time":1277000000000,"state":"active","ping":59},{"user_id":255,"name":"good goth girl","steam_id":76561198118989010,"connected_time":2334000000000,"state":"active","ping":60},{"user_id":279,"name":"Mehcro","steam_id":76561198856864170,"connected_time":765000000000,"state":"active","ping":125},{"user_id":235,"name":"water tastes good","steam_id":76561199375947670,"connected_time":4342000000000,"state":"active","ping":71},{"user_id":111,"name":"Bertengkar","steam_id":76561198213031155,"connected_time":17168000000000,"state":"active","ping":95},{"user_id":281,"name":"lettuce at 58p","steam_id":76561199401283123,"connected_time":755000000000,"state":"active","ping":89},{"user_id":231,"name":"Wx","steam_id":76561199217780897,"connected_time":5076000000000,"state":"active","ping":117},{"user_id":232,"name":"\"SKS\"","steam_id":76561198187995386,"connected_time":4633000000000,"state":"active","ping":79},{"user_id":258,"name":"Puddin","steam_id":76561198140052918,"connected_time":2185000000000,"state":"active","ping":91},{"user_id":247,"name":"anim malgo","steam_id":76561198117247378,"connected_time":2878000000000,"state":"active","ping":77},{"user_id":280,"name":"yuan","steam_id":76561198816430457,"connected_time":764000000000,"state":"active","ping":115},{"user_id":271,"name":"Talkk More","steam_id":76561198305424433,"connected_time":821000000000,"state":"active","ping":94},{"user_id":275,"name":"QWQ","steam_id":76561198886731650,"connected_time":804000000000,"state":"active","ping":106},{"user_id":284,"name":"ocha „ÅäËå∂ Ï†ÑÌÜµÏ∞®","steam_id":76561199224096189,"connected_time":18000000000,"state":"active","ping":90},{"user_id":196,"name":"Violezine","steam_id":76561199000502615,"connected_time":9672000000000,"state":"active","ping":82},{"user_id":185,"name":"Zacy","steam_id":76561198114841670,"connected_time":10308000000000,"state":"active","ping":66},{"user_id":270,"name":"C√° Th√°ng 4","steam_id":76561198047162026,"connected_time":823000000000,"state":"active","ping":66},{"user_id":250,"name":"uptriste","steam_id":76561198158666692,"connected_time":2777000000000,"state":"active","ping":43},{"user_id":272,"name":"can we get much higher","steam_id":76561199390507975,"connected_time":821000000000,"state":"active","ping":47},{"user_id":87,"name":"lillalune","steam_id":76561198230213828,"connected_time":20812000000000,"state":"active","ping":61},{"user_id":283,"name":"gkfhww","steam_id":76561199445694770,"connected_time":550000000000,"state":"active","ping":135},{"user_id":228,"name":"Owmyn","steam_id":76561199239651098,"connected_time":5213000000000,"state":"active","ping":96}]},{"server_id":1,"name":"Uncletopia | Los Angeles | 1 | All Maps","name_short":"lax-1","host":"lax-1.us.uncletopia.com","port":27015,"enabled":true,"region":"us-west","cc":"us","latitude":33.94279,"longitude":-118.41004,"reserved":0,"last_update":"0001-01-01T00:00:00Z","name_a2s":"Uncletopia | Los Angeles | 1 | All Maps","protocol":17,"map":"cp_process_final","folder":"tf","game":"Team Fortress","app_id":440,"player_count":0,"max_players":24,"Bots":0,"server_type":"Dedicated","server_os":"Linux","password":true,"vac":true,"version":"7742253","steam_id":85568392924469991,"keywords":["cp","nocrits","nodmgspread","uncletopia"],"game_id":440,"stv_port":27016,"stv_name":"Uncletopia | Los Angeles | 1 | All Maps | STV","players":null},{"server_id":112,"name":"Uncletopia | Los Angeles | 2 | All Maps","name_short":"lax-2","host":"lax-1.us.uncletopia.com","port":27025,"enabled":true,"region":"us-west","cc":"us","latitude":33.94279,"longitude":-118.41004,"reserved":0,"last_update":"0001-01-01T00:00:00Z","name_a2s":"Uncletopia | Los Angeles | 2 | All Maps","protocol":17,"map":"koth_viaduct","folder":"tf","game":"Team Fortress","app_id":440,"player_count":10,"max_players":24,"Bots":0,"server_type":"Dedicated","server_os":"Linux","password":true,"vac":true,"version":"7742253","steam_id":85568392924469992,"keywords":["cp","nocrits","nodmgspread","uncletopia"],"game_id":440,"stv_port":27026,"stv_name":"Uncletopia | Los Angeles | 2 | All Maps | STV","players":[{"user_id":688,"name":"StephenJames","steam_id":76561199181659125,"connected_time":2418000000000,"state":"active","ping":77},{"user_id":694,"name":"Fake Chuck McGill","steam_id":76561198127395608,"connected_time":1196000000000,"state":"active","ping":54},{"user_id":702,"name":"eL Lurkah","steam_id":76561198276721795,"connected_time":262000000000,"state":"active","ping":30},{"user_id":696,"name":"MrChaosOK","steam_id":76561197976353083,"connected_time":1113000000000,"state":"active","ping":54},{"user_id":697,"name":"Pyrolimited","steam_id":76561198195455657,"connected_time":1082000000000,"state":"active","ping":63},{"user_id":700,"name":"Juri Han","steam_id":76561198041678517,"connected_time":915000000000,"state":"active","ping":60},{"user_id":701,"name":"theProfessor [no PhD]","steam_id":76561198142243867,"connected_time":876000000000,"state":"active","ping":73},{"user_id":699,"name":"wattle","steam_id":76561199091719249,"connected_time":976000000000,"state":"active","ping":120},{"user_id":671,"name":"goldhed","steam_id":76561198051751133,"connected_time":4079000000000,"state":"active","ping":82},{"user_id":686,"name":"scruffer","steam_id":76561198044095460,"connected_time":2723000000000,"state":"active","ping":76}]},{"server_id":324,"name":"Uncletopia | Los Angeles | 3 | All Maps","name_short":"lax-3","host":"lax-1.us.uncletopia.com","port":27035,"enabled":true,"region":"us-west","cc":"us","latitude":33.94279,"longitude":-118.41004,"reserved":0,"last_update":"0001-01-01T00:00:00Z","name_a2s":"Uncletopia | Los Angeles | 3 | All Maps","protocol":17,"map":"cp_mountainlab","folder":"tf","game":"Team Fortress","app_id":440,"player_count":0,"max_players":24,"Bots":0,"server_type":"Dedicated","server_os":"Linux","password":true,"vac":true,"version":"7742253","steam_id":85568392924510198,"keywords":["cp","nocrits","nodmgspread","uncletopia"],"game_id":440,"stv_port":27036,"stv_name":"Uncletopia | Los Angeles | 3 | All Maps | STV","players":null},{"server_id":25,"name":"Uncletopia | Los Angeles | 4 | Stopwatch Beta","name_short":"lax-4","host":"lax-1.us.uncletopia.com","port":27045,"enabled":true,"region":"us-west","cc":"us","latitude":33.94279,"longitude":-118.41004,"reserved":0,"last_update":"0001-01-01T00:00:00Z","name_a2s":"Uncletopia | Los Angeles | 4 | Stopwatch Beta","protocol":17,"map":"workshop/koth_bagel_rc5.ugc2514036946","folder":"tf","game":"Team Fortress","app_id":440,"player_count":0,"max_players":24,"Bots":0,"server_type":"Dedicated","server_os":"Linux","password":true,"vac":true,"version":"7742253","steam_id":85568392924510199,"keywords":["cp","nocrits","nodmgspread","uncletopia"],"game_id":440,"stv_port":27046,"stv_name":"Uncletopia | Los Angeles | 4 | Stopwatch Beta | STV","players":null},{"server_id":11,"name":"Uncletopia | London | 1 | All Maps","name_short":"lon-1","host":"lon-1.uk.uncletopia.com","port":27015,"enabled":true,"region":"eu","cc":"gb","latitude":51.509865,"longitude":-0.118092,"reserved":0,"last_update":"0001-01-01T00:00:00Z","name_a2s":"Uncletopia | London | 1 | All Maps","protocol":17,"map":"cp_altitude","folder":"tf","game":"Team Fortress","app_id":440,"player_count":0,"max_players":24,"Bots":0,"server_type":"Dedicated","server_os":"Linux","password":true,"vac":true,"version":"7742253","steam_id":85568392924367362,"keywords":["cp","nocrits","nodmgspread","uncletopia"],"game_id":440,"stv_port":27016,"stv_name":"Uncletopia | London | 1 | All Maps | STV","players":null},{"server_id":114,"name":"Uncletopia | London | 2 | All Maps","name_short":"lon-2","host":"lon-1.uk.uncletopia.com","port":27025,"enabled":true,"region":"eu","cc":"gb","latitude":51.509865,"longitude":-0.118092,"reserved":0,"last_update":"0001-01-01T00:00:00Z","name_a2s":"Uncletopia | London | 2 | All Maps","protocol":17,"map":"pl_pier","folder":"tf","game":"Team Fortress","app_id":440,"player_count":24,"max_players":24,"Bots":0,"server_type":"Dedicated","server_os":"Linux","password":true,"vac":true,"version":"7742253","steam_id":85568392924470941,"keywords":["nocrits","nodmgspread","payload","uncletopia"],"game_id":440,"stv_port":27026,"stv_name":"Uncletopia | London | 2 | All Maps | STV","players":[{"user_id":140,"name":"galad.game","steam_id":76561198336324159,"connected_time":3337000000000,"state":"active","ping":54},{"user_id":160,"name":"Mr.Dies a lot","steam_id":76561199061602946,"connected_time":1894000000000,"state":"active","ping":87},{"user_id":157,"name":"monikka","steam_id":76561198297003397,"connected_time":2046000000000,"state":"active","ping":63},{"user_id":168,"name":"XFACTOR | {Moshik Roth}","steam_id":76561198352842114,"connected_time":1495000000000,"state":"active","ping":106},{"user_id":161,"name":"LAMC","steam_id":76561199066888917,"connected_time":1871000000000,"state":"active","ping":57},{"user_id":181,"name":"Nazar [UA]","steam_id":76561198160360350,"connected_time":535000000000,"state":"active","ping":80},{"user_id":174,"name":"Deva Path","steam_id":76561198085763542,"connected_time":1238000000000,"state":"active","ping":75},{"user_id":85,"name":"mommy x_x","steam_id":76561199204257697,"connected_time":7258000000000,"state":"active","ping":54},{"user_id":175,"name":"sush","steam_id":76561198377672176,"connected_time":932000000000,"state":"active","ping":72},{"user_id":144,"name":"Cobb Salads","steam_id":76561197971140507,"connected_time":3027000000000,"state":"active","ping":88},{"user_id":108,"name":"axalotly-gaming","steam_id":76561199131971501,"connected_time":5098000000000,"state":"active","ping":79},{"user_id":183,"name":"JeanCorben","steam_id":76561197965133561,"connected_time":91000000000,"state":"active","ping":43},{"user_id":170,"name":"Purplenoogie","steam_id":76561198081872160,"connected_time":1434000000000,"state":"active","ping":43},{"user_id":178,"name":"Gaattori","steam_id":76561198065624683,"connected_time":712000000000,"state":"active","ping":95},{"user_id":173,"name":"franch brot","steam_id":76561199383677323,"connected_time":1333000000000,"state":"active","ping":118},{"user_id":180,"name":"The Funny Cat-Heaby","steam_id":76561198439978112,"connected_time":661000000000,"state":"active","ping":94},{"user_id":80,"name":"PyroHam","steam_id":76561198206285837,"connected_time":7542000000000,"state":"active","ping":77},{"user_id":155,"name":"Dzieciol","steam_id":76561198160237556,"connected_time":2291000000000,"state":"active","ping":75},{"user_id":176,"name":"hello","steam_id":76561198063595962,"connected_time":856000000000,"state":"active","ping":74},{"user_id":177,"name":"dafydd","steam_id":76561198052200325,"connected_time":797000000000,"state":"active","ping":85},{"user_id":150,"name":"jery","steam_id":76561199246023003,"connected_time":2830000000000,"state":"active","ping":81},{"user_id":164,"name":"–ò–Ω—Å–ø–µ–∫—Ç–æ—Ä –ê—Ç–∞—Å","steam_id":76561199175688390,"connected_time":1838000000000,"state":"active","ping":88},{"user_id":182,"name":"BSantos57","steam_id":76561198000597094,"connected_time":288000000000,"state":"active","ping":86},{"user_id":131,"name":"violently nutritious pummelo","steam_id":76561198014326643,"connected_time":4394000000000,"state":"active","ping":114}]},{"server_id":320,"name":"Uncletopia | London | 3 | All Maps","name_short":"lon-3","host":"lon-1.uk.uncletopia.com","port":27035,"enabled":true,"region":"eu","cc":"gb","latitude":51.509865,"longitude":-0.118092,"reserved":0,"last_update":"0001-01-01T00:00:00Z","name_a2s":"Uncletopia | London | 3 | All Maps","protocol":17,"map":"cp_dustbowl","folder":"tf","game":"Team Fortress","app_id":440,"player_count":24,"max_players":24,"Bots":0,"server_type":"Dedicated","server_os":"Linux","password":true,"vac":true,"version":"7742253","steam_id":85568392924510192,"keywords":["cp","nocrits","nodmgspread","uncletopia"],"game_id":440,"stv_port":27036,"stv_name":"Uncletopia | London | 3 | All Maps | STV","players":[{"user_id":4,"name":"Andreus","steam_id":76561199403926001,"connected_time":4055000000000,"state":"active","ping":76},{"user_id":44,"name":"Exe_Red","steam_id":76561198154952759,"connected_time":110000000000,"state":"active","ping":84},{"user_id":42,"name":"strahphic","steam_id":76561199279295106,"connected_time":279000000000,"state":"active","ping":115},{"user_id":32,"name":"Fbafroguy","steam_id":76561199113010473,"connected_time":932000000000,"state":"active","ping":55},{"user_id":43,"name":"r0la","steam_id":76561198128315340,"connected_time":211000000000,"state":"active","ping":72},{"user_id":20,"name":"Joff-tchoff-tchoffo-tchoffo-tch","steam_id":76561198044167743,"connected_time":1295000000000,"state":"active","ping":83},{"user_id":11,"name":"KORDHELL","steam_id":76561198854254248,"connected_time":2077000000000,"state":"active","ping":78},{"user_id":17,"name":"El`Capitano Flex","steam_id":76561198061813730,"connected_time":1551000000000,"state":"active","ping":73},{"user_id":45,"name":"Kongbyg","steam_id":76561198125835919,"connected_time":73000000000,"state":"active","ping":62},{"user_id":15,"name":"peach soup","steam_id":76561199366403155,"connected_time":1607000000000,"state":"active","ping":90},{"user_id":21,"name":"Linakas","steam_id":76561198299757435,"connected_time":1251000000000,"state":"active","ping":68},{"user_id":22,"name":"Skoualala","steam_id":76561198121754445,"connected_time":1231000000000,"state":"active","ping":52},{"user_id":31,"name":"nogavec","steam_id":76561199095329565,"connected_time":973000000000,"state":"active","ping":64},{"user_id":24,"name":"Enji108","steam_id":76561198070100994,"connected_time":1127000000000,"state":"active","ping":73},{"user_id":25,"name":"Hkitchen","steam_id":76561198194779526,"connected_time":1126000000000,"state":"active","ping":31},{"user_id":26,"name":"üß±Big Murstenüß±","steam_id":76561199073257952,"connected_time":1122000000000,"state":"active","ping":71},{"user_id":27,"name":"Sheerluck Holmes","steam_id":76561198051161936,"connected_time":1119000000000,"state":"active","ping":51},{"user_id":28,"name":"Coyote29","steam_id":76561198344502070,"connected_time":1078000000000,"state":"active","ping":75},{"user_id":39,"name":"Quaker Yotes","steam_id":76561198083068263,"connected_time":809000000000,"state":"active","ping":63},{"user_id":30,"name":"Elon","steam_id":76561198140751130,"connected_time":1041000000000,"state":"active","ping":59},{"user_id":34,"name":"sysanin","steam_id":76561198056649495,"connected_time":917000000000,"state":"active","ping":80},{"user_id":35,"name":"yeldad","steam_id":76561198447264153,"connected_time":916000000000,"state":"active","ping":110},{"user_id":36,"name":"Jkn.0","steam_id":76561198840900777,"connected_time":911000000000,"state":"active","ping":66},{"user_id":37,"name":"Marcos","steam_id":76561198798925721,"connected_time":881000000000,"state":"active","ping":77}]},{"server_id":321,"name":"Uncletopia | London | 4 | All Maps","name_short":"lon-4","host":"lon-1.uk.uncletopia.com","port":27045,"enabled":true,"region":"eu","cc":"gb","latitude":51.509865,"longitude":-0.118092,"reserved":0,"last_update":"0001-01-01T00:00:00Z","name_a2s":"Uncletopia | London | 4 | All Maps","protocol":17,"map":"koth_highpass","folder":"tf","game":"Team Fortress","app_id":440,"player_count":0,"max_players":24,"Bots":0,"server_type":"Dedicated","server_os":"Linux","password":true,"vac":true,"version":"7742253","steam_id":85568392924510193,"keywords":["cp","nocrits","nodmgspread","uncletopia"],"game_id":440,"stv_port":27046,"stv_name":"Uncletopia | London | 4 | All Maps | STV","players":null},{"server_id":21,"name":"Uncletopia | London | 5 | All Maps","name_short":"lon-5","host":"lon-1.uk.uncletopia.com","port":27055,"enabled":true,"region":"eu","cc":"gb","latitude":51.509865,"longitude":-0.118092,"reserved":0,"last_update":"0001-01-01T00:00:00Z","name_a2s":"Uncletopia | London | 5 | All Maps","protocol":17,"map":"pl_frontier_final","folder":"tf","game":"Team Fortress","app_id":440,"player_count":0,"max_players":24,"Bots":0,"server_type":"Dedicated","server_os":"Linux","password":true,"vac":true,"version":"7742253","steam_id":85568392924742829,"keywords":["nocrits","nodmgspread","payload","uncletopia"],"game_id":440,"stv_port":27056,"stv_name":"Uncletopia | London | 5 | All Maps | STV","players":null},{"server_id":22,"name":"Uncletopia | London | 6 | All Maps","name_short":"lon-6","host":"lon-1.uk.uncletopia.com","port":27065,"enabled":true,"region":"eu","cc":"gb","latitude":51.509865,"longitude":-0.118092,"reserved":0,"last_update":"0001-01-01T00:00:00Z","name_a2s":"Uncletopia | London | 6 | All Maps","protocol":17,"map":"pl_borneo","folder":"tf","game":"Team Fortress","app_id":440,"player_count":11,"max_players":24,"Bots":0,"server_type":"Dedicated","server_os":"Linux","password":true,"vac":true,"version":"7742253","steam_id":85568392924742830,"keywords":["nocrits","nodmgspread","payload","uncletopia"],"game_id":440,"stv_port":27066,"stv_name":"Uncletopia | London | 6 | All Maps | STV","players":[{"user_id":3,"name":"My Friend Deagol","steam_id":76561198450859507,"connected_time":811000000000,"state":"active","ping":55},{"user_id":8,"name":"Graf von Scyth","steam_id":76561198198497733,"connected_time":515000000000,"state":"active","ping":39},{"user_id":5,"name":"papa elie","steam_id":76561198035784184,"connected_time":552000000000,"state":"active","ping":90},{"user_id":7,"name":"Big Earning month","steam_id":76561198799097492,"connected_time":539000000000,"state":"active","ping":42},{"user_id":9,"name":"paguro","steam_id":76561198119560871,"connected_time":473000000000,"state":"active","ping":69},{"user_id":11,"name":"Bits\u0026Peices","steam_id":76561199225453607,"connected_time":356000000000,"state":"active","ping":94},{"user_id":12,"name":"Vincere aut mori.","steam_id":76561198170994682,"connected_time":335000000000,"state":"active","ping":88},{"user_id":13,"name":"ollimmortal","steam_id":76561198344396635,"connected_time":331000000000,"state":"active","ping":115},{"user_id":14,"name":"JoJoMaMa","steam_id":76561199072686648,"connected_time":173000000000,"state":"active","ping":66},{"user_id":15,"name":"Acucutl","steam_id":76561198133867096,"connected_time":104000000000,"state":"active","ping":70},{"user_id":16,"name":"gamer man","steam_id":76561198436817109,"connected_time":39000000000,"state":"active","ping":47}]},{"server_id":40,"name":"Uncletopia | London | 7 | No Payload","name_short":"lon-7","host":"lon-1.uk.uncletopia.com","port":27075,"enabled":true,"region":"eu","cc":"gb","latitude":51.509865,"longitude":-0.118092,"reserved":0,"last_update":"0001-01-01T00:00:00Z","name_a2s":"Uncletopia | London | 7 | No Payload","protocol":17,"map":"koth_viaduct","folder":"tf","game":"Team Fortress","app_id":440,"player_count":0,"max_players":24,"Bots":0,"server_type":"Dedicated","server_os":"Linux","password":true,"vac":true,"version":"7742253","steam_id":85568392924964314,"keywords":["cp","nocrits","nodmgspread","uncletopia"],"game_id":440,"stv_port":27076,"stv_name":"Uncletopia | London | 7 | No Payload | STV","players":null},{"server_id":41,"name":"Uncletopia | London | 8 | Community","name_short":"lon-8","host":"lon-1.uk.uncletopia.com","port":27085,"enabled":true,"region":"eu","cc":"gb","latitude":51.509865,"longitude":-0.118092,"reserved":0,"last_update":"0001-01-01T00:00:00Z","name_a2s":"Uncletopia | London | 8 | Community","protocol":17,"map":"cp_altitude","folder":"tf","game":"Team Fortress","app_id":440,"player_count":0,"max_players":24,"Bots":0,"server_type":"Dedicated","server_os":"Linux","password":true,"vac":true,"version":"7742253","steam_id":85568392924964315,"keywords":["cp","nocrits","nodmgspread","uncletopia"],"game_id":440,"stv_port":27086,"stv_name":"Uncletopia | London | 8 | Community | STV","players":null},{"server_id":300,"name":"Uncletopia | Montr√©al | 1 | All Maps","name_short":"mtl-1","host":"mtl-1.ca.uncletopia.com","port":27015,"enabled":true,"region":"us-east","cc":"ca","latitude":45.50889,"longitude":-73.56167,"reserved":0,"last_update":"0001-01-01T00:00:00Z","name_a2s":"Uncletopia | Montr√©al | 1 | All Maps","protocol":17,"map":"koth_lakeside_final","folder":"tf","game":"Team Fortress","app_id":440,"player_count":0,"max_players":24,"Bots":0,"server_type":"Dedicated","server_os":"Linux","password":true,"vac":true,"version":"7742253","steam_id":85568392924500087,"keywords":["cp","nocrits","nodmgspread","uncletopia"],"game_id":440,"stv_port":27016,"stv_name":"Uncletopia | Montr√©al | 1 | All Maps | STV","players":null},{"server_id":301,"name":"Uncletopia | Montr√©al | 2 | All Maps","name_short":"mtl-2","host":"mtl-1.ca.uncletopia.com","port":27025,"enabled":true,"region":"us-east","cc":"ca","latitude":45.50889,"longitude":-73.56167,"reserved":0,"last_update":"0001-01-01T00:00:00Z","name_a2s":"Uncletopia | Montr√©al | 2 | All Maps","protocol":17,"map":"koth_highpass","folder":"tf","game":"Team Fortress","app_id":440,"player_count":0,"max_players":24,"Bots":0,"server_type":"Dedicated","server_os":"Linux","password":true,"vac":true,"version":"7742253","steam_id":85568392924500088,"keywords":["cp","nocrits","nodmgspread","uncletopia"],"game_id":440,"stv_port":27026,"stv_name":"Uncletopia | Montr√©al | 2 | All Maps | STV","players":null},{"server_id":302,"name":"Uncletopia | Montr√©al | 3 | All Maps","name_short":"mtl-3","host":"mtl-1.ca.uncletopia.com","port":27035,"enabled":true,"region":"us-east","cc":"ca","latitude":45.50889,"longitude":-73.56167,"reserved":0,"last_update":"0001-01-01T00:00:00Z","name_a2s":"Uncletopia | Montr√©al | 3 | All Maps","protocol":17,"map":"koth_highpass","folder":"tf","game":"Team Fortress","app_id":440,"player_count":0,"max_players":24,"Bots":0,"server_type":"Dedicated","server_os":"Linux","password":true,"vac":true,"version":"7742253","steam_id":85568392924500089,"keywords":["cp","nocrits","nodmgspread","uncletopia"],"game_id":440,"stv_port":27036,"stv_name":"Uncletopia | Montr√©al | 3 | All Maps | STV","players":null},{"server_id":303,"name":"Uncletopia | Montr√©al | 4 | No Payload","name_short":"mtl-4","host":"mtl-1.ca.uncletopia.com","port":27045,"enabled":true,"region":"us-east","cc":"ca","latitude":45.50889,"longitude":-73.56167,"reserved":0,"last_update":"0001-01-01T00:00:00Z","name_a2s":"Uncletopia | Montr√©al | 4 | No Payload","protocol":17,"map":"cp_snakewater_final1","folder":"tf","game":"Team Fortress","app_id":440,"player_count":0,"max_players":24,"Bots":0,"server_type":"Dedicated","server_os":"Linux","password":true,"vac":true,"version":"7742253","steam_id":85568392924500090,"keywords":["cp","nocrits","nodmgspread","uncletopia"],"game_id":440,"stv_port":27046,"stv_name":"Uncletopia | Montr√©al | 4 | No Payload | STV","players":null},{"server_id":13,"name":"Uncletopia | New York City | 1 | All Maps","name_short":"nyc-1","host":"nyc-1.us.uncletopia.com","port":27015,"enabled":true,"region":"us-east","cc":"us","latitude":40.73061,"longitude":-73.93524,"reserved":0,"last_update":"0001-01-01T00:00:00Z","name_a2s":"Uncletopia | New York City | 1 | All Maps","protocol":17,"map":"cp_dustbowl","folder":"tf","game":"Team Fortress","app_id":440,"player_count":0,"max_players":24,"Bots":0,"server_type":"Dedicated","server_os":"Linux","password":true,"vac":true,"version":"7742253","steam_id":85568392924469993,"keywords":["cp","nocrits","nodmgspread","uncletopia"],"game_id":440,"stv_port":27016,"stv_name":"Uncletopia | New York City | 1 | All Maps | STV","players":null},{"server_id":14,"name":"Uncletopia | New York City | 2 | All Maps","name_short":"nyc-2","host":"nyc-1.us.uncletopia.com","port":27025,"enabled":true,"region":"us-east","cc":"us","latitude":40.73061,"longitude":-73.93524,"reserved":0,"last_update":"0001-01-01T00:00:00Z","name_a2s":"Uncletopia | New York City | 2 | All Maps","protocol":17,"map":"pl_badwater","folder":"tf","game":"Team Fortress","app_id":440,"player_count":0,"max_players":24,"Bots":0,"server_type":"Dedicated","server_os":"Linux","password":true,"vac":true,"version":"7742253","steam_id":85568392924469994,"keywords":["nocrits","nodmgspread","payload","uncletopia"],"game_id":440,"stv_port":27026,"stv_name":"Uncletopia | New York City | 2 | All Maps | STV","players":null},{"server_id":15,"name":"Uncletopia | New York City | 3 | Stopwatch Beta","name_short":"nyc-3","host":"nyc-1.us.uncletopia.com","port":27035,"enabled":true,"region":"us-east","cc":"us","latitude":40.73061,"longitude":-73.93524,"reserved":0,"last_update":"0001-01-01T00:00:00Z","name_a2s":"Uncletopia | New York City | 3 | Stopwatch Beta","protocol":17,"map":"workshop/koth_product_final.ugc454272353","folder":"tf","game":"Team Fortress","app_id":440,"player_count":0,"max_players":24,"Bots":0,"server_type":"Dedicated","server_os":"Linux","password":true,"vac":true,"version":"7742253","steam_id":85568392924742820,"keywords":["cp","nocrits","nodmgspread","uncletopia"],"game_id":440,"stv_port":27036,"stv_name":"Uncletopia | New York City | 3 | Stopwatch Beta | STV","players":null},{"server_id":16,"name":"Uncletopia | New York City | 4 | Community","name_short":"nyc-4","host":"nyc-1.us.uncletopia.com","port":27045,"enabled":true,"region":"us-east","cc":"us","latitude":40.73061,"longitude":-73.93524,"reserved":0,"last_update":"0001-01-01T00:00:00Z","name_a2s":"Uncletopia | New York City | 4 | Community","protocol":17,"map":"workshop/koth_bagel_rc5.ugc2514036946","folder":"tf","game":"Team Fortress","app_id":440,"player_count":0,"max_players":24,"Bots":0,"server_type":"Dedicated","server_os":"Linux","password":true,"vac":true,"version":"7742253","steam_id":85568392924742821,"keywords":["cp","nocrits","nodmgspread","uncletopia"],"game_id":440,"stv_port":27046,"stv_name":"Uncletopia | New York City | 4 | Community | STV","players":null},{"server_id":142,"name":"Uncletopia | S√£o Paulo | 1 | All Maps","name_short":"sao-1","host":"sao-1.br.uncletopia.com","port":27015,"enabled":true,"region":"sa","cc":"br","latitude":-23.533773,"longitude":-46.62529,"reserved":0,"last_update":"0001-01-01T00:00:00Z","name_a2s":"Uncletopia | S√£o Paulo | 1 | All Maps","protocol":17,"map":"koth_viaduct","folder":"tf","game":"Team Fortress","app_id":440,"player_count":0,"max_players":24,"Bots":0,"server_type":"Dedicated","server_os":"Linux","password":true,"vac":true,"version":"7742253","steam_id":85568392924469996,"keywords":["cp","nocrits","nodmgspread","uncletopia"],"game_id":440,"stv_port":27016,"stv_name":"Uncletopia | S√£o Paulo | 1 | All Maps | STV","players":null},{"server_id":143,"name":"Uncletopia | S√£o Paulo | 2 | All Maps","name_short":"sao-2","host":"sao-2.br.uncletopia.com","port":27015,"enabled":true,"region":"sa","cc":"br","latitude":-23.533773,"longitude":-46.62529,"reserved":0,"last_update":"0001-01-01T00:00:00Z","name_a2s":"Uncletopia | S√£o Paulo | 2 | All Maps","protocol":17,"map":"koth_viaduct","folder":"tf","game":"Team Fortress","app_id":440,"player_count":0,"max_players":24,"Bots":0,"server_type":"Dedicated","server_os":"Linux","password":true,"vac":true,"version":"7742253","steam_id":85568392924485349,"keywords":["cp","nocrits","nodmgspread","uncletopia"],"game_id":440,"stv_port":27016,"stv_name":"Uncletopia | S√£o Paulo | 2 | All Maps | STV","players":null},{"server_id":7,"name":"Uncletopia | Seattle | 1 | All Maps","name_short":"sea-1","host":"sea-1.us.uncletopia.com","port":27015,"enabled":true,"region":"us-west","cc":"us","latitude":47.608013,"longitude":-122.33517,"reserved":0,"last_update":"0001-01-01T00:00:00Z","name_a2s":"Uncletopia | Seattle | 1 | All Maps","protocol":17,"map":"pl_frontier_final","folder":"tf","game":"Team Fortress","app_id":440,"player_count":24,"max_players":24,"Bots":0,"server_type":"Dedicated","server_os":"Linux","password":true,"vac":true,"version":"7742253","steam_id":85568392924469997,"keywords":["nocrits","nodmgspread","payload","uncletopia"],"game_id":440,"stv_port":27016,"stv_name":"Uncletopia | Seattle | 1 | All Maps | STV","players":[{"user_id":464,"name":"teh mummy","steam_id":76561198044123636,"connected_time":1341000000000,"state":"active","ping":63},{"user_id":469,"name":"Cumped","steam_id":76561198108767545,"connected_time":1169000000000,"state":"active","ping":48},{"user_id":465,"name":"LumiEvi","steam_id":76561198112442714,"connected_time":1331000000000,"state":"active","ping":118},{"user_id":470,"name":"Shit","steam_id":76561198158353361,"connected_time":1155000000000,"state":"active","ping":58},{"user_id":363,"name":"butt3r_","steam_id":76561198156374792,"connected_time":12995000000000,"state":"active","ping":45},{"user_id":486,"name":"Dr. YEET","steam_id":76561198071232053,"connected_time":218000000000,"state":"active","ping":45},{"user_id":463,"name":"Kirbothebrony","steam_id":76561198971911330,"connected_time":1841000000000,"state":"active","ping":121},{"user_id":427,"name":"Sweets","steam_id":76561198998446307,"connected_time":7200000000000,"state":"active","ping":64},{"user_id":434,"name":"Raian","steam_id":76561199138048671,"connected_time":6443000000000,"state":"active","ping":70},{"user_id":440,"name":"Tom H.A.N.X","steam_id":76561198061064737,"connected_time":5676000000000,"state":"active","ping":48},{"user_id":479,"name":"Banner","steam_id":76561198067176148,"connected_time":786000000000,"state":"active","ping":134},{"user_id":471,"name":"Loon","steam_id":76561198057106316,"connected_time":1145000000000,"state":"active","ping":98},{"user_id":475,"name":"aisu","steam_id":76561198043768507,"connected_time":1024000000000,"state":"active","ping":99},{"user_id":450,"name":"Level 99 Mudcrab","steam_id":76561198077452771,"connected_time":4460000000000,"state":"active","ping":58},{"user_id":460,"name":"Dorte Voloxi","steam_id":76561198118620969,"connected_time":2461000000000,"state":"active","ping":63},{"user_id":482,"name":"Frongus","steam_id":76561197979056451,"connected_time":438000000000,"state":"active","ping":45},{"user_id":483,"name":"goopgrabber","steam_id":76561199029951083,"connected_time":424000000000,"state":"active","ping":131},{"user_id":449,"name":"ThatEmoEmu","steam_id":76561198272304706,"connected_time":5223000000000,"state":"active","ping":48},{"user_id":456,"name":"Grognak","steam_id":76561198044710527,"connected_time":3872000000000,"state":"active","ping":50},{"user_id":476,"name":"Lucky ¬§11¬§","steam_id":76561198046529478,"connected_time":999000000000,"state":"active","ping":65},{"user_id":439,"name":"trackpad gaming | f2p","steam_id":76561198840414371,"connected_time":5965000000000,"state":"active","ping":92},{"user_id":484,"name":"jello","steam_id":76561198039937384,"connected_time":396000000000,"state":"active","ping":56},{"user_id":485,"name":"victordead121","steam_id":76561199180843121,"connected_time":391000000000,"state":"active","ping":114},{"user_id":314,"name":"pcplace","steam_id":76561198097987387,"connected_time":18148000000000,"state":"active","ping":50}]},{"server_id":119,"name":"Uncletopia | Seattle | 2 | All Maps","name_short":"sea-2","host":"sea-1.us.uncletopia.com","port":27025,"enabled":true,"region":"us-west","cc":"us","latitude":47.608013,"longitude":-122.33517,"reserved":0,"last_update":"0001-01-01T00:00:00Z","name_a2s":"Uncletopia | Seattle | 2 | All Maps","protocol":17,"map":"pl_borneo","folder":"tf","game":"Team Fortress","app_id":440,"player_count":17,"max_players":24,"Bots":0,"server_type":"Dedicated","server_os":"Linux","password":true,"vac":true,"version":"7742253","steam_id":85568392924469998,"keywords":["nocrits","nodmgspread","payload","uncletopia"],"game_id":440,"stv_port":27026,"stv_name":"Uncletopia | Seattle | 2 | All Maps | STV","players":[{"user_id":710,"name":"LostVoid","steam_id":76561198259983156,"connected_time":1925000000000,"state":"active","ping":68},{"user_id":632,"name":"cracky","steam_id":76561197971365444,"connected_time":7925000000000,"state":"active","ping":48},{"user_id":692,"name":"Bagaboned","steam_id":76561198043761335,"connected_time":3335000000000,"state":"active","ping":44},{"user_id":707,"name":"doozy","steam_id":76561198033106776,"connected_time":1952000000000,"state":"active","ping":84},{"user_id":688,"name":"funkdonut","steam_id":76561199062326425,"connected_time":3454000000000,"state":"active","ping":49},{"user_id":703,"name":"CurryNinja","steam_id":76561198057172126,"connected_time":2484000000000,"state":"active","ping":71},{"user_id":699,"name":"KingToaster","steam_id":76561198007903802,"connected_time":2978000000000,"state":"active","ping":33},{"user_id":719,"name":"self sufficient kitten","steam_id":76561197960592612,"connected_time":241000000000,"state":"active","ping":45},{"user_id":683,"name":"served","steam_id":76561199438267625,"connected_time":3634000000000,"state":"active","ping":108},{"user_id":696,"name":"happyman","steam_id":76561199430019599,"connected_time":3128000000000,"state":"active","ping":108},{"user_id":717,"name":"Jeb Wins","steam_id":76561198075614895,"connected_time":361000000000,"state":"active","ping":59},{"user_id":682,"name":"Gary, 40, soul sucking 9-5","steam_id":76561198073812888,"connected_time":4097000000000,"state":"active","ping":44},{"user_id":712,"name":"Forty","steam_id":76561198257410181,"connected_time":601000000000,"state":"active","ping":55},{"user_id":668,"name":"Rise for the National Spamton","steam_id":76561198138468982,"connected_time":5124000000000,"state":"active","ping":52},{"user_id":695,"name":"Dad Rock Deluxe","steam_id":76561198051224819,"connected_time":3225000000000,"state":"active","ping":90},{"user_id":690,"name":"Unoverrated","steam_id":76561198013426879,"connected_time":3431000000000,"state":"active","ping":127},{"user_id":658,"name":"PopcornNinja101","steam_id":76561198330680181,"connected_time":6430000000000,"state":"active","ping":46}]},{"server_id":406,"name":"Uncletopia | Seattle | 3 | Stopwatch Beta","name_short":"sea-3","host":"sea-1.us.uncletopia.com","port":27035,"enabled":true,"region":"us-west","cc":"us","latitude":47.608013,"longitude":-122.33517,"reserved":0,"last_update":"0001-01-01T00:00:00Z","name_a2s":"Uncletopia | Seattle | 3 | Stopwatch Beta","protocol":17,"map":"workshop/pl_vigil_rc9.ugc1266210012","folder":"tf","game":"Team Fortress","app_id":440,"player_count":0,"max_players":24,"Bots":0,"server_type":"Dedicated","server_os":"Linux","password":true,"vac":true,"version":"7742253","steam_id":85568392924515217,"keywords":["nocrits","nodmgspread","payload","uncletopia"],"game_id":440,"stv_port":27036,"stv_name":"Uncletopia | Seattle | 3 | Stopwatch Beta | STV","players":null},{"server_id":17,"name":"Uncletopia | San Francisco | 1 | All Maps","name_short":"sfo-1","host":"sfo-1.us.uncletopia.com","port":27015,"enabled":true,"region":"us-west","cc":"us","latitude":37.77397,"longitude":-122.4313,"reserved":0,"last_update":"0001-01-01T00:00:00Z","name_a2s":"Uncletopia | San Francisco | 1 | All Maps","protocol":17,"map":"koth_nucleus","folder":"tf","game":"Team Fortress","app_id":440,"player_count":0,"max_players":24,"Bots":0,"server_type":"Dedicated","server_os":"Linux","password":true,"vac":true,"version":"7742253","steam_id":85568392924469999,"keywords":["cp","nocrits","nodmgspread","uncletopia"],"game_id":440,"stv_port":27016,"stv_name":"Uncletopia | San Francisco | 1 | All Maps | STV","players":null},{"server_id":18,"name":"Uncletopia | San Francisco | 2 | All Maps","name_short":"sfo-2","host":"sfo-1.us.uncletopia.com","port":27025,"enabled":true,"region":"us-west","cc":"us","latitude":37.77397,"longitude":-122.4313,"reserved":0,"last_update":"0001-01-01T00:00:00Z","name_a2s":"Uncletopia | San Francisco | 2 | All Maps","protocol":17,"map":"pl_pier","folder":"tf","game":"Team Fortress","app_id":440,"player_count":0,"max_players":24,"Bots":0,"server_type":"Dedicated","server_os":"Linux","password":true,"vac":true,"version":"7742253","steam_id":85568392924470000,"keywords":["nocrits","nodmgspread","payload","uncletopia"],"game_id":440,"stv_port":27026,"stv_name":"Uncletopia | San Francisco | 2 | All Maps | STV","players":null},{"server_id":19,"name":"Uncletopia | San Francisco | 3 | Stopwatch Beta","name_short":"sfo-3","host":"sfo-1.us.uncletopia.com","port":27035,"enabled":true,"region":"us-west","cc":"us","latitude":37.77397,"longitude":-122.4313,"reserved":0,"last_update":"0001-01-01T00:00:00Z","name_a2s":"Uncletopia | San Francisco | 3 | Stopwatch Beta","protocol":17,"map":"workshop/koth_ramjam_rc1.ugc459778887","folder":"tf","game":"Team Fortress","app_id":440,"player_count":0,"max_players":24,"Bots":0,"server_type":"Dedicated","server_os":"Linux","password":true,"vac":true,"version":"7742253","steam_id":85568392924742824,"keywords":["cp","nocrits","nodmgspread","uncletopia"],"game_id":440,"stv_port":27036,"stv_name":"Uncletopia | San Francisco | 3 | Stopwatch Beta | STV","players":null},{"server_id":20,"name":"Uncletopia | San Francisco | 4 | Community","name_short":"sfo-4","host":"sfo-1.us.uncletopia.com","port":27045,"enabled":true,"region":"us-west","cc":"us","latitude":37.77397,"longitude":-122.4313,"reserved":0,"last_update":"0001-01-01T00:00:00Z","name_a2s":"Uncletopia | San Francisco | 4 | Community","protocol":17,"map":"workshop/koth_bagel_rc5.ugc2514036946","folder":"tf","game":"Team Fortress","app_id":440,"player_count":0,"max_players":24,"Bots":0,"server_type":"Dedicated","server_os":"Linux","password":true,"vac":true,"version":"7742253","steam_id":85568392924742826,"keywords":["cp","nocrits","nodmgspread","uncletopia"],"game_id":440,"stv_port":27046,"stv_name":"Uncletopia | San Francisco | 4 | Community | STV","players":null},{"server_id":141,"name":"Uncletopia | Sydney | 1 | All Maps","name_short":"syd-1","host":"syd-1.au.uncletopia.com","port":27015,"enabled":true,"region":"au","cc":"au","latitude":-33.865143,"longitude":151.2099,"reserved":0,"last_update":"0001-01-01T00:00:00Z","name_a2s":"Uncletopia | Sydney | 1 | All Maps","protocol":17,"map":"cp_snakewater_final1","folder":"tf","game":"Team Fortress","app_id":440,"player_count":24,"max_players":24,"Bots":0,"server_type":"Dedicated","server_os":"Linux","password":true,"vac":true,"version":"7742253","steam_id":85568392924470001,"keywords":["cp","nocrits","nodmgspread","uncletopia"],"game_id":440,"stv_port":27016,"stv_name":"Uncletopia | Sydney | 1 | All Maps | STV","players":[{"user_id":367,"name":"Corrupt","steam_id":76561198008567328,"connected_time":2909000000000,"state":"active","ping":104},{"user_id":390,"name":"Sinister80s","steam_id":76561198343540472,"connected_time":1737000000000,"state":"active","ping":76},{"user_id":395,"name":"fleabane","steam_id":76561198170455270,"connected_time":1510000000000,"state":"active","ping":45},{"user_id":404,"name":"APVC","steam_id":76561199090168813,"connected_time":821000000000,"state":"active","ping":51},{"user_id":307,"name":"A threat unbeknownst","steam_id":76561198293776102,"connected_time":6681000000000,"state":"active","ping":31},{"user_id":364,"name":"LightningBlock","steam_id":76561198289997742,"connected_time":3065000000000,"state":"active","ping":36},{"user_id":406,"name":"LeoJoeD","steam_id":76561198161848749,"connected_time":796000000000,"state":"active","ping":45},{"user_id":417,"name":"Gholdengo (real)","steam_id":76561198841855657,"connected_time":74000000000,"state":"active","ping":52},{"user_id":402,"name":"hawk","steam_id":76561198135164277,"connected_time":837000000000,"state":"active","ping":51},{"user_id":352,"name":"Legion","steam_id":76561198054096076,"connected_time":3547000000000,"state":"active","ping":73},{"user_id":413,"name":"Chooka","steam_id":76561197992307814,"connected_time":372000000000,"state":"active","ping":65},{"user_id":396,"name":"‚ùÑ‚ùÑ‚ùÑ‚ùÑ‚ùÑ‚ùÑ‚ùÑ‚ùÑ","steam_id":76561198159933043,"connected_time":1496000000000,"state":"active","ping":85},{"user_id":403,"name":"NewChris","steam_id":76561198254754182,"connected_time":823000000000,"state":"active","ping":77},{"user_id":391,"name":"Wrap the Pufferfish in Alfoil","steam_id":76561199369157609,"connected_time":1625000000000,"state":"active","ping":60},{"user_id":407,"name":"Zort","steam_id":76561198056414289,"connected_time":773000000000,"state":"active","ping":61},{"user_id":330,"name":"old chunk of coal","steam_id":76561197990537324,"connected_time":4779000000000,"state":"active","ping":108},{"user_id":361,"name":"Apteryx","steam_id":76561197976460834,"connected_time":3154000000000,"state":"active","ping":60},{"user_id":398,"name":"krandlez` (Any/All)","steam_id":76561198044839726,"connected_time":1108000000000,"state":"active","ping":45},{"user_id":381,"name":"FrOStY","steam_id":76561198088155805,"connected_time":2620000000000,"state":"active","ping":171},{"user_id":400,"name":"korpz","steam_id":76561197996888637,"connected_time":839000000000,"state":"active","ping":60},{"user_id":389,"name":"michael","steam_id":76561198052848358,"connected_time":2004000000000,"state":"active","ping":54},{"user_id":416,"name":"cibo","steam_id":76561198798929932,"connected_time":149000000000,"state":"active","ping":62},{"user_id":342,"name":"KnowZero","steam_id":76561198095752015,"connected_time":4577000000000,"state":"active","ping":61},{"user_id":412,"name":"A KNIFE!","steam_id":76561198160390701,"connected_time":518000000000,"state":"active","ping":100}]},{"server_id":123,"name":"Uncletopia | Sydney | 2 | All Maps","name_short":"syd-2","host":"syd-1.au.uncletopia.com","port":27025,"enabled":true,"region":"au","cc":"au","latitude":-33.865143,"longitude":151.2099,"reserved":0,"last_update":"0001-01-01T00:00:00Z","name_a2s":"Uncletopia | Sydney | 2 | All Maps","protocol":17,"map":"cp_process_final","folder":"tf","game":"Team Fortress","app_id":440,"player_count":0,"max_players":24,"Bots":0,"server_type":"Dedicated","server_os":"Linux","password":true,"vac":true,"version":"7742253","steam_id":85568392924470002,"keywords":["cp","nocrits","nodmgspread","uncletopia"],"game_id":440,"stv_port":27026,"stv_name":"Uncletopia | Sydney | 2 | All Maps | STV","players":null},{"server_id":395,"name":"Uncletopia | Sydney | 3 | All Maps","name_short":"syd-3","host":"syd-1.au.uncletopia.com","port":27035,"enabled":true,"region":"au","cc":"au","latitude":-33.865143,"longitude":151.2099,"reserved":0,"last_update":"0001-01-01T00:00:00Z","name_a2s":"Uncletopia | Sydney | 3 | All Maps","protocol":17,"map":"koth_viaduct","folder":"tf","game":"Team Fortress","app_id":440,"player_count":0,"max_players":24,"Bots":0,"server_type":"Dedicated","server_os":"Linux","password":true,"vac":true,"version":"7742253","steam_id":85568392925194467,"keywords":["cp","nocrits","nodmgspread","uncletopia"],"game_id":440,"stv_port":27036,"stv_name":"Uncletopia | Sydney | 3 | All Maps | STV","players":null},{"server_id":396,"name":"Uncletopia | Sydney | 4 | All Maps","name_short":"syd-4","host":"syd-1.au.uncletopia.com","port":27045,"enabled":true,"region":"au","cc":"au","latitude":-33.865143,"longitude":151.2099,"reserved":0,"last_update":"0001-01-01T00:00:00Z","name_a2s":"Uncletopia | Sydney | 4 | All Maps","protocol":17,"map":"koth_highpass","folder":"tf","game":"Team Fortress","app_id":440,"player_count":0,"max_players":24,"Bots":0,"server_type":"Dedicated","server_os":"Linux","password":true,"vac":true,"version":"7742253","steam_id":85568392925397958,"keywords":["cp","nocrits","nodmgspread","uncletopia"],"game_id":440,"stv_port":27046,"stv_name":"Uncletopia | Sydney | 4 | All Maps | STV","players":null},{"server_id":58,"name":"Uncletopia | Sydney | 5 | Stopwatch Beta","name_short":"syd-5","host":"syd-1.au.uncletopia.com","port":27055,"enabled":true,"region":"au","cc":"au","latitude":-33.865143,"longitude":151.2099,"reserved":0,"last_update":"0001-01-01T00:00:00Z","name_a2s":"Uncletopia | Sydney | 5 | Stopwatch Beta","protocol":17,"map":"koth_lakeside_final","folder":"tf","game":"Team Fortress","app_id":440,"player_count":0,"max_players":24,"Bots":0,"server_type":"Dedicated","server_os":"Linux","password":true,"vac":true,"version":"7742253","steam_id":85568392925397959,"keywords":["cp","nocrits","nodmgspread","uncletopia"],"game_id":440,"stv_port":27056,"stv_name":"Uncletopia | Sydney | 5 | Stopwatch Beta | STV","players":null},{"server_id":59,"name":"Uncletopia | Sydney | 6 | Community","name_short":"syd-6","host":"syd-1.au.uncletopia.com","port":27065,"enabled":true,"region":"au","cc":"au","latitude":-33.865143,"longitude":151.2099,"reserved":0,"last_update":"0001-01-01T00:00:00Z","name_a2s":"Uncletopia | Sydney | 6 | Community","protocol":17,"map":"workshop/koth_ashville_final.ugc2130459942","folder":"tf","game":"Team Fortress","app_id":440,"player_count":0,"max_players":24,"Bots":0,"server_type":"Dedicated","server_os":"Linux","password":true,"vac":true,"version":"7742253","steam_id":85568392925397960,"keywords":["cp","nocrits","nodmgspread","uncletopia"],"game_id":440,"stv_port":27066,"stv_name":"Uncletopia | Sydney | 6 | Community | STV","players":null},{"server_id":49,"name":"Uncletopia | Warsaw | 1 | All Maps","name_short":"waw-1","host":"waw-1.pl.uncletopia.com","port":27015,"enabled":true,"region":"eu","cc":"pl","latitude":52.2297,"longitude":21.017532,"reserved":0,"last_update":"0001-01-01T00:00:00Z","name_a2s":"","protocol":0,"map":"","folder":"","game":"","app_id":0,"player_count":0,"max_players":0,"Bots":0,"server_type":"","server_os":"","password":false,"vac":false,"version":"","steam_id":0,"keywords":null,"game_id":0,"stv_port":0,"stv_name":"","players":null},{"server_id":50,"name":"Uncletopia | Warsaw | 2 | All Maps","name_short":"waw-2","host":"waw-1.pl.uncletopia.com","port":27025,"enabled":true,"region":"eu","cc":"pl","latitude":52.2297,"longitude":21.017532,"reserved":0,"last_update":"0001-01-01T00:00:00Z","name_a2s":"Uncletopia | Warsaw | 2 | All Maps","protocol":17,"map":"pl_upward","folder":"tf","game":"Team Fortress","app_id":440,"player_count":0,"max_players":24,"Bots":0,"server_type":"Dedicated","server_os":"Linux","password":true,"vac":true,"version":"7742253","steam_id":85568392925397851,"keywords":["nocrits","nodmgspread","payload","uncletopia"],"game_id":440,"stv_port":27026,"stv_name":"Uncletopia | Warsaw | 2 | All Maps | STV","players":null},{"server_id":51,"name":"Uncletopia | Warsaw | 3 | All Maps","name_short":"waw-3","host":"waw-1.pl.uncletopia.com","port":27035,"enabled":true,"region":"eu","cc":"pl","latitude":52.2297,"longitude":21.017532,"reserved":0,"last_update":"0001-01-01T00:00:00Z","name_a2s":"Uncletopia | Warsaw | 3 | All Maps","protocol":17,"map":"koth_lakeside_final","folder":"tf","game":"Team Fortress","app_id":440,"player_count":0,"max_players":24,"Bots":0,"server_type":"Dedicated","server_os":"Linux","password":true,"vac":true,"version":"7742253","steam_id":85568392925397852,"keywords":["cp","nocrits","nodmgspread","uncletopia"],"game_id":440,"stv_port":27036,"stv_name":"Uncletopia | Warsaw | 3 | All Maps | STV","players":null},{"server_id":52,"name":"Uncletopia | Warsaw | 4 | All Maps","name_short":"waw-4","host":"waw-1.pl.uncletopia.com","port":27045,"enabled":true,"region":"eu","cc":"pl","latitude":52.2297,"longitude":21.017532,"reserved":0,"last_update":"0001-01-01T00:00:00Z","name_a2s":"Uncletopia | Warsaw | 4 | All Maps","protocol":17,"map":"pl_upward","folder":"tf","game":"Team Fortress","app_id":440,"player_count":0,"max_players":24,"Bots":0,"server_type":"Dedicated","server_os":"Linux","password":true,"vac":true,"version":"7742253","steam_id":85568392925397853,"keywords":["nocrits","nodmgspread","payload","uncletopia"],"game_id":440,"stv_port":27046,"stv_name":"Uncletopia | Warsaw | 4 | All Maps | STV","players":null},{"server_id":53,"name":"Uncletopia | Warsaw | 5 | Stopwatch Beta","name_short":"waw-5","host":"waw-1.pl.uncletopia.com","port":27055,"enabled":true,"region":"eu","cc":"pl","latitude":52.2297,"longitude":21.017532,"reserved":0,"last_update":"0001-01-01T00:00:00Z","name_a2s":"Uncletopia | Warsaw | 5 | Stopwatch Beta","protocol":17,"map":"pl_swiftwater_final1","folder":"tf","game":"Team Fortress","app_id":440,"player_count":0,"max_players":24,"Bots":0,"server_type":"Dedicated","server_os":"Linux","password":true,"vac":true,"version":"7742253","steam_id":85568392925397854,"keywords":["nocrits","nodmgspread","payload","uncletopia"],"game_id":440,"stv_port":27056,"stv_name":"Uncletopia | Warsaw | 5 | Stopwatch Beta | STV","players":null},{"server_id":54,"name":"Uncletopia | Warsaw | 6 | Community","name_short":"waw-6","host":"waw-1.pl.uncletopia.com","port":27065,"enabled":true,"region":"eu","cc":"pl","latitude":52.2297,"longitude":21.017532,"reserved":0,"last_update":"0001-01-01T00:00:00Z","name_a2s":"Uncletopia | Warsaw | 6 | Community","protocol":17,"map":"koth_highpass","folder":"tf","game":"Team Fortress","app_id":440,"player_count":0,"max_players":24,"Bots":0,"server_type":"Dedicated","server_os":"Linux","password":true,"vac":true,"version":"7742253","steam_id":85568392925397856,"keywords":["cp","nocrits","nodmgspread","uncletopia"],"game_id":440,"stv_port":27066,"stv_name":"Uncletopia | Warsaw | 6 | Community | STV","players":null}]}