{"status":true,"message":"","result":[{"server_id":9,"name":"Uncletopia | Atlanta | 1 | All Maps","name_short":"atl-1","host":"atl-1.us.uncletopia.com","port":27015,"enabled":true,"region":"us-east","cc":"us","latitude":33.753746,"longitude":-84.38633,"reserved":0,"last_update":"0001-01-01T00:00:00Z","name_a2s":"Uncletopia | Atlanta | 1 | All Maps","protocol":17,"map":"pl_barnblitz","folder":"tf","game":"Team Fortress","app_id":440,"player_count":24,"max_players":24,"Bots":0,"server_type":"Dedicated","server_os":"Linux","password":true,"vac":true,"version":"7961495","steam_id":85568392924469982,"keywords":["nocrits","nodmgspread","payload","uncletopia"],"game_id":440,"stv_port":27016,"stv_name":"Uncletopia | Atlanta | 1 | All Maps | STV","players":[{"user_id":511,"name":"Vee (very cool)","steam_id":76561198330432889,"connected_time":9982000000000,"state":"active","ping":71},{"user_id":564,"name":"Albino Jellyfish","steam_id":76561198208561097,"connected_time":7215000000000,"state":"active","ping":53},{"user_id":474,"name":"cliffheath","steam_id":76561198044288534,"connected_time":12464000000000,"state":"active","ping":66},{"user_id":618,"name":"Dr.Zarann","steam_id":76561198163952958,"connected_time":3057000000000,"state":"active","ping":71},{"user_id":613,"name":"XxskinnyxX","steam_id":76561198011361942,"connected_time":3506000000000,"state":"active","ping":113},{"user_id":579,"name":"Avo","steam_id":76561197993340494,"connected_time":5377000000000,"state":"active","ping":59},{"user_id":610,"name":"xiii","steam_id":76561198079416036,"connected_time":3553000000000,"state":"active","ping":83},{"user_id":616,"name":"Brim Reaper","steam_id":76561198325549536,"connected_time":3081000000000,"state":"active","ping":64},{"user_id":625,"name":"scrotal recall","steam_id":76561198135945598,"connected_time":1837000000000,"state":"active","ping":63},{"user_id":624,"name":"BeastRyder","steam_id":76561198330281584,"connected_time":2310000000000,"state":"active","ping":79},{"user_id":538,"name":"CoffeeZombi","steam_id":76561198172708053,"connected_time":9020000000000,"state":"active","ping":59},{"user_id":626,"name":"ATL1 | cola","steam_id":76561198374390458,"connected_time":1821000000000,"state":"active","ping":71},{"user_id":422,"name":"stink","steam_id":76561198099318923,"connected_time":17319000000000,"state":"active","ping":81},{"user_id":629,"name":"Mage","steam_id":76561198285026879,"connected_time":64000000000,"state":"spawning","ping":81},{"user_id":563,"name":"PeskyTerry1998","steam_id":76561198105349350,"connected_time":7231000000000,"state":"active","ping":69},{"user_id":576,"name":"LOVEDRAGON","steam_id":76561198089908485,"connected_time":5439000000000,"state":"active","ping":75},{"user_id":580,"name":"joyeuxnoelle","steam_id":76561198062423120,"connected_time":5377000000000,"state":"active","ping":61},{"user_id":623,"name":"Jin Gulilo","steam_id":76561198065151242,"connected_time":2381000000000,"state":"active","ping":60},{"user_id":627,"name":"Motorolª","steam_id":76561198358119669,"connected_time":969000000000,"state":"active","ping":124},{"user_id":628,"name":"firefish","steam_id":76561199135656474,"connected_time":949000000000,"state":"active","ping":92},{"user_id":600,"name":"aaaxel","steam_id":76561198137430598,"connected_time":4440000000000,"state":"active","ping":75},{"user_id":594,"name":"shellaa","steam_id":76561198044124102,"connected_time":4768000000000,"state":"active","ping":65},{"user_id":619,"name":"Platypuspenguin","steam_id":76561198212228081,"connected_time":3057000000000,"state":"active","ping":84},{"user_id":622,"name":"Pharaxer™","steam_id":76561198051236069,"connected_time":2646000000000,"state":"active","ping":152}]},{"server_id":104,"name":"Uncletopia | Atlanta | 2 | All Maps","name_short":"atl-2","host":"atl-1.us.uncletopia.com","port":27025,"enabled":true,"region":"us-east","cc":"us","latitude":33.753746,"longitude":-84.38633,"reserved":0,"last_update":"0001-01-01T00:00:00Z","name_a2s":"Uncletopia | Atlanta | 2 | All Maps","protocol":17,"map":"pl_barnblitz","folder":"tf","game":"Team Fortress","app_id":440,"player_count":24,"max_players":24,"Bots":0,"server_type":"Dedicated","server_os":"Linux","password":true,"vac":true,"version":"7961495","steam_id":85568392924469983,"keywords":["nocrits","nodmgspread","payload","uncletopia"],"game_id":440,"stv_port":27026,"stv_name":"Uncletopia | Atlanta | 2 | All Maps | STV","players":[{"user_id":581,"name":"Koishi","steam_id":76561198054541054,"connected_time":4622000000000,"state":"active","ping":61},{"user_id":625,"name":"CroutonCriminal","steam_id":76561198252145166,"connected_time":1658000000000,"state":"active","ping":86},{"user_id":629,"name":"chilis baby back ribs","steam_id":76561198813516435,"connected_time":846000000000,"state":"active","ping":105},{"user_id":635,"name":"Chicken Golem","steam_id":76561198138995247,"connected_time":148000000000,"state":"active","ping":84},{"user_id":632,"name":"emerge","steam_id":76561198186882891,"connected_time":704000000000,"state":"active","ping":75},{"user_id":614,"name":"No, this is Patrick","steam_id":76561198058776774,"connected_time":2059000000000,"state":"active","ping":64},{"user_id":606,"name":"illious","steam_id":76561198169925494,"connected_time":2640000000000,"state":"active","ping":60},{"user_id":627,"name":"suck her dick sunday","steam_id":76561199328635967,"connected_time":1038000000000,"state":"active","ping":53},{"user_id":610,"name":"Big Boy Beni","steam_id":76561197995469460,"connected_time":2123000000000,"state":"active","ping":89},{"user_id":615,"name":"Lots0","steam_id":76561198043143145,"connected_time":2041000000000,"state":"active","ping":79},{"user_id":631,"name":"recycle","steam_id":76561198819562111,"connected_time":787000000000,"state":"active","ping":86},{"user_id":527,"name":"SUN","steam_id":76561199234026881,"connected_time":8165000000000,"state":"active","ping":56},{"user_id":630,"name":"Punished Shitster","steam_id":76561198150452857,"connected_time":828000000000,"state":"active","ping":80},{"user_id":576,"name":"Spinch","steam_id":76561198296224166,"connected_time":4944000000000,"state":"active","ping":81},{"user_id":592,"name":"Red Velveeta Cake","steam_id":76561198073764084,"connected_time":4141000000000,"state":"active","ping":77},{"user_id":633,"name":"JtsRes","steam_id":76561197994809241,"connected_time":558000000000,"state":"active","ping":76},{"user_id":628,"name":"loser","steam_id":76561198171507451,"connected_time":879000000000,"state":"active","ping":81},{"user_id":578,"name":"2L84U","steam_id":76561198079176017,"connected_time":4824000000000,"state":"active","ping":90},{"user_id":593,"name":"E4Estrogen","steam_id":76561198085813708,"connected_time":4116000000000,"state":"active","ping":49},{"user_id":577,"name":"Publo","steam_id":76561198161777140,"connected_time":4924000000000,"state":"active","ping":76},{"user_id":634,"name":"cholmes","steam_id":76561198076057648,"connected_time":257000000000,"state":"active","ping":87},{"user_id":607,"name":"Monkey Mode","steam_id":76561197961267543,"connected_time":2349000000000,"state":"active","ping":62},{"user_id":626,"name":"Syndra's Futa Balls","steam_id":76561198058671296,"connected_time":1133000000000,"state":"active","ping":45},{"user_id":597,"name":"UnkownGamerLOL","steam_id":76561198225902368,"connected_time":4052000000000,"state":"active","ping":90}]},{"server_id":400,"name":"Uncletopia | Atlanta | 3 | Stopwatch","name_short":"atl-3","host":"atl-1.us.uncletopia.com","port":27035,"enabled":true,"region":"us-east","cc":"us","latitude":33.753746,"longitude":-84.38633,"reserved":0,"last_update":"0001-01-01T00:00:00Z","name_a2s":"Uncletopia | Atlanta | 3 | Stopwatch","protocol":17,"map":"cp_metalworks","folder":"tf","game":"Team Fortress","app_id":440,"player_count":20,"max_players":24,"Bots":0,"server_type":"Dedicated","server_os":"Linux","password":true,"vac":true,"version":"7961495","steam_id":85568392924515187,"keywords":["cp","nocrits","nodmgspread","uncletopia"],"game_id":440,"stv_port":27036,"stv_name":"Uncletopia | Atlanta | 3 | Stopwatch | STV","players":[{"user_id":283,"name":"Deeply","steam_id":76561199000786530,"connected_time":259000000000,"state":"active","ping":96},{"user_id":242,"name":"Shrebbie","steam_id":76561198875230824,"connected_time":2895000000000,"state":"active","ping":56},{"user_id":277,"name":"Colin102004","steam_id":76561198202384334,"connected_time":477000000000,"state":"active","ping":64},{"user_id":275,"name":"ZeSpoi","steam_id":76561199274667089,"connected_time":562000000000,"state":"active","ping":93},{"user_id":269,"name":"GameboyAdvancedSPMobileHotspot","steam_id":76561198413739460,"connected_time":1117000000000,"state":"active","ping":89},{"user_id":264,"name":"*****edducks","steam_id":76561198446888505,"connected_time":1365000000000,"state":"active","ping":91},{"user_id":211,"name":"OdysseusTMT","steam_id":76561198353947637,"connected_time":5419000000000,"state":"active","ping":75},{"user_id":281,"name":"xanakin skywocker","steam_id":76561198347313393,"connected_time":351000000000,"state":"active","ping":75},{"user_id":285,"name":"Recappy","steam_id":76561198282742764,"connected_time":38000000000,"state":"active","ping":74},{"user_id":255,"name":"Luucyf3r","steam_id":76561198141820085,"connected_time":2308000000000,"state":"active","ping":59},{"user_id":284,"name":"DiscoTraveler","steam_id":76561199240168088,"connected_time":246000000000,"state":"active","ping":45},{"user_id":198,"name":"craven","steam_id":76561198088191503,"connected_time":5666000000000,"state":"active","ping":60},{"user_id":213,"name":"monsterkill4567","steam_id":76561198272986367,"connected_time":4780000000000,"state":"active","ping":112},{"user_id":273,"name":"Stubu Dubu","steam_id":76561198111846314,"connected_time":628000000000,"state":"active","ping":68},{"user_id":250,"name":"tiny","steam_id":76561198010743348,"connected_time":2579000000000,"state":"active","ping":60},{"user_id":274,"name":"Pybro","steam_id":76561198041622040,"connected_time":624000000000,"state":"active","ping":37},{"user_id":260,"name":"DemoPan","steam_id":76561198313267119,"connected_time":1895000000000,"state":"active","ping":65},{"user_id":278,"name":"Spare(8)Ball","steam_id":76561197982432995,"connected_time":454000000000,"state":"active","ping":122},{"user_id":252,"name":"Pimpalicious Candy Cane Mane","steam_id":76561198212923948,"connected_time":2559000000000,"state":"active","ping":76},{"user_id":251,"name":"RollingCow","steam_id":76561198067114237,"connected_time":2566000000000,"state":"active","ping":71}]},{"server_id":401,"name":"Uncletopia | Atlanta | 4 | Community","name_short":"atl-4","host":"atl-1.us.uncletopia.com","port":27045,"enabled":true,"region":"us-east","cc":"us","latitude":33.753746,"longitude":-84.38633,"reserved":0,"last_update":"0001-01-01T00:00:00Z","name_a2s":"Uncletopia | Atlanta | 4 | Community","protocol":17,"map":"workshop/koth_product_final.ugc454272353","folder":"tf","game":"Team Fortress","app_id":440,"player_count":0,"max_players":24,"Bots":0,"server_type":"Dedicated","server_os":"Linux","password":true,"vac":true,"version":"7961495","steam_id":85568392924515188,"keywords":["cp","nocrits","nodmgspread","uncletopia"],"game_id":440,"stv_port":27046,"stv_name":"Uncletopia | Atlanta | 4 | Community | STV","players":null},{"server_id":2,"name":"Uncletopia | Chicago | 1 | All Maps","name_short":"chi-1","host":"chi-1.us.uncletopia.com","port":27015,"enabled":true,"region":"us-central","cc":"us","latitude":41.881832,"longitude":-87.62318,"reserved":0,"last_update":"0001-01-01T00:00:00Z","name_a2s":"Uncletopia | Chicago | 1 | All Maps","protocol":17,"map":"cp_dustbowl","folder":"tf","game":"Team Fortress","app_id":440,"player_count":24,"max_players":24,"Bots":0,"server_type":"Dedicated","server_os":"Linux","password":true,"vac":true,"version":"7961495","steam_id":85568392924469984,"keywords":["cp","nocrits","nodmgspread","uncletopia"],"game_id":440,"stv_port":27016,"stv_name":"Uncletopia | Chicago | 1 | All Maps | STV","players":[{"user_id":759,"name":"Jokergamma","steam_id":76561198807984541,"connected_time":5457000000000,"state":"active","ping":60},{"user_id":764,"name":"milkshake","steam_id":76561197997469207,"connected_time":4811000000000,"state":"active","ping":85},{"user_id":638,"name":"Erebus","steam_id":76561199061956673,"connected_time":9808000000000,"state":"active","ping":59},{"user_id":828,"name":"Espresso_Depresso","steam_id":76561198396290407,"connected_time":352000000000,"state":"active","ping":61},{"user_id":816,"name":"M","steam_id":76561198174958927,"connected_time":800000000000,"state":"active","ping":67},{"user_id":817,"name":"Dottie [She/They]","steam_id":76561198282046179,"connected_time":796000000000,"state":"active","ping":77},{"user_id":829,"name":"᲼᲼᲼","steam_id":76561198845246815,"connected_time":124000000000,"state":"active","ping":103},{"user_id":827,"name":"elyktsorb","steam_id":76561198158964488,"connected_time":419000000000,"state":"active","ping":45},{"user_id":821,"name":"zzzz","steam_id":76561198310495200,"connected_time":727000000000,"state":"active","ping":53},{"user_id":781,"name":"Bojangalo","steam_id":76561198058682640,"connected_time":3904000000000,"state":"active","ping":62},{"user_id":830,"name":"Herdez Hot Salsa","steam_id":76561197991740906,"connected_time":120000000000,"state":"active","ping":62},{"user_id":826,"name":"jneubauer1620","steam_id":76561199228634006,"connected_time":450000000000,"state":"active","ping":51},{"user_id":809,"name":"Battalion's Backup","steam_id":76561198066153777,"connected_time":2146000000000,"state":"active","ping":38},{"user_id":819,"name":"Captain Crunch","steam_id":76561199141538581,"connected_time":750000000000,"state":"active","ping":101},{"user_id":820,"name":"Aristotle Voulton","steam_id":76561198100174923,"connected_time":736000000000,"state":"active","ping":99},{"user_id":791,"name":"FinnaBust","steam_id":76561198397669078,"connected_time":3319000000000,"state":"active","ping":63},{"user_id":777,"name":"Crλf227","steam_id":76561198196211121,"connected_time":4044000000000,"state":"active","ping":89},{"user_id":831,"name":"\u003c=Itachi uchiha=\u003e","steam_id":76561199162355715,"connected_time":31000000000,"state":"active","ping":65},{"user_id":822,"name":"addriel","steam_id":76561198115518121,"connected_time":718000000000,"state":"active","ping":84},{"user_id":793,"name":"Yokothespacewhale™","steam_id":76561198032253389,"connected_time":3315000000000,"state":"active","ping":44},{"user_id":823,"name":"Meat Dragon","steam_id":76561198120319256,"connected_time":691000000000,"state":"active","ping":56},{"user_id":824,"name":"player4","steam_id":76561197985140870,"connected_time":569000000000,"state":"active","ping":105},{"user_id":808,"name":"Kuato","steam_id":76561198070591328,"connected_time":2175000000000,"state":"active","ping":56},{"user_id":758,"name":"Celestial Bodies","steam_id":76561198212572955,"connected_time":5507000000000,"state":"active","ping":86}]},{"server_id":106,"name":"Uncletopia | Chicago | 2 | All Maps","name_short":"chi-2","host":"chi-1.us.uncletopia.com","port":27025,"enabled":true,"region":"us-central","cc":"us","latitude":41.881832,"longitude":-87.62318,"reserved":0,"last_update":"0001-01-01T00:00:00Z","name_a2s":"Uncletopia | Chicago | 2 | All Maps","protocol":17,"map":"pl_borneo","folder":"tf","game":"Team Fortress","app_id":440,"player_count":24,"max_players":24,"Bots":0,"server_type":"Dedicated","server_os":"Linux","password":true,"vac":true,"version":"7961495","steam_id":85568392924469985,"keywords":["nocrits","nodmgspread","payload","uncletopia"],"game_id":440,"stv_port":27026,"stv_name":"Uncletopia | Chicago | 2 | All Maps | STV","players":[{"user_id":740,"name":"Sprinx","steam_id":76561198112614381,"connected_time":3930000000000,"state":"active","ping":64},{"user_id":749,"name":"wistful autumn","steam_id":76561198045810207,"connected_time":3722000000000,"state":"active","ping":111},{"user_id":797,"name":"Piyono","steam_id":76561197962188504,"connected_time":2004000000000,"state":"active","ping":55},{"user_id":812,"name":"Rukks","steam_id":76561197993918954,"connected_time":33000000000,"state":"active","ping":95},{"user_id":752,"name":"what the freak","steam_id":76561198080754727,"connected_time":3413000000000,"state":"active","ping":84},{"user_id":810,"name":"Zedifo","steam_id":76561198044032070,"connected_time":460000000000,"state":"active","ping":132},{"user_id":714,"name":"Elias","steam_id":76561198106431732,"connected_time":7160000000000,"state":"active","ping":54},{"user_id":702,"name":"MedRed™ #IATAH","steam_id":76561198002962970,"connected_time":7521000000000,"state":"active","ping":92},{"user_id":676,"name":"hej","steam_id":76561197996366940,"connected_time":9415000000000,"state":"active","ping":61},{"user_id":798,"name":"Mk","steam_id":76561198139790822,"connected_time":1994000000000,"state":"active","ping":152},{"user_id":804,"name":"Forgeblazer","steam_id":76561198073710034,"connected_time":1169000000000,"state":"active","ping":56},{"user_id":419,"name":"runescape legend","steam_id":76561198077791373,"connected_time":19881000000000,"state":"active","ping":52},{"user_id":811,"name":"Pillows","steam_id":76561198342571075,"connected_time":76000000000,"state":"active","ping":78},{"user_id":807,"name":"goldenninja76","steam_id":76561198123341944,"connected_time":616000000000,"state":"active","ping":67},{"user_id":799,"name":"Tala\u003c3","steam_id":76561198169200739,"connected_time":1975000000000,"state":"active","ping":52},{"user_id":700,"name":"Lia_Rein","steam_id":76561198151569597,"connected_time":8175000000000,"state":"active","ping":156},{"user_id":803,"name":"Remix.SMG","steam_id":76561198052895933,"connected_time":1373000000000,"state":"active","ping":81},{"user_id":744,"name":"Lion El'Johnson","steam_id":76561198323760306,"connected_time":3908000000000,"state":"active","ping":60},{"user_id":753,"name":"russames","steam_id":76561198007535911,"connected_time":3353000000000,"state":"active","ping":60},{"user_id":745,"name":"Sogi☆","steam_id":76561198138346674,"connected_time":3903000000000,"state":"active","ping":106},{"user_id":795,"name":"The No Longer Mute","steam_id":76561198078359985,"connected_time":2124000000000,"state":"active","ping":52},{"user_id":800,"name":"HalfDead","steam_id":76561198049700226,"connected_time":1971000000000,"state":"active","ping":80},{"user_id":808,"name":"cy","steam_id":76561198885893295,"connected_time":584000000000,"state":"active","ping":56},{"user_id":809,"name":"Skudge Sister","steam_id":76561198041766766,"connected_time":517000000000,"state":"active","ping":74}]},{"server_id":402,"name":"Uncletopia | Chicago | 3 | All Maps","name_short":"chi-3","host":"chi-1.us.uncletopia.com","port":27035,"enabled":true,"region":"us-central","cc":"us","latitude":41.881832,"longitude":-87.62318,"reserved":0,"last_update":"0001-01-01T00:00:00Z","name_a2s":"Uncletopia | Chicago | 3 | All Maps","protocol":17,"map":"pl_pier","folder":"tf","game":"Team Fortress","app_id":440,"player_count":22,"max_players":24,"Bots":0,"server_type":"Dedicated","server_os":"Linux","password":true,"vac":true,"version":"7961495","steam_id":85568392924515191,"keywords":["nocrits","nodmgspread","payload","uncletopia"],"game_id":440,"stv_port":27036,"stv_name":"Uncletopia | Chicago | 3 | All Maps | STV","players":[{"user_id":441,"name":"gps","steam_id":76561198067492304,"connected_time":587000000000,"state":"active","ping":77},{"user_id":442,"name":"Space Lizard","steam_id":76561198056798193,"connected_time":392000000000,"state":"active","ping":61},{"user_id":405,"name":"Laventhey","steam_id":76561198977523626,"connected_time":4124000000000,"state":"active","ping":68},{"user_id":432,"name":"gerry0107","steam_id":76561198277578620,"connected_time":1988000000000,"state":"active","ping":68},{"user_id":435,"name":"wrongthink","steam_id":76561198830293087,"connected_time":1497000000000,"state":"active","ping":42},{"user_id":439,"name":"Knows.avi","steam_id":76561198188535337,"connected_time":1301000000000,"state":"active","ping":55},{"user_id":437,"name":"Moofins","steam_id":76561198050291949,"connected_time":1443000000000,"state":"active","ping":69},{"user_id":445,"name":"cheezitupp","steam_id":76561198138826498,"connected_time":130000000000,"state":"active","ping":74},{"user_id":394,"name":"Robyn Goodfellowe","steam_id":76561198074719241,"connected_time":4340000000000,"state":"active","ping":79},{"user_id":446,"name":"SofaKing","steam_id":76561198176691859,"connected_time":115000000000,"state":"active","ping":90},{"user_id":447,"name":"Riley","steam_id":76561198140968671,"connected_time":89000000000,"state":"active","ping":64},{"user_id":411,"name":"`o2","steam_id":76561197992030936,"connected_time":3337000000000,"state":"active","ping":65},{"user_id":397,"name":"milwaukee pasta bandit","steam_id":76561198417793830,"connected_time":4328000000000,"state":"active","ping":61},{"user_id":448,"name":"H0wlr","steam_id":76561198012332824,"connected_time":49000000000,"state":"active","ping":53},{"user_id":449,"name":"deimos","steam_id":76561198148357768,"connected_time":13000000000,"state":"active","ping":66},{"user_id":450,"name":"Bear bird","steam_id":76561198166769479,"connected_time":1000000000,"state":"spawning","ping":62},{"user_id":399,"name":"Mr. Biggles","steam_id":76561197995249096,"connected_time":4305000000000,"state":"active","ping":144},{"user_id":375,"name":"Mufalito","steam_id":76561198951889482,"connected_time":6110000000000,"state":"active","ping":137},{"user_id":434,"name":"Trapilicious","steam_id":76561198061430457,"connected_time":1827000000000,"state":"active","ping":81},{"user_id":428,"name":"astrobob911","steam_id":76561199099110654,"connected_time":2213000000000,"state":"active","ping":70},{"user_id":359,"name":"zpalmtree","steam_id":76561198134307620,"connected_time":7088000000000,"state":"active","ping":62}]},{"server_id":403,"name":"Uncletopia | Chicago | 4 | All Maps","name_short":"chi-4","host":"chi-1.us.uncletopia.com","port":27045,"enabled":true,"region":"us-central","cc":"us","latitude":41.881832,"longitude":-87.62318,"reserved":0,"last_update":"0001-01-01T00:00:00Z","name_a2s":"Uncletopia | Chicago | 4 | All Maps","protocol":17,"map":"pl_badwater","folder":"tf","game":"Team Fortress","app_id":440,"player_count":24,"max_players":24,"Bots":0,"server_type":"Dedicated","server_os":"Linux","password":true,"vac":true,"version":"7961495","steam_id":85568392924515193,"keywords":["nocrits","nodmgspread","payload","uncletopia"],"game_id":440,"stv_port":27046,"stv_name":"Uncletopia | Chicago | 4 | All Maps | STV","players":[{"user_id":630,"name":"Uluyo","steam_id":76561198065857148,"connected_time":1707000000000,"state":"active","ping":48},{"user_id":628,"name":"The_Skull_boy","steam_id":76561198227692664,"connected_time":2006000000000,"state":"active","ping":105},{"user_id":646,"name":"Sarbanes-Oxley","steam_id":76561197975898479,"connected_time":430000000000,"state":"active","ping":74},{"user_id":647,"name":"Fever Dreams","steam_id":76561198116614620,"connected_time":418000000000,"state":"active","ping":60},{"user_id":644,"name":"Modest","steam_id":76561198065643694,"connected_time":747000000000,"state":"active","ping":53},{"user_id":643,"name":"TommySalami69","steam_id":76561198180275926,"connected_time":955000000000,"state":"active","ping":82},{"user_id":592,"name":"Quark","steam_id":76561198328155605,"connected_time":2843000000000,"state":"active","ping":45},{"user_id":594,"name":"The Caretaker","steam_id":76561198125241411,"connected_time":2812000000000,"state":"active","ping":216},{"user_id":567,"name":"soup","steam_id":76561198880568662,"connected_time":4816000000000,"state":"active","ping":59},{"user_id":568,"name":"aki42","steam_id":76561197979359811,"connected_time":4769000000000,"state":"active","ping":91},{"user_id":629,"name":"mr ploobmeister","steam_id":76561198128908529,"connected_time":1948000000000,"state":"active","ping":86},{"user_id":640,"name":"Zesty Zucchini Ziti","steam_id":76561198092494136,"connected_time":979000000000,"state":"active","ping":87},{"user_id":636,"name":"only a spoonful","steam_id":76561198113180616,"connected_time":1057000000000,"state":"active","ping":72},{"user_id":637,"name":"Frunkle","steam_id":76561198051362617,"connected_time":1004000000000,"state":"active","ping":60},{"user_id":632,"name":"Ket","steam_id":76561198241951244,"connected_time":1688000000000,"state":"active","ping":72},{"user_id":649,"name":"mxgic","steam_id":76561198354656195,"connected_time":233000000000,"state":"active","ping":125},{"user_id":611,"name":"Nelson TF2EASY.COM","steam_id":76561198850327678,"connected_time":2347000000000,"state":"active","ping":104},{"user_id":633,"name":"Fatpoob","steam_id":76561198056730096,"connected_time":1537000000000,"state":"active","ping":55},{"user_id":648,"name":"matthewcass444","steam_id":76561199304179685,"connected_time":366000000000,"state":"active","ping":91},{"user_id":598,"name":"ਹੁੱਡ ਕਾਉਬੌਏ","steam_id":76561198021308963,"connected_time":2748000000000,"state":"active","ping":75},{"user_id":624,"name":"chiswola","steam_id":76561198046920142,"connected_time":2088000000000,"state":"active","ping":57},{"user_id":650,"name":"Local 7/11","steam_id":76561198273494867,"connected_time":156000000000,"state":"active","ping":59},{"user_id":641,"name":"hey Its Rob","steam_id":76561198880285773,"connected_time":979000000000,"state":"active","ping":93},{"user_id":601,"name":"ekgooby","steam_id":76561198043678479,"connected_time":2700000000000,"state":"active","ping":50}]},{"server_id":36,"name":"Uncletopia | Chicago | 5 | All Maps","name_short":"chi-5","host":"chi-2.us.uncletopia.com","port":27015,"enabled":true,"region":"us-central","cc":"us","latitude":41.881832,"longitude":-87.62318,"reserved":0,"last_update":"0001-01-01T00:00:00Z","name_a2s":"Uncletopia | Chicago | 5 | All Maps","protocol":17,"map":"pl_badwater","folder":"tf","game":"Team Fortress","app_id":440,"player_count":24,"max_players":24,"Bots":0,"server_type":"Dedicated","server_os":"Linux","password":true,"vac":true,"version":"7961495","steam_id":85568392924866362,"keywords":["nocrits","nodmgspread","payload","uncletopia"],"game_id":440,"stv_port":27016,"stv_name":"Uncletopia | Chicago | 5 | All Maps | STV","players":[{"user_id":561,"name":"TheHumanTaco119","steam_id":76561198996107520,"connected_time":580000000000,"state":"active","ping":92},{"user_id":551,"name":"Kzjytsugn","steam_id":76561198130241974,"connected_time":2032000000000,"state":"active","ping":89},{"user_id":535,"name":"\"Flemmer\"","steam_id":76561198869188729,"connected_time":3446000000000,"state":"active","ping":59},{"user_id":516,"name":"Ryan","steam_id":76561198370312678,"connected_time":4164000000000,"state":"active","ping":64},{"user_id":571,"name":"Banook","steam_id":76561198050852823,"connected_time":202000000000,"state":"active","ping":59},{"user_id":475,"name":"Synthess","steam_id":76561198305140294,"connected_time":8460000000000,"state":"active","ping":46},{"user_id":569,"name":"sithreis","steam_id":76561198000564263,"connected_time":230000000000,"state":"active","ping":72},{"user_id":568,"name":"Unlimited_Trees","steam_id":76561198299141443,"connected_time":240000000000,"state":"active","ping":144},{"user_id":564,"name":"grass","steam_id":76561198402237455,"connected_time":408000000000,"state":"active","ping":84},{"user_id":542,"name":"lanoc","steam_id":76561198055415367,"connected_time":2544000000000,"state":"active","ping":60},{"user_id":566,"name":"The Horny","steam_id":76561198863639459,"connected_time":308000000000,"state":"active","ping":116},{"user_id":559,"name":"inshallah","steam_id":76561198165212575,"connected_time":963000000000,"state":"active","ping":65},{"user_id":573,"name":"RRamlethal","steam_id":76561198838939639,"connected_time":186000000000,"state":"active","ping":72},{"user_id":556,"name":"ono","steam_id":76561198024377986,"connected_time":1195000000000,"state":"active","ping":79},{"user_id":565,"name":"Granny from Hoodwinked","steam_id":76561198116389072,"connected_time":314000000000,"state":"active","ping":104},{"user_id":572,"name":"Chi-Chia","steam_id":76561198067955987,"connected_time":202000000000,"state":"active","ping":88},{"user_id":574,"name":"Queen Frau the Round","steam_id":76561197999942134,"connected_time":136000000000,"state":"active","ping":45},{"user_id":554,"name":"AlecTheNefarious","steam_id":76561198035291230,"connected_time":1234000000000,"state":"active","ping":73},{"user_id":562,"name":"beats its 16:38","steam_id":76561199245717718,"connected_time":462000000000,"state":"active","ping":52},{"user_id":547,"name":"lobster","steam_id":76561198147417707,"connected_time":2474000000000,"state":"active","ping":87},{"user_id":575,"name":"GreenApples","steam_id":76561198120559543,"connected_time":85000000000,"state":"active","ping":108},{"user_id":514,"name":"Frontier Psychiatrist","steam_id":76561198038689088,"connected_time":4713000000000,"state":"active","ping":75},{"user_id":548,"name":"ุ","steam_id":76561198170624701,"connected_time":2470000000000,"state":"active","ping":80},{"user_id":549,"name":"rf","steam_id":76561198195359229,"connected_time":2465000000000,"state":"active","ping":90}]},{"server_id":37,"name":"Uncletopia | Chicago | 6 | All Maps","name_short":"chi-6","host":"chi-2.us.uncletopia.com","port":27025,"enabled":true,"region":"us-central","cc":"us","latitude":41.881832,"longitude":-87.62318,"reserved":0,"last_update":"0001-01-01T00:00:00Z","name_a2s":"Uncletopia | Chicago | 6 | All Maps","protocol":17,"map":"pl_frontier_final","folder":"tf","game":"Team Fortress","app_id":440,"player_count":23,"max_players":24,"Bots":0,"server_type":"Dedicated","server_os":"Linux","password":true,"vac":true,"version":"7961495","steam_id":85568392924866363,"keywords":["nocrits","nodmgspread","payload","uncletopia"],"game_id":440,"stv_port":27026,"stv_name":"Uncletopia | Chicago | 6 | All Maps | STV","players":[{"user_id":427,"name":"Ligh3t","steam_id":76561198179178533,"connected_time":3214000000000,"state":"active","ping":70},{"user_id":436,"name":"Cooki","steam_id":76561198051705314,"connected_time":1495000000000,"state":"active","ping":71},{"user_id":421,"name":"Amtyk","steam_id":76561197979130554,"connected_time":3705000000000,"state":"active","ping":43},{"user_id":444,"name":"Carpet enthusiast","steam_id":76561198024040142,"connected_time":935000000000,"state":"active","ping":60},{"user_id":445,"name":"Nebe0","steam_id":76561199133770186,"connected_time":929000000000,"state":"active","ping":65},{"user_id":399,"name":"SiltyStar85","steam_id":76561198309175923,"connected_time":5360000000000,"state":"active","ping":81},{"user_id":451,"name":"Veridian","steam_id":76561198096334078,"connected_time":624000000000,"state":"active","ping":75},{"user_id":443,"name":"wetto","steam_id":76561198224811504,"connected_time":951000000000,"state":"active","ping":60},{"user_id":447,"name":"Roken","steam_id":76561198037836282,"connected_time":910000000000,"state":"active","ping":78},{"user_id":425,"name":"Nobody","steam_id":76561198160544586,"connected_time":3354000000000,"state":"active","ping":59},{"user_id":440,"name":"Skyline","steam_id":76561198018382060,"connected_time":1343000000000,"state":"active","ping":60},{"user_id":442,"name":"lamb cutlet","steam_id":76561199063557758,"connected_time":1008000000000,"state":"active","ping":128},{"user_id":448,"name":"CHAI","steam_id":76561198119556082,"connected_time":908000000000,"state":"active","ping":42},{"user_id":452,"name":"bhop","steam_id":76561198064885639,"connected_time":553000000000,"state":"active","ping":68},{"user_id":453,"name":"frank","steam_id":76561198137777483,"connected_time":319000000000,"state":"active","ping":72},{"user_id":429,"name":"RusticCarp42989","steam_id":76561198361151865,"connected_time":2641000000000,"state":"active","ping":108},{"user_id":398,"name":"⸸ gaige ⛧","steam_id":76561198090576796,"connected_time":5386000000000,"state":"active","ping":61},{"user_id":450,"name":"sawrik","steam_id":76561198018808213,"connected_time":841000000000,"state":"active","ping":72},{"user_id":433,"name":"Keymaster","steam_id":76561198881514228,"connected_time":1874000000000,"state":"active","ping":67},{"user_id":439,"name":"Schizoid Despot","steam_id":76561198141902905,"connected_time":1454000000000,"state":"active","ping":51},{"user_id":402,"name":"Amoxicilina","steam_id":76561198168486429,"connected_time":5131000000000,"state":"active","ping":120},{"user_id":422,"name":"Crombun","steam_id":76561198031559642,"connected_time":3705000000000,"state":"active","ping":96},{"user_id":420,"name":"Steak-Pocketer","steam_id":76561198277651410,"connected_time":3744000000000,"state":"active","ping":70}]},{"server_id":38,"name":"Uncletopia | Chicago | 7 | Stopwatch","name_short":"chi-7","host":"chi-2.us.uncletopia.com","port":27035,"enabled":true,"region":"us-central","cc":"us","latitude":41.881832,"longitude":-87.62318,"reserved":0,"last_update":"0001-01-01T00:00:00Z","name_a2s":"Uncletopia | Chicago | 7 | Stopwatch","protocol":17,"map":"pl_upward","folder":"tf","game":"Team Fortress","app_id":440,"player_count":15,"max_players":24,"Bots":0,"server_type":"Dedicated","server_os":"Linux","password":true,"vac":true,"version":"7961495","steam_id":85568392924866364,"keywords":["nocrits","nodmgspread","payload","uncletopia"],"game_id":440,"stv_port":27036,"stv_name":"Uncletopia | Chicago | 7 | Stopwatch | STV","players":[{"user_id":493,"name":"normal","steam_id":76561198133712839,"connected_time":527000000000,"state":"active","ping":62},{"user_id":495,"name":"MushMan","steam_id":76561199440036245,"connected_time":398000000000,"state":"active","ping":84},{"user_id":496,"name":"thezranger","steam_id":76561198454086460,"connected_time":312000000000,"state":"active","ping":93},{"user_id":491,"name":"Whats Its Face, From That Thing","steam_id":76561198038214574,"connected_time":845000000000,"state":"active","ping":49},{"user_id":449,"name":"MagikarpEX","steam_id":76561198166172279,"connected_time":2821000000000,"state":"active","ping":58},{"user_id":470,"name":"J197382645","steam_id":76561198014742440,"connected_time":1931000000000,"state":"active","ping":68},{"user_id":494,"name":"Very Small Giant","steam_id":76561199187337967,"connected_time":491000000000,"state":"active","ping":66},{"user_id":480,"name":"Some random dude","steam_id":76561199477705792,"connected_time":1400000000000,"state":"active","ping":106},{"user_id":460,"name":"SkeletonFingernails","steam_id":76561199056348685,"connected_time":2292000000000,"state":"active","ping":76},{"user_id":492,"name":"ArchmageF","steam_id":76561197992246851,"connected_time":837000000000,"state":"active","ping":101},{"user_id":483,"name":"cinamin.kake","steam_id":76561199003171233,"connected_time":1347000000000,"state":"active","ping":51},{"user_id":466,"name":"Xquo","steam_id":76561198129005384,"connected_time":2017000000000,"state":"active","ping":60},{"user_id":468,"name":"Jurls","steam_id":76561198138077990,"connected_time":1995000000000,"state":"active","ping":78},{"user_id":484,"name":"HeidiBTW","steam_id":76561198889596543,"connected_time":1345000000000,"state":"active","ping":62},{"user_id":486,"name":"Dwarf","steam_id":76561198333801915,"connected_time":1144000000000,"state":"active","ping":64}]},{"server_id":39,"name":"Uncletopia | Chicago | 8 | Community","name_short":"chi-8","host":"chi-2.us.uncletopia.com","port":27045,"enabled":true,"region":"us-central","cc":"us","latitude":41.881832,"longitude":-87.62318,"reserved":0,"last_update":"0001-01-01T00:00:00Z","name_a2s":"Uncletopia | Chicago | 8 | Community","protocol":17,"map":"workshop/cp_croissant_final.ugc458840209","folder":"tf","game":"Team Fortress","app_id":440,"player_count":24,"max_players":24,"Bots":0,"server_type":"Dedicated","server_os":"Linux","password":true,"vac":true,"version":"7961495","steam_id":85568392924866365,"keywords":["cp","nocrits","nodmgspread","uncletopia"],"game_id":440,"stv_port":27046,"stv_name":"Uncletopia | Chicago | 8 | Community | STV","players":[{"user_id":188,"name":"Owen","steam_id":76561198216954553,"connected_time":579000000000,"state":"active","ping":74},{"user_id":178,"name":"Tockbird","steam_id":76561199437964594,"connected_time":804000000000,"state":"active","ping":103},{"user_id":192,"name":"Kawi","steam_id":76561198099696751,"connected_time":41000000000,"state":"active","ping":97},{"user_id":179,"name":":Mc squeeze:","steam_id":76561198118192181,"connected_time":797000000000,"state":"active","ping":48},{"user_id":185,"name":"callum","steam_id":76561198070918366,"connected_time":673000000000,"state":"active","ping":71},{"user_id":160,"name":"CHRIS CHAN","steam_id":76561199205311774,"connected_time":2321000000000,"state":"active","ping":75},{"user_id":165,"name":"lobster","steam_id":76561198073445815,"connected_time":2247000000000,"state":"active","ping":74},{"user_id":124,"name":"Leonardo DiCaprio","steam_id":76561198121886765,"connected_time":4915000000000,"state":"active","ping":50},{"user_id":123,"name":"y0","steam_id":76561198143894333,"connected_time":4917000000000,"state":"active","ping":54},{"user_id":175,"name":"Lulee","steam_id":76561198044410549,"connected_time":1026000000000,"state":"active","ping":85},{"user_id":149,"name":"Mingephreaker","steam_id":76561198215825893,"connected_time":3052000000000,"state":"active","ping":57},{"user_id":169,"name":"0","steam_id":76561198046065237,"connected_time":1850000000000,"state":"active","ping":75},{"user_id":125,"name":"RagunCagun","steam_id":76561198132848008,"connected_time":4914000000000,"state":"active","ping":55},{"user_id":184,"name":"Neppuneppu","steam_id":76561198816026415,"connected_time":703000000000,"state":"active","ping":96},{"user_id":180,"name":"mashed soft warm soup in a can.","steam_id":76561198171368297,"connected_time":794000000000,"state":"active","ping":58},{"user_id":154,"name":"Echolu","steam_id":76561198158613750,"connected_time":2874000000000,"state":"active","ping":113},{"user_id":181,"name":"❄︎SHIT PISSER JULIANNE❄","steam_id":76561198061955351,"connected_time":781000000000,"state":"active","ping":45},{"user_id":186,"name":"Scrux","steam_id":76561198129763115,"connected_time":665000000000,"state":"active","ping":96},{"user_id":189,"name":"Super Bullshit Man","steam_id":76561198102416507,"connected_time":543000000000,"state":"active","ping":66},{"user_id":187,"name":"DarkFalconDX","steam_id":76561199213908323,"connected_time":643000000000,"state":"active","ping":73},{"user_id":190,"name":"fac_73","steam_id":76561198064692697,"connected_time":539000000000,"state":"active","ping":74},{"user_id":95,"name":"liquid bread","steam_id":76561198012441419,"connected_time":8614000000000,"state":"active","ping":58},{"user_id":193,"name":"loser","steam_id":76561198058690096,"connected_time":14000000000,"state":"spawning","ping":129},{"user_id":122,"name":"chunk","steam_id":76561198134775401,"connected_time":5166000000000,"state":"active","ping":73}]},{"server_id":8,"name":"Uncletopia | Dallas | 1 | All Maps","name_short":"dal-1","host":"dal-1.us.uncletopia.com","port":27015,"enabled":true,"region":"us-central","cc":"us","latitude":32.779167,"longitude":-96.80889,"reserved":0,"last_update":"0001-01-01T00:00:00Z","name_a2s":"Uncletopia | Dallas | 1 | All Maps","protocol":17,"map":"pl_upward","folder":"tf","game":"Team Fortress","app_id":440,"player_count":23,"max_players":24,"Bots":0,"server_type":"Dedicated","server_os":"Linux","password":true,"vac":true,"version":"7961495","steam_id":85568392924469986,"keywords":["nocrits","nodmgspread","payload","uncletopia"],"game_id":440,"stv_port":27016,"stv_name":"Uncletopia | Dallas | 1 | All Maps | STV","players":[{"user_id":150,"name":"Temper","steam_id":76561199042184132,"connected_time":8247000000000,"state":"active","ping":79},{"user_id":243,"name":"Lezabel","steam_id":76561198970753261,"connected_time":277000000000,"state":"active","ping":77},{"user_id":240,"name":"FatSweatyBlackMan","steam_id":76561199020244051,"connected_time":440000000000,"state":"active","ping":91},{"user_id":196,"name":"hyazz","steam_id":76561199100342013,"connected_time":4810000000000,"state":"active","ping":77},{"user_id":249,"name":"Albert Whiskers","steam_id":76561198124081839,"connected_time":183000000000,"state":"active","ping":42},{"user_id":232,"name":"CeLeb144","steam_id":76561199089907740,"connected_time":2294000000000,"state":"active","ping":50},{"user_id":234,"name":"tsz","steam_id":76561199246231090,"connected_time":2069000000000,"state":"active","ping":70},{"user_id":251,"name":"wugmup","steam_id":76561199096287734,"connected_time":36000000000,"state":"active","ping":83},{"user_id":219,"name":"PapaSmurf","steam_id":76561199201107408,"connected_time":3349000000000,"state":"active","ping":70},{"user_id":238,"name":"swampwalk","steam_id":76561197975389856,"connected_time":841000000000,"state":"active","ping":90},{"user_id":246,"name":"OuterEos","steam_id":76561198151557939,"connected_time":226000000000,"state":"active","ping":71},{"user_id":213,"name":"Metbol","steam_id":76561198001362410,"connected_time":4120000000000,"state":"active","ping":69},{"user_id":247,"name":"pigstrr","steam_id":76561198384475563,"connected_time":222000000000,"state":"active","ping":87},{"user_id":187,"name":"Evil little man","steam_id":76561198311053471,"connected_time":5654000000000,"state":"active","ping":55},{"user_id":203,"name":"Jacasola","steam_id":76561198055460402,"connected_time":4734000000000,"state":"active","ping":95},{"user_id":226,"name":"Do It Yua Serufu","steam_id":76561198078574114,"connected_time":2487000000000,"state":"active","ping":87},{"user_id":235,"name":"V@nn1e","steam_id":76561199099194994,"connected_time":1421000000000,"state":"active","ping":58},{"user_id":248,"name":"Glühbirne","steam_id":76561198189278869,"connected_time":208000000000,"state":"active","ping":133},{"user_id":228,"name":"Lickity Split","steam_id":76561198132051047,"connected_time":2452000000000,"state":"active","ping":126},{"user_id":205,"name":"Wine, Good sir?","steam_id":76561198413806134,"connected_time":4722000000000,"state":"active","ping":53},{"user_id":250,"name":"PTR","steam_id":76561198237253772,"connected_time":124000000000,"state":"active","ping":52},{"user_id":185,"name":"MenacingMekhet","steam_id":76561198053165462,"connected_time":5940000000000,"state":"active","ping":69},{"user_id":155,"name":"JobsDone2","steam_id":76561198159158870,"connected_time":8042000000000,"state":"active","ping":89}]},{"server_id":108,"name":"Uncletopia | Dallas | 2 | All Maps","name_short":"dal-2","host":"dal-1.us.uncletopia.com","port":27025,"enabled":true,"region":"us-central","cc":"us","latitude":32.779167,"longitude":-96.80889,"reserved":0,"last_update":"0001-01-01T00:00:00Z","name_a2s":"Uncletopia | Dallas | 2 | All Maps","protocol":17,"map":"koth_cascade","folder":"tf","game":"Team Fortress","app_id":440,"player_count":24,"max_players":24,"Bots":0,"server_type":"Dedicated","server_os":"Linux","password":true,"vac":true,"version":"7961495","steam_id":85568392924469988,"keywords":["cp","nocrits","nodmgspread","uncletopia"],"game_id":440,"stv_port":27026,"stv_name":"Uncletopia | Dallas | 2 | All Maps | STV","players":[{"user_id":494,"name":"SnareString","steam_id":76561199082119457,"connected_time":1154000000000,"state":"active","ping":101},{"user_id":493,"name":"Pile of Spinach","steam_id":76561198043068841,"connected_time":1165000000000,"state":"active","ping":87},{"user_id":495,"name":"Brody Yukin","steam_id":76561198084712019,"connected_time":1145000000000,"state":"active","ping":83},{"user_id":496,"name":"Fish","steam_id":76561199016308078,"connected_time":1107000000000,"state":"active","ping":100},{"user_id":512,"name":"ShockingToaster","steam_id":76561198410222359,"connected_time":400000000000,"state":"active","ping":101},{"user_id":498,"name":"gayforgod","steam_id":76561198364882421,"connected_time":969000000000,"state":"active","ping":83},{"user_id":522,"name":"Not Vladikr1","steam_id":76561198401495362,"connected_time":249000000000,"state":"active","ping":76},{"user_id":500,"name":"shakoiwa","steam_id":76561199059441773,"connected_time":933000000000,"state":"active","ping":73},{"user_id":501,"name":"Therapy Goth","steam_id":76561198048448497,"connected_time":931000000000,"state":"active","ping":82},{"user_id":513,"name":"daemon","steam_id":76561198001541433,"connected_time":355000000000,"state":"active","ping":88},{"user_id":503,"name":"kiwi","steam_id":76561198052177917,"connected_time":917000000000,"state":"active","ping":91},{"user_id":523,"name":"Taco+Taco=Burrito","steam_id":76561198063128663,"connected_time":102000000000,"state":"active","ping":75},{"user_id":517,"name":"All Tomorrow's Parties","steam_id":76561197995936212,"connected_time":302000000000,"state":"active","ping":85},{"user_id":506,"name":"WaywardFinn","steam_id":76561198040391296,"connected_time":736000000000,"state":"active","ping":92},{"user_id":508,"name":"Die-Sas","steam_id":76561198987794008,"connected_time":546000000000,"state":"active","ping":59},{"user_id":509,"name":"Stillkill","steam_id":76561198065069057,"connected_time":495000000000,"state":"active","ping":42},{"user_id":510,"name":"Tracy","steam_id":76561199238087354,"connected_time":446000000000,"state":"active","ping":68},{"user_id":514,"name":"Jeremy","steam_id":76561198286240347,"connected_time":346000000000,"state":"active","ping":79},{"user_id":515,"name":"Hey","steam_id":76561198447517893,"connected_time":340000000000,"state":"active","ping":82},{"user_id":516,"name":"MayKay","steam_id":76561199016092265,"connected_time":323000000000,"state":"active","ping":69},{"user_id":518,"name":"Mustang","steam_id":76561199189439456,"connected_time":285000000000,"state":"active","ping":65},{"user_id":519,"name":"ATLS1 | Strange Festive","steam_id":76561198050385093,"connected_time":279000000000,"state":"active","ping":96},{"user_id":520,"name":"Magnet Dood","steam_id":76561198364178746,"connected_time":279000000000,"state":"active","ping":75},{"user_id":521,"name":"C Papi","steam_id":76561198027779564,"connected_time":277000000000,"state":"active","ping":64}]},{"server_id":404,"name":"Uncletopia | Dallas | 3 | All Maps","name_short":"dal-3","host":"dal-1.us.uncletopia.com","port":27035,"enabled":true,"region":"us-central","cc":"us","latitude":32.779167,"longitude":-96.80889,"reserved":0,"last_update":"0001-01-01T00:00:00Z","name_a2s":"Uncletopia | Dallas | 3 | All Maps","protocol":17,"map":"pl_upward","folder":"tf","game":"Team Fortress","app_id":440,"player_count":24,"max_players":24,"Bots":0,"server_type":"Dedicated","server_os":"Linux","password":true,"vac":true,"version":"7961495","steam_id":85568392924515219,"keywords":["nocrits","nodmgspread","payload","uncletopia"],"game_id":440,"stv_port":27036,"stv_name":"Uncletopia | Dallas | 3 | All Maps | STV","players":[{"user_id":300,"name":"Crack Wizard","steam_id":76561198055463619,"connected_time":1071000000000,"state":"active","ping":90},{"user_id":285,"name":"CLIJY","steam_id":76561197994477006,"connected_time":1534000000000,"state":"active","ping":62},{"user_id":295,"name":"9/11 Airlines","steam_id":76561198096306325,"connected_time":1234000000000,"state":"active","ping":79},{"user_id":257,"name":"Kirby","steam_id":76561199161858008,"connected_time":3656000000000,"state":"active","ping":71},{"user_id":270,"name":"Máquina de Fuego","steam_id":76561198119445407,"connected_time":2797000000000,"state":"active","ping":67},{"user_id":312,"name":"Dr Gregory House, MD","steam_id":76561198986281248,"connected_time":368000000000,"state":"active","ping":74},{"user_id":297,"name":"what're ya buyin","steam_id":76561199277633460,"connected_time":1125000000000,"state":"active","ping":60},{"user_id":308,"name":"Tmiracle","steam_id":76561198052375275,"connected_time":624000000000,"state":"active","ping":89},{"user_id":298,"name":"Memoirist","steam_id":76561198026002842,"connected_time":1108000000000,"state":"active","ping":91},{"user_id":281,"name":"d1","steam_id":76561198069330857,"connected_time":1813000000000,"state":"active","ping":75},{"user_id":309,"name":"Kilian","steam_id":76561197964374101,"connected_time":590000000000,"state":"active","ping":103},{"user_id":136,"name":"beardedchinchilla","steam_id":76561198106462464,"connected_time":11191000000000,"state":"active","ping":60},{"user_id":302,"name":"Steve Harvey Oswald","steam_id":76561198077091773,"connected_time":1063000000000,"state":"active","ping":93},{"user_id":289,"name":"Real","steam_id":76561198405830028,"connected_time":1500000000000,"state":"active","ping":85},{"user_id":282,"name":"JarlofthePoint","steam_id":76561198150293311,"connected_time":1801000000000,"state":"active","ping":108},{"user_id":310,"name":"SD","steam_id":76561198217410988,"connected_time":526000000000,"state":"active","ping":77},{"user_id":283,"name":"have blue","steam_id":76561198054260599,"connected_time":1713000000000,"state":"active","ping":63},{"user_id":311,"name":"Bring Dat Bag Out","steam_id":76561198060553584,"connected_time":509000000000,"state":"active","ping":94},{"user_id":305,"name":"3400","steam_id":76561198197047443,"connected_time":1022000000000,"state":"active","ping":90},{"user_id":292,"name":"Superangel","steam_id":76561197985566989,"connected_time":1437000000000,"state":"active","ping":76},{"user_id":293,"name":"Marzbee115","steam_id":76561198095821025,"connected_time":1429000000000,"state":"active","ping":74},{"user_id":306,"name":"Lancer","steam_id":76561199192668922,"connected_time":1021000000000,"state":"active","ping":83},{"user_id":135,"name":"plickles","steam_id":76561199032117349,"connected_time":11235000000000,"state":"active","ping":91},{"user_id":242,"name":"Dukino","steam_id":76561198008455368,"connected_time":5013000000000,"state":"active","ping":62}]},{"server_id":405,"name":"Uncletopia | Dallas | 4 | Community","name_short":"dal-4","host":"dal-1.us.uncletopia.com","port":27045,"enabled":true,"region":"us-central","cc":"us","latitude":32.779167,"longitude":-96.80889,"reserved":0,"last_update":"0001-01-01T00:00:00Z","name_a2s":"Uncletopia | Dallas | 4 | Community","protocol":17,"map":"workshop/koth_product_final.ugc454272353","folder":"tf","game":"Team Fortress","app_id":440,"player_count":0,"max_players":24,"Bots":0,"server_type":"Dedicated","server_os":"Linux","password":true,"vac":true,"version":"7961495","steam_id":85568392924515220,"keywords":["cp","nocrits","nodmgspread","uncletopia"],"game_id":440,"stv_port":27046,"stv_name":"Uncletopia | Dallas | 4 | Community | STV","players":null},{"server_id":5,"name":"Uncletopia | Frankfurt | 1 | All Maps","name_short":"frk-1","host":"frk-1.de.uncletopia.com","port":27015,"enabled":true,"region":"eu","cc":"de","latitude":50.110924,"longitude":8.682127,"reserved":0,"last_update":"0001-01-01T00:00:00Z","name_a2s":"Uncletopia | Frankfurt | 1 | All Maps","protocol":17,"map":"koth_cascade","folder":"tf","game":"Team Fortress","app_id":440,"player_count":0,"max_players":24,"Bots":0,"server_type":"Dedicated","server_os":"Linux","password":true,"vac":true,"version":"7961495","steam_id":85568392924469989,"keywords":["cp","nocrits","nodmgspread","uncletopia"],"game_id":440,"stv_port":27016,"stv_name":"Uncletopia | Frankfurt | 1 | All Maps | STV","players":null},{"server_id":110,"name":"Uncletopia | Frankfurt | 2 | All Maps","name_short":"frk-2","host":"frk-1.de.uncletopia.com","port":27025,"enabled":true,"region":"eu","cc":"de","latitude":50.110924,"longitude":8.682127,"reserved":0,"last_update":"0001-01-01T00:00:00Z","name_a2s":"Uncletopia | Frankfurt | 2 | All Maps","protocol":17,"map":"koth_cascade","folder":"tf","game":"Team Fortress","app_id":440,"player_count":0,"max_players":24,"Bots":0,"server_type":"Dedicated","server_os":"Linux","password":true,"vac":true,"version":"7961495","steam_id":85568392924469990,"keywords":["cp","nocrits","nodmgspread","uncletopia"],"game_id":440,"stv_port":27026,"stv_name":"Uncletopia | Frankfurt | 2 | All Maps | STV","players":null},{"server_id":308,"name":"Uncletopia | Frankfurt | 3 | All Maps","name_short":"frk-3","host":"frk-1.de.uncletopia.com","port":27035,"enabled":true,"region":"eu","cc":"de","latitude":50.110924,"longitude":8.682127,"reserved":0,"last_update":"0001-01-01T00:00:00Z","name_a2s":"Uncletopia | Frankfurt | 3 | All Maps","protocol":17,"map":"koth_cascade","folder":"tf","game":"Team Fortress","app_id":440,"player_count":0,"max_players":24,"Bots":0,"server_type":"Dedicated","server_os":"Linux","password":true,"vac":true,"version":"7961495","steam_id":85568392924504274,"keywords":["cp","nocrits","nodmgspread","uncletopia"],"game_id":440,"stv_port":27036,"stv_name":"Uncletopia | Frankfurt | 3 | All Maps | STV","players":null},{"server_id":309,"name":"Uncletopia | Frankfurt | 4 | All Maps","name_short":"frk-4","host":"frk-1.de.uncletopia.com","port":27045,"enabled":true,"region":"eu","cc":"de","latitude":50.110924,"longitude":8.682127,"reserved":0,"last_update":"0001-01-01T00:00:00Z","name_a2s":"Uncletopia | Frankfurt | 4 | All Maps","protocol":17,"map":"koth_lakeside_final","folder":"tf","game":"Team Fortress","app_id":440,"player_count":0,"max_players":24,"Bots":0,"server_type":"Dedicated","server_os":"Linux","password":true,"vac":true,"version":"7961495","steam_id":85568392924504275,"keywords":["cp","nocrits","nodmgspread","uncletopia"],"game_id":440,"stv_port":27046,"stv_name":"Uncletopia | Frankfurt | 4 | All Maps | STV","players":null},{"server_id":310,"name":"Uncletopia | Frankfurt | 5 | All Maps","name_short":"frk-5","host":"frk-1.de.uncletopia.com","port":27055,"enabled":true,"region":"eu","cc":"de","latitude":50.110924,"longitude":8.682127,"reserved":0,"last_update":"0001-01-01T00:00:00Z","name_a2s":"Uncletopia | Frankfurt | 5 | All Maps","protocol":17,"map":"pl_upward","folder":"tf","game":"Team Fortress","app_id":440,"player_count":0,"max_players":24,"Bots":0,"server_type":"Dedicated","server_os":"Linux","password":true,"vac":true,"version":"7961495","steam_id":85568392924504277,"keywords":["nocrits","nodmgspread","payload","uncletopia"],"game_id":440,"stv_port":27056,"stv_name":"Uncletopia | Frankfurt | 5 | All Maps | STV","players":null},{"server_id":311,"name":"Uncletopia | Frankfurt | 6 | All Maps","name_short":"frk-6","host":"frk-1.de.uncletopia.com","port":27065,"enabled":true,"region":"eu","cc":"de","latitude":50.110924,"longitude":8.682127,"reserved":0,"last_update":"0001-01-01T00:00:00Z","name_a2s":"Uncletopia | Frankfurt | 6 | All Maps","protocol":17,"map":"koth_lakeside_final","folder":"tf","game":"Team Fortress","app_id":440,"player_count":0,"max_players":24,"Bots":0,"server_type":"Dedicated","server_os":"Linux","password":true,"vac":true,"version":"7961495","steam_id":85568392924504278,"keywords":["cp","nocrits","nodmgspread","uncletopia"],"game_id":440,"stv_port":27066,"stv_name":"Uncletopia | Frankfurt | 6 | All Maps | STV","players":null},{"server_id":23,"name":"Uncletopia | Frankfurt | 7 | Stopwatch","name_short":"frk-7","host":"frk-1.de.uncletopia.com","port":27075,"enabled":true,"region":"eu","cc":"de","latitude":50.110924,"longitude":8.682127,"reserved":0,"last_update":"0001-01-01T00:00:00Z","name_a2s":"Uncletopia | Frankfurt | 7 | Stopwatch","protocol":17,"map":"koth_highpass","folder":"tf","game":"Team Fortress","app_id":440,"player_count":0,"max_players":24,"Bots":0,"server_type":"Dedicated","server_os":"Linux","password":true,"vac":true,"version":"7961495","steam_id":85568392924742827,"keywords":["cp","nocrits","nodmgspread","uncletopia"],"game_id":440,"stv_port":27076,"stv_name":"Uncletopia | Frankfurt | 7 | Stopwatch | STV","players":null},{"server_id":24,"name":"Uncletopia | Frankfurt | 8 | Community","name_short":"frk-8","host":"frk-1.de.uncletopia.com","port":27085,"enabled":true,"region":"eu","cc":"de","latitude":50.110924,"longitude":8.682127,"reserved":0,"last_update":"0001-01-01T00:00:00Z","name_a2s":"Uncletopia | Frankfurt | 8 | Community","protocol":17,"map":"workshop/koth_trenchfoot_ab1.ugc731436616","folder":"tf","game":"Team Fortress","app_id":440,"player_count":0,"max_players":24,"Bots":0,"server_type":"Dedicated","server_os":"Linux","password":true,"vac":true,"version":"7961495","steam_id":85568392924742828,"keywords":["cp","nocrits","nodmgspread","uncletopia"],"game_id":440,"stv_port":27086,"stv_name":"Uncletopia | Frankfurt | 8 | Community | STV","players":null},{"server_id":202,"name":"Uncletopia | Hong Kong | 1 | All Maps","name_short":"hgk-1","host":"hgk-1.hk.uncletopia.com","port":27015,"enabled":true,"region":"asia","cc":"hk","latitude":22.302711,"longitude":114.177216,"reserved":0,"last_update":"0001-01-01T00:00:00Z","name_a2s":"Uncletopia | Hong Kong | 1 | All Maps","protocol":17,"map":"cp_process_final","folder":"tf","game":"Team Fortress","app_id":440,"player_count":0,"max_players":24,"Bots":0,"server_type":"Dedicated","server_os":"Linux","password":true,"vac":true,"version":"7961495","steam_id":85568392924494504,"keywords":["cp","nocrits","nodmgspread","uncletopia"],"game_id":440,"stv_port":27016,"stv_name":"Uncletopia | Hong Kong | 1 | All Maps | STV","players":null},{"server_id":1,"name":"Uncletopia | Los Angeles | 1 | All Maps","name_short":"lax-1","host":"lax-1.us.uncletopia.com","port":27015,"enabled":true,"region":"us-west","cc":"us","latitude":33.94279,"longitude":-118.41004,"reserved":0,"last_update":"0001-01-01T00:00:00Z","name_a2s":"Uncletopia | Los Angeles | 1 | All Maps","protocol":17,"map":"cp_process_final","folder":"tf","game":"Team Fortress","app_id":440,"player_count":0,"max_players":24,"Bots":0,"server_type":"Dedicated","server_os":"Linux","password":true,"vac":true,"version":"7961495","steam_id":85568392924469991,"keywords":["cp","nocrits","nodmgspread","uncletopia"],"game_id":440,"stv_port":27016,"stv_name":"Uncletopia | Los Angeles | 1 | All Maps | STV","players":null},{"server_id":112,"name":"Uncletopia | Los Angeles | 2 | All Maps","name_short":"lax-2","host":"lax-1.us.uncletopia.com","port":27025,"enabled":true,"region":"us-west","cc":"us","latitude":33.94279,"longitude":-118.41004,"reserved":0,"last_update":"0001-01-01T00:00:00Z","name_a2s":"Uncletopia | Los Angeles | 2 | All Maps","protocol":17,"map":"koth_cascade","folder":"tf","game":"Team Fortress","app_id":440,"player_count":0,"max_players":24,"Bots":0,"server_type":"Dedicated","server_os":"Linux","password":true,"vac":true,"version":"7961495","steam_id":85568392924469992,"keywords":["cp","nocrits","nodmgspread","uncletopia"],"game_id":440,"stv_port":27026,"stv_name":"Uncletopia | Los Angeles | 2 | All Maps | STV","players":null},{"server_id":324,"name":"Uncletopia | Los Angeles | 3 | All Maps","name_short":"lax-3","host":"lax-1.us.uncletopia.com","port":27035,"enabled":true,"region":"us-west","cc":"us","latitude":33.94279,"longitude":-118.41004,"reserved":0,"last_update":"0001-01-01T00:00:00Z","name_a2s":"Uncletopia | Los Angeles | 3 | All Maps","protocol":17,"map":"cp_egypt_final","folder":"tf","game":"Team Fortress","app_id":440,"player_count":24,"max_players":24,"Bots":0,"server_type":"Dedicated","server_os":"Linux","password":true,"vac":true,"version":"7961495","steam_id":85568392924510198,"keywords":["cp","nocrits","nodmgspread","uncletopia"],"game_id":440,"stv_port":27036,"stv_name":"Uncletopia | Los Angeles | 3 | All Maps | STV","players":[{"user_id":281,"name":"john.","steam_id":76561198982939658,"connected_time":731000000000,"state":"active","ping":46},{"user_id":286,"name":"Warbomb","steam_id":76561198004312859,"connected_time":123000000000,"state":"active","ping":108},{"user_id":231,"name":"Reyloko","steam_id":76561198172480913,"connected_time":4782000000000,"state":"active","ping":103},{"user_id":285,"name":"Just a Baby","steam_id":76561198018660838,"connected_time":308000000000,"state":"active","ping":101},{"user_id":288,"name":"ShadowZiki","steam_id":76561198145930013,"connected_time":94000000000,"state":"active","ping":46},{"user_id":289,"name":"miguelrodriguez2013","steam_id":76561198269253587,"connected_time":75000000000,"state":"active","ping":52},{"user_id":265,"name":"chocky","steam_id":76561198057491296,"connected_time":2657000000000,"state":"active","ping":70},{"user_id":290,"name":"Pybro","steam_id":76561197996723137,"connected_time":59000000000,"state":"active","ping":59},{"user_id":242,"name":"man of the moth","steam_id":76561198046588577,"connected_time":4533000000000,"state":"active","ping":52},{"user_id":274,"name":"Copy","steam_id":76561198025031590,"connected_time":1672000000000,"state":"active","ping":89},{"user_id":287,"name":"milk","steam_id":76561198053410877,"connected_time":108000000000,"state":"active","ping":45},{"user_id":261,"name":"Jimmy","steam_id":76561198857959855,"connected_time":3428000000000,"state":"active","ping":48},{"user_id":291,"name":"marie","steam_id":76561198265633146,"connected_time":37000000000,"state":"active","ping":62},{"user_id":191,"name":"williwillinui","steam_id":76561198253202693,"connected_time":7355000000000,"state":"active","ping":42},{"user_id":279,"name":"Ice cream sandwich","steam_id":76561198172748357,"connected_time":1392000000000,"state":"active","ping":59},{"user_id":266,"name":"@ 人 @","steam_id":76561198043684960,"connected_time":2650000000000,"state":"active","ping":79},{"user_id":269,"name":"MaterialNovaa","steam_id":76561198161407466,"connected_time":2318000000000,"state":"active","ping":106},{"user_id":283,"name":"level 7 firemancer","steam_id":76561198209571677,"connected_time":490000000000,"state":"active","ping":103},{"user_id":280,"name":"walrooos","steam_id":76561198024521839,"connected_time":1087000000000,"state":"active","ping":48},{"user_id":215,"name":"MineOpal","steam_id":76561198044716407,"connected_time":5906000000000,"state":"active","ping":41},{"user_id":275,"name":"Levrian","steam_id":76561198066747236,"connected_time":1641000000000,"state":"active","ping":117},{"user_id":264,"name":"Hobbes","steam_id":76561198087956236,"connected_time":2695000000000,"state":"active","ping":54},{"user_id":292,"name":"GlitchNoodles","steam_id":76561199009135766,"connected_time":33000000000,"state":"active","ping":105},{"user_id":282,"name":"ronald_stackerusa55","steam_id":76561198150406851,"connected_time":686000000000,"state":"active","ping":48}]},{"server_id":25,"name":"Uncletopia | Los Angeles | 4 | Stopwatch","name_short":"lax-4","host":"lax-1.us.uncletopia.com","port":27045,"enabled":true,"region":"us-west","cc":"us","latitude":33.94279,"longitude":-118.41004,"reserved":0,"last_update":"0001-01-01T00:00:00Z","name_a2s":"Uncletopia | Los Angeles | 4 | Stopwatch","protocol":17,"map":"koth_highpass","folder":"tf","game":"Team Fortress","app_id":440,"player_count":2,"max_players":24,"Bots":0,"server_type":"Dedicated","server_os":"Linux","password":true,"vac":true,"version":"7961495","steam_id":85568392924510199,"keywords":["cp","nocrits","nodmgspread","uncletopia"],"game_id":440,"stv_port":27046,"stv_name":"Uncletopia | Los Angeles | 4 | Stopwatch | STV","players":[{"user_id":19,"name":"harambe 101","steam_id":76561198366850003,"connected_time":1208000000000,"state":"active","ping":45},{"user_id":20,"name":"MirrorsAreScary","steam_id":76561198860505587,"connected_time":930000000000,"state":"active","ping":72}]},{"server_id":11,"name":"Uncletopia | London | 1 | All Maps","name_short":"lon-1","host":"lon-1.uk.uncletopia.com","port":27015,"enabled":true,"region":"eu","cc":"gb","latitude":51.509865,"longitude":-0.118092,"reserved":0,"last_update":"0001-01-01T00:00:00Z","name_a2s":"Uncletopia | London | 1 | All Maps","protocol":17,"map":"koth_king","folder":"tf","game":"Team Fortress","app_id":440,"player_count":0,"max_players":24,"Bots":0,"server_type":"Dedicated","server_os":"Linux","password":true,"vac":true,"version":"7961495","steam_id":85568392924367362,"keywords":["cp","nocrits","nodmgspread","uncletopia"],"game_id":440,"stv_port":27016,"stv_name":"Uncletopia | London | 1 | All Maps | STV","players":null},{"server_id":114,"name":"Uncletopia | London | 2 | All Maps","name_short":"lon-2","host":"lon-1.uk.uncletopia.com","port":27025,"enabled":true,"region":"eu","cc":"gb","latitude":51.509865,"longitude":-0.118092,"reserved":0,"last_update":"0001-01-01T00:00:00Z","name_a2s":"Uncletopia | London | 2 | All Maps","protocol":17,"map":"pl_upward","folder":"tf","game":"Team Fortress","app_id":440,"player_count":16,"max_players":24,"Bots":0,"server_type":"Dedicated","server_os":"Linux","password":true,"vac":true,"version":"7961495","steam_id":85568392924470941,"keywords":["nocrits","nodmgspread","payload","uncletopia"],"game_id":440,"stv_port":27026,"stv_name":"Uncletopia | London | 2 | All Maps | STV","players":[{"user_id":692,"name":"Zerfesh","steam_id":76561198117534358,"connected_time":4666000000000,"state":"active","ping":90},{"user_id":755,"name":"fred","steam_id":76561199496222946,"connected_time":29000000000,"state":"active","ping":292},{"user_id":753,"name":"luckyastroman","steam_id":76561199027500574,"connected_time":231000000000,"state":"active","ping":76},{"user_id":706,"name":"peruna","steam_id":76561198000721196,"connected_time":3875000000000,"state":"active","ping":88},{"user_id":731,"name":"engineer engineering","steam_id":76561198110198881,"connected_time":1911000000000,"state":"active","ping":79},{"user_id":679,"name":"Hussain_144","steam_id":76561198346029208,"connected_time":5853000000000,"state":"active","ping":177},{"user_id":707,"name":"Momo","steam_id":76561198815067088,"connected_time":3872000000000,"state":"active","ping":126},{"user_id":694,"name":"SuperBob103","steam_id":76561199175360012,"connected_time":4434000000000,"state":"active","ping":60},{"user_id":737,"name":"FLEET ADMIRAL SUPER HANS","steam_id":76561198342253732,"connected_time":1112000000000,"state":"active","ping":47},{"user_id":738,"name":"казахстанугрожа\ufffd","steam_id":76561199490666635,"connected_time":1107000000000,"state":"active","ping":75},{"user_id":724,"name":"Coac","steam_id":76561198085265740,"connected_time":2758000000000,"state":"active","ping":71},{"user_id":742,"name":"Grimprr","steam_id":76561198275816797,"connected_time":925000000000,"state":"active","ping":168},{"user_id":747,"name":"אבא","steam_id":76561198184360615,"connected_time":781000000000,"state":"active","ping":104},{"user_id":748,"name":"Fox","steam_id":76561198817996028,"connected_time":722000000000,"state":"active","ping":29},{"user_id":690,"name":"Nyhde","steam_id":76561198012771416,"connected_time":4730000000000,"state":"active","ping":91},{"user_id":715,"name":"Sputnik","steam_id":76561198138660241,"connected_time":3397000000000,"state":"active","ping":55}]},{"server_id":320,"name":"Uncletopia | London | 3 | All Maps","name_short":"lon-3","host":"lon-1.uk.uncletopia.com","port":27035,"enabled":true,"region":"eu","cc":"gb","latitude":51.509865,"longitude":-0.118092,"reserved":0,"last_update":"0001-01-01T00:00:00Z","name_a2s":"Uncletopia | London | 3 | All Maps","protocol":17,"map":"koth_lakeside_final","folder":"tf","game":"Team Fortress","app_id":440,"player_count":0,"max_players":24,"Bots":0,"server_type":"Dedicated","server_os":"Linux","password":true,"vac":true,"version":"7961495","steam_id":85568392924510192,"keywords":["cp","nocrits","nodmgspread","uncletopia"],"game_id":440,"stv_port":27036,"stv_name":"Uncletopia | London | 3 | All Maps | STV","players":null},{"server_id":321,"name":"Uncletopia | London | 4 | All Maps","name_short":"lon-4","host":"lon-1.uk.uncletopia.com","port":27045,"enabled":true,"region":"eu","cc":"gb","latitude":51.509865,"longitude":-0.118092,"reserved":0,"last_update":"0001-01-01T00:00:00Z","name_a2s":"Uncletopia | London | 4 | All Maps","protocol":17,"map":"koth_king","folder":"tf","game":"Team Fortress","app_id":440,"player_count":0,"max_players":24,"Bots":0,"server_type":"Dedicated","server_os":"Linux","password":true,"vac":true,"version":"7961495","steam_id":85568392924510193,"keywords":["cp","nocrits","nodmgspread","uncletopia"],"game_id":440,"stv_port":27046,"stv_name":"Uncletopia | London | 4 | All Maps | STV","players":null},{"server_id":21,"name":"Uncletopia | London | 5 | All Maps","name_short":"lon-5","host":"lon-1.uk.uncletopia.com","port":27055,"enabled":true,"region":"eu","cc":"gb","latitude":51.509865,"longitude":-0.118092,"reserved":0,"last_update":"0001-01-01T00:00:00Z","name_a2s":"Uncletopia | London | 5 | All Maps","protocol":17,"map":"pl_barnblitz","folder":"tf","game":"Team Fortress","app_id":440,"player_count":0,"max_players":24,"Bots":0,"server_type":"Dedicated","server_os":"Linux","password":true,"vac":true,"version":"7961495","steam_id":85568392924742829,"keywords":["nocrits","nodmgspread","payload","uncletopia"],"game_id":440,"stv_port":27056,"stv_name":"Uncletopia | London | 5 | All Maps | STV","players":null},{"server_id":22,"name":"Uncletopia | London | 6 | All Maps","name_short":"lon-6","host":"lon-1.uk.uncletopia.com","port":27065,"enabled":true,"region":"eu","cc":"gb","latitude":51.509865,"longitude":-0.118092,"reserved":0,"last_update":"0001-01-01T00:00:00Z","name_a2s":"Uncletopia | London | 6 | All Maps","protocol":17,"map":"koth_highpass","folder":"tf","game":"Team Fortress","app_id":440,"player_count":0,"max_players":24,"Bots":0,"server_type":"Dedicated","server_os":"Linux","password":true,"vac":true,"version":"7961495","steam_id":85568392924742830,"keywords":["cp","nocrits","nodmgspread","uncletopia"],"game_id":440,"stv_port":27066,"stv_name":"Uncletopia | London | 6 | All Maps | STV","players":null},{"server_id":40,"name":"Uncletopia | London | 7 | Stopwatch","name_short":"lon-7","host":"lon-1.uk.uncletopia.com","port":27075,"enabled":true,"region":"eu","cc":"gb","latitude":51.509865,"longitude":-0.118092,"reserved":0,"last_update":"0001-01-01T00:00:00Z","name_a2s":"Uncletopia | London | 7 | Stopwatch","protocol":17,"map":"workshop/koth_clearcut_b15.ugc2107050255","folder":"tf","game":"Team Fortress","app_id":440,"player_count":0,"max_players":24,"Bots":0,"server_type":"Dedicated","server_os":"Linux","password":true,"vac":true,"version":"7961495","steam_id":85568392924964314,"keywords":["cp","nocrits","nodmgspread","uncletopia"],"game_id":440,"stv_port":27076,"stv_name":"Uncletopia | London | 7 | Stopwatch | STV","players":null},{"server_id":41,"name":"Uncletopia | London | 8 | Community","name_short":"lon-8","host":"lon-1.uk.uncletopia.com","port":27085,"enabled":true,"region":"eu","cc":"gb","latitude":51.509865,"longitude":-0.118092,"reserved":0,"last_update":"0001-01-01T00:00:00Z","name_a2s":"Uncletopia | London | 8 | Community","protocol":17,"map":"workshop/pl_boundary_final1.ugc456799153","folder":"tf","game":"Team Fortress","app_id":440,"player_count":0,"max_players":24,"Bots":0,"server_type":"Dedicated","server_os":"Linux","password":true,"vac":true,"version":"7961495","steam_id":85568392924964315,"keywords":["nocrits","nodmgspread","payload","uncletopia"],"game_id":440,"stv_port":27086,"stv_name":"Uncletopia | London | 8 | Community | STV","players":null},{"server_id":300,"name":"Uncletopia | Montréal | 1 | One Thousand Uncles","name_short":"mtl-1","host":"mtl-1.ca.uncletopia.com","port":27015,"enabled":true,"region":"us-east","cc":"ca","latitude":45.50889,"longitude":-73.56167,"reserved":0,"last_update":"0001-01-01T00:00:00Z","name_a2s":"Uncletopia | Montréal | 1 | One Thousand Uncles","protocol":17,"map":"pl_badwater","folder":"tf","game":"Team Fortress","app_id":440,"player_count":0,"max_players":32,"Bots":0,"server_type":"Dedicated","server_os":"Linux","password":true,"vac":true,"version":"7961495","steam_id":85568392924500087,"keywords":["alltalk","danepve","increased_maxplayers","norespawntime","payload","uncletopia"],"game_id":440,"stv_port":0,"stv_name":"","players":null},{"server_id":301,"name":"Uncletopia | Montréal | 2 | One Thousand Uncles","name_short":"mtl-2","host":"mtl-1.ca.uncletopia.com","port":27025,"enabled":true,"region":"us-east","cc":"ca","latitude":45.50889,"longitude":-73.56167,"reserved":0,"last_update":"0001-01-01T00:00:00Z","name_a2s":"Uncletopia | Montréal | 2 | One Thousand Uncles","protocol":17,"map":"pl_chilly","folder":"tf","game":"Team Fortress","app_id":440,"player_count":0,"max_players":32,"Bots":0,"server_type":"Dedicated","server_os":"Linux","password":true,"vac":true,"version":"7961495","steam_id":85568392924500088,"keywords":["alltalk","danepve","increased_maxplayers","norespawntime","payload","uncletopia"],"game_id":440,"stv_port":0,"stv_name":"","players":null},{"server_id":302,"name":"Uncletopia | Montréal | 3 | One Thousand Uncles","name_short":"mtl-3","host":"mtl-1.ca.uncletopia.com","port":27035,"enabled":true,"region":"us-east","cc":"ca","latitude":45.50889,"longitude":-73.56167,"reserved":0,"last_update":"0001-01-01T00:00:00Z","name_a2s":"Uncletopia | Montréal | 3 | One Thousand Uncles","protocol":17,"map":"cp_mossrock","folder":"tf","game":"Team Fortress","app_id":440,"player_count":0,"max_players":32,"Bots":0,"server_type":"Dedicated","server_os":"Linux","password":true,"vac":true,"version":"7961495","steam_id":85568392924500089,"keywords":["alltalk","cp","danepve","increased_maxplayers","norespawntime","uncletopia"],"game_id":440,"stv_port":0,"stv_name":"","players":null},{"server_id":13,"name":"Uncletopia | New York City | 1 | All Maps","name_short":"nyc-1","host":"nyc-1.us.uncletopia.com","port":27015,"enabled":true,"region":"us-east","cc":"us","latitude":40.73061,"longitude":-73.93524,"reserved":0,"last_update":"0001-01-01T00:00:00Z","name_a2s":"Uncletopia | New York City | 1 | All Maps","protocol":17,"map":"plr_hightower","folder":"tf","game":"Team Fortress","app_id":440,"player_count":21,"max_players":24,"Bots":0,"server_type":"Dedicated","server_os":"Linux","password":true,"vac":true,"version":"7961495","steam_id":85568392924469993,"keywords":["nocrits","nodmgspread","payload","uncletopia"],"game_id":440,"stv_port":27016,"stv_name":"Uncletopia | New York City | 1 | All Maps | STV","players":[{"user_id":191,"name":"CAVAECHRIST","steam_id":76561199092677510,"connected_time":1670000000000,"state":"active","ping":38},{"user_id":209,"name":"Mr. Pepper","steam_id":76561198153258241,"connected_time":247000000000,"state":"active","ping":58},{"user_id":207,"name":"TheBrocklobster","steam_id":76561198039682984,"connected_time":460000000000,"state":"active","ping":103},{"user_id":168,"name":"Mr. Fluffy Penguins","steam_id":76561198172538149,"connected_time":3039000000000,"state":"active","ping":81},{"user_id":128,"name":"Coop","steam_id":76561198042839356,"connected_time":8346000000000,"state":"active","ping":47},{"user_id":205,"name":"GuyGoom","steam_id":76561198254522178,"connected_time":624000000000,"state":"active","ping":83},{"user_id":206,"name":"the.land.of.avalon","steam_id":76561198245431668,"connected_time":613000000000,"state":"active","ping":88},{"user_id":212,"name":"Captain Mac","steam_id":76561198043613068,"connected_time":117000000000,"state":"active","ping":77},{"user_id":189,"name":"METAVERSE LUIGI","steam_id":76561198042259533,"connected_time":1699000000000,"state":"active","ping":57},{"user_id":125,"name":"Frost ♥","steam_id":76561198168870617,"connected_time":8622000000000,"state":"active","ping":50},{"user_id":91,"name":"SpaceSanctum","steam_id":76561198805242305,"connected_time":10692000000000,"state":"active","ping":44},{"user_id":176,"name":"Aeris","steam_id":76561198287271028,"connected_time":2944000000000,"state":"active","ping":74},{"user_id":213,"name":"The Blind Burger","steam_id":76561199086396707,"connected_time":106000000000,"state":"active","ping":63},{"user_id":92,"name":"googa","steam_id":76561198133130452,"connected_time":10687000000000,"state":"active","ping":42},{"user_id":179,"name":"Mr. Sex Jr","steam_id":76561199219852129,"connected_time":2891000000000,"state":"active","ping":167},{"user_id":203,"name":"Diokat","steam_id":76561198203775996,"connected_time":755000000000,"state":"active","ping":85},{"user_id":183,"name":"Tokyo_Timeshift_","steam_id":76561198048677523,"connected_time":2479000000000,"state":"active","ping":66},{"user_id":198,"name":"EvilStickGuy","steam_id":76561197985379320,"connected_time":1112000000000,"state":"active","ping":55},{"user_id":186,"name":"Pootis ENGAGE","steam_id":76561198192752793,"connected_time":2374000000000,"state":"active","ping":52},{"user_id":166,"name":"Two-Teste Tommy","steam_id":76561198064308936,"connected_time":3097000000000,"state":"active","ping":56},{"user_id":132,"name":"PinkLemonade","steam_id":76561198799286228,"connected_time":7844000000000,"state":"active","ping":58}]},{"server_id":14,"name":"Uncletopia | New York City | 2 | All Maps","name_short":"nyc-2","host":"nyc-1.us.uncletopia.com","port":27025,"enabled":true,"region":"us-east","cc":"us","latitude":40.73061,"longitude":-73.93524,"reserved":0,"last_update":"0001-01-01T00:00:00Z","name_a2s":"Uncletopia | New York City | 2 | All Maps","protocol":17,"map":"pl_badwater","folder":"tf","game":"Team Fortress","app_id":440,"player_count":22,"max_players":24,"Bots":0,"server_type":"Dedicated","server_os":"Linux","password":true,"vac":true,"version":"7961495","steam_id":85568392924469994,"keywords":["nocrits","nodmgspread","payload","uncletopia"],"game_id":440,"stv_port":27026,"stv_name":"Uncletopia | New York City | 2 | All Maps | STV","players":[{"user_id":320,"name":"PurPle","steam_id":76561198050393396,"connected_time":592000000000,"state":"active","ping":54},{"user_id":286,"name":"b10dragon","steam_id":76561198374314985,"connected_time":3218000000000,"state":"active","ping":180},{"user_id":319,"name":"Fish Fisherman","steam_id":76561198018656022,"connected_time":604000000000,"state":"active","ping":58},{"user_id":315,"name":"a bowl of soup","steam_id":76561198244933286,"connected_time":1122000000000,"state":"active","ping":60},{"user_id":306,"name":"Shack","steam_id":76561198035503322,"connected_time":2019000000000,"state":"active","ping":50},{"user_id":294,"name":"SPYCHECK ME","steam_id":76561198980994364,"connected_time":2646000000000,"state":"active","ping":83},{"user_id":324,"name":"BabyJesus","steam_id":76561198845403641,"connected_time":251000000000,"state":"active","ping":52},{"user_id":310,"name":"jamzine","steam_id":76561198186168293,"connected_time":1684000000000,"state":"active","ping":87},{"user_id":318,"name":"Joe","steam_id":76561198222520916,"connected_time":794000000000,"state":"active","ping":45},{"user_id":313,"name":"I shovel mayonnaise in mouth","steam_id":76561199123118241,"connected_time":1376000000000,"state":"active","ping":114},{"user_id":322,"name":"Pasta La Vista","steam_id":76561198129450033,"connected_time":550000000000,"state":"active","ping":42},{"user_id":281,"name":"MontellWilliams","steam_id":76561198172143015,"connected_time":3445000000000,"state":"active","ping":50},{"user_id":276,"name":"Slime Rancher 2 Enjoyer","steam_id":76561199171272762,"connected_time":3517000000000,"state":"active","ping":64},{"user_id":278,"name":"Yuhh","steam_id":76561199112894955,"connected_time":3454000000000,"state":"active","ping":90},{"user_id":317,"name":"WyattSucks","steam_id":76561198108112630,"connected_time":825000000000,"state":"active","ping":73},{"user_id":327,"name":"raisedbybirds","steam_id":76561198131531646,"connected_time":144000000000,"state":"active","ping":63},{"user_id":305,"name":"BEEEEEEEEEEEEEEEES","steam_id":76561199431280503,"connected_time":2120000000000,"state":"active","ping":58},{"user_id":304,"name":"saurhead","steam_id":76561198132937722,"connected_time":2245000000000,"state":"active","ping":44},{"user_id":325,"name":"Pomegranate88","steam_id":76561198056385456,"connected_time":172000000000,"state":"active","ping":60},{"user_id":323,"name":"oppenheimer style","steam_id":76561198026664629,"connected_time":545000000000,"state":"active","ping":48},{"user_id":316,"name":"ZBeth Best","steam_id":76561198101890770,"connected_time":990000000000,"state":"active","ping":44},{"user_id":309,"name":"20 miles for a Quaalude","steam_id":76561198042579477,"connected_time":1896000000000,"state":"active","ping":81}]},{"server_id":15,"name":"Uncletopia | New York City | 3 | Stopwatch","name_short":"nyc-3","host":"nyc-1.us.uncletopia.com","port":27035,"enabled":true,"region":"us-east","cc":"us","latitude":40.73061,"longitude":-73.93524,"reserved":0,"last_update":"0001-01-01T00:00:00Z","name_a2s":"Uncletopia | New York City | 3 | Stopwatch","protocol":17,"map":"workshop/cp_reckoner_rc6.ugc674719999","folder":"tf","game":"Team Fortress","app_id":440,"player_count":0,"max_players":24,"Bots":0,"server_type":"Dedicated","server_os":"Linux","password":true,"vac":true,"version":"7961495","steam_id":85568392924742820,"keywords":["cp","nocrits","nodmgspread","uncletopia"],"game_id":440,"stv_port":27036,"stv_name":"Uncletopia | New York City | 3 | Stopwatch | STV","players":null},{"server_id":16,"name":"Uncletopia | New York City | 4 | Community","name_short":"nyc-4","host":"nyc-1.us.uncletopia.com","port":27045,"enabled":true,"region":"us-east","cc":"us","latitude":40.73061,"longitude":-73.93524,"reserved":0,"last_update":"0001-01-01T00:00:00Z","name_a2s":"Uncletopia | New York City | 4 | Community","protocol":17,"map":"workshop/cp_propaganda_b18.ugc1603743849","folder":"tf","game":"Team Fortress","app_id":440,"player_count":0,"max_players":24,"Bots":0,"server_type":"Dedicated","server_os":"Linux","password":true,"vac":true,"version":"7961495","steam_id":85568392924742821,"keywords":["cp","nocrits","nodmgspread","uncletopia"],"game_id":440,"stv_port":27046,"stv_name":"Uncletopia | New York City | 4 | Community | STV","players":null},{"server_id":142,"name":"Uncletopia | São Paulo | 1 | All Maps","name_short":"sao-1","host":"sao-1.br.uncletopia.com","port":27015,"enabled":true,"region":"sa","cc":"br","latitude":-23.533773,"longitude":-46.62529,"reserved":0,"last_update":"0001-01-01T00:00:00Z","name_a2s":"Uncletopia | São Paulo | 1 | All Maps","protocol":17,"map":"koth_cascade","folder":"tf","game":"Team Fortress","app_id":440,"player_count":0,"max_players":24,"Bots":0,"server_type":"Dedicated","server_os":"Linux","password":true,"vac":true,"version":"7961495","steam_id":85568392924469996,"keywords":["cp","nocrits","nodmgspread","uncletopia"],"game_id":440,"stv_port":27016,"stv_name":"Uncletopia | São Paulo | 1 | All Maps | STV","players":null},{"server_id":143,"name":"Uncletopia | São Paulo | 2 | Community","name_short":"sao-2","host":"sao-2.br.uncletopia.com","port":27015,"enabled":true,"region":"sa","cc":"br","latitude":-23.533773,"longitude":-46.62529,"reserved":0,"last_update":"0001-01-01T00:00:00Z","name_a2s":"Uncletopia | São Paulo | 2 | Community","protocol":17,"map":"workshop/koth_product_final.ugc454272353","folder":"tf","game":"Team Fortress","app_id":440,"player_count":0,"max_players":24,"Bots":0,"server_type":"Dedicated","server_os":"Linux","password":true,"vac":true,"version":"7961495","steam_id":85568392924485349,"keywords":["cp","nocrits","nodmgspread","uncletopia"],"game_id":440,"stv_port":27016,"stv_name":"Uncletopia | São Paulo | 2 | Community | STV","players":null},{"server_id":7,"name":"Uncletopia | Seattle | 1 | All Maps","name_short":"sea-1","host":"sea-1.us.uncletopia.com","port":27015,"enabled":true,"region":"us-west","cc":"us","latitude":47.608013,"longitude":-122.33517,"reserved":0,"last_update":"0001-01-01T00:00:00Z","name_a2s":"Uncletopia | Seattle | 1 | All Maps","protocol":17,"map":"cp_junction_final","folder":"tf","game":"Team Fortress","app_id":440,"player_count":24,"max_players":24,"Bots":0,"server_type":"Dedicated","server_os":"Linux","password":true,"vac":true,"version":"7961495","steam_id":85568392924469997,"keywords":["cp","nocrits","nodmgspread","uncletopia"],"game_id":440,"stv_port":27016,"stv_name":"Uncletopia | Seattle | 1 | All Maps | STV","players":[{"user_id":681,"name":"duddlee","steam_id":76561198030052564,"connected_time":3438000000000,"state":"active","ping":53},{"user_id":690,"name":"The King of Piss World","steam_id":76561198082806956,"connected_time":2709000000000,"state":"active","ping":108},{"user_id":694,"name":"OGBobbyJohns","steam_id":76561197964339077,"connected_time":2453000000000,"state":"active","ping":52},{"user_id":644,"name":"SanitysEdge","steam_id":76561198130732813,"connected_time":6058000000000,"state":"active","ping":71},{"user_id":682,"name":"spenca","steam_id":76561198025371154,"connected_time":3352000000000,"state":"active","ping":54},{"user_id":691,"name":"GalaxyDoug32","steam_id":76561197997126305,"connected_time":2707000000000,"state":"active","ping":61},{"user_id":704,"name":"you just got dyked on","steam_id":76561198018977723,"connected_time":1127000000000,"state":"active","ping":49},{"user_id":613,"name":"soup","steam_id":76561198043209046,"connected_time":8048000000000,"state":"active","ping":65},{"user_id":630,"name":"MrYadaization","steam_id":76561198050770818,"connected_time":6579000000000,"state":"active","ping":58},{"user_id":693,"name":"Snoogs","steam_id":76561198444880931,"connected_time":2559000000000,"state":"active","ping":115},{"user_id":699,"name":"Tom Buckle","steam_id":76561198870649125,"connected_time":1430000000000,"state":"active","ping":82},{"user_id":696,"name":"TROY","steam_id":76561197983852176,"connected_time":1839000000000,"state":"active","ping":80},{"user_id":700,"name":"Loading...","steam_id":76561198075555396,"connected_time":1373000000000,"state":"active","ping":40},{"user_id":692,"name":"JacobOneHundredPercentWholeWhea","steam_id":76561198045992418,"connected_time":2615000000000,"state":"active","ping":59},{"user_id":680,"name":"Mignyanne :3","steam_id":76561198048754056,"connected_time":3565000000000,"state":"active","ping":71},{"user_id":676,"name":"Furry Femboy Hooters (CEO)","steam_id":76561198097745857,"connected_time":4204000000000,"state":"active","ping":48},{"user_id":711,"name":"Meatball Obsessed Demoman","steam_id":76561198253325844,"connected_time":116000000000,"state":"active","ping":47},{"user_id":707,"name":"gordonz88","steam_id":76561198020241395,"connected_time":916000000000,"state":"active","ping":45},{"user_id":709,"name":"dust | it/she [no mic]","steam_id":76561198045218909,"connected_time":768000000000,"state":"active","ping":40},{"user_id":685,"name":"Nom Skirrett","steam_id":76561198014600788,"connected_time":2746000000000,"state":"active","ping":61},{"user_id":677,"name":"hazel","steam_id":76561198037292232,"connected_time":3895000000000,"state":"active","ping":121},{"user_id":706,"name":"HotHead","steam_id":76561198138468982,"connected_time":1080000000000,"state":"active","ping":45},{"user_id":667,"name":"Nina","steam_id":76561198875007138,"connected_time":5040000000000,"state":"active","ping":45},{"user_id":710,"name":"Aardappel","steam_id":76561198030894676,"connected_time":757000000000,"state":"active","ping":61}]},{"server_id":119,"name":"Uncletopia | Seattle | 2 | All Maps","name_short":"sea-2","host":"sea-1.us.uncletopia.com","port":27025,"enabled":true,"region":"us-west","cc":"us","latitude":47.608013,"longitude":-122.33517,"reserved":0,"last_update":"0001-01-01T00:00:00Z","name_a2s":"Uncletopia | Seattle | 2 | All Maps","protocol":17,"map":"cp_dustbowl","folder":"tf","game":"Team Fortress","app_id":440,"player_count":24,"max_players":24,"Bots":0,"server_type":"Dedicated","server_os":"Linux","password":true,"vac":true,"version":"7961495","steam_id":85568392924469998,"keywords":["cp","nocrits","nodmgspread","uncletopia"],"game_id":440,"stv_port":27026,"stv_name":"Uncletopia | Seattle | 2 | All Maps | STV","players":[{"user_id":113,"name":"HappyLizard","steam_id":76561198014721507,"connected_time":76000000000,"state":"active","ping":87},{"user_id":111,"name":"ATHEIST TIL I REALIZED I AM GOD","steam_id":76561199190800520,"connected_time":350000000000,"state":"active","ping":40},{"user_id":84,"name":"sooba","steam_id":76561199068478558,"connected_time":2332000000000,"state":"active","ping":71},{"user_id":85,"name":"-={o.W.n.}=- Dark Murkrow 3","steam_id":76561198174432643,"connected_time":2323000000000,"state":"active","ping":75},{"user_id":59,"name":"NoSoul","steam_id":76561198143822176,"connected_time":3385000000000,"state":"active","ping":33},{"user_id":105,"name":"blueboy23","steam_id":76561199121889873,"connected_time":735000000000,"state":"active","ping":47},{"user_id":62,"name":"Thanks Ants","steam_id":76561197966221018,"connected_time":3194000000000,"state":"active","ping":43},{"user_id":63,"name":"bobbybim","steam_id":76561198027483399,"connected_time":3182000000000,"state":"active","ping":75},{"user_id":109,"name":"fatmonkey69","steam_id":76561199507889968,"connected_time":392000000000,"state":"active","ping":79},{"user_id":97,"name":"paulos231","steam_id":76561198032533302,"connected_time":1689000000000,"state":"active","ping":49},{"user_id":66,"name":"Katie XXII","steam_id":76561198135534297,"connected_time":3124000000000,"state":"active","ping":48},{"user_id":67,"name":"Ockulus","steam_id":76561199069638460,"connected_time":3114000000000,"state":"active","ping":85},{"user_id":112,"name":"Deku_2667","steam_id":76561199232121911,"connected_time":307000000000,"state":"active","ping":47},{"user_id":70,"name":"Dosario","steam_id":76561198298095535,"connected_time":3080000000000,"state":"active","ping":52},{"user_id":74,"name":"Preston","steam_id":76561198255721392,"connected_time":2737000000000,"state":"active","ping":121},{"user_id":75,"name":"blockland.fan 4","steam_id":76561198173706067,"connected_time":2723000000000,"state":"active","ping":48},{"user_id":103,"name":"F I S H","steam_id":76561198282522963,"connected_time":755000000000,"state":"active","ping":89},{"user_id":79,"name":"meursault","steam_id":76561198151071386,"connected_time":2515000000000,"state":"active","ping":43},{"user_id":87,"name":"Kupluyria","steam_id":76561199123981447,"connected_time":2201000000000,"state":"active","ping":60},{"user_id":89,"name":"0","steam_id":76561198450073779,"connected_time":2180000000000,"state":"active","ping":46},{"user_id":110,"name":"Skoad","steam_id":76561198104650528,"connected_time":391000000000,"state":"active","ping":60},{"user_id":91,"name":"dereck","steam_id":76561198283886556,"connected_time":2121000000000,"state":"active","ping":165},{"user_id":108,"name":"Thexx she/they","steam_id":76561198113823050,"connected_time":677000000000,"state":"active","ping":50},{"user_id":93,"name":"Amateur Glaswegian","steam_id":76561198030851956,"connected_time":2111000000000,"state":"active","ping":53}]},{"server_id":406,"name":"Uncletopia | Seattle | 3 | Stopwatch","name_short":"sea-3","host":"sea-1.us.uncletopia.com","port":27035,"enabled":true,"region":"us-west","cc":"us","latitude":47.608013,"longitude":-122.33517,"reserved":0,"last_update":"0001-01-01T00:00:00Z","name_a2s":"Uncletopia | Seattle | 3 | Stopwatch","protocol":17,"map":"workshop/koth_product_final.ugc454272353","folder":"tf","game":"Team Fortress","app_id":440,"player_count":0,"max_players":24,"Bots":0,"server_type":"Dedicated","server_os":"Linux","password":true,"vac":true,"version":"7961495","steam_id":85568392924515217,"keywords":["cp","nocrits","nodmgspread","uncletopia"],"game_id":440,"stv_port":27036,"stv_name":"Uncletopia | Seattle | 3 | Stopwatch | STV","players":null},{"server_id":17,"name":"Uncletopia | San Francisco | 1 | All Maps","name_short":"sfo-1","host":"sfo-1.us.uncletopia.com","port":27015,"enabled":true,"region":"us-west","cc":"us","latitude":37.77397,"longitude":-122.4313,"reserved":0,"last_update":"0001-01-01T00:00:00Z","name_a2s":"Uncletopia | San Francisco | 1 | All Maps","protocol":17,"map":"pl_borneo","folder":"tf","game":"Team Fortress","app_id":440,"player_count":24,"max_players":24,"Bots":0,"server_type":"Dedicated","server_os":"Linux","password":true,"vac":true,"version":"7961495","steam_id":85568392924469999,"keywords":["nocrits","nodmgspread","payload","uncletopia"],"game_id":440,"stv_port":27016,"stv_name":"Uncletopia | San Francisco | 1 | All Maps | STV","players":[{"user_id":221,"name":"non_ai","steam_id":76561198270951938,"connected_time":705000000000,"state":"active","ping":108},{"user_id":200,"name":"Ralph Kramden (Slim Charles)","steam_id":76561197981687895,"connected_time":3668000000000,"state":"active","ping":47},{"user_id":145,"name":"Ian","steam_id":76561198159334435,"connected_time":7031000000000,"state":"active","ping":172},{"user_id":218,"name":"Yoshidube","steam_id":76561198352675680,"connected_time":866000000000,"state":"active","ping":96},{"user_id":222,"name":"FiddyFoMike","steam_id":76561198057072581,"connected_time":474000000000,"state":"active","ping":51},{"user_id":223,"name":"LudwigTheStrange","steam_id":76561198085132921,"connected_time":471000000000,"state":"active","ping":80},{"user_id":228,"name":"Harley [Ramiel]","steam_id":76561198079510840,"connected_time":394000000000,"state":"active","ping":72},{"user_id":219,"name":"OHMYGEEEEEEZ22","steam_id":76561198375884178,"connected_time":855000000000,"state":"active","ping":83},{"user_id":212,"name":"dynamite","steam_id":76561198865625549,"connected_time":2646000000000,"state":"active","ping":90},{"user_id":158,"name":"{DNJ} exoslayer -Z-","steam_id":76561198022370929,"connected_time":5928000000000,"state":"active","ping":48},{"user_id":134,"name":"Lambchop","steam_id":76561198043900363,"connected_time":7787000000000,"state":"active","ping":59},{"user_id":204,"name":"Alcohol Hominid","steam_id":76561198320313950,"connected_time":3596000000000,"state":"active","ping":80},{"user_id":230,"name":"DeadLemm","steam_id":76561198107380040,"connected_time":327000000000,"state":"active","ping":91},{"user_id":225,"name":"BasedGod","steam_id":76561198061177973,"connected_time":439000000000,"state":"active","ping":45},{"user_id":208,"name":"ChimpusGaming","steam_id":76561198060954715,"connected_time":3272000000000,"state":"active","ping":100},{"user_id":190,"name":"eggy","steam_id":76561199057675540,"connected_time":4580000000000,"state":"active","ping":59},{"user_id":226,"name":"ImSoTrash","steam_id":76561199208833677,"connected_time":422000000000,"state":"active","ping":81},{"user_id":170,"name":"Sam","steam_id":76561198012364798,"connected_time":5424000000000,"state":"active","ping":82},{"user_id":184,"name":"bug","steam_id":76561198381048942,"connected_time":4953000000000,"state":"active","ping":70},{"user_id":119,"name":"Surfing Garchomp","steam_id":76561199107236884,"connected_time":8543000000000,"state":"active","ping":72},{"user_id":201,"name":"Cat on the Moon","steam_id":76561198272661627,"connected_time":3662000000000,"state":"active","ping":59},{"user_id":229,"name":"party hat [FGCP]","steam_id":76561198044268609,"connected_time":371000000000,"state":"active","ping":134},{"user_id":185,"name":"Diet Disinfection","steam_id":76561198385838344,"connected_time":4930000000000,"state":"active","ping":85},{"user_id":227,"name":"DiogenicBishop","steam_id":76561198093478794,"connected_time":405000000000,"state":"active","ping":69}]},{"server_id":18,"name":"Uncletopia | San Francisco | 2 | All Maps","name_short":"sfo-2","host":"sfo-1.us.uncletopia.com","port":27025,"enabled":true,"region":"us-west","cc":"us","latitude":37.77397,"longitude":-122.4313,"reserved":0,"last_update":"0001-01-01T00:00:00Z","name_a2s":"Uncletopia | San Francisco | 2 | All Maps","protocol":17,"map":"koth_cascade","folder":"tf","game":"Team Fortress","app_id":440,"player_count":0,"max_players":24,"Bots":0,"server_type":"Dedicated","server_os":"Linux","password":true,"vac":true,"version":"7961495","steam_id":85568392924470000,"keywords":["cp","nocrits","nodmgspread","uncletopia"],"game_id":440,"stv_port":27026,"stv_name":"Uncletopia | San Francisco | 2 | All Maps | STV","players":null},{"server_id":19,"name":"Uncletopia | San Francisco | 3 | Stopwatch","name_short":"sfo-3","host":"sfo-1.us.uncletopia.com","port":27035,"enabled":true,"region":"us-west","cc":"us","latitude":37.77397,"longitude":-122.4313,"reserved":0,"last_update":"0001-01-01T00:00:00Z","name_a2s":"Uncletopia | San Francisco | 3 | Stopwatch","protocol":17,"map":"pl_swiftwater_final1","folder":"tf","game":"Team Fortress","app_id":440,"player_count":0,"max_players":24,"Bots":0,"server_type":"Dedicated","server_os":"Linux","password":true,"vac":true,"version":"7961495","steam_id":85568392924742824,"keywords":["nocrits","nodmgspread","payload","uncletopia"],"game_id":440,"stv_port":27036,"stv_name":"Uncletopia | San Francisco | 3 | Stopwatch | STV","players":null},{"server_id":20,"name":"Uncletopia | San Francisco | 4 | Community","name_short":"sfo-4","host":"sfo-1.us.uncletopia.com","port":27045,"enabled":true,"region":"us-west","cc":"us","latitude":37.77397,"longitude":-122.4313,"reserved":0,"last_update":"0001-01-01T00:00:00Z","name_a2s":"Uncletopia | San Francisco | 4 | Community","protocol":17,"map":"workshop/pl_shoreleave_rc2.ugc1238849347","folder":"tf","game":"Team Fortress","app_id":440,"player_count":0,"max_players":24,"Bots":0,"server_type":"Dedicated","server_os":"Linux","password":true,"vac":true,"version":"7961495","steam_id":85568392924742826,"keywords":["nocrits","nodmgspread","payload","uncletopia"],"game_id":440,"stv_port":27046,"stv_name":"Uncletopia | San Francisco | 4 | Community | STV","players":null},{"server_id":141,"name":"Uncletopia | Sydney | 1 | All Maps","name_short":"syd-1","host":"syd-1.au.uncletopia.com","port":27015,"enabled":true,"region":"au","cc":"au","latitude":-33.865143,"longitude":151.2099,"reserved":0,"last_update":"0001-01-01T00:00:00Z","name_a2s":"Uncletopia | Sydney | 1 | All Maps","protocol":17,"map":"koth_nucleus","folder":"tf","game":"Team Fortress","app_id":440,"player_count":0,"max_players":24,"Bots":0,"server_type":"Dedicated","server_os":"Linux","password":true,"vac":true,"version":"7961495","steam_id":85568392924470001,"keywords":["cp","nocrits","nodmgspread","uncletopia"],"game_id":440,"stv_port":27016,"stv_name":"Uncletopia | Sydney | 1 | All Maps | STV","players":null},{"server_id":123,"name":"Uncletopia | Sydney | 2 | All Maps","name_short":"syd-2","host":"syd-1.au.uncletopia.com","port":27025,"enabled":true,"region":"au","cc":"au","latitude":-33.865143,"longitude":151.2099,"reserved":0,"last_update":"0001-01-01T00:00:00Z","name_a2s":"Uncletopia | Sydney | 2 | All Maps","protocol":17,"map":"cp_fastlane","folder":"tf","game":"Team Fortress","app_id":440,"player_count":0,"max_players":24,"Bots":0,"server_type":"Dedicated","server_os":"Linux","password":true,"vac":true,"version":"7961495","steam_id":85568392924470002,"keywords":["cp","nocrits","nodmgspread","uncletopia"],"game_id":440,"stv_port":27026,"stv_name":"Uncletopia | Sydney | 2 | All Maps | STV","players":null},{"server_id":395,"name":"Uncletopia | Sydney | 3 | All Maps","name_short":"syd-3","host":"syd-1.au.uncletopia.com","port":27035,"enabled":true,"region":"au","cc":"au","latitude":-33.865143,"longitude":151.2099,"reserved":0,"last_update":"0001-01-01T00:00:00Z","name_a2s":"Uncletopia | Sydney | 3 | All Maps","protocol":17,"map":"cp_metalworks","folder":"tf","game":"Team Fortress","app_id":440,"player_count":0,"max_players":24,"Bots":0,"server_type":"Dedicated","server_os":"Linux","password":true,"vac":true,"version":"7961495","steam_id":85568392925194467,"keywords":["cp","nocrits","nodmgspread","uncletopia"],"game_id":440,"stv_port":27036,"stv_name":"Uncletopia | Sydney | 3 | All Maps | STV","players":null},{"server_id":396,"name":"Uncletopia | Sydney | 4 | All Maps","name_short":"syd-4","host":"syd-1.au.uncletopia.com","port":27045,"enabled":true,"region":"au","cc":"au","latitude":-33.865143,"longitude":151.2099,"reserved":0,"last_update":"0001-01-01T00:00:00Z","name_a2s":"Uncletopia | Sydney | 4 | All Maps","protocol":17,"map":"koth_cascade","folder":"tf","game":"Team Fortress","app_id":440,"player_count":0,"max_players":24,"Bots":0,"server_type":"Dedicated","server_os":"Linux","password":true,"vac":true,"version":"7961495","steam_id":85568392925397958,"keywords":["cp","nocrits","nodmgspread","uncletopia"],"game_id":440,"stv_port":27046,"stv_name":"Uncletopia | Sydney | 4 | All Maps | STV","players":null},{"server_id":58,"name":"Uncletopia | Sydney | 5 | Stopwatch","name_short":"syd-5","host":"syd-1.au.uncletopia.com","port":27055,"enabled":true,"region":"au","cc":"au","latitude":-33.865143,"longitude":151.2099,"reserved":0,"last_update":"0001-01-01T00:00:00Z","name_a2s":"Uncletopia | Sydney | 5 | Stopwatch","protocol":17,"map":"workshop/koth_product_final.ugc454272353","folder":"tf","game":"Team Fortress","app_id":440,"player_count":0,"max_players":24,"Bots":0,"server_type":"Dedicated","server_os":"Linux","password":true,"vac":true,"version":"7961495","steam_id":85568392925397959,"keywords":["cp","nocrits","nodmgspread","uncletopia"],"game_id":440,"stv_port":27056,"stv_name":"Uncletopia | Sydney | 5 | Stopwatch | STV","players":null},{"server_id":59,"name":"Uncletopia | Sydney | 6 | Community","name_short":"syd-6","host":"syd-1.au.uncletopia.com","port":27065,"enabled":true,"region":"au","cc":"au","latitude":-33.865143,"longitude":151.2099,"reserved":0,"last_update":"0001-01-01T00:00:00Z","name_a2s":"Uncletopia | Sydney | 6 | Community","protocol":17,"map":"workshop/koth_trenchfoot_ab1.ugc731436616","folder":"tf","game":"Team Fortress","app_id":440,"player_count":0,"max_players":24,"Bots":0,"server_type":"Dedicated","server_os":"Linux","password":true,"vac":true,"version":"7961495","steam_id":85568392925397960,"keywords":["cp","nocrits","nodmgspread","uncletopia"],"game_id":440,"stv_port":27066,"stv_name":"Uncletopia | Sydney | 6 | Community | STV","players":null},{"server_id":49,"name":"Uncletopia | Warsaw | 1 | One Thousand Uncles","name_short":"waw-1","host":"waw-1.pl.uncletopia.com","port":27015,"enabled":true,"region":"eu","cc":"pl","latitude":52.2297,"longitude":21.017532,"reserved":0,"last_update":"0001-01-01T00:00:00Z","name_a2s":"Uncletopia | Warsaw | 1 | One Thousand Uncles","protocol":17,"map":"pl_swiftwater_final1","folder":"tf","game":"Team Fortress","app_id":440,"player_count":0,"max_players":32,"Bots":0,"server_type":"Dedicated","server_os":"Linux","password":true,"vac":true,"version":"7961495","steam_id":85568392925397850,"keywords":["alltalk","danepve","increased_maxplayers","norespawntime","payload","uncletopia"],"game_id":440,"stv_port":0,"stv_name":"","players":null},{"server_id":50,"name":"Uncletopia | Warsaw | 2 | One Thousand Uncles","name_short":"waw-2","host":"waw-1.pl.uncletopia.com","port":27025,"enabled":true,"region":"eu","cc":"pl","latitude":52.2297,"longitude":21.017532,"reserved":0,"last_update":"0001-01-01T00:00:00Z","name_a2s":"Uncletopia | Warsaw | 2 | One Thousand Uncles","protocol":17,"map":"pl_pier","folder":"tf","game":"Team Fortress","app_id":440,"player_count":0,"max_players":32,"Bots":0,"server_type":"Dedicated","server_os":"Linux","password":true,"vac":true,"version":"7961495","steam_id":85568392925397851,"keywords":["alltalk","danepve","increased_maxplayers","norespawntime","payload","uncletopia"],"game_id":440,"stv_port":0,"stv_name":"","players":null},{"server_id":51,"name":"Uncletopia | Warsaw | 3 | All Maps","name_short":"waw-3","host":"waw-1.pl.uncletopia.com","port":27035,"enabled":true,"region":"eu","cc":"pl","latitude":52.2297,"longitude":21.017532,"reserved":0,"last_update":"0001-01-01T00:00:00Z","name_a2s":"Uncletopia | Warsaw | 3 | All Maps","protocol":17,"map":"cp_dustbowl","folder":"tf","game":"Team Fortress","app_id":440,"player_count":0,"max_players":24,"Bots":0,"server_type":"Dedicated","server_os":"Linux","password":true,"vac":true,"version":"7961495","steam_id":85568392925397852,"keywords":["cp","nocrits","nodmgspread","uncletopia"],"game_id":440,"stv_port":27036,"stv_name":"Uncletopia | Warsaw | 3 | All Maps | STV","players":null},{"server_id":52,"name":"Uncletopia | Warsaw | 4 | All Maps","name_short":"waw-4","host":"waw-1.pl.uncletopia.com","port":27045,"enabled":true,"region":"eu","cc":"pl","latitude":52.2297,"longitude":21.017532,"reserved":0,"last_update":"0001-01-01T00:00:00Z","name_a2s":"Uncletopia | Warsaw | 4 | All Maps","protocol":17,"map":"koth_cascade","folder":"tf","game":"Team Fortress","app_id":440,"player_count":0,"max_players":24,"Bots":0,"server_type":"Dedicated","server_os":"Linux","password":true,"vac":true,"version":"7961495","steam_id":85568392925397853,"keywords":["cp","nocrits","nodmgspread","uncletopia"],"game_id":440,"stv_port":27046,"stv_name":"Uncletopia | Warsaw | 4 | All Maps | STV","players":null},{"server_id":53,"name":"Uncletopia | Warsaw | 5 | Stopwatch","name_short":"waw-5","host":"waw-1.pl.uncletopia.com","port":27055,"enabled":true,"region":"eu","cc":"pl","latitude":52.2297,"longitude":21.017532,"reserved":0,"last_update":"0001-01-01T00:00:00Z","name_a2s":"Uncletopia | Warsaw | 5 | Stopwatch","protocol":17,"map":"koth_highpass","folder":"tf","game":"Team Fortress","app_id":440,"player_count":0,"max_players":24,"Bots":0,"server_type":"Dedicated","server_os":"Linux","password":true,"vac":true,"version":"7961495","steam_id":85568392925397854,"keywords":["cp","nocrits","nodmgspread","uncletopia"],"game_id":440,"stv_port":27056,"stv_name":"Uncletopia | Warsaw | 5 | Stopwatch | STV","players":null},{"server_id":54,"name":"Uncletopia | Warsaw | 6 | Community","name_short":"waw-6","host":"waw-1.pl.uncletopia.com","port":27065,"enabled":true,"region":"eu","cc":"pl","latitude":52.2297,"longitude":21.017532,"reserved":0,"last_update":"0001-01-01T00:00:00Z","name_a2s":"Uncletopia | Warsaw | 6 | Community","protocol":17,"map":"workshop/cp_overgrown_rc8.ugc503939302","folder":"tf","game":"Team Fortress","app_id":440,"player_count":0,"max_players":24,"Bots":0,"server_type":"Dedicated","server_os":"Linux","password":true,"vac":true,"version":"7961495","steam_id":85568392925397856,"keywords":["cp","nocrits","nodmgspread","uncletopia"],"game_id":440,"stv_port":27066,"stv_name":"Uncletopia | Warsaw | 6 | Community | STV","players":null}]}