{"status":true,"message":"","result":[{"server_id":9,"name":"Uncletopia | Atlanta | 1 | All Maps","name_short":"atl-1","host":"atl-1.us.uncletopia.com","port":27015,"enabled":true,"region":"us-east","cc":"us","latitude":33.753746,"longitude":-84.38633,"reserved":0,"last_update":"0001-01-01T00:00:00Z","name_a2s":"Uncletopia | Atlanta | 1 | All Maps","protocol":17,"map":"koth_highpass","folder":"tf","game":"Team Fortress","app_id":440,"player_count":2,"max_players":24,"Bots":0,"server_type":"Dedicated","server_os":"Linux","password":true,"vac":true,"version":"7757534","steam_id":85568392924469982,"keywords":["cp","nocrits","nodmgspread","uncletopia"],"game_id":440,"stv_port":27016,"stv_name":"Uncletopia | Atlanta | 1 | All Maps | STV","players":[{"user_id":12,"name":"Karma","steam_id":76561198030565234,"connected_time":656000000000,"state":"active","ping":72},{"user_id":13,"name":"abomination","steam_id":76561198167974713,"connected_time":288000000000,"state":"active","ping":58}]},{"server_id":400,"name":"Uncletopia | Atlanta | 3 | Community","name_short":"atl-3","host":"atl-1.us.uncletopia.com","port":27035,"enabled":true,"region":"us-east","cc":"us","latitude":33.753746,"longitude":-84.38633,"reserved":0,"last_update":"0001-01-01T00:00:00Z","name_a2s":"Uncletopia | Atlanta | 3 | Community","protocol":17,"map":"cp_mountainlab","folder":"tf","game":"Team Fortress","app_id":440,"player_count":0,"max_players":24,"Bots":0,"server_type":"Dedicated","server_os":"Linux","password":true,"vac":true,"version":"7757534","steam_id":85568392924515187,"keywords":["cp","nocrits","nodmgspread","uncletopia"],"game_id":440,"stv_port":27036,"stv_name":"Uncletopia | Atlanta | 3 | Community | STV","players":null},{"server_id":401,"name":"Uncletopia | Atlanta | 4 | No Payload","name_short":"atl-4","host":"atl-1.us.uncletopia.com","port":27045,"enabled":true,"region":"us-east","cc":"us","latitude":33.753746,"longitude":-84.38633,"reserved":0,"last_update":"0001-01-01T00:00:00Z","name_a2s":"","protocol":0,"map":"","folder":"","game":"","app_id":0,"player_count":0,"max_players":0,"Bots":0,"server_type":"","server_os":"","password":false,"vac":false,"version":"","steam_id":0,"keywords":null,"game_id":0,"stv_port":0,"stv_name":"","players":null},{"server_id":2,"name":"Uncletopia | Chicago | 1 | All Maps","name_short":"chi-1","host":"chi-1.us.uncletopia.com","port":27015,"enabled":true,"region":"us-central","cc":"us","latitude":41.881832,"longitude":-87.62318,"reserved":0,"last_update":"0001-01-01T00:00:00Z","name_a2s":"Uncletopia | Chicago | 1 | All Maps","protocol":17,"map":"koth_harvest_final","folder":"tf","game":"Team Fortress","app_id":440,"player_count":24,"max_players":24,"Bots":0,"server_type":"Dedicated","server_os":"Linux","password":true,"vac":true,"version":"7757534","steam_id":85568392924469984,"keywords":["cp","nocrits","nodmgspread","uncletopia"],"game_id":440,"stv_port":27016,"stv_name":"Uncletopia | Chicago | 1 | All Maps | STV","players":[{"user_id":135,"name":"Crog","steam_id":76561198081129776,"connected_time":78000000000,"state":"active","ping":77},{"user_id":18,"name":"Cunny Warrior 77","steam_id":76561198811760680,"connected_time":8404000000000,"state":"active","ping":110},{"user_id":131,"name":"Mattron1","steam_id":76561198012270524,"connected_time":465000000000,"state":"active","ping":86},{"user_id":125,"name":"I can't heal","steam_id":76561198039763676,"connected_time":1139000000000,"state":"active","ping":61},{"user_id":132,"name":"Tobo","steam_id":76561198085846393,"connected_time":353000000000,"state":"active","ping":85},{"user_id":115,"name":"Brandonazz","steam_id":76561197994366351,"connected_time":1791000000000,"state":"active","ping":71},{"user_id":126,"name":"upside down cat","steam_id":76561198028288349,"connected_time":1090000000000,"state":"active","ping":86},{"user_id":84,"name":"Obelix","steam_id":76561198274715109,"connected_time":4141000000000,"state":"active","ping":47},{"user_id":93,"name":"Nic0","steam_id":76561198305690218,"connected_time":3250000000000,"state":"active","ping":66},{"user_id":118,"name":"Quickxdeathx02","steam_id":76561198396771470,"connected_time":1597000000000,"state":"active","ping":102},{"user_id":102,"name":"Droop","steam_id":76561198856700517,"connected_time":2525000000000,"state":"active","ping":71},{"user_id":106,"name":"hi","steam_id":76561198809577048,"connected_time":1817000000000,"state":"active","ping":98},{"user_id":77,"name":"im on deebo lit im on migo lit","steam_id":76561198328109873,"connected_time":5165000000000,"state":"active","ping":70},{"user_id":117,"name":"MyamE","steam_id":76561198133278462,"connected_time":1619000000000,"state":"active","ping":93},{"user_id":134,"name":"Monster","steam_id":76561198189429665,"connected_time":268000000000,"state":"active","ping":75},{"user_id":120,"name":"MagicalBoyChan","steam_id":76561198024776873,"connected_time":1276000000000,"state":"active","ping":101},{"user_id":136,"name":"dudeyougotadell24","steam_id":76561198881039861,"connected_time":49000000000,"state":"active","ping":47},{"user_id":105,"name":"kametro4","steam_id":76561198835430429,"connected_time":1975000000000,"state":"active","ping":81},{"user_id":129,"name":"shadow6","steam_id":76561197979807910,"connected_time":774000000000,"state":"active","ping":94},{"user_id":41,"name":"man of the hour","steam_id":76561198264601809,"connected_time":7497000000000,"state":"active","ping":67},{"user_id":90,"name":"shawarma.lord007","steam_id":76561198115458307,"connected_time":3428000000000,"state":"active","ping":103},{"user_id":122,"name":"raidlps","steam_id":76561199208003679,"connected_time":1199000000000,"state":"active","ping":78},{"user_id":114,"name":"Veirū Viseris","steam_id":76561197989857176,"connected_time":1796000000000,"state":"active","ping":165},{"user_id":127,"name":"One Chill Daddio","steam_id":76561198074026282,"connected_time":1076000000000,"state":"active","ping":76}]},{"server_id":106,"name":"Uncletopia | Chicago | 2 | All Maps","name_short":"chi-2","host":"chi-1.us.uncletopia.com","port":27025,"enabled":true,"region":"us-central","cc":"us","latitude":41.881832,"longitude":-87.62318,"reserved":0,"last_update":"0001-01-01T00:00:00Z","name_a2s":"Uncletopia | Chicago | 2 | All Maps","protocol":17,"map":"pl_upward","folder":"tf","game":"Team Fortress","app_id":440,"player_count":24,"max_players":24,"Bots":0,"server_type":"Dedicated","server_os":"Linux","password":true,"vac":true,"version":"7757534","steam_id":85568392924469985,"keywords":["nocrits","nodmgspread","payload","uncletopia"],"game_id":440,"stv_port":27026,"stv_name":"Uncletopia | Chicago | 2 | All Maps | STV","players":[{"user_id":4,"name":"jojobinks613","steam_id":76561198841293111,"connected_time":1727000000000,"state":"active","ping":56},{"user_id":5,"name":"Mr.YoYo","steam_id":76561198988717854,"connected_time":1688000000000,"state":"active","ping":97},{"user_id":6,"name":"Jester","steam_id":76561198153102922,"connected_time":1409000000000,"state":"active","ping":73},{"user_id":7,"name":"speedshot2006","steam_id":76561199136044043,"connected_time":1386000000000,"state":"active","ping":74},{"user_id":19,"name":"brodie","steam_id":76561198081303855,"connected_time":466000000000,"state":"active","ping":61},{"user_id":29,"name":"LightBulbGlue #SaveTF2","steam_id":76561198329573529,"connected_time":49000000000,"state":"active","ping":62},{"user_id":10,"name":"gameing","steam_id":76561198115552623,"connected_time":968000000000,"state":"active","ping":60},{"user_id":11,"name":"rustyorion","steam_id":76561198439186347,"connected_time":912000000000,"state":"active","ping":93},{"user_id":12,"name":"wes","steam_id":76561198273536400,"connected_time":825000000000,"state":"active","ping":74},{"user_id":14,"name":"Your new boyfriend","steam_id":76561198166026932,"connected_time":734000000000,"state":"active","ping":44},{"user_id":21,"name":"SL164","steam_id":76561197970800276,"connected_time":391000000000,"state":"active","ping":49},{"user_id":16,"name":"B.A. Baracus","steam_id":76561197995332985,"connected_time":597000000000,"state":"active","ping":75},{"user_id":17,"name":"Broadsword","steam_id":76561198011160411,"connected_time":523000000000,"state":"active","ping":87},{"user_id":18,"name":"TransWomanGaming","steam_id":76561198809645656,"connected_time":505000000000,"state":"active","ping":71},{"user_id":20,"name":"killswitch","steam_id":76561199243229769,"connected_time":398000000000,"state":"active","ping":47},{"user_id":22,"name":"Anika","steam_id":76561198276724202,"connected_time":384000000000,"state":"active","ping":68},{"user_id":23,"name":"Captain Barrel","steam_id":76561199061470542,"connected_time":320000000000,"state":"active","ping":56},{"user_id":24,"name":"tony hawk's pro skater","steam_id":76561198079421096,"connected_time":276000000000,"state":"active","ping":79},{"user_id":25,"name":"beastierbeast","steam_id":76561199030645530,"connected_time":249000000000,"state":"active","ping":56},{"user_id":26,"name":"we up","steam_id":76561198119826352,"connected_time":187000000000,"state":"active","ping":75},{"user_id":28,"name":"Tusk","steam_id":76561199066977033,"connected_time":68000000000,"state":"active","ping":74},{"user_id":30,"name":"luscaPUTO","steam_id":76561199037598902,"connected_time":46000000000,"state":"spawning","ping":189},{"user_id":31,"name":"Evil Ryu","steam_id":76561198079532122,"connected_time":25000000000,"state":"active","ping":105},{"user_id":32,"name":"makLUVR3927\u003c3","steam_id":76561198139091532,"connected_time":18000000000,"state":"active","ping":74}]},{"server_id":402,"name":"Uncletopia | Chicago | 3 | All Maps","name_short":"chi-3","host":"chi-1.us.uncletopia.com","port":27035,"enabled":true,"region":"us-central","cc":"us","latitude":41.881832,"longitude":-87.62318,"reserved":0,"last_update":"0001-01-01T00:00:00Z","name_a2s":"Uncletopia | Chicago | 3 | All Maps","protocol":17,"map":"koth_cascade","folder":"tf","game":"Team Fortress","app_id":440,"player_count":0,"max_players":24,"Bots":0,"server_type":"Dedicated","server_os":"Linux","password":true,"vac":true,"version":"7757534","steam_id":85568392924515191,"keywords":["cp","nocrits","nodmgspread","uncletopia"],"game_id":440,"stv_port":27036,"stv_name":"Uncletopia | Chicago | 3 | All Maps | STV","players":null},{"server_id":403,"name":"Uncletopia | Chicago | 4 | All Maps","name_short":"chi-4","host":"chi-1.us.uncletopia.com","port":27045,"enabled":true,"region":"us-central","cc":"us","latitude":41.881832,"longitude":-87.62318,"reserved":0,"last_update":"0001-01-01T00:00:00Z","name_a2s":"Uncletopia | Chicago | 4 | All Maps","protocol":17,"map":"koth_cascade","folder":"tf","game":"Team Fortress","app_id":440,"player_count":0,"max_players":24,"Bots":0,"server_type":"Dedicated","server_os":"Linux","password":true,"vac":true,"version":"7757534","steam_id":85568392924515193,"keywords":["cp","nocrits","nodmgspread","uncletopia"],"game_id":440,"stv_port":27046,"stv_name":"Uncletopia | Chicago | 4 | All Maps | STV","players":null},{"server_id":36,"name":"Uncletopia | Chicago | 5 | All Maps","name_short":"chi-5","host":"chi-2.us.uncletopia.com","port":27015,"enabled":true,"region":"us-central","cc":"us","latitude":41.881832,"longitude":-87.62318,"reserved":0,"last_update":"0001-01-01T00:00:00Z","name_a2s":"Uncletopia | Chicago | 5 | All Maps","protocol":17,"map":"koth_lakeside_final","folder":"tf","game":"Team Fortress","app_id":440,"player_count":0,"max_players":24,"Bots":0,"server_type":"Dedicated","server_os":"Linux","password":true,"vac":true,"version":"7757534","steam_id":85568392924866362,"keywords":["cp","nocrits","nodmgspread","uncletopia"],"game_id":440,"stv_port":27016,"stv_name":"Uncletopia | Chicago | 5 | All Maps | STV","players":null},{"server_id":37,"name":"Uncletopia | Chicago | 6 | All Maps","name_short":"chi-6","host":"chi-2.us.uncletopia.com","port":27025,"enabled":true,"region":"us-central","cc":"us","latitude":41.881832,"longitude":-87.62318,"reserved":0,"last_update":"0001-01-01T00:00:00Z","name_a2s":"Uncletopia | Chicago | 6 | All Maps","protocol":17,"map":"cp_dustbowl","folder":"tf","game":"Team Fortress","app_id":440,"player_count":0,"max_players":24,"Bots":0,"server_type":"Dedicated","server_os":"Linux","password":true,"vac":true,"version":"7757534","steam_id":85568392924866363,"keywords":["cp","nocrits","nodmgspread","uncletopia"],"game_id":440,"stv_port":27026,"stv_name":"Uncletopia | Chicago | 6 | All Maps | STV","players":null},{"server_id":38,"name":"Uncletopia | Chicago | 7 | Stopwatch Beta","name_short":"chi-7","host":"chi-2.us.uncletopia.com","port":27035,"enabled":true,"region":"us-central","cc":"us","latitude":41.881832,"longitude":-87.62318,"reserved":0,"last_update":"0001-01-01T00:00:00Z","name_a2s":"Uncletopia | Chicago | 7 | Stopwatch Beta","protocol":17,"map":"koth_viaduct","folder":"tf","game":"Team Fortress","app_id":440,"player_count":0,"max_players":24,"Bots":0,"server_type":"Dedicated","server_os":"Linux","password":true,"vac":true,"version":"7757534","steam_id":85568392924866364,"keywords":["cp","nocrits","nodmgspread","uncletopia"],"game_id":440,"stv_port":27036,"stv_name":"Uncletopia | Chicago | 7 | Stopwatch Beta | STV","players":null},{"server_id":39,"name":"Uncletopia | Chicago | 8 | Community","name_short":"chi-8","host":"chi-2.us.uncletopia.com","port":27045,"enabled":true,"region":"us-central","cc":"us","latitude":41.881832,"longitude":-87.62318,"reserved":0,"last_update":"0001-01-01T00:00:00Z","name_a2s":"Uncletopia | Chicago | 8 | Community","protocol":17,"map":"koth_lakeside_final","folder":"tf","game":"Team Fortress","app_id":440,"player_count":0,"max_players":24,"Bots":0,"server_type":"Dedicated","server_os":"Linux","password":true,"vac":true,"version":"7757534","steam_id":85568392924866365,"keywords":["cp","nocrits","nodmgspread","uncletopia"],"game_id":440,"stv_port":27046,"stv_name":"Uncletopia | Chicago | 8 | Community | STV","players":null},{"server_id":8,"name":"Uncletopia | Dallas | 1 | All Maps","name_short":"dal-1","host":"dal-1.us.uncletopia.com","port":27015,"enabled":true,"region":"us-central","cc":"us","latitude":32.779167,"longitude":-96.80889,"reserved":0,"last_update":"0001-01-01T00:00:00Z","name_a2s":"Uncletopia | Dallas | 1 | All Maps","protocol":17,"map":"cp_sunshine","folder":"tf","game":"Team Fortress","app_id":440,"player_count":0,"max_players":24,"Bots":0,"server_type":"Dedicated","server_os":"Linux","password":true,"vac":true,"version":"7757534","steam_id":85568392924469986,"keywords":["cp","nocrits","nodmgspread","uncletopia"],"game_id":440,"stv_port":27016,"stv_name":"Uncletopia | Dallas | 1 | All Maps | STV","players":null},{"server_id":108,"name":"Uncletopia | Dallas | 2 | All Maps","name_short":"dal-2","host":"dal-1.us.uncletopia.com","port":27025,"enabled":true,"region":"us-central","cc":"us","latitude":32.779167,"longitude":-96.80889,"reserved":0,"last_update":"0001-01-01T00:00:00Z","name_a2s":"Uncletopia | Dallas | 2 | All Maps","protocol":17,"map":"cp_altitude","folder":"tf","game":"Team Fortress","app_id":440,"player_count":0,"max_players":24,"Bots":0,"server_type":"Dedicated","server_os":"Linux","password":true,"vac":true,"version":"7757534","steam_id":85568392924469988,"keywords":["cp","nocrits","nodmgspread","uncletopia"],"game_id":440,"stv_port":27026,"stv_name":"Uncletopia | Dallas | 2 | All Maps | STV","players":null},{"server_id":5,"name":"Uncletopia | Frankfurt | 1 | All Maps","name_short":"frk-1","host":"frk-1.de.uncletopia.com","port":27015,"enabled":true,"region":"eu","cc":"de","latitude":50.110924,"longitude":8.682127,"reserved":0,"last_update":"0001-01-01T00:00:00Z","name_a2s":"Uncletopia | Frankfurt | 1 | All Maps","protocol":17,"map":"cp_powerhouse","folder":"tf","game":"Team Fortress","app_id":440,"player_count":24,"max_players":24,"Bots":0,"server_type":"Dedicated","server_os":"Linux","password":true,"vac":true,"version":"7757534","steam_id":85568392924469989,"keywords":["cp","nocrits","nodmgspread","uncletopia"],"game_id":440,"stv_port":27016,"stv_name":"Uncletopia | Frankfurt | 1 | All Maps | STV","players":[{"user_id":245,"name":"KFD","steam_id":76561198157183003,"connected_time":7592000000000,"state":"active","ping":76},{"user_id":337,"name":"nedilya","steam_id":76561198039692077,"connected_time":962000000000,"state":"active","ping":55},{"user_id":295,"name":"Lemon","steam_id":76561198188535947,"connected_time":3623000000000,"state":"active","ping":78},{"user_id":347,"name":"Kapitan Polska","steam_id":76561197968069413,"connected_time":212000000000,"state":"active","ping":78},{"user_id":331,"name":"john fortress","steam_id":76561198013237629,"connected_time":1434000000000,"state":"active","ping":98},{"user_id":342,"name":"Quartzy","steam_id":76561198313301520,"connected_time":302000000000,"state":"active","ping":59},{"user_id":341,"name":"boneez","steam_id":76561198186800982,"connected_time":345000000000,"state":"active","ping":51},{"user_id":343,"name":"Pepperonipizza","steam_id":76561198044471610,"connected_time":295000000000,"state":"active","ping":68},{"user_id":351,"name":"Dooble donk man look at me donk","steam_id":76561198225523596,"connected_time":90000000000,"state":"active","ping":70},{"user_id":316,"name":"issues","steam_id":76561197994492154,"connected_time":2325000000000,"state":"active","ping":72},{"user_id":335,"name":"Mikeshowsha","steam_id":76561199114014127,"connected_time":1056000000000,"state":"active","ping":64},{"user_id":314,"name":"Koli","steam_id":76561197992428783,"connected_time":2425000000000,"state":"active","ping":47},{"user_id":334,"name":"☩Josias☩","steam_id":76561198142727512,"connected_time":1183000000000,"state":"active","ping":60},{"user_id":321,"name":"solar","steam_id":76561198851558471,"connected_time":1821000000000,"state":"active","ping":156},{"user_id":340,"name":"big hoops","steam_id":76561198004703799,"connected_time":467000000000,"state":"active","ping":52},{"user_id":286,"name":"LOBZIK","steam_id":76561198114830120,"connected_time":4159000000000,"state":"active","ping":76},{"user_id":283,"name":"G6 sherlock","steam_id":76561198802967796,"connected_time":4445000000000,"state":"active","ping":116},{"user_id":333,"name":"Le horse","steam_id":76561198119563666,"connected_time":1244000000000,"state":"active","ping":55},{"user_id":345,"name":"0","steam_id":76561198372406941,"connected_time":221000000000,"state":"active","ping":65},{"user_id":348,"name":"gwałt wątroby 0,7 i 5 piw","steam_id":76561199038973360,"connected_time":193000000000,"state":"active","ping":89},{"user_id":299,"name":"Nyhde","steam_id":76561198012771416,"connected_time":3580000000000,"state":"active","ping":100},{"user_id":338,"name":"Speedyjoestar","steam_id":76561198907130963,"connected_time":908000000000,"state":"active","ping":91},{"user_id":329,"name":"Mr.Fosty","steam_id":76561198045212783,"connected_time":1506000000000,"state":"active","ping":86},{"user_id":350,"name":"2b","steam_id":76561199149307190,"connected_time":149000000000,"state":"active","ping":76}]},{"server_id":110,"name":"Uncletopia | Frankfurt | 2 | All Maps","name_short":"frk-2","host":"frk-1.de.uncletopia.com","port":27025,"enabled":true,"region":"eu","cc":"de","latitude":50.110924,"longitude":8.682127,"reserved":0,"last_update":"0001-01-01T00:00:00Z","name_a2s":"Uncletopia | Frankfurt | 2 | All Maps","protocol":17,"map":"plr_bananabay","folder":"tf","game":"Team Fortress","app_id":440,"player_count":0,"max_players":24,"Bots":0,"server_type":"Dedicated","server_os":"Linux","password":true,"vac":true,"version":"7757534","steam_id":85568392924469990,"keywords":["nocrits","nodmgspread","payload","uncletopia"],"game_id":440,"stv_port":27026,"stv_name":"Uncletopia | Frankfurt | 2 | All Maps | STV","players":null},{"server_id":308,"name":"Uncletopia | Frankfurt | 3 | All Maps","name_short":"frk-3","host":"frk-1.de.uncletopia.com","port":27035,"enabled":true,"region":"eu","cc":"de","latitude":50.110924,"longitude":8.682127,"reserved":0,"last_update":"0001-01-01T00:00:00Z","name_a2s":"Uncletopia | Frankfurt | 3 | All Maps","protocol":17,"map":"koth_viaduct","folder":"tf","game":"Team Fortress","app_id":440,"player_count":0,"max_players":24,"Bots":0,"server_type":"Dedicated","server_os":"Linux","password":true,"vac":true,"version":"7757534","steam_id":85568392924504274,"keywords":["cp","nocrits","nodmgspread","uncletopia"],"game_id":440,"stv_port":27036,"stv_name":"Uncletopia | Frankfurt | 3 | All Maps | STV","players":null},{"server_id":309,"name":"Uncletopia | Frankfurt | 4 | All Maps","name_short":"frk-4","host":"frk-1.de.uncletopia.com","port":27045,"enabled":true,"region":"eu","cc":"de","latitude":50.110924,"longitude":8.682127,"reserved":0,"last_update":"0001-01-01T00:00:00Z","name_a2s":"Uncletopia | Frankfurt | 4 | All Maps","protocol":17,"map":"pl_frontier_final","folder":"tf","game":"Team Fortress","app_id":440,"player_count":24,"max_players":24,"Bots":0,"server_type":"Dedicated","server_os":"Linux","password":true,"vac":true,"version":"7757534","steam_id":85568392924504275,"keywords":["nocrits","nodmgspread","payload","uncletopia"],"game_id":440,"stv_port":27046,"stv_name":"Uncletopia | Frankfurt | 4 | All Maps | STV","players":[{"user_id":294,"name":"Oborawatabinost","steam_id":76561199052275857,"connected_time":408000000000,"state":"active","ping":99},{"user_id":271,"name":"LordTrap.exe","steam_id":76561198318089716,"connected_time":1907000000000,"state":"active","ping":54},{"user_id":87,"name":"XfarisGamerX","steam_id":76561198367579380,"connected_time":15247000000000,"state":"active","ping":129},{"user_id":270,"name":"mt","steam_id":76561197961319303,"connected_time":1958000000000,"state":"active","ping":45},{"user_id":246,"name":"Average Sniper Enjoyer","steam_id":76561197965556042,"connected_time":3265000000000,"state":"active","ping":76},{"user_id":282,"name":"Eggcracker","steam_id":76561199274850641,"connected_time":984000000000,"state":"active","ping":91},{"user_id":241,"name":"Ooze","steam_id":76561198039642637,"connected_time":4029000000000,"state":"active","ping":69},{"user_id":295,"name":"Rashid Besythe","steam_id":76561198081477129,"connected_time":407000000000,"state":"active","ping":72},{"user_id":296,"name":"PurpleFlux","steam_id":76561198123838445,"connected_time":351000000000,"state":"active","ping":71},{"user_id":173,"name":"Pipper","steam_id":76561197970326616,"connected_time":9511000000000,"state":"active","ping":54},{"user_id":258,"name":"wasto-/-™","steam_id":76561198102888038,"connected_time":3055000000000,"state":"active","ping":52},{"user_id":267,"name":"Salih","steam_id":76561198287934839,"connected_time":2095000000000,"state":"active","ping":49},{"user_id":297,"name":"Rat, the ungodly rat #SaveTF2","steam_id":76561199126577423,"connected_time":349000000000,"state":"active","ping":66},{"user_id":304,"name":"hedonic treadmill","steam_id":76561199114742711,"connected_time":22000000000,"state":"active","ping":82},{"user_id":289,"name":"♫★Xriasp★♫","steam_id":76561198104721321,"connected_time":538000000000,"state":"active","ping":71},{"user_id":247,"name":"CarrotFlowers","steam_id":76561198154714698,"connected_time":3264000000000,"state":"active","ping":59},{"user_id":288,"name":"[FRF] David","steam_id":76561199010178766,"connected_time":559000000000,"state":"active","ping":49},{"user_id":292,"name":"niaerniopawrjnko","steam_id":76561198030408772,"connected_time":424000000000,"state":"active","ping":60},{"user_id":301,"name":"Soerlssoelssöen","steam_id":76561197993060585,"connected_time":219000000000,"state":"active","ping":75},{"user_id":253,"name":"Fran","steam_id":76561199070516960,"connected_time":3206000000000,"state":"active","ping":71},{"user_id":303,"name":"The Jar","steam_id":76561199171080156,"connected_time":140000000000,"state":"active","ping":89},{"user_id":302,"name":"Hegyi tahó F2P","steam_id":76561199219150356,"connected_time":213000000000,"state":"active","ping":62},{"user_id":290,"name":"Timpanojnoj","steam_id":76561197970334448,"connected_time":504000000000,"state":"active","ping":81},{"user_id":299,"name":"holykyckling","steam_id":76561198040661615,"connected_time":323000000000,"state":"active","ping":75}]},{"server_id":310,"name":"Uncletopia | Frankfurt | 5 | All Maps","name_short":"frk-5","host":"frk-1.de.uncletopia.com","port":27055,"enabled":true,"region":"eu","cc":"de","latitude":50.110924,"longitude":8.682127,"reserved":0,"last_update":"0001-01-01T00:00:00Z","name_a2s":"Uncletopia | Frankfurt | 5 | All Maps","protocol":17,"map":"cp_dustbowl","folder":"tf","game":"Team Fortress","app_id":440,"player_count":18,"max_players":24,"Bots":0,"server_type":"Dedicated","server_os":"Linux","password":true,"vac":true,"version":"7757534","steam_id":85568392924504277,"keywords":["cp","nocrits","nodmgspread","uncletopia"],"game_id":440,"stv_port":27056,"stv_name":"Uncletopia | Frankfurt | 5 | All Maps | STV","players":[{"user_id":54,"name":"Daza_3s","steam_id":76561198796443584,"connected_time":1983000000000,"state":"active","ping":41},{"user_id":98,"name":"Ibilesfighter247","steam_id":76561198880673705,"connected_time":743000000000,"state":"active","ping":84},{"user_id":8,"name":"hedon/","steam_id":76561198249832770,"connected_time":3321000000000,"state":"active","ping":52},{"user_id":103,"name":"k","steam_id":76561198089342103,"connected_time":406000000000,"state":"active","ping":75},{"user_id":94,"name":"M. Hulot","steam_id":76561197994284798,"connected_time":989000000000,"state":"active","ping":456},{"user_id":108,"name":"Artock","steam_id":76561198808599713,"connected_time":6000000000,"state":"spawning","ping":76},{"user_id":96,"name":"Sniffz_2","steam_id":76561199433459491,"connected_time":816000000000,"state":"active","ping":66},{"user_id":67,"name":"♣Бредовый Месяц","steam_id":76561198796404149,"connected_time":1750000000000,"state":"spawning","ping":192},{"user_id":97,"name":"Hector","steam_id":76561198028618586,"connected_time":806000000000,"state":"active","ping":61},{"user_id":14,"name":"sAmasam","steam_id":76561198114953928,"connected_time":3074000000000,"state":"active","ping":56},{"user_id":15,"name":"t0ksi","steam_id":76561198107240798,"connected_time":3021000000000,"state":"active","ping":62},{"user_id":81,"name":"dagadt_tyúk.69","steam_id":76561198147173457,"connected_time":1364000000000,"state":"active","ping":72},{"user_id":17,"name":"nostalgia critic side character","steam_id":76561198273681447,"connected_time":3013000000000,"state":"active","ping":71},{"user_id":86,"name":"Ma͡xim͜us","steam_id":76561197970986094,"connected_time":1181000000000,"state":"active","ping":56},{"user_id":20,"name":"w presser","steam_id":76561197994600818,"connected_time":2881000000000,"state":"active","ping":45},{"user_id":99,"name":"Grillem Dafoe","steam_id":76561198306874574,"connected_time":646000000000,"state":"active","ping":79},{"user_id":100,"name":"cant keep down the clown","steam_id":76561198210512053,"connected_time":616000000000,"state":"active","ping":47},{"user_id":106,"name":"Duel_Clip","steam_id":76561198287685317,"connected_time":83000000000,"state":"active","ping":151}]},{"server_id":311,"name":"Uncletopia | Frankfurt | 6 | All Maps","name_short":"frk-6","host":"frk-1.de.uncletopia.com","port":27065,"enabled":true,"region":"eu","cc":"de","latitude":50.110924,"longitude":8.682127,"reserved":0,"last_update":"0001-01-01T00:00:00Z","name_a2s":"Uncletopia | Frankfurt | 6 | All Maps","protocol":17,"map":"koth_suijin","folder":"tf","game":"Team Fortress","app_id":440,"player_count":0,"max_players":24,"Bots":0,"server_type":"Dedicated","server_os":"Linux","password":true,"vac":true,"version":"7757534","steam_id":85568392924504278,"keywords":["cp","nocrits","nodmgspread","uncletopia"],"game_id":440,"stv_port":27066,"stv_name":"Uncletopia | Frankfurt | 6 | All Maps | STV","players":null},{"server_id":23,"name":"Uncletopia | Frankfurt | 7 | Stopwatch Beta","name_short":"frk-7","host":"frk-1.de.uncletopia.com","port":27075,"enabled":true,"region":"eu","cc":"de","latitude":50.110924,"longitude":8.682127,"reserved":0,"last_update":"0001-01-01T00:00:00Z","name_a2s":"Uncletopia | Frankfurt | 7 | Stopwatch Beta","protocol":17,"map":"pl_upward","folder":"tf","game":"Team Fortress","app_id":440,"player_count":0,"max_players":24,"Bots":0,"server_type":"Dedicated","server_os":"Linux","password":true,"vac":true,"version":"7757534","steam_id":85568392924742827,"keywords":["nocrits","nodmgspread","payload","uncletopia"],"game_id":440,"stv_port":27076,"stv_name":"Uncletopia | Frankfurt | 7 | Stopwatch Beta | STV","players":null},{"server_id":24,"name":"Uncletopia | Frankfurt | 8 | Community","name_short":"frk-8","host":"frk-1.de.uncletopia.com","port":27085,"enabled":true,"region":"eu","cc":"de","latitude":50.110924,"longitude":8.682127,"reserved":0,"last_update":"0001-01-01T00:00:00Z","name_a2s":"Uncletopia | Frankfurt | 8 | Community","protocol":17,"map":"workshop/cp_logjam_rc12.ugc454812035","folder":"tf","game":"Team Fortress","app_id":440,"player_count":0,"max_players":24,"Bots":0,"server_type":"Dedicated","server_os":"Linux","password":true,"vac":true,"version":"7757534","steam_id":85568392924742828,"keywords":["cp","nocrits","nodmgspread","uncletopia"],"game_id":440,"stv_port":27086,"stv_name":"Uncletopia | Frankfurt | 8 | Community | STV","players":null},{"server_id":202,"name":"Uncletopia | Hong Kong | 1 | All Maps","name_short":"hgk-1","host":"hgk-1.hk.uncletopia.com","port":27015,"enabled":true,"region":"asia","cc":"hk","latitude":22.302711,"longitude":114.177216,"reserved":0,"last_update":"0001-01-01T00:00:00Z","name_a2s":"Uncletopia | Hong Kong | 1 | All Maps","protocol":17,"map":"cp_steel","folder":"tf","game":"Team Fortress","app_id":440,"player_count":23,"max_players":24,"Bots":0,"server_type":"Dedicated","server_os":"Linux","password":true,"vac":true,"version":"7757534","steam_id":85568392924494504,"keywords":["cp","nocrits","nodmgspread","uncletopia"],"game_id":440,"stv_port":27016,"stv_name":"Uncletopia | Hong Kong | 1 | All Maps | STV","players":[{"user_id":382,"name":"Celloboi","steam_id":76561199089089919,"connected_time":4108000000000,"state":"active","ping":69},{"user_id":407,"name":"Darknight","steam_id":76561199090139287,"connected_time":2510000000000,"state":"active","ping":79},{"user_id":424,"name":"Angelmin","steam_id":76561198268514197,"connected_time":661000000000,"state":"active","ping":75},{"user_id":357,"name":"cucumber","steam_id":76561198157549908,"connected_time":5205000000000,"state":"active","ping":95},{"user_id":412,"name":"TonXD","steam_id":76561199024372559,"connected_time":1952000000000,"state":"active","ping":102},{"user_id":359,"name":"AmaiToxic","steam_id":76561199122491157,"connected_time":5058000000000,"state":"active","ping":137},{"user_id":403,"name":"母の肉団子@hao123.com","steam_id":76561198069561896,"connected_time":3037000000000,"state":"active","ping":40},{"user_id":393,"name":"Pinecomb","steam_id":76561198825329716,"connected_time":3717000000000,"state":"active","ping":57},{"user_id":395,"name":"nyakky","steam_id":76561198927779787,"connected_time":3481000000000,"state":"active","ping":90},{"user_id":369,"name":"protons","steam_id":76561198008307645,"connected_time":4441000000000,"state":"active","ping":133},{"user_id":415,"name":"MarioWidjaya123","steam_id":76561198285601211,"connected_time":1921000000000,"state":"active","ping":112},{"user_id":394,"name":"SNEAKY AS FUCK","steam_id":76561198083923462,"connected_time":3682000000000,"state":"active","ping":75},{"user_id":341,"name":"silverhouse7","steam_id":76561198349634906,"connected_time":7139000000000,"state":"active","ping":70},{"user_id":427,"name":"killman47","steam_id":76561198348487408,"connected_time":34000000000,"state":"active","ping":41},{"user_id":421,"name":"MongGoyo63","steam_id":76561198349540834,"connected_time":1183000000000,"state":"active","ping":78},{"user_id":418,"name":"CaptainBozo","steam_id":76561199151959977,"connected_time":1417000000000,"state":"active","ping":120},{"user_id":411,"name":"aeross","steam_id":76561198834445483,"connected_time":2381000000000,"state":"active","ping":67},{"user_id":419,"name":"In(e)","steam_id":76561198362097007,"connected_time":1363000000000,"state":"active","ping":66},{"user_id":420,"name":"qb","steam_id":76561198412329672,"connected_time":1207000000000,"state":"active","ping":97},{"user_id":399,"name":"Engineer Gaming","steam_id":76561199015521820,"connected_time":3257000000000,"state":"active","ping":93},{"user_id":400,"name":"NOPE","steam_id":76561199244543572,"connected_time":3246000000000,"state":"active","ping":69},{"user_id":406,"name":"Buttman","steam_id":76561198044693388,"connected_time":2931000000000,"state":"active","ping":53},{"user_id":409,"name":"doppo","steam_id":76561199157792825,"connected_time":2423000000000,"state":"active","ping":73}]},{"server_id":1,"name":"Uncletopia | Los Angeles | 1 | All Maps","name_short":"lax-1","host":"lax-1.us.uncletopia.com","port":27015,"enabled":true,"region":"us-west","cc":"us","latitude":33.94279,"longitude":-118.41004,"reserved":0,"last_update":"0001-01-01T00:00:00Z","name_a2s":"Uncletopia | Los Angeles | 1 | All Maps","protocol":17,"map":"cp_process_final","folder":"tf","game":"Team Fortress","app_id":440,"player_count":0,"max_players":24,"Bots":0,"server_type":"Dedicated","server_os":"Linux","password":true,"vac":true,"version":"7757534","steam_id":85568392924469991,"keywords":["cp","nocrits","nodmgspread","uncletopia"],"game_id":440,"stv_port":27016,"stv_name":"Uncletopia | Los Angeles | 1 | All Maps | STV","players":null},{"server_id":112,"name":"Uncletopia | Los Angeles | 2 | All Maps","name_short":"lax-2","host":"lax-1.us.uncletopia.com","port":27025,"enabled":true,"region":"us-west","cc":"us","latitude":33.94279,"longitude":-118.41004,"reserved":0,"last_update":"0001-01-01T00:00:00Z","name_a2s":"Uncletopia | Los Angeles | 2 | All Maps","protocol":17,"map":"koth_viaduct","folder":"tf","game":"Team Fortress","app_id":440,"player_count":0,"max_players":24,"Bots":0,"server_type":"Dedicated","server_os":"Linux","password":true,"vac":true,"version":"7757534","steam_id":85568392924469992,"keywords":["cp","nocrits","nodmgspread","uncletopia"],"game_id":440,"stv_port":27026,"stv_name":"Uncletopia | Los Angeles | 2 | All Maps | STV","players":null},{"server_id":324,"name":"Uncletopia | Los Angeles | 3 | All Maps","name_short":"lax-3","host":"lax-1.us.uncletopia.com","port":27035,"enabled":true,"region":"us-west","cc":"us","latitude":33.94279,"longitude":-118.41004,"reserved":0,"last_update":"0001-01-01T00:00:00Z","name_a2s":"Uncletopia | Los Angeles | 3 | All Maps","protocol":17,"map":"cp_altitude","folder":"tf","game":"Team Fortress","app_id":440,"player_count":0,"max_players":24,"Bots":0,"server_type":"Dedicated","server_os":"Linux","password":true,"vac":true,"version":"7757534","steam_id":85568392924510198,"keywords":["cp","nocrits","nodmgspread","uncletopia"],"game_id":440,"stv_port":27036,"stv_name":"Uncletopia | Los Angeles | 3 | All Maps | STV","players":null},{"server_id":25,"name":"Uncletopia | Los Angeles | 4 | Stopwatch Beta","name_short":"lax-4","host":"lax-1.us.uncletopia.com","port":27045,"enabled":true,"region":"us-west","cc":"us","latitude":33.94279,"longitude":-118.41004,"reserved":0,"last_update":"0001-01-01T00:00:00Z","name_a2s":"Uncletopia | Los Angeles | 4 | Stopwatch Beta","protocol":17,"map":"cp_dustbowl","folder":"tf","game":"Team Fortress","app_id":440,"player_count":0,"max_players":24,"Bots":0,"server_type":"Dedicated","server_os":"Linux","password":true,"vac":true,"version":"7757534","steam_id":85568392924510199,"keywords":["cp","nocrits","nodmgspread","uncletopia"],"game_id":440,"stv_port":27046,"stv_name":"Uncletopia | Los Angeles | 4 | Stopwatch Beta | STV","players":null},{"server_id":11,"name":"Uncletopia | London | 1 | All Maps","name_short":"lon-1","host":"lon-1.uk.uncletopia.com","port":27015,"enabled":true,"region":"eu","cc":"gb","latitude":51.509865,"longitude":-0.118092,"reserved":0,"last_update":"0001-01-01T00:00:00Z","name_a2s":"Uncletopia | London | 1 | All Maps","protocol":17,"map":"pl_upward","folder":"tf","game":"Team Fortress","app_id":440,"player_count":20,"max_players":24,"Bots":0,"server_type":"Dedicated","server_os":"Linux","password":true,"vac":true,"version":"7757534","steam_id":85568392924367362,"keywords":["nocrits","nodmgspread","payload","uncletopia"],"game_id":440,"stv_port":27016,"stv_name":"Uncletopia | London | 1 | All Maps | STV","players":[{"user_id":154,"name":"Joy","steam_id":76561198155314925,"connected_time":82000000000,"state":"active","ping":50},{"user_id":146,"name":"I AM DOT","steam_id":76561198354118090,"connected_time":1141000000000,"state":"active","ping":85},{"user_id":139,"name":"norespectforthedevil","steam_id":76561197998922218,"connected_time":2083000000000,"state":"active","ping":222},{"user_id":150,"name":"Mapavri","steam_id":76561198370196400,"connected_time":562000000000,"state":"active","ping":86},{"user_id":157,"name":"Circular","steam_id":76561198001536710,"connected_time":46000000000,"state":"active","ping":31},{"user_id":158,"name":"i drink your milkshake","steam_id":76561199062586342,"connected_time":13000000000,"state":"active","ping":59},{"user_id":133,"name":"Sorky","steam_id":76561198007502339,"connected_time":2624000000000,"state":"active","ping":68},{"user_id":145,"name":"Vezage","steam_id":76561198064916164,"connected_time":1758000000000,"state":"active","ping":62},{"user_id":152,"name":"alphawarrior999","steam_id":76561199001580062,"connected_time":159000000000,"state":"active","ping":138},{"user_id":134,"name":"limbicsystem","steam_id":76561198025612680,"connected_time":2490000000000,"state":"active","ping":43},{"user_id":149,"name":"SugipuLaur","steam_id":76561199138556623,"connected_time":704000000000,"state":"active","ping":74},{"user_id":155,"name":"BELADIT","steam_id":76561198011911501,"connected_time":65000000000,"state":"active","ping":74},{"user_id":108,"name":"Femboy with the wrong pronouns","steam_id":76561198072320671,"connected_time":4902000000000,"state":"active","ping":29},{"user_id":156,"name":"quickfast","steam_id":76561199438900919,"connected_time":65000000000,"state":"active","ping":32},{"user_id":119,"name":"Pancakes","steam_id":76561198196259989,"connected_time":3895000000000,"state":"active","ping":45},{"user_id":136,"name":"Fleu","steam_id":76561198387966202,"connected_time":2111000000000,"state":"active","ping":83},{"user_id":142,"name":"Lessoz","steam_id":76561199211572036,"connected_time":2049000000000,"state":"active","ping":90},{"user_id":120,"name":"Sunshine","steam_id":76561198885528098,"connected_time":3862000000000,"state":"active","ping":110},{"user_id":159,"name":"player","steam_id":76561198054474684,"connected_time":9000000000,"state":"active","ping":123},{"user_id":131,"name":"Kahvi","steam_id":76561198723244199,"connected_time":3011000000000,"state":"active","ping":79}]},{"server_id":114,"name":"Uncletopia | London | 2 | All Maps","name_short":"lon-2","host":"lon-1.uk.uncletopia.com","port":27025,"enabled":true,"region":"eu","cc":"gb","latitude":51.509865,"longitude":-0.118092,"reserved":0,"last_update":"0001-01-01T00:00:00Z","name_a2s":"Uncletopia | London | 2 | All Maps","protocol":17,"map":"cp_dustbowl","folder":"tf","game":"Team Fortress","app_id":440,"player_count":0,"max_players":24,"Bots":0,"server_type":"Dedicated","server_os":"Linux","password":true,"vac":true,"version":"7757534","steam_id":85568392924470941,"keywords":["cp","nocrits","nodmgspread","uncletopia"],"game_id":440,"stv_port":27026,"stv_name":"Uncletopia | London | 2 | All Maps | STV","players":null},{"server_id":320,"name":"Uncletopia | London | 3 | All Maps","name_short":"lon-3","host":"lon-1.uk.uncletopia.com","port":27035,"enabled":true,"region":"eu","cc":"gb","latitude":51.509865,"longitude":-0.118092,"reserved":0,"last_update":"0001-01-01T00:00:00Z","name_a2s":"Uncletopia | London | 3 | All Maps","protocol":17,"map":"plr_nightfall_final","folder":"tf","game":"Team Fortress","app_id":440,"player_count":24,"max_players":24,"Bots":0,"server_type":"Dedicated","server_os":"Linux","password":true,"vac":true,"version":"7757534","steam_id":85568392924510192,"keywords":["nocrits","nodmgspread","payload","uncletopia"],"game_id":440,"stv_port":27036,"stv_name":"Uncletopia | London | 3 | All Maps | STV","players":[{"user_id":415,"name":"Rowan Atkinson","steam_id":76561199378865926,"connected_time":4722000000000,"state":"active","ping":79},{"user_id":467,"name":"Zonts","steam_id":76561198850176432,"connected_time":1591000000000,"state":"active","ping":75},{"user_id":422,"name":"The pusheen cat","steam_id":76561199002462516,"connected_time":4433000000000,"state":"active","ping":89},{"user_id":468,"name":"silicon based life form","steam_id":76561199127121346,"connected_time":1456000000000,"state":"active","ping":54},{"user_id":469,"name":"Zogg","steam_id":76561198352683491,"connected_time":1408000000000,"state":"active","ping":37},{"user_id":462,"name":"Topia","steam_id":76561198163571788,"connected_time":2008000000000,"state":"active","ping":92},{"user_id":414,"name":"CarBombEnthusiast","steam_id":76561199448185434,"connected_time":4771000000000,"state":"active","ping":70},{"user_id":493,"name":"X-tis","steam_id":76561198043837480,"connected_time":48000000000,"state":"active","ping":69},{"user_id":416,"name":"phat beatsies man","steam_id":76561198253705128,"connected_time":4639000000000,"state":"active","ping":68},{"user_id":417,"name":"Lobster Overlord","steam_id":76561198144692530,"connected_time":4638000000000,"state":"active","ping":51},{"user_id":485,"name":"Wir suchen dich!","steam_id":76561198307613521,"connected_time":507000000000,"state":"active","ping":59},{"user_id":494,"name":"Papillon","steam_id":76561199447243275,"connected_time":42000000000,"state":"active","ping":56},{"user_id":453,"name":"Solarium","steam_id":76561198083941858,"connected_time":2820000000000,"state":"active","ping":42},{"user_id":489,"name":"|₮¢Ø| zec","steam_id":76561198883590923,"connected_time":162000000000,"state":"active","ping":95},{"user_id":476,"name":"godmodule","steam_id":76561198165995444,"connected_time":1099000000000,"state":"active","ping":75},{"user_id":425,"name":"garry","steam_id":76561199142563418,"connected_time":4360000000000,"state":"active","ping":97},{"user_id":490,"name":"shadow the hedgehog gaming","steam_id":76561199072186739,"connected_time":151000000000,"state":"active","ping":61},{"user_id":439,"name":"♥ TRANS RIGHTS ♥","steam_id":76561198066258544,"connected_time":3486000000000,"state":"active","ping":61},{"user_id":449,"name":"hjalmar","steam_id":76561198218514792,"connected_time":3199000000000,"state":"active","ping":65},{"user_id":491,"name":"PetRUShka","steam_id":76561198168657748,"connected_time":150000000000,"state":"active","ping":90},{"user_id":480,"name":"arty","steam_id":76561198007971021,"connected_time":913000000000,"state":"active","ping":53},{"user_id":460,"name":"KLDJVHZJVHBALKDJHG","steam_id":76561198827624126,"connected_time":2391000000000,"state":"active","ping":83},{"user_id":486,"name":"Talen","steam_id":76561198058645995,"connected_time":413000000000,"state":"active","ping":103},{"user_id":483,"name":"Dementus The Duck","steam_id":76561198076600232,"connected_time":726000000000,"state":"active","ping":51}]},{"server_id":321,"name":"Uncletopia | London | 4 | All Maps","name_short":"lon-4","host":"lon-1.uk.uncletopia.com","port":27045,"enabled":true,"region":"eu","cc":"gb","latitude":51.509865,"longitude":-0.118092,"reserved":0,"last_update":"0001-01-01T00:00:00Z","name_a2s":"Uncletopia | London | 4 | All Maps","protocol":17,"map":"pl_barnblitz","folder":"tf","game":"Team Fortress","app_id":440,"player_count":0,"max_players":24,"Bots":0,"server_type":"Dedicated","server_os":"Linux","password":true,"vac":true,"version":"7757534","steam_id":85568392924510193,"keywords":["nocrits","nodmgspread","payload","uncletopia"],"game_id":440,"stv_port":27046,"stv_name":"Uncletopia | London | 4 | All Maps | STV","players":null},{"server_id":21,"name":"Uncletopia | London | 5 | All Maps","name_short":"lon-5","host":"lon-1.uk.uncletopia.com","port":27055,"enabled":true,"region":"eu","cc":"gb","latitude":51.509865,"longitude":-0.118092,"reserved":0,"last_update":"0001-01-01T00:00:00Z","name_a2s":"Uncletopia | London | 5 | All Maps","protocol":17,"map":"pl_pier","folder":"tf","game":"Team Fortress","app_id":440,"player_count":0,"max_players":24,"Bots":0,"server_type":"Dedicated","server_os":"Linux","password":true,"vac":true,"version":"7757534","steam_id":85568392924742829,"keywords":["nocrits","nodmgspread","payload","uncletopia"],"game_id":440,"stv_port":27056,"stv_name":"Uncletopia | London | 5 | All Maps | STV","players":null},{"server_id":22,"name":"Uncletopia | London | 6 | All Maps","name_short":"lon-6","host":"lon-1.uk.uncletopia.com","port":27065,"enabled":true,"region":"eu","cc":"gb","latitude":51.509865,"longitude":-0.118092,"reserved":0,"last_update":"0001-01-01T00:00:00Z","name_a2s":"Uncletopia | London | 6 | All Maps","protocol":17,"map":"pl_pier","folder":"tf","game":"Team Fortress","app_id":440,"player_count":0,"max_players":24,"Bots":0,"server_type":"Dedicated","server_os":"Linux","password":true,"vac":true,"version":"7757534","steam_id":85568392924742830,"keywords":["nocrits","nodmgspread","payload","uncletopia"],"game_id":440,"stv_port":27066,"stv_name":"Uncletopia | London | 6 | All Maps | STV","players":null},{"server_id":40,"name":"Uncletopia | London | 7 | No Payload","name_short":"lon-7","host":"lon-1.uk.uncletopia.com","port":27075,"enabled":true,"region":"eu","cc":"gb","latitude":51.509865,"longitude":-0.118092,"reserved":0,"last_update":"0001-01-01T00:00:00Z","name_a2s":"Uncletopia | London | 7 | No Payload","protocol":17,"map":"cp_egypt_final","folder":"tf","game":"Team Fortress","app_id":440,"player_count":21,"max_players":24,"Bots":0,"server_type":"Dedicated","server_os":"Linux","password":true,"vac":true,"version":"7757534","steam_id":85568392924964314,"keywords":["cp","nocrits","nodmgspread","uncletopia"],"game_id":440,"stv_port":27076,"stv_name":"Uncletopia | London | 7 | No Payload | STV","players":[{"user_id":299,"name":"big dawg","steam_id":76561198089405969,"connected_time":1161000000000,"state":"active","ping":46},{"user_id":310,"name":"Andebil","steam_id":76561198131829815,"connected_time":467000000000,"state":"active","ping":79},{"user_id":284,"name":"king251311","steam_id":76561199063310889,"connected_time":1921000000000,"state":"active","ping":87},{"user_id":143,"name":"yyny","steam_id":76561198066287297,"connected_time":8794000000000,"state":"active","ping":41},{"user_id":288,"name":"KAKTyC","steam_id":76561198019296536,"connected_time":1721000000000,"state":"active","ping":97},{"user_id":317,"name":"☭ybercat","steam_id":76561198014070417,"connected_time":204000000000,"state":"active","ping":64},{"user_id":313,"name":"ViktorYoshi","steam_id":76561199157555246,"connected_time":430000000000,"state":"active","ping":59},{"user_id":314,"name":"fire","steam_id":76561198063674613,"connected_time":399000000000,"state":"active","ping":47},{"user_id":287,"name":"It's a me Malario","steam_id":76561198176546013,"connected_time":1762000000000,"state":"active","ping":47},{"user_id":315,"name":"BoPoe","steam_id":76561198093333882,"connected_time":330000000000,"state":"active","ping":95},{"user_id":303,"name":"George","steam_id":76561198020046873,"connected_time":840000000000,"state":"active","ping":150},{"user_id":316,"name":"ThatTFguy","steam_id":76561198056794321,"connected_time":326000000000,"state":"active","ping":63},{"user_id":294,"name":"leonardini.w #SaveTF2","steam_id":76561199097963071,"connected_time":1562000000000,"state":"active","ping":91},{"user_id":237,"name":"Egor Pomidor","steam_id":76561199175688390,"connected_time":4325000000000,"state":"active","ping":77},{"user_id":191,"name":"Fat Pigeon","steam_id":76561198817940142,"connected_time":6717000000000,"state":"active","ping":46},{"user_id":295,"name":"Pirate Robot","steam_id":76561197985583708,"connected_time":1551000000000,"state":"active","ping":58},{"user_id":319,"name":"The Irish Eejit","steam_id":76561198027738057,"connected_time":122000000000,"state":"active","ping":61},{"user_id":322,"name":"Lordware","steam_id":76561198022011299,"connected_time":84000000000,"state":"active","ping":82},{"user_id":320,"name":"Slazaa","steam_id":76561197993252446,"connected_time":99000000000,"state":"active","ping":48},{"user_id":308,"name":"just installed dbd","steam_id":76561199467229208,"connected_time":641000000000,"state":"active","ping":57},{"user_id":321,"name":"I.C. Wiener","steam_id":76561197999912254,"connected_time":92000000000,"state":"active","ping":91}]},{"server_id":41,"name":"Uncletopia | London | 8 | Community","name_short":"lon-8","host":"lon-1.uk.uncletopia.com","port":27085,"enabled":true,"region":"eu","cc":"gb","latitude":51.509865,"longitude":-0.118092,"reserved":0,"last_update":"0001-01-01T00:00:00Z","name_a2s":"Uncletopia | London | 8 | Community","protocol":17,"map":"workshop/cp_mannbase_rc2a.ugc1900737467","folder":"tf","game":"Team Fortress","app_id":440,"player_count":23,"max_players":24,"Bots":0,"server_type":"Dedicated","server_os":"Linux","password":true,"vac":true,"version":"7757534","steam_id":85568392924964315,"keywords":["cp","nocrits","nodmgspread","uncletopia"],"game_id":440,"stv_port":27086,"stv_name":"Uncletopia | London | 8 | Community | STV","players":[{"user_id":132,"name":"Michael","steam_id":76561198003146906,"connected_time":108000000000,"state":"active","ping":45},{"user_id":73,"name":"Flare","steam_id":76561198039098320,"connected_time":4837000000000,"state":"active","ping":54},{"user_id":106,"name":"Kan0_","steam_id":76561198129596771,"connected_time":2183000000000,"state":"active","ping":64},{"user_id":126,"name":"Jakk","steam_id":76561198041537908,"connected_time":419000000000,"state":"active","ping":66},{"user_id":118,"name":"MightyOwl","steam_id":76561198307430056,"connected_time":1091000000000,"state":"active","ping":75},{"user_id":121,"name":"noah100627","steam_id":76561199186549851,"connected_time":933000000000,"state":"active","ping":71},{"user_id":97,"name":"Spaenny","steam_id":76561198035850165,"connected_time":3731000000000,"state":"active","ping":71},{"user_id":103,"name":"rat performance","steam_id":76561198065854668,"connected_time":2603000000000,"state":"active","ping":45},{"user_id":53,"name":"Wyro","steam_id":76561199176835169,"connected_time":6183000000000,"state":"active","ping":51},{"user_id":133,"name":"hide on bush","steam_id":76561198149967445,"connected_time":89000000000,"state":"active","ping":43},{"user_id":114,"name":"Amon Gus","steam_id":76561199094540960,"connected_time":1437000000000,"state":"active","ping":72},{"user_id":77,"name":"God's Goofiest Goober","steam_id":76561198103175187,"connected_time":4728000000000,"state":"active","ping":68},{"user_id":129,"name":"Masquerade queen","steam_id":76561198218299273,"connected_time":292000000000,"state":"active","ping":95},{"user_id":127,"name":"wicked","steam_id":76561198164376035,"connected_time":366000000000,"state":"active","ping":76},{"user_id":134,"name":"MeKaRkAn","steam_id":76561198123824965,"connected_time":78000000000,"state":"active","ping":74},{"user_id":116,"name":"Chris","steam_id":76561198018626828,"connected_time":1290000000000,"state":"active","ping":51},{"user_id":124,"name":"Dolcelatte","steam_id":76561198038501770,"connected_time":551000000000,"state":"active","ping":62},{"user_id":69,"name":"2ka","steam_id":76561198343747394,"connected_time":4960000000000,"state":"active","ping":73},{"user_id":125,"name":"\u003eSix in swedish + y","steam_id":76561198372971096,"connected_time":534000000000,"state":"active","ping":78},{"user_id":72,"name":"GuSkand","steam_id":76561198043775605,"connected_time":4874000000000,"state":"active","ping":87},{"user_id":89,"name":"iSnack","steam_id":76561198001268659,"connected_time":4246000000000,"state":"active","ping":83},{"user_id":120,"name":"tired","steam_id":76561198046838168,"connected_time":965000000000,"state":"active","ping":60},{"user_id":104,"name":"KAZAM | Tervez","steam_id":76561198045459068,"connected_time":2519000000000,"state":"active","ping":89}]},{"server_id":300,"name":"Uncletopia | Montréal | 1 | All Maps","name_short":"mtl-1","host":"mtl-1.ca.uncletopia.com","port":27015,"enabled":true,"region":"us-east","cc":"ca","latitude":45.50889,"longitude":-73.56167,"reserved":0,"last_update":"0001-01-01T00:00:00Z","name_a2s":"Uncletopia | Montréal | 1 | All Maps","protocol":17,"map":"pl_pier","folder":"tf","game":"Team Fortress","app_id":440,"player_count":0,"max_players":24,"Bots":0,"server_type":"Dedicated","server_os":"Linux","password":true,"vac":true,"version":"7757534","steam_id":85568392924500087,"keywords":["nocrits","nodmgspread","payload","uncletopia"],"game_id":440,"stv_port":27016,"stv_name":"Uncletopia | Montréal | 1 | All Maps | STV","players":null},{"server_id":301,"name":"Uncletopia | Montréal | 2 | All Maps","name_short":"mtl-2","host":"mtl-1.ca.uncletopia.com","port":27025,"enabled":true,"region":"us-east","cc":"ca","latitude":45.50889,"longitude":-73.56167,"reserved":0,"last_update":"0001-01-01T00:00:00Z","name_a2s":"Uncletopia | Montréal | 2 | All Maps","protocol":17,"map":"cp_sunshine","folder":"tf","game":"Team Fortress","app_id":440,"player_count":0,"max_players":24,"Bots":0,"server_type":"Dedicated","server_os":"Linux","password":true,"vac":true,"version":"7757534","steam_id":85568392924500088,"keywords":["cp","nocrits","nodmgspread","uncletopia"],"game_id":440,"stv_port":27026,"stv_name":"Uncletopia | Montréal | 2 | All Maps | STV","players":null},{"server_id":302,"name":"Uncletopia | Montréal | 3 | All Maps","name_short":"mtl-3","host":"mtl-1.ca.uncletopia.com","port":27035,"enabled":true,"region":"us-east","cc":"ca","latitude":45.50889,"longitude":-73.56167,"reserved":0,"last_update":"0001-01-01T00:00:00Z","name_a2s":"Uncletopia | Montréal | 3 | All Maps","protocol":17,"map":"pl_frontier_final","folder":"tf","game":"Team Fortress","app_id":440,"player_count":0,"max_players":24,"Bots":0,"server_type":"Dedicated","server_os":"Linux","password":true,"vac":true,"version":"7757534","steam_id":85568392924500089,"keywords":["nocrits","nodmgspread","payload","uncletopia"],"game_id":440,"stv_port":27036,"stv_name":"Uncletopia | Montréal | 3 | All Maps | STV","players":null},{"server_id":303,"name":"Uncletopia | Montréal | 4 | No Payload","name_short":"mtl-4","host":"mtl-1.ca.uncletopia.com","port":27045,"enabled":true,"region":"us-east","cc":"ca","latitude":45.50889,"longitude":-73.56167,"reserved":0,"last_update":"0001-01-01T00:00:00Z","name_a2s":"Uncletopia | Montréal | 4 | No Payload","protocol":17,"map":"pl_pier","folder":"tf","game":"Team Fortress","app_id":440,"player_count":0,"max_players":24,"Bots":0,"server_type":"Dedicated","server_os":"Linux","password":true,"vac":true,"version":"7757534","steam_id":85568392924500090,"keywords":["nocrits","nodmgspread","payload","uncletopia"],"game_id":440,"stv_port":27046,"stv_name":"Uncletopia | Montréal | 4 | No Payload | STV","players":null},{"server_id":13,"name":"Uncletopia | New York City | 1 | All Maps","name_short":"nyc-1","host":"nyc-1.us.uncletopia.com","port":27015,"enabled":true,"region":"us-east","cc":"us","latitude":40.73061,"longitude":-73.93524,"reserved":0,"last_update":"0001-01-01T00:00:00Z","name_a2s":"Uncletopia | New York City | 1 | All Maps","protocol":17,"map":"koth_nucleus","folder":"tf","game":"Team Fortress","app_id":440,"player_count":24,"max_players":24,"Bots":0,"server_type":"Dedicated","server_os":"Linux","password":true,"vac":true,"version":"7757534","steam_id":85568392924469993,"keywords":["cp","nocrits","nodmgspread","uncletopia"],"game_id":440,"stv_port":27016,"stv_name":"Uncletopia | New York City | 1 | All Maps | STV","players":[{"user_id":11,"name":"gish","steam_id":76561199229526302,"connected_time":1643000000000,"state":"active","ping":30},{"user_id":17,"name":"Gibby","steam_id":76561199336569123,"connected_time":981000000000,"state":"active","ping":117},{"user_id":9,"name":"Bootes","steam_id":76561197968255551,"connected_time":1765000000000,"state":"active","ping":48},{"user_id":10,"name":"CGamer6155","steam_id":76561199440141596,"connected_time":1700000000000,"state":"active","ping":73},{"user_id":8,"name":"AlexLovesYou","steam_id":76561199163263543,"connected_time":1862000000000,"state":"active","ping":88},{"user_id":12,"name":"IMadeLotsaSpaghetti","steam_id":76561199097070212,"connected_time":1384000000000,"state":"active","ping":44},{"user_id":13,"name":"Ventastega","steam_id":76561197999366317,"connected_time":1197000000000,"state":"active","ping":100},{"user_id":36,"name":"SketchyEtchaSketch","steam_id":76561198143747486,"connected_time":534000000000,"state":"active","ping":106},{"user_id":27,"name":"igbygames","steam_id":76561199169224041,"connected_time":838000000000,"state":"active","ping":81},{"user_id":16,"name":"Leaf ♥","steam_id":76561198348965524,"connected_time":1025000000000,"state":"active","ping":60},{"user_id":37,"name":"ArrowOmega","steam_id":76561198079364917,"connected_time":409000000000,"state":"active","ping":45},{"user_id":38,"name":"Dr. Enforcicle (real)","steam_id":76561198964471859,"connected_time":247000000000,"state":"active","ping":60},{"user_id":20,"name":"carrot cake","steam_id":76561198055174915,"connected_time":931000000000,"state":"active","ping":71},{"user_id":21,"name":"Redninka","steam_id":76561198426721366,"connected_time":924000000000,"state":"active","ping":60},{"user_id":30,"name":"SYO123","steam_id":76561199232734452,"connected_time":795000000000,"state":"active","ping":126},{"user_id":29,"name":"Portal2Player","steam_id":76561198062870114,"connected_time":822000000000,"state":"active","ping":59},{"user_id":24,"name":"Gustavo_Banana","steam_id":76561198387866587,"connected_time":877000000000,"state":"active","ping":169},{"user_id":26,"name":"Kirb","steam_id":76561199013380960,"connected_time":862000000000,"state":"active","ping":77},{"user_id":28,"name":"Thebestsock","steam_id":76561198819141894,"connected_time":833000000000,"state":"active","ping":92},{"user_id":31,"name":"Kohbold","steam_id":76561198996480140,"connected_time":773000000000,"state":"active","ping":112},{"user_id":32,"name":"Amish Robot","steam_id":76561198041156065,"connected_time":708000000000,"state":"active","ping":93},{"user_id":33,"name":"JacripspyVulcano","steam_id":76561198966980576,"connected_time":669000000000,"state":"active","ping":40},{"user_id":39,"name":"HYPERBOREAN SPACE STONERS","steam_id":76561198158206236,"connected_time":239000000000,"state":"active","ping":119},{"user_id":40,"name":"Midlife Crisis Jotaro","steam_id":76561199023562280,"connected_time":67000000000,"state":"active","ping":60}]},{"server_id":14,"name":"Uncletopia | New York City | 2 | All Maps","name_short":"nyc-2","host":"nyc-1.us.uncletopia.com","port":27025,"enabled":true,"region":"us-east","cc":"us","latitude":40.73061,"longitude":-73.93524,"reserved":0,"last_update":"0001-01-01T00:00:00Z","name_a2s":"Uncletopia | New York City | 2 | All Maps","protocol":17,"map":"cp_dustbowl","folder":"tf","game":"Team Fortress","app_id":440,"player_count":0,"max_players":24,"Bots":0,"server_type":"Dedicated","server_os":"Linux","password":true,"vac":true,"version":"7757534","steam_id":85568392924469994,"keywords":["cp","nocrits","nodmgspread","uncletopia"],"game_id":440,"stv_port":27026,"stv_name":"Uncletopia | New York City | 2 | All Maps | STV","players":null},{"server_id":15,"name":"Uncletopia | New York City | 3 | Stopwatch Beta","name_short":"nyc-3","host":"nyc-1.us.uncletopia.com","port":27035,"enabled":true,"region":"us-east","cc":"us","latitude":40.73061,"longitude":-73.93524,"reserved":0,"last_update":"0001-01-01T00:00:00Z","name_a2s":"Uncletopia | New York City | 3 | Stopwatch Beta","protocol":17,"map":"koth_cascade","folder":"tf","game":"Team Fortress","app_id":440,"player_count":0,"max_players":24,"Bots":0,"server_type":"Dedicated","server_os":"Linux","password":true,"vac":true,"version":"7757534","steam_id":85568392924742820,"keywords":["cp","nocrits","nodmgspread","uncletopia"],"game_id":440,"stv_port":27036,"stv_name":"Uncletopia | New York City | 3 | Stopwatch Beta | STV","players":null},{"server_id":16,"name":"Uncletopia | New York City | 4 | Community","name_short":"nyc-4","host":"nyc-1.us.uncletopia.com","port":27045,"enabled":true,"region":"us-east","cc":"us","latitude":40.73061,"longitude":-73.93524,"reserved":0,"last_update":"0001-01-01T00:00:00Z","name_a2s":"Uncletopia | New York City | 4 | Community","protocol":17,"map":"pl_frontier_final","folder":"tf","game":"Team Fortress","app_id":440,"player_count":0,"max_players":24,"Bots":0,"server_type":"Dedicated","server_os":"Linux","password":true,"vac":true,"version":"7757534","steam_id":85568392924742821,"keywords":["nocrits","nodmgspread","payload","uncletopia"],"game_id":440,"stv_port":27046,"stv_name":"Uncletopia | New York City | 4 | Community | STV","players":null},{"server_id":142,"name":"Uncletopia | São Paulo | 1 | All Maps","name_short":"sao-1","host":"sao-1.br.uncletopia.com","port":27015,"enabled":true,"region":"sa","cc":"br","latitude":-23.533773,"longitude":-46.62529,"reserved":0,"last_update":"0001-01-01T00:00:00Z","name_a2s":"Uncletopia | São Paulo | 1 | All Maps","protocol":17,"map":"koth_highpass","folder":"tf","game":"Team Fortress","app_id":440,"player_count":0,"max_players":24,"Bots":0,"server_type":"Dedicated","server_os":"Linux","password":true,"vac":true,"version":"7757534","steam_id":85568392924469996,"keywords":["cp","nocrits","nodmgspread","uncletopia"],"game_id":440,"stv_port":27016,"stv_name":"Uncletopia | São Paulo | 1 | All Maps | STV","players":null},{"server_id":143,"name":"Uncletopia | São Paulo | 2 | All Maps","name_short":"sao-2","host":"sao-2.br.uncletopia.com","port":27015,"enabled":true,"region":"sa","cc":"br","latitude":-23.533773,"longitude":-46.62529,"reserved":0,"last_update":"0001-01-01T00:00:00Z","name_a2s":"Uncletopia | São Paulo | 2 | All Maps","protocol":17,"map":"koth_viaduct","folder":"tf","game":"Team Fortress","app_id":440,"player_count":0,"max_players":24,"Bots":0,"server_type":"Dedicated","server_os":"Linux","password":true,"vac":true,"version":"7757534","steam_id":85568392924485349,"keywords":["cp","nocrits","nodmgspread","uncletopia"],"game_id":440,"stv_port":27016,"stv_name":"Uncletopia | São Paulo | 2 | All Maps | STV","players":null},{"server_id":7,"name":"Uncletopia | Seattle | 1 | All Maps","name_short":"sea-1","host":"sea-1.us.uncletopia.com","port":27015,"enabled":true,"region":"us-west","cc":"us","latitude":47.608013,"longitude":-122.33517,"reserved":0,"last_update":"0001-01-01T00:00:00Z","name_a2s":"Uncletopia | Seattle | 1 | All Maps","protocol":17,"map":"cp_well","folder":"tf","game":"Team Fortress","app_id":440,"player_count":8,"max_players":24,"Bots":0,"server_type":"Dedicated","server_os":"Linux","password":true,"vac":true,"version":"7757534","steam_id":85568392924469997,"keywords":["cp","nocrits","nodmgspread","uncletopia"],"game_id":440,"stv_port":27016,"stv_name":"Uncletopia | Seattle | 1 | All Maps | STV","players":[{"user_id":44,"name":"TrueDragonNoodle","steam_id":76561198041908961,"connected_time":89000000000,"state":"active","ping":45},{"user_id":5,"name":"tacofever","steam_id":76561198010966507,"connected_time":1735000000000,"state":"active","ping":79},{"user_id":35,"name":"Almanach","steam_id":76561199067151212,"connected_time":1087000000000,"state":"active","ping":131},{"user_id":38,"name":"Mineboi98","steam_id":76561199076830259,"connected_time":864000000000,"state":"active","ping":131},{"user_id":33,"name":"The Big Iron","steam_id":76561198117276391,"connected_time":1189000000000,"state":"spawning","ping":95},{"user_id":19,"name":"JR","steam_id":76561199013221822,"connected_time":1580000000000,"state":"active","ping":175},{"user_id":32,"name":"tetriscat","steam_id":76561198065475924,"connected_time":1198000000000,"state":"active","ping":120},{"user_id":34,"name":"TheGreatDong","steam_id":76561198000634178,"connected_time":1179000000000,"state":"active","ping":60}]},{"server_id":119,"name":"Uncletopia | Seattle | 2 | All Maps","name_short":"sea-2","host":"sea-1.us.uncletopia.com","port":27025,"enabled":true,"region":"us-west","cc":"us","latitude":47.608013,"longitude":-122.33517,"reserved":0,"last_update":"0001-01-01T00:00:00Z","name_a2s":"Uncletopia | Seattle | 2 | All Maps","protocol":17,"map":"pl_barnblitz","folder":"tf","game":"Team Fortress","app_id":440,"player_count":0,"max_players":24,"Bots":0,"server_type":"Dedicated","server_os":"Linux","password":true,"vac":true,"version":"7757534","steam_id":85568392924469998,"keywords":["nocrits","nodmgspread","payload","uncletopia"],"game_id":440,"stv_port":27026,"stv_name":"Uncletopia | Seattle | 2 | All Maps | STV","players":null},{"server_id":406,"name":"Uncletopia | Seattle | 3 | Stopwatch Beta","name_short":"sea-3","host":"sea-1.us.uncletopia.com","port":27035,"enabled":true,"region":"us-west","cc":"us","latitude":47.608013,"longitude":-122.33517,"reserved":0,"last_update":"0001-01-01T00:00:00Z","name_a2s":"Uncletopia | Seattle | 3 | Stopwatch Beta","protocol":17,"map":"cp_process_final","folder":"tf","game":"Team Fortress","app_id":440,"player_count":0,"max_players":24,"Bots":0,"server_type":"Dedicated","server_os":"Linux","password":true,"vac":true,"version":"7757534","steam_id":85568392924515217,"keywords":["cp","nocrits","nodmgspread","uncletopia"],"game_id":440,"stv_port":27036,"stv_name":"Uncletopia | Seattle | 3 | Stopwatch Beta | STV","players":null},{"server_id":17,"name":"Uncletopia | San Francisco | 1 | All Maps","name_short":"sfo-1","host":"sfo-1.us.uncletopia.com","port":27015,"enabled":true,"region":"us-west","cc":"us","latitude":37.77397,"longitude":-122.4313,"reserved":0,"last_update":"0001-01-01T00:00:00Z","name_a2s":"Uncletopia | San Francisco | 1 | All Maps","protocol":17,"map":"pl_badwater","folder":"tf","game":"Team Fortress","app_id":440,"player_count":0,"max_players":24,"Bots":0,"server_type":"Dedicated","server_os":"Linux","password":true,"vac":true,"version":"7757534","steam_id":85568392924469999,"keywords":["nocrits","nodmgspread","payload","uncletopia"],"game_id":440,"stv_port":27016,"stv_name":"Uncletopia | San Francisco | 1 | All Maps | STV","players":null},{"server_id":18,"name":"Uncletopia | San Francisco | 2 | All Maps","name_short":"sfo-2","host":"sfo-1.us.uncletopia.com","port":27025,"enabled":true,"region":"us-west","cc":"us","latitude":37.77397,"longitude":-122.4313,"reserved":0,"last_update":"0001-01-01T00:00:00Z","name_a2s":"Uncletopia | San Francisco | 2 | All Maps","protocol":17,"map":"koth_viaduct","folder":"tf","game":"Team Fortress","app_id":440,"player_count":0,"max_players":24,"Bots":0,"server_type":"Dedicated","server_os":"Linux","password":true,"vac":true,"version":"7757534","steam_id":85568392924470000,"keywords":["cp","nocrits","nodmgspread","uncletopia"],"game_id":440,"stv_port":27026,"stv_name":"Uncletopia | San Francisco | 2 | All Maps | STV","players":null},{"server_id":19,"name":"Uncletopia | San Francisco | 3 | Stopwatch Beta","name_short":"sfo-3","host":"sfo-1.us.uncletopia.com","port":27035,"enabled":true,"region":"us-west","cc":"us","latitude":37.77397,"longitude":-122.4313,"reserved":0,"last_update":"0001-01-01T00:00:00Z","name_a2s":"Uncletopia | San Francisco | 3 | Stopwatch Beta","protocol":17,"map":"cp_snakewater_final1","folder":"tf","game":"Team Fortress","app_id":440,"player_count":0,"max_players":24,"Bots":0,"server_type":"Dedicated","server_os":"Linux","password":true,"vac":true,"version":"7757534","steam_id":85568392924742824,"keywords":["cp","nocrits","nodmgspread","uncletopia"],"game_id":440,"stv_port":27036,"stv_name":"Uncletopia | San Francisco | 3 | Stopwatch Beta | STV","players":null},{"server_id":20,"name":"Uncletopia | San Francisco | 4 | Community","name_short":"sfo-4","host":"sfo-1.us.uncletopia.com","port":27045,"enabled":true,"region":"us-west","cc":"us","latitude":37.77397,"longitude":-122.4313,"reserved":0,"last_update":"0001-01-01T00:00:00Z","name_a2s":"Uncletopia | San Francisco | 4 | Community","protocol":17,"map":"pl_frontier_final","folder":"tf","game":"Team Fortress","app_id":440,"player_count":0,"max_players":24,"Bots":0,"server_type":"Dedicated","server_os":"Linux","password":true,"vac":true,"version":"7757534","steam_id":85568392924742826,"keywords":["nocrits","nodmgspread","payload","uncletopia"],"game_id":440,"stv_port":27046,"stv_name":"Uncletopia | San Francisco | 4 | Community | STV","players":null},{"server_id":141,"name":"Uncletopia | Sydney | 1 | All Maps","name_short":"syd-1","host":"syd-1.au.uncletopia.com","port":27015,"enabled":true,"region":"au","cc":"au","latitude":-33.865143,"longitude":151.2099,"reserved":0,"last_update":"0001-01-01T00:00:00Z","name_a2s":"Uncletopia | Sydney | 1 | All Maps","protocol":17,"map":"koth_viaduct","folder":"tf","game":"Team Fortress","app_id":440,"player_count":0,"max_players":24,"Bots":0,"server_type":"Dedicated","server_os":"Linux","password":true,"vac":true,"version":"7757534","steam_id":85568392924470001,"keywords":["cp","nocrits","nodmgspread","uncletopia"],"game_id":440,"stv_port":27016,"stv_name":"Uncletopia | Sydney | 1 | All Maps | STV","players":null},{"server_id":123,"name":"Uncletopia | Sydney | 2 | All Maps","name_short":"syd-2","host":"syd-1.au.uncletopia.com","port":27025,"enabled":true,"region":"au","cc":"au","latitude":-33.865143,"longitude":151.2099,"reserved":0,"last_update":"0001-01-01T00:00:00Z","name_a2s":"Uncletopia | Sydney | 2 | All Maps","protocol":17,"map":"pl_upward","folder":"tf","game":"Team Fortress","app_id":440,"player_count":20,"max_players":24,"Bots":0,"server_type":"Dedicated","server_os":"Linux","password":true,"vac":true,"version":"7757534","steam_id":85568392924470002,"keywords":["nocrits","nodmgspread","payload","uncletopia"],"game_id":440,"stv_port":27026,"stv_name":"Uncletopia | Sydney | 2 | All Maps | STV","players":[{"user_id":355,"name":"soupy","steam_id":76561198073734936,"connected_time":1226000000000,"state":"active","ping":89},{"user_id":370,"name":"Foxtonnes","steam_id":76561198007628373,"connected_time":186000000000,"state":"active","ping":52},{"user_id":309,"name":"Branko","steam_id":76561199262196710,"connected_time":3444000000000,"state":"active","ping":33},{"user_id":371,"name":"FrOStY","steam_id":76561198088155805,"connected_time":156000000000,"state":"active","ping":79},{"user_id":312,"name":"Whyyan","steam_id":76561198123825900,"connected_time":3124000000000,"state":"active","ping":55},{"user_id":337,"name":"cretin","steam_id":76561198127848228,"connected_time":1955000000000,"state":"active","ping":60},{"user_id":372,"name":"Grandmaster Kovic","steam_id":76561198056080799,"connected_time":131000000000,"state":"active","ping":180},{"user_id":373,"name":"Doctor Estonia","steam_id":76561198057365089,"connected_time":121000000000,"state":"active","ping":96},{"user_id":374,"name":"wombraidre","steam_id":76561199375834537,"connected_time":33000000000,"state":"spawning","ping":148},{"user_id":302,"name":"Canyon","steam_id":76561198233329500,"connected_time":4011000000000,"state":"active","ping":73},{"user_id":292,"name":"Corrupt","steam_id":76561198008567328,"connected_time":4498000000000,"state":"active","ping":109},{"user_id":340,"name":"Thanos Sheep","steam_id":76561199191990629,"connected_time":1798000000000,"state":"active","ping":74},{"user_id":298,"name":"Creamy Potato","steam_id":76561198132823728,"connected_time":4166000000000,"state":"active","ping":108},{"user_id":299,"name":"Loony","steam_id":76561198973184156,"connected_time":4151000000000,"state":"active","ping":115},{"user_id":359,"name":"Rags","steam_id":76561198179481430,"connected_time":931000000000,"state":"active","ping":101},{"user_id":343,"name":"Assasin43","steam_id":76561198067678083,"connected_time":1744000000000,"state":"active","ping":96},{"user_id":350,"name":"Scruffest","steam_id":76561198249785760,"connected_time":1618000000000,"state":"active","ping":120},{"user_id":367,"name":"Cafe","steam_id":76561198061587693,"connected_time":508000000000,"state":"active","ping":102},{"user_id":352,"name":"Benito Mussolini","steam_id":76561198280925326,"connected_time":1518000000000,"state":"active","ping":40},{"user_id":354,"name":"Ditzy","steam_id":76561198120774968,"connected_time":1350000000000,"state":"active","ping":81}]},{"server_id":395,"name":"Uncletopia | Sydney | 3 | All Maps","name_short":"syd-3","host":"syd-1.au.uncletopia.com","port":27035,"enabled":true,"region":"au","cc":"au","latitude":-33.865143,"longitude":151.2099,"reserved":0,"last_update":"0001-01-01T00:00:00Z","name_a2s":"Uncletopia | Sydney | 3 | All Maps","protocol":17,"map":"koth_lakeside_final","folder":"tf","game":"Team Fortress","app_id":440,"player_count":0,"max_players":24,"Bots":0,"server_type":"Dedicated","server_os":"Linux","password":true,"vac":true,"version":"7757534","steam_id":85568392925194467,"keywords":["cp","nocrits","nodmgspread","uncletopia"],"game_id":440,"stv_port":27036,"stv_name":"Uncletopia | Sydney | 3 | All Maps | STV","players":null},{"server_id":396,"name":"Uncletopia | Sydney | 4 | All Maps","name_short":"syd-4","host":"syd-1.au.uncletopia.com","port":27045,"enabled":true,"region":"au","cc":"au","latitude":-33.865143,"longitude":151.2099,"reserved":0,"last_update":"0001-01-01T00:00:00Z","name_a2s":"Uncletopia | Sydney | 4 | All Maps","protocol":17,"map":"koth_lakeside_final","folder":"tf","game":"Team Fortress","app_id":440,"player_count":0,"max_players":24,"Bots":0,"server_type":"Dedicated","server_os":"Linux","password":true,"vac":true,"version":"7757534","steam_id":85568392925397958,"keywords":["cp","nocrits","nodmgspread","uncletopia"],"game_id":440,"stv_port":27046,"stv_name":"Uncletopia | Sydney | 4 | All Maps | STV","players":null},{"server_id":58,"name":"Uncletopia | Sydney | 5 | Stopwatch Beta","name_short":"syd-5","host":"syd-1.au.uncletopia.com","port":27055,"enabled":true,"region":"au","cc":"au","latitude":-33.865143,"longitude":151.2099,"reserved":0,"last_update":"0001-01-01T00:00:00Z","name_a2s":"Uncletopia | Sydney | 5 | Stopwatch Beta","protocol":17,"map":"workshop/pl_badwater_pro_v12.ugc2142942074","folder":"tf","game":"Team Fortress","app_id":440,"player_count":0,"max_players":24,"Bots":0,"server_type":"Dedicated","server_os":"Linux","password":true,"vac":true,"version":"7757534","steam_id":85568392925397959,"keywords":["nocrits","nodmgspread","payload","uncletopia"],"game_id":440,"stv_port":27056,"stv_name":"Uncletopia | Sydney | 5 | Stopwatch Beta | STV","players":null},{"server_id":59,"name":"Uncletopia | Sydney | 6 | Community","name_short":"syd-6","host":"syd-1.au.uncletopia.com","port":27065,"enabled":true,"region":"au","cc":"au","latitude":-33.865143,"longitude":151.2099,"reserved":0,"last_update":"0001-01-01T00:00:00Z","name_a2s":"Uncletopia | Sydney | 6 | Community","protocol":17,"map":"workshop/koth_kemptown_rc1.ugc767410655","folder":"tf","game":"Team Fortress","app_id":440,"player_count":0,"max_players":24,"Bots":0,"server_type":"Dedicated","server_os":"Linux","password":true,"vac":true,"version":"7757534","steam_id":85568392925397960,"keywords":["cp","nocrits","nodmgspread","uncletopia"],"game_id":440,"stv_port":27066,"stv_name":"Uncletopia | Sydney | 6 | Community | STV","players":null},{"server_id":49,"name":"Uncletopia | Warsaw | 1 | All Maps","name_short":"waw-1","host":"waw-1.pl.uncletopia.com","port":27015,"enabled":true,"region":"eu","cc":"pl","latitude":52.2297,"longitude":21.017532,"reserved":0,"last_update":"0001-01-01T00:00:00Z","name_a2s":"","protocol":0,"map":"","folder":"","game":"","app_id":0,"player_count":0,"max_players":0,"Bots":0,"server_type":"","server_os":"","password":false,"vac":false,"version":"","steam_id":0,"keywords":null,"game_id":0,"stv_port":0,"stv_name":"","players":null},{"server_id":50,"name":"Uncletopia | Warsaw | 2 | All Maps","name_short":"waw-2","host":"waw-1.pl.uncletopia.com","port":27025,"enabled":true,"region":"eu","cc":"pl","latitude":52.2297,"longitude":21.017532,"reserved":0,"last_update":"0001-01-01T00:00:00Z","name_a2s":"Uncletopia | Warsaw | 2 | All Maps","protocol":17,"map":"pl_frontier_final","folder":"tf","game":"Team Fortress","app_id":440,"player_count":1,"max_players":24,"Bots":0,"server_type":"Dedicated","server_os":"Linux","password":true,"vac":true,"version":"7757534","steam_id":85568392925397851,"keywords":["nocrits","nodmgspread","payload","uncletopia"],"game_id":440,"stv_port":27026,"stv_name":"Uncletopia | Warsaw | 2 | All Maps | STV","players":[{"user_id":6,"name":"A Blåhaj Fan","steam_id":76561199029212388,"connected_time":51000000000,"state":"active","ping":41}]},{"server_id":51,"name":"Uncletopia | Warsaw | 3 | All Maps","name_short":"waw-3","host":"waw-1.pl.uncletopia.com","port":27035,"enabled":true,"region":"eu","cc":"pl","latitude":52.2297,"longitude":21.017532,"reserved":0,"last_update":"0001-01-01T00:00:00Z","name_a2s":"Uncletopia | Warsaw | 3 | All Maps","protocol":17,"map":"pl_frontier_final","folder":"tf","game":"Team Fortress","app_id":440,"player_count":0,"max_players":24,"Bots":0,"server_type":"Dedicated","server_os":"Linux","password":true,"vac":true,"version":"7757534","steam_id":85568392925397852,"keywords":["nocrits","nodmgspread","payload","uncletopia"],"game_id":440,"stv_port":27036,"stv_name":"Uncletopia | Warsaw | 3 | All Maps | STV","players":null},{"server_id":52,"name":"Uncletopia | Warsaw | 4 | All Maps","name_short":"waw-4","host":"waw-1.pl.uncletopia.com","port":27045,"enabled":true,"region":"eu","cc":"pl","latitude":52.2297,"longitude":21.017532,"reserved":0,"last_update":"0001-01-01T00:00:00Z","name_a2s":"Uncletopia | Warsaw | 4 | All Maps","protocol":17,"map":"cp_altitude","folder":"tf","game":"Team Fortress","app_id":440,"player_count":0,"max_players":24,"Bots":0,"server_type":"Dedicated","server_os":"Linux","password":true,"vac":true,"version":"7757534","steam_id":85568392925397853,"keywords":["cp","nocrits","nodmgspread","uncletopia"],"game_id":440,"stv_port":27046,"stv_name":"Uncletopia | Warsaw | 4 | All Maps | STV","players":null},{"server_id":53,"name":"Uncletopia | Warsaw | 5 | Stopwatch Beta","name_short":"waw-5","host":"waw-1.pl.uncletopia.com","port":27055,"enabled":true,"region":"eu","cc":"pl","latitude":52.2297,"longitude":21.017532,"reserved":0,"last_update":"0001-01-01T00:00:00Z","name_a2s":"Uncletopia | Warsaw | 5 | Stopwatch Beta","protocol":17,"map":"pl_pier","folder":"tf","game":"Team Fortress","app_id":440,"player_count":0,"max_players":24,"Bots":0,"server_type":"Dedicated","server_os":"Linux","password":true,"vac":true,"version":"7757534","steam_id":85568392925397854,"keywords":["nocrits","nodmgspread","payload","uncletopia"],"game_id":440,"stv_port":27056,"stv_name":"Uncletopia | Warsaw | 5 | Stopwatch Beta | STV","players":null},{"server_id":54,"name":"Uncletopia | Warsaw | 6 | Community","name_short":"waw-6","host":"waw-1.pl.uncletopia.com","port":27065,"enabled":true,"region":"eu","cc":"pl","latitude":52.2297,"longitude":21.017532,"reserved":0,"last_update":"0001-01-01T00:00:00Z","name_a2s":"Uncletopia | Warsaw | 6 | Community","protocol":17,"map":"koth_highpass","folder":"tf","game":"Team Fortress","app_id":440,"player_count":0,"max_players":24,"Bots":0,"server_type":"Dedicated","server_os":"Linux","password":true,"vac":true,"version":"7757534","steam_id":85568392925397856,"keywords":["cp","nocrits","nodmgspread","uncletopia"],"game_id":440,"stv_port":27066,"stv_name":"Uncletopia | Warsaw | 6 | Community | STV","players":null}]}