{"status":true,"message":"","result":[{"server_id":9,"name":"Uncletopia | Atlanta | 1 | All Maps","name_short":"atl-1","host":"atl-1.us.uncletopia.com","port":27015,"enabled":true,"region":"us-east","cc":"us","latitude":33.753746,"longitude":-84.38633,"reserved":0,"last_update":"0001-01-01T00:00:00Z","name_a2s":"Uncletopia | Atlanta | 1 | All Maps","protocol":17,"map":"pl_snowycoast","folder":"tf","game":"Team Fortress","app_id":440,"player_count":0,"max_players":24,"Bots":0,"server_type":"Dedicated","server_os":"Linux","password":true,"vac":true,"version":"7742253","steam_id":85568392924469982,"keywords":["nocrits","nodmgspread","payload","uncletopia"],"game_id":440,"stv_port":27016,"stv_name":"Uncletopia | Atlanta | 1 | All Maps | STV","players":null},{"server_id":400,"name":"Uncletopia | Atlanta | 3 | Stopwatch Beta","name_short":"atl-3","host":"atl-1.us.uncletopia.com","port":27035,"enabled":true,"region":"us-east","cc":"us","latitude":33.753746,"longitude":-84.38633,"reserved":0,"last_update":"0001-01-01T00:00:00Z","name_a2s":"Uncletopia | Atlanta | 3 | Stopwatch Beta","protocol":17,"map":"pl_pier","folder":"tf","game":"Team Fortress","app_id":440,"player_count":0,"max_players":24,"Bots":0,"server_type":"Dedicated","server_os":"Linux","password":true,"vac":true,"version":"7742253","steam_id":85568392924515187,"keywords":["nocrits","nodmgspread","payload","uncletopia"],"game_id":440,"stv_port":27036,"stv_name":"Uncletopia | Atlanta | 3 | Stopwatch Beta | STV","players":null},{"server_id":401,"name":"Uncletopia | Atlanta | 4 | No Payload","name_short":"atl-4","host":"atl-1.us.uncletopia.com","port":27045,"enabled":true,"region":"us-east","cc":"us","latitude":33.753746,"longitude":-84.38633,"reserved":0,"last_update":"0001-01-01T00:00:00Z","name_a2s":"Uncletopia | Atlanta | 4 | No Payload","protocol":17,"map":"pl_pier","folder":"tf","game":"Team Fortress","app_id":440,"player_count":0,"max_players":24,"Bots":0,"server_type":"Dedicated","server_os":"Linux","password":true,"vac":true,"version":"7723704","steam_id":85568392924515188,"keywords":["nocrits","nodmgspread","payload","uncletopia"],"game_id":440,"stv_port":27046,"stv_name":"Uncletopia | Atlanta | 4 | No Payload | STV","players":null},{"server_id":2,"name":"Uncletopia | Chicago | 1 | All Maps","name_short":"chi-1","host":"chi-1.us.uncletopia.com","port":27015,"enabled":true,"region":"us-central","cc":"us","latitude":41.881832,"longitude":-87.62318,"reserved":0,"last_update":"0001-01-01T00:00:00Z","name_a2s":"Uncletopia | Chicago | 1 | All Maps","protocol":17,"map":"pl_barnblitz","folder":"tf","game":"Team Fortress","app_id":440,"player_count":0,"max_players":24,"Bots":0,"server_type":"Dedicated","server_os":"Linux","password":true,"vac":true,"version":"7742253","steam_id":85568392924469984,"keywords":["nocrits","nodmgspread","payload","uncletopia"],"game_id":440,"stv_port":27016,"stv_name":"Uncletopia | Chicago | 1 | All Maps | STV","players":null},{"server_id":106,"name":"Uncletopia | Chicago | 2 | All Maps","name_short":"chi-2","host":"chi-1.us.uncletopia.com","port":27025,"enabled":true,"region":"us-central","cc":"us","latitude":41.881832,"longitude":-87.62318,"reserved":0,"last_update":"0001-01-01T00:00:00Z","name_a2s":"Uncletopia | Chicago | 2 | All Maps","protocol":17,"map":"pl_snowycoast","folder":"tf","game":"Team Fortress","app_id":440,"player_count":0,"max_players":24,"Bots":0,"server_type":"Dedicated","server_os":"Linux","password":true,"vac":true,"version":"7742253","steam_id":85568392924469985,"keywords":["nocrits","nodmgspread","payload","uncletopia"],"game_id":440,"stv_port":27026,"stv_name":"Uncletopia | Chicago | 2 | All Maps | STV","players":null},{"server_id":402,"name":"Uncletopia | Chicago | 3 | All Maps","name_short":"chi-3","host":"chi-1.us.uncletopia.com","port":27035,"enabled":true,"region":"us-central","cc":"us","latitude":41.881832,"longitude":-87.62318,"reserved":0,"last_update":"0001-01-01T00:00:00Z","name_a2s":"Uncletopia | Chicago | 3 | All Maps","protocol":17,"map":"koth_viaduct","folder":"tf","game":"Team Fortress","app_id":440,"player_count":0,"max_players":24,"Bots":0,"server_type":"Dedicated","server_os":"Linux","password":true,"vac":true,"version":"7742253","steam_id":85568392924515191,"keywords":["cp","nocrits","nodmgspread","uncletopia"],"game_id":440,"stv_port":27036,"stv_name":"Uncletopia | Chicago | 3 | All Maps | STV","players":null},{"server_id":403,"name":"Uncletopia | Chicago | 4 | All Maps","name_short":"chi-4","host":"chi-1.us.uncletopia.com","port":27045,"enabled":true,"region":"us-central","cc":"us","latitude":41.881832,"longitude":-87.62318,"reserved":0,"last_update":"0001-01-01T00:00:00Z","name_a2s":"Uncletopia | Chicago | 4 | All Maps","protocol":17,"map":"koth_lakeside_final","folder":"tf","game":"Team Fortress","app_id":440,"player_count":0,"max_players":24,"Bots":0,"server_type":"Dedicated","server_os":"Linux","password":true,"vac":true,"version":"7742253","steam_id":85568392924515193,"keywords":["cp","nocrits","nodmgspread","uncletopia"],"game_id":440,"stv_port":27046,"stv_name":"Uncletopia | Chicago | 4 | All Maps | STV","players":null},{"server_id":36,"name":"Uncletopia | Chicago | 5 | All Maps","name_short":"chi-5","host":"chi-2.us.uncletopia.com","port":27015,"enabled":true,"region":"us-central","cc":"us","latitude":41.881832,"longitude":-87.62318,"reserved":0,"last_update":"0001-01-01T00:00:00Z","name_a2s":"Uncletopia | Chicago | 5 | All Maps","protocol":17,"map":"pl_upward","folder":"tf","game":"Team Fortress","app_id":440,"player_count":0,"max_players":24,"Bots":0,"server_type":"Dedicated","server_os":"Linux","password":true,"vac":true,"version":"7742253","steam_id":85568392924866362,"keywords":["nocrits","nodmgspread","payload","uncletopia"],"game_id":440,"stv_port":27016,"stv_name":"Uncletopia | Chicago | 5 | All Maps | STV","players":null},{"server_id":37,"name":"Uncletopia | Chicago | 6 | All Maps","name_short":"chi-6","host":"chi-2.us.uncletopia.com","port":27025,"enabled":true,"region":"us-central","cc":"us","latitude":41.881832,"longitude":-87.62318,"reserved":0,"last_update":"0001-01-01T00:00:00Z","name_a2s":"Uncletopia | Chicago | 6 | All Maps","protocol":17,"map":"pl_frontier_final","folder":"tf","game":"Team Fortress","app_id":440,"player_count":24,"max_players":24,"Bots":0,"server_type":"Dedicated","server_os":"Linux","password":true,"vac":true,"version":"7742253","steam_id":85568392924866363,"keywords":["nocrits","nodmgspread","payload","uncletopia"],"game_id":440,"stv_port":27026,"stv_name":"Uncletopia | Chicago | 6 | All Maps | STV","players":[{"user_id":85,"name":"I'm So Fucking Cool","steam_id":76561198098418071,"connected_time":1655000000000,"state":"active","ping":105},{"user_id":66,"name":"Danzuniverse","steam_id":76561198179817943,"connected_time":2981000000000,"state":"active","ping":95},{"user_id":95,"name":"Mouth Tea","steam_id":76561198285054047,"connected_time":219000000000,"state":"active","ping":82},{"user_id":70,"name":"Casual Costanza","steam_id":76561198024409325,"connected_time":2617000000000,"state":"active","ping":61},{"user_id":86,"name":"vortexgamer","steam_id":76561197999435527,"connected_time":1609000000000,"state":"active","ping":66},{"user_id":81,"name":"Bichael","steam_id":76561198013308693,"connected_time":1898000000000,"state":"active","ping":61},{"user_id":97,"name":"(not so) festive raph","steam_id":76561199074852635,"connected_time":15000000000,"state":"active","ping":89},{"user_id":74,"name":"YungKeet","steam_id":76561198293854963,"connected_time":2057000000000,"state":"active","ping":75},{"user_id":11,"name":"⛧⸸⛧⸸⛧⸸","steam_id":76561198007051179,"connected_time":6721000000000,"state":"active","ping":104},{"user_id":91,"name":"Purgatory","steam_id":76561198374795958,"connected_time":1030000000000,"state":"active","ping":112},{"user_id":92,"name":"SugiNo528","steam_id":76561199176230786,"connected_time":618000000000,"state":"active","ping":78},{"user_id":35,"name":"Atlas","steam_id":76561198127975050,"connected_time":5564000000000,"state":"active","ping":62},{"user_id":54,"name":"viedoamegs","steam_id":76561198025295263,"connected_time":4028000000000,"state":"active","ping":77},{"user_id":16,"name":"Jimothy","steam_id":76561198982248872,"connected_time":6683000000000,"state":"active","ping":74},{"user_id":69,"name":"morbissey","steam_id":76561198072592880,"connected_time":2649000000000,"state":"active","ping":45},{"user_id":19,"name":"Pan Dulce","steam_id":76561198044444716,"connected_time":6659000000000,"state":"active","ping":110},{"user_id":87,"name":"Papa Banana","steam_id":76561198273437591,"connected_time":1606000000000,"state":"active","ping":74},{"user_id":89,"name":"kratomSnorter.1quarter","steam_id":76561198946987511,"connected_time":1496000000000,"state":"active","ping":86},{"user_id":22,"name":"Brown_Dream","steam_id":76561198975766145,"connected_time":6602000000000,"state":"active","ping":80},{"user_id":71,"name":"GabetIV femboy","steam_id":76561198145700338,"connected_time":2101000000000,"state":"active","ping":72},{"user_id":24,"name":"Soap Man","steam_id":76561198000490235,"connected_time":6498000000000,"state":"active","ping":112},{"user_id":88,"name":"Alias Bulldog Drummond","steam_id":76561198013065507,"connected_time":1577000000000,"state":"active","ping":82},{"user_id":94,"name":"James","steam_id":76561198098325427,"connected_time":379000000000,"state":"active","ping":90},{"user_id":78,"name":"IPlayGamez","steam_id":76561198041387508,"connected_time":2045000000000,"state":"active","ping":65}]},{"server_id":38,"name":"Uncletopia | Chicago | 7 | Stopwatch Beta","name_short":"chi-7","host":"chi-2.us.uncletopia.com","port":27035,"enabled":true,"region":"us-central","cc":"us","latitude":41.881832,"longitude":-87.62318,"reserved":0,"last_update":"0001-01-01T00:00:00Z","name_a2s":"Uncletopia | Chicago | 7 | Stopwatch Beta","protocol":17,"map":"koth_lakeside_final","folder":"tf","game":"Team Fortress","app_id":440,"player_count":0,"max_players":24,"Bots":0,"server_type":"Dedicated","server_os":"Linux","password":true,"vac":true,"version":"7742253","steam_id":85568392924866364,"keywords":["cp","nocrits","nodmgspread","uncletopia"],"game_id":440,"stv_port":27036,"stv_name":"Uncletopia | Chicago | 7 | Stopwatch Beta | STV","players":null},{"server_id":39,"name":"Uncletopia | Chicago | 8 | Community","name_short":"chi-8","host":"chi-2.us.uncletopia.com","port":27045,"enabled":true,"region":"us-central","cc":"us","latitude":41.881832,"longitude":-87.62318,"reserved":0,"last_update":"0001-01-01T00:00:00Z","name_a2s":"Uncletopia | Chicago | 8 | Community","protocol":17,"map":"koth_lakeside_final","folder":"tf","game":"Team Fortress","app_id":440,"player_count":0,"max_players":24,"Bots":0,"server_type":"Dedicated","server_os":"Linux","password":true,"vac":true,"version":"7742253","steam_id":85568392924866365,"keywords":["cp","nocrits","nodmgspread","uncletopia"],"game_id":440,"stv_port":27046,"stv_name":"Uncletopia | Chicago | 8 | Community | STV","players":null},{"server_id":8,"name":"Uncletopia | Dallas | 1 | All Maps","name_short":"dal-1","host":"dal-1.us.uncletopia.com","port":27015,"enabled":true,"region":"us-central","cc":"us","latitude":32.779167,"longitude":-96.80889,"reserved":0,"last_update":"0001-01-01T00:00:00Z","name_a2s":"Uncletopia | Dallas | 1 | All Maps","protocol":17,"map":"koth_lakeside_final","folder":"tf","game":"Team Fortress","app_id":440,"player_count":0,"max_players":24,"Bots":0,"server_type":"Dedicated","server_os":"Linux","password":true,"vac":true,"version":"7742253","steam_id":85568392924469986,"keywords":["cp","nocrits","nodmgspread","uncletopia"],"game_id":440,"stv_port":27016,"stv_name":"Uncletopia | Dallas | 1 | All Maps | STV","players":null},{"server_id":108,"name":"Uncletopia | Dallas | 2 | All Maps","name_short":"dal-2","host":"dal-1.us.uncletopia.com","port":27025,"enabled":true,"region":"us-central","cc":"us","latitude":32.779167,"longitude":-96.80889,"reserved":0,"last_update":"0001-01-01T00:00:00Z","name_a2s":"Uncletopia | Dallas | 2 | All Maps","protocol":17,"map":"cp_process_final","folder":"tf","game":"Team Fortress","app_id":440,"player_count":0,"max_players":24,"Bots":0,"server_type":"Dedicated","server_os":"Linux","password":true,"vac":true,"version":"7742253","steam_id":85568392924469988,"keywords":["cp","nocrits","nodmgspread","uncletopia"],"game_id":440,"stv_port":27026,"stv_name":"Uncletopia | Dallas | 2 | All Maps | STV","players":null},{"server_id":5,"name":"Uncletopia | Frankfurt | 1 | All Maps","name_short":"frk-1","host":"frk-1.de.uncletopia.com","port":27015,"enabled":true,"region":"eu","cc":"de","latitude":50.110924,"longitude":8.682127,"reserved":0,"last_update":"0001-01-01T00:00:00Z","name_a2s":"Uncletopia | Frankfurt | 1 | All Maps","protocol":17,"map":"pl_badwater","folder":"tf","game":"Team Fortress","app_id":440,"player_count":24,"max_players":24,"Bots":0,"server_type":"Dedicated","server_os":"Linux","password":true,"vac":true,"version":"7742253","steam_id":85568392924469989,"keywords":["nocrits","nodmgspread","payload","uncletopia"],"game_id":440,"stv_port":27016,"stv_name":"Uncletopia | Frankfurt | 1 | All Maps | STV","players":[{"user_id":295,"name":"Drdarlekzzz","steam_id":76561198160141785,"connected_time":867000000000,"state":"active","ping":53},{"user_id":310,"name":"テイルス","steam_id":76561198022403271,"connected_time":464000000000,"state":"active","ping":44},{"user_id":316,"name":"GZimmer","steam_id":76561198088794767,"connected_time":177000000000,"state":"active","ping":45},{"user_id":315,"name":"festry","steam_id":76561198873296090,"connected_time":205000000000,"state":"active","ping":71},{"user_id":196,"name":"Bundle of Sticks","steam_id":76561198133782205,"connected_time":6377000000000,"state":"active","ping":124},{"user_id":282,"name":"NotASpy","steam_id":76561199191051178,"connected_time":1315000000000,"state":"active","ping":125},{"user_id":284,"name":"jack's vitamin d","steam_id":76561198036032168,"connected_time":1287000000000,"state":"active","ping":131},{"user_id":293,"name":"Ｒ Ｏ Ｂ Ｂ Ｅ Ｒ Ｔ","steam_id":76561198134404830,"connected_time":932000000000,"state":"active","ping":129},{"user_id":276,"name":"Ledze Shuns Dope","steam_id":76561198049945010,"connected_time":2471000000000,"state":"active","ping":56},{"user_id":254,"name":"Pinkchup","steam_id":76561198106802803,"connected_time":2928000000000,"state":"active","ping":76},{"user_id":300,"name":"Lazulura","steam_id":76561198103569919,"connected_time":657000000000,"state":"active","ping":96},{"user_id":301,"name":"DSL","steam_id":76561198186770547,"connected_time":655000000000,"state":"active","ping":97},{"user_id":297,"name":"theres a bomb in my tea","steam_id":76561199134149296,"connected_time":836000000000,"state":"active","ping":97},{"user_id":309,"name":"ducks","steam_id":76561198166148685,"connected_time":479000000000,"state":"active","ping":46},{"user_id":317,"name":"General Petrov","steam_id":76561198027204104,"connected_time":33000000000,"state":"active","ping":88},{"user_id":278,"name":"pepper","steam_id":76561198059782462,"connected_time":1824000000000,"state":"active","ping":58},{"user_id":304,"name":"henoadam","steam_id":76561198151350377,"connected_time":612000000000,"state":"active","ping":58},{"user_id":292,"name":"Arcticpyro","steam_id":76561198010708923,"connected_time":1057000000000,"state":"active","ping":86},{"user_id":279,"name":"Magiccomplex","steam_id":76561199203555188,"connected_time":1627000000000,"state":"active","ping":45},{"user_id":258,"name":"txrracxtta","steam_id":76561198073478010,"connected_time":2826000000000,"state":"active","ping":45},{"user_id":288,"name":"dedwarded","steam_id":76561199194948995,"connected_time":1101000000000,"state":"active","ping":57},{"user_id":312,"name":"rodeybodey","steam_id":76561198165351355,"connected_time":337000000000,"state":"active","ping":88},{"user_id":303,"name":"Combat Wombat","steam_id":76561197994720068,"connected_time":629000000000,"state":"active","ping":68},{"user_id":314,"name":"Penis Contortionist","steam_id":76561198073663784,"connected_time":276000000000,"state":"active","ping":49}]},{"server_id":110,"name":"Uncletopia | Frankfurt | 2 | All Maps","name_short":"frk-2","host":"frk-1.de.uncletopia.com","port":27025,"enabled":true,"region":"eu","cc":"de","latitude":50.110924,"longitude":8.682127,"reserved":0,"last_update":"0001-01-01T00:00:00Z","name_a2s":"Uncletopia | Frankfurt | 2 | All Maps","protocol":17,"map":"pl_frontier_final","folder":"tf","game":"Team Fortress","app_id":440,"player_count":24,"max_players":24,"Bots":0,"server_type":"Dedicated","server_os":"Linux","password":true,"vac":true,"version":"7742253","steam_id":85568392924469990,"keywords":["nocrits","nodmgspread","payload","uncletopia"],"game_id":440,"stv_port":27026,"stv_name":"Uncletopia | Frankfurt | 2 | All Maps | STV","players":[{"user_id":171,"name":"silenk","steam_id":76561198367689055,"connected_time":562000000000,"state":"active","ping":65},{"user_id":172,"name":"Samus_","steam_id":76561199010647409,"connected_time":500000000000,"state":"active","ping":315},{"user_id":165,"name":"zheel","steam_id":76561198354135485,"connected_time":1096000000000,"state":"active","ping":72},{"user_id":154,"name":"apem","steam_id":76561198155568598,"connected_time":1480000000000,"state":"active","ping":48},{"user_id":155,"name":"DeKritteh","steam_id":76561198113945397,"connected_time":1477000000000,"state":"active","ping":80},{"user_id":136,"name":"blurst of times","steam_id":76561197972325640,"connected_time":3278000000000,"state":"active","ping":52},{"user_id":167,"name":"Cossack","steam_id":76561198076661772,"connected_time":1019000000000,"state":"active","ping":79},{"user_id":146,"name":"Cuthbert","steam_id":76561198204649481,"connected_time":2205000000000,"state":"active","ping":88},{"user_id":157,"name":"clems17","steam_id":76561199420685482,"connected_time":1442000000000,"state":"active","ping":47},{"user_id":138,"name":"Buursq","steam_id":76561198137801309,"connected_time":3250000000000,"state":"active","ping":64},{"user_id":141,"name":"Joel!","steam_id":76561198155422742,"connected_time":3228000000000,"state":"active","ping":51},{"user_id":158,"name":"le big mac","steam_id":76561199026378253,"connected_time":1416000000000,"state":"active","ping":52},{"user_id":159,"name":"The Bonk Man™","steam_id":76561199044260792,"connected_time":1413000000000,"state":"active","ping":61},{"user_id":173,"name":"Magica","steam_id":76561198965200359,"connected_time":136000000000,"state":"active","ping":72},{"user_id":104,"name":"aaron","steam_id":76561198090143282,"connected_time":5055000000000,"state":"active","ping":61},{"user_id":142,"name":"citronous","steam_id":76561198093290934,"connected_time":3027000000000,"state":"active","ping":54},{"user_id":160,"name":"Comunisation","steam_id":76561199131568273,"connected_time":1407000000000,"state":"active","ping":74},{"user_id":169,"name":"Babatitiste","steam_id":76561198800212915,"connected_time":1004000000000,"state":"active","ping":62},{"user_id":149,"name":"Tank","steam_id":76561199059174576,"connected_time":2126000000000,"state":"active","ping":170},{"user_id":121,"name":"dr.cumfart","steam_id":76561198045330758,"connected_time":4135000000000,"state":"active","ping":132},{"user_id":130,"name":"Akirus","steam_id":76561198369831090,"connected_time":3709000000000,"state":"active","ping":100},{"user_id":127,"name":"Gordon Birdman","steam_id":76561198013382324,"connected_time":3912000000000,"state":"active","ping":75},{"user_id":133,"name":"Sigmar's Weakest Soldier","steam_id":76561198320506848,"connected_time":3478000000000,"state":"active","ping":56},{"user_id":161,"name":"Fan","steam_id":76561198440592048,"connected_time":1406000000000,"state":"active","ping":72}]},{"server_id":308,"name":"Uncletopia | Frankfurt | 3 | All Maps","name_short":"frk-3","host":"frk-1.de.uncletopia.com","port":27035,"enabled":true,"region":"eu","cc":"de","latitude":50.110924,"longitude":8.682127,"reserved":0,"last_update":"0001-01-01T00:00:00Z","name_a2s":"Uncletopia | Frankfurt | 3 | All Maps","protocol":17,"map":"ctf_2fort","folder":"tf","game":"Team Fortress","app_id":440,"player_count":24,"max_players":24,"Bots":0,"server_type":"Dedicated","server_os":"Linux","password":true,"vac":true,"version":"7742253","steam_id":85568392924504274,"keywords":["ctf","nocrits","nodmgspread","uncletopia"],"game_id":440,"stv_port":27036,"stv_name":"Uncletopia | Frankfurt | 3 | All Maps | STV","players":[{"user_id":64,"name":"Senator Armstrong","steam_id":76561198984346408,"connected_time":787000000000,"state":"active","ping":65},{"user_id":63,"name":"Jolvard","steam_id":76561198050953597,"connected_time":892000000000,"state":"active","ping":70},{"user_id":53,"name":"Españaa","steam_id":76561198879587832,"connected_time":1407000000000,"state":"active","ping":82},{"user_id":15,"name":"jesus0004","steam_id":76561198300074730,"connected_time":2227000000000,"state":"active","ping":78},{"user_id":16,"name":"Iranian Voodoo Doctor","steam_id":76561198299412111,"connected_time":2223000000000,"state":"active","ping":45},{"user_id":17,"name":"sinapsid","steam_id":76561199130784607,"connected_time":2166000000000,"state":"active","ping":77},{"user_id":72,"name":"Farao Ramses II","steam_id":76561198078722712,"connected_time":96000000000,"state":"active","ping":55},{"user_id":19,"name":"Fella","steam_id":76561199090136355,"connected_time":2151000000000,"state":"active","ping":56},{"user_id":67,"name":"!","steam_id":76561198427311326,"connected_time":618000000000,"state":"active","ping":84},{"user_id":21,"name":"yeldad","steam_id":76561198447264153,"connected_time":2077000000000,"state":"active","ping":108},{"user_id":23,"name":"Baki ツ","steam_id":76561198193615529,"connected_time":2046000000000,"state":"active","ping":58},{"user_id":56,"name":"Bepperman","steam_id":76561198397517828,"connected_time":1372000000000,"state":"active","ping":74},{"user_id":31,"name":"Osmo","steam_id":76561199286764992,"connected_time":1987000000000,"state":"active","ping":83},{"user_id":32,"name":"enodor1","steam_id":76561198895251313,"connected_time":1971000000000,"state":"active","ping":79},{"user_id":70,"name":"Heisenberg","steam_id":76561198374345060,"connected_time":285000000000,"state":"active","ping":91},{"user_id":30,"name":"Blyatwork","steam_id":76561198825379598,"connected_time":1992000000000,"state":"active","ping":41},{"user_id":33,"name":"Gandalf67","steam_id":76561198297447327,"connected_time":1967000000000,"state":"active","ping":71},{"user_id":34,"name":"Tyyppioksidi","steam_id":76561198365773408,"connected_time":1961000000000,"state":"active","ping":93},{"user_id":57,"name":"Zogg","steam_id":76561198352683491,"connected_time":1294000000000,"state":"active","ping":54},{"user_id":50,"name":"Mokorito","steam_id":76561198873773949,"connected_time":1514000000000,"state":"active","ping":76},{"user_id":61,"name":"EasyName","steam_id":76561198351836689,"connected_time":1027000000000,"state":"active","ping":108},{"user_id":71,"name":"Stille Willem","steam_id":76561198093579428,"connected_time":211000000000,"state":"active","ping":58},{"user_id":66,"name":"....","steam_id":76561198173171357,"connected_time":765000000000,"state":"active","ping":87},{"user_id":69,"name":"Old Beavis","steam_id":76561198065951617,"connected_time":306000000000,"state":"active","ping":68}]},{"server_id":309,"name":"Uncletopia | Frankfurt | 4 | All Maps","name_short":"frk-4","host":"frk-1.de.uncletopia.com","port":27045,"enabled":true,"region":"eu","cc":"de","latitude":50.110924,"longitude":8.682127,"reserved":0,"last_update":"0001-01-01T00:00:00Z","name_a2s":"Uncletopia | Frankfurt | 4 | All Maps","protocol":17,"map":"pl_pier","folder":"tf","game":"Team Fortress","app_id":440,"player_count":24,"max_players":24,"Bots":0,"server_type":"Dedicated","server_os":"Linux","password":true,"vac":true,"version":"7742253","steam_id":85568392924504275,"keywords":["nocrits","nodmgspread","payload","uncletopia"],"game_id":440,"stv_port":27046,"stv_name":"Uncletopia | Frankfurt | 4 | All Maps | STV","players":[{"user_id":49,"name":"Zoran Snajper","steam_id":76561198312564061,"connected_time":4395000000000,"state":"active","ping":63},{"user_id":112,"name":"fmdi","steam_id":76561199433879329,"connected_time":795000000000,"state":"active","ping":60},{"user_id":64,"name":"cl","steam_id":76561199436640904,"connected_time":3570000000000,"state":"active","ping":66},{"user_id":104,"name":"sololiste","steam_id":76561198006047494,"connected_time":1551000000000,"state":"active","ping":63},{"user_id":113,"name":"lusik","steam_id":76561199239168617,"connected_time":458000000000,"state":"active","ping":60},{"user_id":24,"name":"Enigmus","steam_id":76561197994063627,"connected_time":5370000000000,"state":"active","ping":86},{"user_id":117,"name":"P-47 Thunderbolt","steam_id":76561198153197815,"connected_time":156000000000,"state":"active","ping":64},{"user_id":100,"name":"Echo of Abyss","steam_id":76561198981841782,"connected_time":1782000000000,"state":"active","ping":78},{"user_id":99,"name":"Autonomous movement","steam_id":76561198087800030,"connected_time":1806000000000,"state":"active","ping":68},{"user_id":68,"name":"markus #Hindiboys","steam_id":76561198186791643,"connected_time":3553000000000,"state":"active","ping":75},{"user_id":29,"name":"coffee","steam_id":76561198382387303,"connected_time":5202000000000,"state":"active","ping":79},{"user_id":75,"name":"Mottinen","steam_id":76561198223868928,"connected_time":3364000000000,"state":"active","ping":77},{"user_id":118,"name":"glyph","steam_id":76561197980736364,"connected_time":59000000000,"state":"active","ping":78},{"user_id":70,"name":"Gorlami","steam_id":76561198139623088,"connected_time":3542000000000,"state":"active","ping":75},{"user_id":109,"name":"El`Capitano Flex","steam_id":76561198061813730,"connected_time":848000000000,"state":"active","ping":65},{"user_id":119,"name":"Lernix","steam_id":76561198382328645,"connected_time":14000000000,"state":"spawning","ping":59},{"user_id":72,"name":"Allergic to cart","steam_id":76561198410598772,"connected_time":3536000000000,"state":"active","ping":50},{"user_id":90,"name":"A Certain Craftsman","steam_id":76561198107329135,"connected_time":2173000000000,"state":"active","ping":107},{"user_id":115,"name":"Yaddle10(hun)","steam_id":76561198271825619,"connected_time":325000000000,"state":"active","ping":75},{"user_id":105,"name":"Zargibarg","steam_id":76561198007792525,"connected_time":1543000000000,"state":"active","ping":60},{"user_id":91,"name":"Dr-je-kill","steam_id":76561198890817226,"connected_time":2172000000000,"state":"active","ping":68},{"user_id":103,"name":"Mihuel Hairman#Savetf2","steam_id":76561199041992422,"connected_time":1608000000000,"state":"active","ping":140},{"user_id":92,"name":"Logone","steam_id":76561198069133372,"connected_time":2164000000000,"state":"active","ping":110},{"user_id":116,"name":"German Prick","steam_id":76561198181410637,"connected_time":228000000000,"state":"active","ping":51}]},{"server_id":310,"name":"Uncletopia | Frankfurt | 5 | All Maps","name_short":"frk-5","host":"frk-1.de.uncletopia.com","port":27055,"enabled":true,"region":"eu","cc":"de","latitude":50.110924,"longitude":8.682127,"reserved":0,"last_update":"0001-01-01T00:00:00Z","name_a2s":"Uncletopia | Frankfurt | 5 | All Maps","protocol":17,"map":"pl_snowycoast","folder":"tf","game":"Team Fortress","app_id":440,"player_count":24,"max_players":24,"Bots":0,"server_type":"Dedicated","server_os":"Linux","password":true,"vac":true,"version":"7742253","steam_id":85568392924504277,"keywords":["nocrits","nodmgspread","payload","uncletopia"],"game_id":440,"stv_port":27056,"stv_name":"Uncletopia | Frankfurt | 5 | All Maps | STV","players":[{"user_id":162,"name":"grip","steam_id":76561198088201976,"connected_time":330000000000,"state":"active","ping":44},{"user_id":148,"name":"Alberto Balsam","steam_id":76561198091814810,"connected_time":1084000000000,"state":"active","ping":192},{"user_id":144,"name":"McGov","steam_id":76561198211361463,"connected_time":1548000000000,"state":"active","ping":69},{"user_id":140,"name":"vertman90210","steam_id":76561199000067805,"connected_time":1658000000000,"state":"active","ping":65},{"user_id":141,"name":"Prox","steam_id":76561198351490981,"connected_time":1624000000000,"state":"active","ping":56},{"user_id":73,"name":"goodguy","steam_id":76561199048167724,"connected_time":4518000000000,"state":"active","ping":97},{"user_id":153,"name":"SantiThePug #ReviveTheCaber","steam_id":76561199049615996,"connected_time":886000000000,"state":"active","ping":68},{"user_id":139,"name":"Plimpus","steam_id":76561198086654069,"connected_time":1682000000000,"state":"active","ping":71},{"user_id":171,"name":"¬°Nice","steam_id":76561198387871867,"connected_time":119000000000,"state":"active","ping":75},{"user_id":154,"name":"The year is 20BB...","steam_id":76561198101292843,"connected_time":845000000000,"state":"active","ping":50},{"user_id":114,"name":"TMC","steam_id":76561198077956157,"connected_time":2359000000000,"state":"active","ping":54},{"user_id":155,"name":"ttv.twitch.tv/watchLive","steam_id":76561198047359132,"connected_time":825000000000,"state":"active","ping":67},{"user_id":131,"name":"That Piss Sniper","steam_id":76561198356449555,"connected_time":1865000000000,"state":"active","ping":74},{"user_id":122,"name":"FilipeLuk","steam_id":76561198150675438,"connected_time":2008000000000,"state":"active","ping":75},{"user_id":172,"name":"jesus lover","steam_id":76561198307655790,"connected_time":20000000000,"state":"active","ping":164},{"user_id":32,"name":"Yony","steam_id":76561199070569941,"connected_time":6479000000000,"state":"active","ping":58},{"user_id":115,"name":"Roni Pepperoni","steam_id":76561198074979740,"connected_time":2342000000000,"state":"active","ping":92},{"user_id":78,"name":"Tonne","steam_id":76561197970856766,"connected_time":4359000000000,"state":"active","ping":52},{"user_id":168,"name":"Lintch","steam_id":76561198075974871,"connected_time":223000000000,"state":"active","ping":98},{"user_id":156,"name":"Dodoshka","steam_id":76561198093464840,"connected_time":741000000000,"state":"active","ping":97},{"user_id":41,"name":"Welder","steam_id":76561198355300561,"connected_time":6233000000000,"state":"active","ping":69},{"user_id":145,"name":"ZePequenio","steam_id":76561197968506094,"connected_time":1275000000000,"state":"active","ping":50},{"user_id":158,"name":"Dark Lord","steam_id":76561198966667657,"connected_time":651000000000,"state":"active","ping":61},{"user_id":151,"name":"bro.","steam_id":76561198053394831,"connected_time":1073000000000,"state":"active","ping":61}]},{"server_id":311,"name":"Uncletopia | Frankfurt | 6 | All Maps","name_short":"frk-6","host":"frk-1.de.uncletopia.com","port":27065,"enabled":true,"region":"eu","cc":"de","latitude":50.110924,"longitude":8.682127,"reserved":0,"last_update":"0001-01-01T00:00:00Z","name_a2s":"Uncletopia | Frankfurt | 6 | All Maps","protocol":17,"map":"koth_lakeside_final","folder":"tf","game":"Team Fortress","app_id":440,"player_count":0,"max_players":24,"Bots":0,"server_type":"Dedicated","server_os":"Linux","password":true,"vac":true,"version":"7742253","steam_id":85568392924504278,"keywords":["cp","nocrits","nodmgspread","uncletopia"],"game_id":440,"stv_port":27066,"stv_name":"Uncletopia | Frankfurt | 6 | All Maps | STV","players":null},{"server_id":23,"name":"Uncletopia | Frankfurt | 7 | Stopwatch Beta","name_short":"frk-7","host":"frk-1.de.uncletopia.com","port":27075,"enabled":true,"region":"eu","cc":"de","latitude":50.110924,"longitude":8.682127,"reserved":0,"last_update":"0001-01-01T00:00:00Z","name_a2s":"Uncletopia | Frankfurt | 7 | Stopwatch Beta","protocol":17,"map":"cp_process_final","folder":"tf","game":"Team Fortress","app_id":440,"player_count":0,"max_players":24,"Bots":0,"server_type":"Dedicated","server_os":"Linux","password":true,"vac":true,"version":"7742253","steam_id":85568392924742827,"keywords":["cp","nocrits","nodmgspread","uncletopia"],"game_id":440,"stv_port":27076,"stv_name":"Uncletopia | Frankfurt | 7 | Stopwatch Beta | STV","players":null},{"server_id":24,"name":"Uncletopia | Frankfurt | 8 | Community","name_short":"frk-8","host":"frk-1.de.uncletopia.com","port":27085,"enabled":true,"region":"eu","cc":"de","latitude":50.110924,"longitude":8.682127,"reserved":0,"last_update":"0001-01-01T00:00:00Z","name_a2s":"Uncletopia | Frankfurt | 8 | Community","protocol":17,"map":"koth_cascade","folder":"tf","game":"Team Fortress","app_id":440,"player_count":16,"max_players":24,"Bots":0,"server_type":"Dedicated","server_os":"Linux","password":true,"vac":true,"version":"7742253","steam_id":85568392924742828,"keywords":["cp","nocrits","nodmgspread","uncletopia"],"game_id":440,"stv_port":27086,"stv_name":"Uncletopia | Frankfurt | 8 | Community | STV","players":[{"user_id":9,"name":"47","steam_id":76561198856781924,"connected_time":1663000000000,"state":"active","ping":52},{"user_id":7,"name":"Geralt of Rivia","steam_id":76561198856506827,"connected_time":2013000000000,"state":"active","ping":64},{"user_id":10,"name":"Mandele","steam_id":76561199183213205,"connected_time":1161000000000,"state":"active","ping":83},{"user_id":11,"name":"toe eater","steam_id":76561199272782484,"connected_time":502000000000,"state":"active","ping":53},{"user_id":12,"name":"Octis","steam_id":76561198015536917,"connected_time":344000000000,"state":"active","ping":75},{"user_id":15,"name":"Skepter","steam_id":76561198097268468,"connected_time":257000000000,"state":"active","ping":73},{"user_id":14,"name":"sharkmax12312","steam_id":76561198996008569,"connected_time":273000000000,"state":"active","ping":66},{"user_id":16,"name":"Iphy","steam_id":76561198137519489,"connected_time":197000000000,"state":"active","ping":69},{"user_id":17,"name":"2-D (secretly undercover)","steam_id":76561198287344223,"connected_time":189000000000,"state":"active","ping":75},{"user_id":18,"name":"5 noches con alfredo","steam_id":76561198420349969,"connected_time":168000000000,"state":"active","ping":95},{"user_id":19,"name":"Oki","steam_id":76561198138444201,"connected_time":157000000000,"state":"active","ping":59},{"user_id":20,"name":"Daequan","steam_id":76561198289448882,"connected_time":121000000000,"state":"active","ping":54},{"user_id":24,"name":"Creamers","steam_id":76561199158854856,"connected_time":13000000000,"state":"spawning","ping":59},{"user_id":22,"name":"StormRage","steam_id":76561199435079308,"connected_time":89000000000,"state":"active","ping":202},{"user_id":23,"name":"juicymangoes","steam_id":76561198131670413,"connected_time":69000000000,"state":"active","ping":61},{"user_id":25,"name":"Python6398","steam_id":76561198095750403,"connected_time":9000000000,"state":"connecting","ping":0}]},{"server_id":202,"name":"Uncletopia | Hong Kong | 1 | All Maps","name_short":"hgk-1","host":"hgk-1.hk.uncletopia.com","port":27015,"enabled":true,"region":"asia","cc":"hk","latitude":22.302711,"longitude":114.177216,"reserved":0,"last_update":"0001-01-01T00:00:00Z","name_a2s":"Uncletopia | Hong Kong | 1 | All Maps","protocol":17,"map":"pl_barnblitz","folder":"tf","game":"Team Fortress","app_id":440,"player_count":24,"max_players":24,"Bots":0,"server_type":"Dedicated","server_os":"Linux","password":true,"vac":true,"version":"7742253","steam_id":85568392924494504,"keywords":["nocrits","nodmgspread","payload","uncletopia"],"game_id":440,"stv_port":27016,"stv_name":"Uncletopia | Hong Kong | 1 | All Maps | STV","players":[{"user_id":574,"name":"hpeed","steam_id":76561198808595586,"connected_time":1891000000000,"state":"active","ping":122},{"user_id":547,"name":"john ultrakill","steam_id":76561198442507642,"connected_time":3729000000000,"state":"active","ping":103},{"user_id":560,"name":"Buttman","steam_id":76561198044693388,"connected_time":3362000000000,"state":"active","ping":46},{"user_id":550,"name":"쿠키","steam_id":76561197997220367,"connected_time":3710000000000,"state":"active","ping":50},{"user_id":552,"name":"lettuce at 58p","steam_id":76561199401283123,"connected_time":3698000000000,"state":"active","ping":87},{"user_id":567,"name":"Owmyn","steam_id":76561199239651098,"connected_time":2759000000000,"state":"active","ping":102},{"user_id":546,"name":"Pillboi","steam_id":76561198011172886,"connected_time":3729000000000,"state":"active","ping":46},{"user_id":468,"name":"UltraFat","steam_id":76561198253918132,"connected_time":9782000000000,"state":"active","ping":80},{"user_id":521,"name":"ratfucker47","steam_id":76561198413116920,"connected_time":6117000000000,"state":"active","ping":83},{"user_id":538,"name":"Banana Milk","steam_id":76561198005156257,"connected_time":4715000000000,"state":"active","ping":124},{"user_id":577,"name":"no vc no c","steam_id":76561197989503095,"connected_time":1676000000000,"state":"active","ping":100},{"user_id":491,"name":"r/leroy","steam_id":76561199137927625,"connected_time":8221000000000,"state":"active","ping":101},{"user_id":537,"name":"screaming sniper","steam_id":76561199085568674,"connected_time":4882000000000,"state":"active","ping":71},{"user_id":568,"name":"Simoframe","steam_id":76561199111778304,"connected_time":2759000000000,"state":"active","ping":177},{"user_id":573,"name":"RACE","steam_id":76561198416788004,"connected_time":2117000000000,"state":"active","ping":110},{"user_id":492,"name":"Kirov airship","steam_id":76561199024960087,"connected_time":8199000000000,"state":"active","ping":72},{"user_id":576,"name":"AmaiToxic","steam_id":76561199122491157,"connected_time":1881000000000,"state":"active","ping":157},{"user_id":515,"name":"Corhix","steam_id":76561198968706355,"connected_time":6299000000000,"state":"active","ping":43},{"user_id":520,"name":"corpse_cadaver","steam_id":76561199225360457,"connected_time":6186000000000,"state":"active","ping":55},{"user_id":539,"name":"conq","steam_id":76561199110124835,"connected_time":4472000000000,"state":"active","ping":95},{"user_id":548,"name":"bocchi the oppai","steam_id":76561198008307645,"connected_time":3728000000000,"state":"active","ping":129},{"user_id":522,"name":"m1ko-  ❀❆","steam_id":76561198337154745,"connected_time":5870000000000,"state":"active","ping":91},{"user_id":581,"name":"pardo","steam_id":76561198230213828,"connected_time":119000000000,"state":"active","ping":74},{"user_id":562,"name":"yw","steam_id":76561199382726488,"connected_time":3268000000000,"state":"active","ping":78}]},{"server_id":1,"name":"Uncletopia | Los Angeles | 1 | All Maps","name_short":"lax-1","host":"lax-1.us.uncletopia.com","port":27015,"enabled":true,"region":"us-west","cc":"us","latitude":33.94279,"longitude":-118.41004,"reserved":0,"last_update":"0001-01-01T00:00:00Z","name_a2s":"Uncletopia | Los Angeles | 1 | All Maps","protocol":17,"map":"koth_viaduct","folder":"tf","game":"Team Fortress","app_id":440,"player_count":0,"max_players":24,"Bots":0,"server_type":"Dedicated","server_os":"Linux","password":true,"vac":true,"version":"7742253","steam_id":85568392924469991,"keywords":["cp","nocrits","nodmgspread","uncletopia"],"game_id":440,"stv_port":27016,"stv_name":"Uncletopia | Los Angeles | 1 | All Maps | STV","players":null},{"server_id":112,"name":"Uncletopia | Los Angeles | 2 | All Maps","name_short":"lax-2","host":"lax-1.us.uncletopia.com","port":27025,"enabled":true,"region":"us-west","cc":"us","latitude":33.94279,"longitude":-118.41004,"reserved":0,"last_update":"0001-01-01T00:00:00Z","name_a2s":"Uncletopia | Los Angeles | 2 | All Maps","protocol":17,"map":"koth_viaduct","folder":"tf","game":"Team Fortress","app_id":440,"player_count":0,"max_players":24,"Bots":0,"server_type":"Dedicated","server_os":"Linux","password":true,"vac":true,"version":"7742253","steam_id":85568392924469992,"keywords":["cp","nocrits","nodmgspread","uncletopia"],"game_id":440,"stv_port":27026,"stv_name":"Uncletopia | Los Angeles | 2 | All Maps | STV","players":null},{"server_id":324,"name":"Uncletopia | Los Angeles | 3 | All Maps","name_short":"lax-3","host":"lax-1.us.uncletopia.com","port":27035,"enabled":true,"region":"us-west","cc":"us","latitude":33.94279,"longitude":-118.41004,"reserved":0,"last_update":"0001-01-01T00:00:00Z","name_a2s":"Uncletopia | Los Angeles | 3 | All Maps","protocol":17,"map":"cp_altitude","folder":"tf","game":"Team Fortress","app_id":440,"player_count":0,"max_players":24,"Bots":0,"server_type":"Dedicated","server_os":"Linux","password":true,"vac":true,"version":"7742253","steam_id":85568392924510198,"keywords":["cp","nocrits","nodmgspread","uncletopia"],"game_id":440,"stv_port":27036,"stv_name":"Uncletopia | Los Angeles | 3 | All Maps | STV","players":null},{"server_id":25,"name":"Uncletopia | Los Angeles | 4 | Stopwatch Beta","name_short":"lax-4","host":"lax-1.us.uncletopia.com","port":27045,"enabled":true,"region":"us-west","cc":"us","latitude":33.94279,"longitude":-118.41004,"reserved":0,"last_update":"0001-01-01T00:00:00Z","name_a2s":"Uncletopia | Los Angeles | 4 | Stopwatch Beta","protocol":17,"map":"workshop/koth_product_final.ugc454272353","folder":"tf","game":"Team Fortress","app_id":440,"player_count":0,"max_players":24,"Bots":0,"server_type":"Dedicated","server_os":"Linux","password":true,"vac":true,"version":"7742253","steam_id":85568392924510199,"keywords":["cp","nocrits","nodmgspread","uncletopia"],"game_id":440,"stv_port":27046,"stv_name":"Uncletopia | Los Angeles | 4 | Stopwatch Beta | STV","players":null},{"server_id":11,"name":"Uncletopia | London | 1 | All Maps","name_short":"lon-1","host":"lon-1.uk.uncletopia.com","port":27015,"enabled":true,"region":"eu","cc":"gb","latitude":51.509865,"longitude":-0.118092,"reserved":0,"last_update":"0001-01-01T00:00:00Z","name_a2s":"Uncletopia | London | 1 | All Maps","protocol":17,"map":"pl_upward","folder":"tf","game":"Team Fortress","app_id":440,"player_count":24,"max_players":24,"Bots":0,"server_type":"Dedicated","server_os":"Linux","password":true,"vac":true,"version":"7742253","steam_id":85568392924367362,"keywords":["nocrits","nodmgspread","payload","uncletopia"],"game_id":440,"stv_port":27016,"stv_name":"Uncletopia | London | 1 | All Maps | STV","players":[{"user_id":204,"name":"Prison Mike","steam_id":76561198014221596,"connected_time":149000000000,"state":"active","ping":60},{"user_id":165,"name":"Pabs :D","steam_id":76561198000016962,"connected_time":3268000000000,"state":"active","ping":74},{"user_id":184,"name":"kackboon","steam_id":76561198044189114,"connected_time":1263000000000,"state":"active","ping":64},{"user_id":182,"name":"Fbafroguy","steam_id":76561199113010473,"connected_time":1275000000000,"state":"active","ping":47},{"user_id":175,"name":"nudjura","steam_id":76561198281986139,"connected_time":2303000000000,"state":"active","ping":44},{"user_id":200,"name":"ivanmixo","steam_id":76561198160213989,"connected_time":570000000000,"state":"active","ping":75},{"user_id":179,"name":"acid at 7/11","steam_id":76561198013232647,"connected_time":1309000000000,"state":"active","ping":74},{"user_id":196,"name":"Benito Mussolini","steam_id":76561198362801147,"connected_time":787000000000,"state":"active","ping":93},{"user_id":183,"name":"daanvanliempt05","steam_id":76561198355398948,"connected_time":1270000000000,"state":"active","ping":51},{"user_id":185,"name":"♫★Xriasp★♫","steam_id":76561198104721321,"connected_time":1257000000000,"state":"active","ping":99},{"user_id":174,"name":"Garfield is God","steam_id":76561198159537481,"connected_time":2509000000000,"state":"active","ping":60},{"user_id":203,"name":"Ghostly","steam_id":76561199229629421,"connected_time":384000000000,"state":"active","ping":155},{"user_id":202,"name":"TransWomanGaming","steam_id":76561198809645656,"connected_time":388000000000,"state":"active","ping":162},{"user_id":194,"name":"Caz","steam_id":76561198033412140,"connected_time":922000000000,"state":"active","ping":84},{"user_id":161,"name":"MarioThePlumber","steam_id":76561198314229530,"connected_time":3758000000000,"state":"active","ping":76},{"user_id":188,"name":"Marley","steam_id":76561198045380078,"connected_time":1246000000000,"state":"active","ping":72},{"user_id":191,"name":"Cillian","steam_id":76561199046965320,"connected_time":1209000000000,"state":"active","ping":70},{"user_id":192,"name":"PinkPillow","steam_id":76561198008937865,"connected_time":1152000000000,"state":"active","ping":45},{"user_id":137,"name":"csnipery","steam_id":76561199435280050,"connected_time":5515000000000,"state":"active","ping":69},{"user_id":199,"name":"SynthBox3","steam_id":76561199094075745,"connected_time":701000000000,"state":"active","ping":96},{"user_id":197,"name":"badass mafia toolbars","steam_id":76561198259668029,"connected_time":781000000000,"state":"active","ping":65},{"user_id":198,"name":"Pump Logger","steam_id":76561198914610283,"connected_time":727000000000,"state":"active","ping":81},{"user_id":176,"name":"Joseph Stalin LFT","steam_id":76561198033199746,"connected_time":2147000000000,"state":"active","ping":46},{"user_id":134,"name":"тукку ирма","steam_id":76561197998715016,"connected_time":5675000000000,"state":"active","ping":65}]},{"server_id":114,"name":"Uncletopia | London | 2 | All Maps","name_short":"lon-2","host":"lon-1.uk.uncletopia.com","port":27025,"enabled":true,"region":"eu","cc":"gb","latitude":51.509865,"longitude":-0.118092,"reserved":0,"last_update":"0001-01-01T00:00:00Z","name_a2s":"Uncletopia | London | 2 | All Maps","protocol":17,"map":"pl_barnblitz","folder":"tf","game":"Team Fortress","app_id":440,"player_count":1,"max_players":24,"Bots":0,"server_type":"Dedicated","server_os":"Linux","password":true,"vac":true,"version":"7742253","steam_id":85568392924470941,"keywords":["nocrits","nodmgspread","payload","uncletopia"],"game_id":440,"stv_port":27026,"stv_name":"Uncletopia | London | 2 | All Maps | STV","players":[{"user_id":10,"name":"Lucky","steam_id":76561198849854665,"connected_time":2000000000,"state":"spawning","ping":34}]},{"server_id":320,"name":"Uncletopia | London | 3 | All Maps","name_short":"lon-3","host":"lon-1.uk.uncletopia.com","port":27035,"enabled":true,"region":"eu","cc":"gb","latitude":51.509865,"longitude":-0.118092,"reserved":0,"last_update":"0001-01-01T00:00:00Z","name_a2s":"Uncletopia | London | 3 | All Maps","protocol":17,"map":"cp_sunshine","folder":"tf","game":"Team Fortress","app_id":440,"player_count":24,"max_players":24,"Bots":0,"server_type":"Dedicated","server_os":"Linux","password":true,"vac":true,"version":"7742253","steam_id":85568392924510192,"keywords":["cp","nocrits","nodmgspread","uncletopia"],"game_id":440,"stv_port":27036,"stv_name":"Uncletopia | London | 3 | All Maps | STV","players":[{"user_id":393,"name":"RelatableiLLness","steam_id":76561198441669772,"connected_time":794000000000,"state":"active","ping":143},{"user_id":395,"name":"KAZAM | Tervez","steam_id":76561198045459068,"connected_time":725000000000,"state":"active","ping":104},{"user_id":345,"name":"Donaldinho","steam_id":76561198026490299,"connected_time":2991000000000,"state":"active","ping":37},{"user_id":388,"name":"Hot._.Chocopops","steam_id":76561199025668594,"connected_time":936000000000,"state":"active","ping":64},{"user_id":404,"name":"Fat Pigeon","steam_id":76561198817940142,"connected_time":506000000000,"state":"active","ping":45},{"user_id":346,"name":"InKryption","steam_id":76561198125975094,"connected_time":2991000000000,"state":"active","ping":74},{"user_id":407,"name":"hallfelt","steam_id":76561199008716852,"connected_time":423000000000,"state":"active","ping":76},{"user_id":399,"name":"Guy with squares as username","steam_id":76561198269524918,"connected_time":628000000000,"state":"active","ping":51},{"user_id":409,"name":"[F2P] MalCo","steam_id":76561197994930440,"connected_time":27000000000,"state":"spawning","ping":66},{"user_id":329,"name":"doc","steam_id":76561198000050301,"connected_time":4409000000000,"state":"active","ping":55},{"user_id":378,"name":"AigleChene","steam_id":76561198180089715,"connected_time":1871000000000,"state":"active","ping":48},{"user_id":386,"name":"Carp","steam_id":76561198972038742,"connected_time":1612000000000,"state":"active","ping":70},{"user_id":384,"name":"SPONGE","steam_id":76561198040933472,"connected_time":1676000000000,"state":"active","ping":62},{"user_id":408,"name":"Explosive Poptart","steam_id":76561198023918830,"connected_time":176000000000,"state":"active","ping":44},{"user_id":349,"name":"Be!chqueen","steam_id":76561197961080789,"connected_time":2963000000000,"state":"active","ping":43},{"user_id":387,"name":"player","steam_id":76561198054474684,"connected_time":1012000000000,"state":"active","ping":83},{"user_id":398,"name":"green_frog","steam_id":76561199202028346,"connected_time":642000000000,"state":"active","ping":168},{"user_id":371,"name":"Benameme","steam_id":76561198074097655,"connected_time":1966000000000,"state":"active","ping":47},{"user_id":305,"name":"Swayer","steam_id":76561198056192460,"connected_time":5917000000000,"state":"active","ping":57},{"user_id":402,"name":"Venom","steam_id":76561197965947211,"connected_time":604000000000,"state":"active","ping":58},{"user_id":367,"name":"Holz is sleepy","steam_id":76561197994205997,"connected_time":2093000000000,"state":"active","ping":43},{"user_id":389,"name":"SimplePig","steam_id":76561198071862153,"connected_time":936000000000,"state":"active","ping":106},{"user_id":337,"name":"Noodle","steam_id":76561197997208006,"connected_time":4092000000000,"state":"active","ping":60},{"user_id":406,"name":"AndreiTatapopa","steam_id":76561198298605163,"connected_time":485000000000,"state":"active","ping":74}]},{"server_id":321,"name":"Uncletopia | London | 4 | All Maps","name_short":"lon-4","host":"lon-1.uk.uncletopia.com","port":27045,"enabled":true,"region":"eu","cc":"gb","latitude":51.509865,"longitude":-0.118092,"reserved":0,"last_update":"0001-01-01T00:00:00Z","name_a2s":"Uncletopia | London | 4 | All Maps","protocol":17,"map":"koth_highpass","folder":"tf","game":"Team Fortress","app_id":440,"player_count":0,"max_players":24,"Bots":0,"server_type":"Dedicated","server_os":"Linux","password":true,"vac":true,"version":"7742253","steam_id":85568392924510193,"keywords":["cp","nocrits","nodmgspread","uncletopia"],"game_id":440,"stv_port":27046,"stv_name":"Uncletopia | London | 4 | All Maps | STV","players":null},{"server_id":21,"name":"Uncletopia | London | 5 | All Maps","name_short":"lon-5","host":"lon-1.uk.uncletopia.com","port":27055,"enabled":true,"region":"eu","cc":"gb","latitude":51.509865,"longitude":-0.118092,"reserved":0,"last_update":"0001-01-01T00:00:00Z","name_a2s":"Uncletopia | London | 5 | All Maps","protocol":17,"map":"cp_sunshine","folder":"tf","game":"Team Fortress","app_id":440,"player_count":24,"max_players":24,"Bots":0,"server_type":"Dedicated","server_os":"Linux","password":true,"vac":true,"version":"7742253","steam_id":85568392924742829,"keywords":["cp","nocrits","nodmgspread","uncletopia"],"game_id":440,"stv_port":27056,"stv_name":"Uncletopia | London | 5 | All Maps | STV","players":[{"user_id":257,"name":"ねこ","steam_id":76561199119253607,"connected_time":928000000000,"state":"active","ping":75},{"user_id":259,"name":"DoctorTopLeL","steam_id":76561198088533595,"connected_time":863000000000,"state":"active","ping":102},{"user_id":258,"name":"Jughead","steam_id":76561198000355410,"connected_time":898000000000,"state":"active","ping":49},{"user_id":268,"name":"jose maria gonzales","steam_id":76561198054244573,"connected_time":785000000000,"state":"active","ping":87},{"user_id":272,"name":"mehmet","steam_id":76561198169334061,"connected_time":741000000000,"state":"active","ping":80},{"user_id":234,"name":"HanhiGaming","steam_id":76561198877007477,"connected_time":2920000000000,"state":"active","ping":79},{"user_id":262,"name":"soup","steam_id":76561198386933065,"connected_time":842000000000,"state":"active","ping":68},{"user_id":249,"name":"The Subway Scientist","steam_id":76561198193757646,"connected_time":2022000000000,"state":"active","ping":45},{"user_id":267,"name":"Explosion","steam_id":76561198033465837,"connected_time":792000000000,"state":"active","ping":80},{"user_id":250,"name":"Pasta Water Slurper","steam_id":76561198024883917,"connected_time":1991000000000,"state":"active","ping":136},{"user_id":177,"name":"popaj72","steam_id":76561198108657509,"connected_time":7017000000000,"state":"active","ping":34},{"user_id":263,"name":"Big Earning month","steam_id":76561198799097492,"connected_time":840000000000,"state":"active","ping":45},{"user_id":251,"name":"t.tv/FamilyGuyFunnyMoments277","steam_id":76561198416047580,"connected_time":1894000000000,"state":"active","ping":133},{"user_id":281,"name":"-gunripp0r^be / Obelix^","steam_id":76561197999306879,"connected_time":90000000000,"state":"active","ping":60},{"user_id":277,"name":"Carrot","steam_id":76561198119340863,"connected_time":349000000000,"state":"active","ping":124},{"user_id":269,"name":"Lalo Salamanca","steam_id":76561199116882319,"connected_time":784000000000,"state":"active","ping":40},{"user_id":279,"name":"Pancake","steam_id":76561198831844468,"connected_time":239000000000,"state":"active","ping":84},{"user_id":256,"name":"Zwphyr | TourBot.TF","steam_id":76561198160772793,"connected_time":949000000000,"state":"active","ping":53},{"user_id":278,"name":"Zembis","steam_id":76561198008017918,"connected_time":306000000000,"state":"active","ping":91},{"user_id":275,"name":"cute femboy","steam_id":76561198335315327,"connected_time":439000000000,"state":"active","ping":89},{"user_id":273,"name":"It hurts when i pee (real)","steam_id":76561198139404261,"connected_time":737000000000,"state":"active","ping":45},{"user_id":274,"name":"Zombiemops","steam_id":76561198089881293,"connected_time":735000000000,"state":"active","ping":68},{"user_id":223,"name":"FigazMaslam","steam_id":76561198148207978,"connected_time":3776000000000,"state":"active","ping":93},{"user_id":282,"name":"majora's boostio","steam_id":76561198392628642,"connected_time":71000000000,"state":"active","ping":42}]},{"server_id":22,"name":"Uncletopia | London | 6 | All Maps","name_short":"lon-6","host":"lon-1.uk.uncletopia.com","port":27065,"enabled":true,"region":"eu","cc":"gb","latitude":51.509865,"longitude":-0.118092,"reserved":0,"last_update":"0001-01-01T00:00:00Z","name_a2s":"Uncletopia | London | 6 | All Maps","protocol":17,"map":"cp_altitude","folder":"tf","game":"Team Fortress","app_id":440,"player_count":0,"max_players":24,"Bots":0,"server_type":"Dedicated","server_os":"Linux","password":true,"vac":true,"version":"7742253","steam_id":85568392924742830,"keywords":["cp","nocrits","nodmgspread","uncletopia"],"game_id":440,"stv_port":27066,"stv_name":"Uncletopia | London | 6 | All Maps | STV","players":null},{"server_id":40,"name":"Uncletopia | London | 7 | No Payload","name_short":"lon-7","host":"lon-1.uk.uncletopia.com","port":27075,"enabled":true,"region":"eu","cc":"gb","latitude":51.509865,"longitude":-0.118092,"reserved":0,"last_update":"0001-01-01T00:00:00Z","name_a2s":"Uncletopia | London | 7 | No Payload","protocol":17,"map":"koth_viaduct","folder":"tf","game":"Team Fortress","app_id":440,"player_count":0,"max_players":24,"Bots":0,"server_type":"Dedicated","server_os":"Linux","password":true,"vac":true,"version":"7742253","steam_id":85568392924964314,"keywords":["cp","nocrits","nodmgspread","uncletopia"],"game_id":440,"stv_port":27076,"stv_name":"Uncletopia | London | 7 | No Payload | STV","players":null},{"server_id":41,"name":"Uncletopia | London | 8 | Community","name_short":"lon-8","host":"lon-1.uk.uncletopia.com","port":27085,"enabled":true,"region":"eu","cc":"gb","latitude":51.509865,"longitude":-0.118092,"reserved":0,"last_update":"0001-01-01T00:00:00Z","name_a2s":"Uncletopia | London | 8 | Community","protocol":17,"map":"cp_altitude","folder":"tf","game":"Team Fortress","app_id":440,"player_count":0,"max_players":24,"Bots":0,"server_type":"Dedicated","server_os":"Linux","password":true,"vac":true,"version":"7742253","steam_id":85568392924964315,"keywords":["cp","nocrits","nodmgspread","uncletopia"],"game_id":440,"stv_port":27086,"stv_name":"Uncletopia | London | 8 | Community | STV","players":null},{"server_id":300,"name":"Uncletopia | Montréal | 1 | All Maps","name_short":"mtl-1","host":"mtl-1.ca.uncletopia.com","port":27015,"enabled":true,"region":"us-east","cc":"ca","latitude":45.50889,"longitude":-73.56167,"reserved":0,"last_update":"0001-01-01T00:00:00Z","name_a2s":"Uncletopia | Montréal | 1 | All Maps","protocol":17,"map":"cp_snakewater_final1","folder":"tf","game":"Team Fortress","app_id":440,"player_count":0,"max_players":24,"Bots":0,"server_type":"Dedicated","server_os":"Linux","password":true,"vac":true,"version":"7742253","steam_id":85568392924500087,"keywords":["cp","nocrits","nodmgspread","uncletopia"],"game_id":440,"stv_port":27016,"stv_name":"Uncletopia | Montréal | 1 | All Maps | STV","players":null},{"server_id":301,"name":"Uncletopia | Montréal | 2 | All Maps","name_short":"mtl-2","host":"mtl-1.ca.uncletopia.com","port":27025,"enabled":true,"region":"us-east","cc":"ca","latitude":45.50889,"longitude":-73.56167,"reserved":0,"last_update":"0001-01-01T00:00:00Z","name_a2s":"Uncletopia | Montréal | 2 | All Maps","protocol":17,"map":"koth_highpass","folder":"tf","game":"Team Fortress","app_id":440,"player_count":0,"max_players":24,"Bots":0,"server_type":"Dedicated","server_os":"Linux","password":true,"vac":true,"version":"7742253","steam_id":85568392924500088,"keywords":["cp","nocrits","nodmgspread","uncletopia"],"game_id":440,"stv_port":27026,"stv_name":"Uncletopia | Montréal | 2 | All Maps | STV","players":null},{"server_id":302,"name":"Uncletopia | Montréal | 3 | All Maps","name_short":"mtl-3","host":"mtl-1.ca.uncletopia.com","port":27035,"enabled":true,"region":"us-east","cc":"ca","latitude":45.50889,"longitude":-73.56167,"reserved":0,"last_update":"0001-01-01T00:00:00Z","name_a2s":"Uncletopia | Montréal | 3 | All Maps","protocol":17,"map":"cp_mountainlab","folder":"tf","game":"Team Fortress","app_id":440,"player_count":0,"max_players":24,"Bots":0,"server_type":"Dedicated","server_os":"Linux","password":true,"vac":true,"version":"7742253","steam_id":85568392924500089,"keywords":["cp","nocrits","nodmgspread","uncletopia"],"game_id":440,"stv_port":27036,"stv_name":"Uncletopia | Montréal | 3 | All Maps | STV","players":null},{"server_id":303,"name":"Uncletopia | Montréal | 4 | No Payload","name_short":"mtl-4","host":"mtl-1.ca.uncletopia.com","port":27045,"enabled":true,"region":"us-east","cc":"ca","latitude":45.50889,"longitude":-73.56167,"reserved":0,"last_update":"0001-01-01T00:00:00Z","name_a2s":"Uncletopia | Montréal | 4 | No Payload","protocol":17,"map":"cp_snakewater_final1","folder":"tf","game":"Team Fortress","app_id":440,"player_count":0,"max_players":24,"Bots":0,"server_type":"Dedicated","server_os":"Linux","password":true,"vac":true,"version":"7742253","steam_id":85568392924500090,"keywords":["cp","nocrits","nodmgspread","uncletopia"],"game_id":440,"stv_port":27046,"stv_name":"Uncletopia | Montréal | 4 | No Payload | STV","players":null},{"server_id":13,"name":"Uncletopia | New York City | 1 | All Maps","name_short":"nyc-1","host":"nyc-1.us.uncletopia.com","port":27015,"enabled":true,"region":"us-east","cc":"us","latitude":40.73061,"longitude":-73.93524,"reserved":0,"last_update":"0001-01-01T00:00:00Z","name_a2s":"Uncletopia | New York City | 1 | All Maps","protocol":17,"map":"cp_mountainlab","folder":"tf","game":"Team Fortress","app_id":440,"player_count":0,"max_players":24,"Bots":0,"server_type":"Dedicated","server_os":"Linux","password":true,"vac":true,"version":"7742253","steam_id":85568392924469993,"keywords":["cp","nocrits","nodmgspread","uncletopia"],"game_id":440,"stv_port":27016,"stv_name":"Uncletopia | New York City | 1 | All Maps | STV","players":null},{"server_id":14,"name":"Uncletopia | New York City | 2 | All Maps","name_short":"nyc-2","host":"nyc-1.us.uncletopia.com","port":27025,"enabled":true,"region":"us-east","cc":"us","latitude":40.73061,"longitude":-73.93524,"reserved":0,"last_update":"0001-01-01T00:00:00Z","name_a2s":"Uncletopia | New York City | 2 | All Maps","protocol":17,"map":"cp_altitude","folder":"tf","game":"Team Fortress","app_id":440,"player_count":0,"max_players":24,"Bots":0,"server_type":"Dedicated","server_os":"Linux","password":true,"vac":true,"version":"7742253","steam_id":85568392924469994,"keywords":["cp","nocrits","nodmgspread","uncletopia"],"game_id":440,"stv_port":27026,"stv_name":"Uncletopia | New York City | 2 | All Maps | STV","players":null},{"server_id":15,"name":"Uncletopia | New York City | 3 | Stopwatch Beta","name_short":"nyc-3","host":"nyc-1.us.uncletopia.com","port":27035,"enabled":true,"region":"us-east","cc":"us","latitude":40.73061,"longitude":-73.93524,"reserved":0,"last_update":"0001-01-01T00:00:00Z","name_a2s":"Uncletopia | New York City | 3 | Stopwatch Beta","protocol":17,"map":"pl_pier","folder":"tf","game":"Team Fortress","app_id":440,"player_count":0,"max_players":24,"Bots":0,"server_type":"Dedicated","server_os":"Linux","password":true,"vac":true,"version":"7742253","steam_id":85568392924742820,"keywords":["nocrits","nodmgspread","payload","uncletopia"],"game_id":440,"stv_port":27036,"stv_name":"Uncletopia | New York City | 3 | Stopwatch Beta | STV","players":null},{"server_id":16,"name":"Uncletopia | New York City | 4 | Community","name_short":"nyc-4","host":"nyc-1.us.uncletopia.com","port":27045,"enabled":true,"region":"us-east","cc":"us","latitude":40.73061,"longitude":-73.93524,"reserved":0,"last_update":"0001-01-01T00:00:00Z","name_a2s":"Uncletopia | New York City | 4 | Community","protocol":17,"map":"koth_viaduct","folder":"tf","game":"Team Fortress","app_id":440,"player_count":0,"max_players":24,"Bots":0,"server_type":"Dedicated","server_os":"Linux","password":true,"vac":true,"version":"7742253","steam_id":85568392924742821,"keywords":["cp","nocrits","nodmgspread","uncletopia"],"game_id":440,"stv_port":27046,"stv_name":"Uncletopia | New York City | 4 | Community | STV","players":null},{"server_id":142,"name":"Uncletopia | São Paulo | 1 | All Maps","name_short":"sao-1","host":"sao-1.br.uncletopia.com","port":27015,"enabled":true,"region":"sa","cc":"br","latitude":-23.533773,"longitude":-46.62529,"reserved":0,"last_update":"0001-01-01T00:00:00Z","name_a2s":"Uncletopia | São Paulo | 1 | All Maps","protocol":17,"map":"koth_viaduct","folder":"tf","game":"Team Fortress","app_id":440,"player_count":0,"max_players":24,"Bots":0,"server_type":"Dedicated","server_os":"Linux","password":true,"vac":true,"version":"7742253","steam_id":85568392924469996,"keywords":["cp","nocrits","nodmgspread","uncletopia"],"game_id":440,"stv_port":27016,"stv_name":"Uncletopia | São Paulo | 1 | All Maps | STV","players":null},{"server_id":143,"name":"Uncletopia | São Paulo | 2 | All Maps","name_short":"sao-2","host":"sao-2.br.uncletopia.com","port":27015,"enabled":true,"region":"sa","cc":"br","latitude":-23.533773,"longitude":-46.62529,"reserved":0,"last_update":"0001-01-01T00:00:00Z","name_a2s":"Uncletopia | São Paulo | 2 | All Maps","protocol":17,"map":"koth_viaduct","folder":"tf","game":"Team Fortress","app_id":440,"player_count":0,"max_players":24,"Bots":0,"server_type":"Dedicated","server_os":"Linux","password":true,"vac":true,"version":"7742253","steam_id":85568392924485349,"keywords":["cp","nocrits","nodmgspread","uncletopia"],"game_id":440,"stv_port":27016,"stv_name":"Uncletopia | São Paulo | 2 | All Maps | STV","players":null},{"server_id":7,"name":"Uncletopia | Seattle | 1 | All Maps","name_short":"sea-1","host":"sea-1.us.uncletopia.com","port":27015,"enabled":true,"region":"us-west","cc":"us","latitude":47.608013,"longitude":-122.33517,"reserved":0,"last_update":"0001-01-01T00:00:00Z","name_a2s":"Uncletopia | Seattle | 1 | All Maps","protocol":17,"map":"koth_lakeside_final","folder":"tf","game":"Team Fortress","app_id":440,"player_count":0,"max_players":24,"Bots":0,"server_type":"Dedicated","server_os":"Linux","password":true,"vac":true,"version":"7742253","steam_id":85568392924469997,"keywords":["cp","nocrits","nodmgspread","uncletopia"],"game_id":440,"stv_port":27016,"stv_name":"Uncletopia | Seattle | 1 | All Maps | STV","players":null},{"server_id":119,"name":"Uncletopia | Seattle | 2 | All Maps","name_short":"sea-2","host":"sea-1.us.uncletopia.com","port":27025,"enabled":true,"region":"us-west","cc":"us","latitude":47.608013,"longitude":-122.33517,"reserved":0,"last_update":"0001-01-01T00:00:00Z","name_a2s":"Uncletopia | Seattle | 2 | All Maps","protocol":17,"map":"koth_highpass","folder":"tf","game":"Team Fortress","app_id":440,"player_count":0,"max_players":24,"Bots":0,"server_type":"Dedicated","server_os":"Linux","password":true,"vac":true,"version":"7742253","steam_id":85568392924469998,"keywords":["cp","nocrits","nodmgspread","uncletopia"],"game_id":440,"stv_port":27026,"stv_name":"Uncletopia | Seattle | 2 | All Maps | STV","players":null},{"server_id":406,"name":"Uncletopia | Seattle | 3 | Stopwatch Beta","name_short":"sea-3","host":"sea-1.us.uncletopia.com","port":27035,"enabled":true,"region":"us-west","cc":"us","latitude":47.608013,"longitude":-122.33517,"reserved":0,"last_update":"0001-01-01T00:00:00Z","name_a2s":"Uncletopia | Seattle | 3 | Stopwatch Beta","protocol":17,"map":"pl_borneo","folder":"tf","game":"Team Fortress","app_id":440,"player_count":0,"max_players":24,"Bots":0,"server_type":"Dedicated","server_os":"Linux","password":true,"vac":true,"version":"7742253","steam_id":85568392924515217,"keywords":["nocrits","nodmgspread","payload","uncletopia"],"game_id":440,"stv_port":27036,"stv_name":"Uncletopia | Seattle | 3 | Stopwatch Beta | STV","players":null},{"server_id":17,"name":"Uncletopia | San Francisco | 1 | All Maps","name_short":"sfo-1","host":"sfo-1.us.uncletopia.com","port":27015,"enabled":true,"region":"us-west","cc":"us","latitude":37.77397,"longitude":-122.4313,"reserved":0,"last_update":"0001-01-01T00:00:00Z","name_a2s":"Uncletopia | San Francisco | 1 | All Maps","protocol":17,"map":"koth_highpass","folder":"tf","game":"Team Fortress","app_id":440,"player_count":0,"max_players":24,"Bots":0,"server_type":"Dedicated","server_os":"Linux","password":true,"vac":true,"version":"7742253","steam_id":85568392924469999,"keywords":["cp","nocrits","nodmgspread","uncletopia"],"game_id":440,"stv_port":27016,"stv_name":"Uncletopia | San Francisco | 1 | All Maps | STV","players":null},{"server_id":18,"name":"Uncletopia | San Francisco | 2 | All Maps","name_short":"sfo-2","host":"sfo-1.us.uncletopia.com","port":27025,"enabled":true,"region":"us-west","cc":"us","latitude":37.77397,"longitude":-122.4313,"reserved":0,"last_update":"0001-01-01T00:00:00Z","name_a2s":"Uncletopia | San Francisco | 2 | All Maps","protocol":17,"map":"koth_lakeside_final","folder":"tf","game":"Team Fortress","app_id":440,"player_count":0,"max_players":24,"Bots":0,"server_type":"Dedicated","server_os":"Linux","password":true,"vac":true,"version":"7742253","steam_id":85568392924470000,"keywords":["cp","nocrits","nodmgspread","uncletopia"],"game_id":440,"stv_port":27026,"stv_name":"Uncletopia | San Francisco | 2 | All Maps | STV","players":null},{"server_id":19,"name":"Uncletopia | San Francisco | 3 | Stopwatch Beta","name_short":"sfo-3","host":"sfo-1.us.uncletopia.com","port":27035,"enabled":true,"region":"us-west","cc":"us","latitude":37.77397,"longitude":-122.4313,"reserved":0,"last_update":"0001-01-01T00:00:00Z","name_a2s":"Uncletopia | San Francisco | 3 | Stopwatch Beta","protocol":17,"map":"workshop/cp_process_f11.ugc2302948105","folder":"tf","game":"Team Fortress","app_id":440,"player_count":0,"max_players":24,"Bots":0,"server_type":"Dedicated","server_os":"Linux","password":true,"vac":true,"version":"7742253","steam_id":85568392924742824,"keywords":["cp","nocrits","nodmgspread","uncletopia"],"game_id":440,"stv_port":27036,"stv_name":"Uncletopia | San Francisco | 3 | Stopwatch Beta | STV","players":null},{"server_id":20,"name":"Uncletopia | San Francisco | 4 | Community","name_short":"sfo-4","host":"sfo-1.us.uncletopia.com","port":27045,"enabled":true,"region":"us-west","cc":"us","latitude":37.77397,"longitude":-122.4313,"reserved":0,"last_update":"0001-01-01T00:00:00Z","name_a2s":"Uncletopia | San Francisco | 4 | Community","protocol":17,"map":"workshop/koth_slaughter_rc1.ugc1712845210","folder":"tf","game":"Team Fortress","app_id":440,"player_count":0,"max_players":24,"Bots":0,"server_type":"Dedicated","server_os":"Linux","password":true,"vac":true,"version":"7742253","steam_id":85568392924742826,"keywords":["cp","nocrits","nodmgspread","uncletopia"],"game_id":440,"stv_port":27046,"stv_name":"Uncletopia | San Francisco | 4 | Community | STV","players":null},{"server_id":141,"name":"Uncletopia | Sydney | 1 | All Maps","name_short":"syd-1","host":"syd-1.au.uncletopia.com","port":27015,"enabled":true,"region":"au","cc":"au","latitude":-33.865143,"longitude":151.2099,"reserved":0,"last_update":"0001-01-01T00:00:00Z","name_a2s":"Uncletopia | Sydney | 1 | All Maps","protocol":17,"map":"cp_process_final","folder":"tf","game":"Team Fortress","app_id":440,"player_count":0,"max_players":24,"Bots":0,"server_type":"Dedicated","server_os":"Linux","password":true,"vac":true,"version":"7742253","steam_id":85568392924470001,"keywords":["cp","nocrits","nodmgspread","uncletopia"],"game_id":440,"stv_port":27016,"stv_name":"Uncletopia | Sydney | 1 | All Maps | STV","players":null},{"server_id":123,"name":"Uncletopia | Sydney | 2 | All Maps","name_short":"syd-2","host":"syd-1.au.uncletopia.com","port":27025,"enabled":true,"region":"au","cc":"au","latitude":-33.865143,"longitude":151.2099,"reserved":0,"last_update":"0001-01-01T00:00:00Z","name_a2s":"Uncletopia | Sydney | 2 | All Maps","protocol":17,"map":"cp_sunshine","folder":"tf","game":"Team Fortress","app_id":440,"player_count":16,"max_players":24,"Bots":0,"server_type":"Dedicated","server_os":"Linux","password":true,"vac":true,"version":"7742253","steam_id":85568392924470002,"keywords":["cp","nocrits","nodmgspread","uncletopia"],"game_id":440,"stv_port":27026,"stv_name":"Uncletopia | Sydney | 2 | All Maps | STV","players":[{"user_id":705,"name":"the crying fat cat","steam_id":76561198824008464,"connected_time":648000000000,"state":"active","ping":153},{"user_id":724,"name":"SoggySardines","steam_id":76561198999605710,"connected_time":44000000000,"state":"spawning","ping":318},{"user_id":709,"name":"downloadmorememes.gov","steam_id":76561198043631770,"connected_time":552000000000,"state":"active","ping":46},{"user_id":677,"name":"i know kung fu","steam_id":76561198011433474,"connected_time":2241000000000,"state":"active","ping":52},{"user_id":697,"name":"Hot Yoga Instructor","steam_id":76561199163801558,"connected_time":857000000000,"state":"active","ping":45},{"user_id":693,"name":"Pontius Pilate","steam_id":76561198025819029,"connected_time":916000000000,"state":"active","ping":46},{"user_id":720,"name":"logan.dykins09","steam_id":76561199143456682,"connected_time":185000000000,"state":"active","ping":305},{"user_id":722,"name":"nightmare2503","steam_id":76561199100642588,"connected_time":131000000000,"state":"active","ping":60},{"user_id":704,"name":"0_0","steam_id":76561198283292259,"connected_time":671000000000,"state":"active","ping":45},{"user_id":689,"name":"LightningBlock","steam_id":76561198289997742,"connected_time":1198000000000,"state":"active","ping":44},{"user_id":706,"name":"mike hock","steam_id":76561199370425639,"connected_time":645000000000,"state":"active","ping":44},{"user_id":707,"name":"Pat331","steam_id":76561198391519722,"connected_time":634000000000,"state":"active","ping":46},{"user_id":721,"name":"luhansen957","steam_id":76561199407984363,"connected_time":178000000000,"state":"active","ping":251},{"user_id":673,"name":"z","steam_id":76561198302670452,"connected_time":2474000000000,"state":"active","ping":60},{"user_id":657,"name":"Blazey 伊達 政宗","steam_id":76561197971082275,"connected_time":3094000000000,"state":"active","ping":116},{"user_id":690,"name":"MikkyD","steam_id":76561198043452962,"connected_time":1042000000000,"state":"active","ping":60}]},{"server_id":395,"name":"Uncletopia | Sydney | 3 | All Maps","name_short":"syd-3","host":"syd-1.au.uncletopia.com","port":27035,"enabled":true,"region":"au","cc":"au","latitude":-33.865143,"longitude":151.2099,"reserved":0,"last_update":"0001-01-01T00:00:00Z","name_a2s":"Uncletopia | Sydney | 3 | All Maps","protocol":17,"map":"pl_upward","folder":"tf","game":"Team Fortress","app_id":440,"player_count":4,"max_players":24,"Bots":0,"server_type":"Dedicated","server_os":"Linux","password":true,"vac":true,"version":"7742253","steam_id":85568392925194467,"keywords":["nocrits","nodmgspread","payload","uncletopia"],"game_id":440,"stv_port":27036,"stv_name":"Uncletopia | Sydney | 3 | All Maps | STV","players":[{"user_id":75,"name":"OGkitCat","steam_id":76561198051662018,"connected_time":1939000000000,"state":"active","ping":97},{"user_id":86,"name":"trolder","steam_id":76561198060176705,"connected_time":872000000000,"state":"active","ping":99},{"user_id":80,"name":"Tat","steam_id":76561198376568547,"connected_time":1669000000000,"state":"active","ping":53},{"user_id":85,"name":"Bryos","steam_id":76561199091643381,"connected_time":977000000000,"state":"active","ping":89}]},{"server_id":396,"name":"Uncletopia | Sydney | 4 | All Maps","name_short":"syd-4","host":"syd-1.au.uncletopia.com","port":27045,"enabled":true,"region":"au","cc":"au","latitude":-33.865143,"longitude":151.2099,"reserved":0,"last_update":"0001-01-01T00:00:00Z","name_a2s":"Uncletopia | Sydney | 4 | All Maps","protocol":17,"map":"cp_mountainlab","folder":"tf","game":"Team Fortress","app_id":440,"player_count":0,"max_players":24,"Bots":0,"server_type":"Dedicated","server_os":"Linux","password":true,"vac":true,"version":"7742253","steam_id":85568392925397958,"keywords":["cp","nocrits","nodmgspread","uncletopia"],"game_id":440,"stv_port":27046,"stv_name":"Uncletopia | Sydney | 4 | All Maps | STV","players":null},{"server_id":58,"name":"Uncletopia | Sydney | 5 | Stopwatch Beta","name_short":"syd-5","host":"syd-1.au.uncletopia.com","port":27055,"enabled":true,"region":"au","cc":"au","latitude":-33.865143,"longitude":151.2099,"reserved":0,"last_update":"0001-01-01T00:00:00Z","name_a2s":"Uncletopia | Sydney | 5 | Stopwatch Beta","protocol":17,"map":"koth_highpass","folder":"tf","game":"Team Fortress","app_id":440,"player_count":0,"max_players":24,"Bots":0,"server_type":"Dedicated","server_os":"Linux","password":true,"vac":true,"version":"7742253","steam_id":85568392925397959,"keywords":["cp","nocrits","nodmgspread","uncletopia"],"game_id":440,"stv_port":27056,"stv_name":"Uncletopia | Sydney | 5 | Stopwatch Beta | STV","players":null},{"server_id":59,"name":"Uncletopia | Sydney | 6 | Community","name_short":"syd-6","host":"syd-1.au.uncletopia.com","port":27065,"enabled":true,"region":"au","cc":"au","latitude":-33.865143,"longitude":151.2099,"reserved":0,"last_update":"0001-01-01T00:00:00Z","name_a2s":"Uncletopia | Sydney | 6 | Community","protocol":17,"map":"workshop/koth_ramjam_rc1.ugc459778887","folder":"tf","game":"Team Fortress","app_id":440,"player_count":0,"max_players":24,"Bots":0,"server_type":"Dedicated","server_os":"Linux","password":true,"vac":true,"version":"7742253","steam_id":85568392925397960,"keywords":["cp","nocrits","nodmgspread","uncletopia"],"game_id":440,"stv_port":27066,"stv_name":"Uncletopia | Sydney | 6 | Community | STV","players":null},{"server_id":49,"name":"Uncletopia | Warsaw | 1 | All Maps","name_short":"waw-1","host":"waw-1.pl.uncletopia.com","port":27015,"enabled":true,"region":"eu","cc":"pl","latitude":52.2297,"longitude":21.017532,"reserved":0,"last_update":"0001-01-01T00:00:00Z","name_a2s":"","protocol":0,"map":"","folder":"","game":"","app_id":0,"player_count":0,"max_players":0,"Bots":0,"server_type":"","server_os":"","password":false,"vac":false,"version":"","steam_id":0,"keywords":null,"game_id":0,"stv_port":0,"stv_name":"","players":null},{"server_id":50,"name":"Uncletopia | Warsaw | 2 | All Maps","name_short":"waw-2","host":"waw-1.pl.uncletopia.com","port":27025,"enabled":true,"region":"eu","cc":"pl","latitude":52.2297,"longitude":21.017532,"reserved":0,"last_update":"0001-01-01T00:00:00Z","name_a2s":"Uncletopia | Warsaw | 2 | All Maps","protocol":17,"map":"cp_mountainlab","folder":"tf","game":"Team Fortress","app_id":440,"player_count":0,"max_players":24,"Bots":0,"server_type":"Dedicated","server_os":"Linux","password":true,"vac":true,"version":"7742253","steam_id":85568392925397851,"keywords":["cp","nocrits","nodmgspread","uncletopia"],"game_id":440,"stv_port":27026,"stv_name":"Uncletopia | Warsaw | 2 | All Maps | STV","players":null},{"server_id":51,"name":"Uncletopia | Warsaw | 3 | All Maps","name_short":"waw-3","host":"waw-1.pl.uncletopia.com","port":27035,"enabled":true,"region":"eu","cc":"pl","latitude":52.2297,"longitude":21.017532,"reserved":0,"last_update":"0001-01-01T00:00:00Z","name_a2s":"Uncletopia | Warsaw | 3 | All Maps","protocol":17,"map":"koth_lakeside_final","folder":"tf","game":"Team Fortress","app_id":440,"player_count":0,"max_players":24,"Bots":0,"server_type":"Dedicated","server_os":"Linux","password":true,"vac":true,"version":"7742253","steam_id":85568392925397852,"keywords":["cp","nocrits","nodmgspread","uncletopia"],"game_id":440,"stv_port":27036,"stv_name":"Uncletopia | Warsaw | 3 | All Maps | STV","players":null},{"server_id":52,"name":"Uncletopia | Warsaw | 4 | All Maps","name_short":"waw-4","host":"waw-1.pl.uncletopia.com","port":27045,"enabled":true,"region":"eu","cc":"pl","latitude":52.2297,"longitude":21.017532,"reserved":0,"last_update":"0001-01-01T00:00:00Z","name_a2s":"Uncletopia | Warsaw | 4 | All Maps","protocol":17,"map":"pl_upward","folder":"tf","game":"Team Fortress","app_id":440,"player_count":2,"max_players":24,"Bots":0,"server_type":"Dedicated","server_os":"Linux","password":true,"vac":true,"version":"7742253","steam_id":85568392925397853,"keywords":["nocrits","nodmgspread","payload","uncletopia"],"game_id":440,"stv_port":27046,"stv_name":"Uncletopia | Warsaw | 4 | All Maps | STV","players":[{"user_id":6,"name":"iatedirtANDsand","steam_id":76561199350177866,"connected_time":1831000000000,"state":"active","ping":82},{"user_id":8,"name":"lorin fortuna","steam_id":76561199202836089,"connected_time":1799000000000,"state":"active","ping":74}]},{"server_id":53,"name":"Uncletopia | Warsaw | 5 | Stopwatch Beta","name_short":"waw-5","host":"waw-1.pl.uncletopia.com","port":27055,"enabled":true,"region":"eu","cc":"pl","latitude":52.2297,"longitude":21.017532,"reserved":0,"last_update":"0001-01-01T00:00:00Z","name_a2s":"Uncletopia | Warsaw | 5 | Stopwatch Beta","protocol":17,"map":"pl_swiftwater_final1","folder":"tf","game":"Team Fortress","app_id":440,"player_count":0,"max_players":24,"Bots":0,"server_type":"Dedicated","server_os":"Linux","password":true,"vac":true,"version":"7742253","steam_id":85568392925397854,"keywords":["nocrits","nodmgspread","payload","uncletopia"],"game_id":440,"stv_port":27056,"stv_name":"Uncletopia | Warsaw | 5 | Stopwatch Beta | STV","players":null},{"server_id":54,"name":"Uncletopia | Warsaw | 6 | Community","name_short":"waw-6","host":"waw-1.pl.uncletopia.com","port":27065,"enabled":true,"region":"eu","cc":"pl","latitude":52.2297,"longitude":21.017532,"reserved":0,"last_update":"0001-01-01T00:00:00Z","name_a2s":"Uncletopia | Warsaw | 6 | Community","protocol":17,"map":"koth_highpass","folder":"tf","game":"Team Fortress","app_id":440,"player_count":0,"max_players":24,"Bots":0,"server_type":"Dedicated","server_os":"Linux","password":true,"vac":true,"version":"7742253","steam_id":85568392925397856,"keywords":["cp","nocrits","nodmgspread","uncletopia"],"game_id":440,"stv_port":27066,"stv_name":"Uncletopia | Warsaw | 6 | Community | STV","players":null}]}