{"status":true,"message":"","result":[{"server_id":9,"name":"Uncletopia | Atlanta | 1 | All Maps","name_short":"atl-1","host":"atl-1.us.uncletopia.com","port":27015,"enabled":true,"region":"us-east","cc":"us","latitude":33.753746,"longitude":-84.38633,"reserved":0,"last_update":"0001-01-01T00:00:00Z","name_a2s":"Uncletopia | Atlanta | 1 | All Maps","protocol":17,"map":"koth_viaduct","folder":"tf","game":"Team Fortress","app_id":440,"player_count":24,"max_players":24,"Bots":0,"server_type":"Dedicated","server_os":"Linux","password":true,"vac":true,"version":"7961495","steam_id":85568392924469982,"keywords":["cp","nocrits","nodmgspread","uncletopia"],"game_id":440,"stv_port":27016,"stv_name":"Uncletopia | Atlanta | 1 | All Maps | STV","players":[{"user_id":49,"name":"enderblade415","steam_id":76561199222947913,"connected_time":277000000000,"state":"active","ping":81},{"user_id":54,"name":"Gus Fring","steam_id":76561199022178492,"connected_time":159000000000,"state":"active","ping":64},{"user_id":28,"name":"SnazzyCelestial","steam_id":76561198328763813,"connected_time":1152000000000,"state":"active","ping":66},{"user_id":29,"name":"Obelisk","steam_id":76561198049416866,"connected_time":1030000000000,"state":"active","ping":59},{"user_id":30,"name":"BLOW UP NEW JERSEY","steam_id":76561198364439575,"connected_time":956000000000,"state":"active","ping":57},{"user_id":32,"name":"Professional Femboy","steam_id":76561198162303472,"connected_time":822000000000,"state":"active","ping":48},{"user_id":33,"name":"Captain Cutler's Horny Ghost","steam_id":76561198129293584,"connected_time":773000000000,"state":"active","ping":85},{"user_id":34,"name":"Biggus idiotus","steam_id":76561198037218103,"connected_time":743000000000,"state":"active","ping":57},{"user_id":35,"name":"TamerMushroom64","steam_id":76561199128190180,"connected_time":712000000000,"state":"active","ping":99},{"user_id":37,"name":"Sagoogoo","steam_id":76561198176061614,"connected_time":590000000000,"state":"active","ping":83},{"user_id":43,"name":"Gabagool","steam_id":76561198127972568,"connected_time":410000000000,"state":"active","ping":46},{"user_id":39,"name":"Messy","steam_id":76561199095580664,"connected_time":528000000000,"state":"active","ping":137},{"user_id":52,"name":"LOFILE","steam_id":76561198083798918,"connected_time":228000000000,"state":"active","ping":68},{"user_id":41,"name":"ATL1 | SparkStorm","steam_id":76561198095817025,"connected_time":504000000000,"state":"active","ping":37},{"user_id":42,"name":"artichoke","steam_id":76561198980994364,"connected_time":490000000000,"state":"active","ping":95},{"user_id":45,"name":"cass","steam_id":76561198074502046,"connected_time":351000000000,"state":"active","ping":111},{"user_id":46,"name":"Sean","steam_id":76561198892489967,"connected_time":328000000000,"state":"active","ping":86},{"user_id":47,"name":"Cardboard10","steam_id":76561198095427456,"connected_time":312000000000,"state":"active","ping":68},{"user_id":48,"name":"Nørzaq","steam_id":76561198143188802,"connected_time":285000000000,"state":"active","ping":117},{"user_id":50,"name":"Scorch","steam_id":76561198167024005,"connected_time":269000000000,"state":"active","ping":63},{"user_id":51,"name":"BlueKirbvii","steam_id":76561199021459412,"connected_time":260000000000,"state":"active","ping":92},{"user_id":55,"name":"frenemy","steam_id":76561198011363677,"connected_time":119000000000,"state":"active","ping":71},{"user_id":56,"name":"i need a beer","steam_id":76561198031400151,"connected_time":101000000000,"state":"active","ping":59},{"user_id":57,"name":"Neptune˖⁺｡˚⋆˙♥","steam_id":76561199054203198,"connected_time":43000000000,"state":"active","ping":60}]},{"server_id":104,"name":"Uncletopia | Atlanta | 2 | All Maps","name_short":"atl-2","host":"atl-1.us.uncletopia.com","port":27025,"enabled":true,"region":"us-east","cc":"us","latitude":33.753746,"longitude":-84.38633,"reserved":0,"last_update":"0001-01-01T00:00:00Z","name_a2s":"Uncletopia | Atlanta | 2 | All Maps","protocol":17,"map":"koth_cascade","folder":"tf","game":"Team Fortress","app_id":440,"player_count":0,"max_players":24,"Bots":0,"server_type":"Dedicated","server_os":"Linux","password":true,"vac":true,"version":"7961495","steam_id":85568392924469983,"keywords":["cp","nocrits","nodmgspread","uncletopia"],"game_id":440,"stv_port":27026,"stv_name":"Uncletopia | Atlanta | 2 | All Maps | STV","players":null},{"server_id":400,"name":"Uncletopia | Atlanta | 3 | Stopwatch","name_short":"atl-3","host":"atl-1.us.uncletopia.com","port":27035,"enabled":true,"region":"us-east","cc":"us","latitude":33.753746,"longitude":-84.38633,"reserved":0,"last_update":"0001-01-01T00:00:00Z","name_a2s":"Uncletopia | Atlanta | 3 | Stopwatch","protocol":17,"map":"cp_snakewater_final1","folder":"tf","game":"Team Fortress","app_id":440,"player_count":0,"max_players":24,"Bots":0,"server_type":"Dedicated","server_os":"Linux","password":true,"vac":true,"version":"7961495","steam_id":85568392924515187,"keywords":["cp","nocrits","nodmgspread","uncletopia"],"game_id":440,"stv_port":27036,"stv_name":"Uncletopia | Atlanta | 3 | Stopwatch | STV","players":null},{"server_id":401,"name":"Uncletopia | Atlanta | 4 | Community","name_short":"atl-4","host":"atl-1.us.uncletopia.com","port":27045,"enabled":true,"region":"us-east","cc":"us","latitude":33.753746,"longitude":-84.38633,"reserved":0,"last_update":"0001-01-01T00:00:00Z","name_a2s":"Uncletopia | Atlanta | 4 | Community","protocol":17,"map":"cp_sunshine","folder":"tf","game":"Team Fortress","app_id":440,"player_count":0,"max_players":24,"Bots":0,"server_type":"Dedicated","server_os":"Linux","password":true,"vac":true,"version":"7961495","steam_id":85568392924515188,"keywords":["cp","nocrits","nodmgspread","uncletopia"],"game_id":440,"stv_port":27046,"stv_name":"Uncletopia | Atlanta | 4 | Community | STV","players":null},{"server_id":2,"name":"Uncletopia | Chicago | 1 | All Maps","name_short":"chi-1","host":"chi-1.us.uncletopia.com","port":27015,"enabled":true,"region":"us-central","cc":"us","latitude":41.881832,"longitude":-87.62318,"reserved":0,"last_update":"0001-01-01T00:00:00Z","name_a2s":"Uncletopia | Chicago | 1 | All Maps","protocol":17,"map":"pl_pier","folder":"tf","game":"Team Fortress","app_id":440,"player_count":24,"max_players":24,"Bots":0,"server_type":"Dedicated","server_os":"Linux","password":true,"vac":true,"version":"7961495","steam_id":85568392924469984,"keywords":["nocrits","nodmgspread","payload","uncletopia"],"game_id":440,"stv_port":27016,"stv_name":"Uncletopia | Chicago | 1 | All Maps | STV","players":[{"user_id":212,"name":"Fanatic","steam_id":76561198036960509,"connected_time":957000000000,"state":"active","ping":63},{"user_id":213,"name":"☹","steam_id":76561198804763186,"connected_time":887000000000,"state":"active","ping":67},{"user_id":197,"name":"hyaz, +rep.","steam_id":76561199100342013,"connected_time":2904000000000,"state":"active","ping":90},{"user_id":198,"name":"Lifial","steam_id":76561198271885819,"connected_time":2808000000000,"state":"active","ping":75},{"user_id":215,"name":"Milkmur","steam_id":76561198210043821,"connected_time":860000000000,"state":"active","ping":65},{"user_id":203,"name":"HAT-WEARING™ Maggot Gamer Cat","steam_id":76561197973992705,"connected_time":1541000000000,"state":"active","ping":103},{"user_id":218,"name":"Cutcleaner","steam_id":76561199000925667,"connected_time":762000000000,"state":"active","ping":74},{"user_id":135,"name":"Young-OG","steam_id":76561198058800479,"connected_time":8368000000000,"state":"active","ping":76},{"user_id":201,"name":"(_!_) Guinea Pirate .j2","steam_id":76561197993863967,"connected_time":2550000000000,"state":"active","ping":124},{"user_id":228,"name":"staks","steam_id":76561198059570070,"connected_time":34000000000,"state":"active","ping":45},{"user_id":223,"name":"Gamerbray4","steam_id":76561199388263570,"connected_time":646000000000,"state":"active","ping":80},{"user_id":210,"name":"Kid named download","steam_id":76561199192074448,"connected_time":1125000000000,"state":"active","ping":73},{"user_id":211,"name":"Stryder","steam_id":76561199387418697,"connected_time":1097000000000,"state":"active","ping":92},{"user_id":214,"name":"luxin","steam_id":76561198399383047,"connected_time":864000000000,"state":"active","ping":68},{"user_id":154,"name":"Spy Gaming","steam_id":76561198453295613,"connected_time":6644000000000,"state":"active","ping":109},{"user_id":224,"name":"crabapples","steam_id":76561198075818655,"connected_time":612000000000,"state":"active","ping":61},{"user_id":226,"name":"Lawnmower","steam_id":76561198186680197,"connected_time":229000000000,"state":"active","ping":88},{"user_id":221,"name":"manbearswineflu","steam_id":76561198083945137,"connected_time":705000000000,"state":"active","ping":66},{"user_id":222,"name":"Count Ejacula","steam_id":76561198058400387,"connected_time":665000000000,"state":"active","ping":90},{"user_id":225,"name":"YoteDab McFapDab.jpg","steam_id":76561197984870380,"connected_time":590000000000,"state":"active","ping":90},{"user_id":29,"name":"(Edited)","steam_id":76561198201657342,"connected_time":17310000000000,"state":"active","ping":104},{"user_id":207,"name":"Woody","steam_id":76561198020308956,"connected_time":1246000000000,"state":"active","ping":61},{"user_id":185,"name":"The Sydney Sleeper Itself","steam_id":76561198180251763,"connected_time":3248000000000,"state":"active","ping":72},{"user_id":189,"name":"FunGi","steam_id":76561198881418662,"connected_time":3040000000000,"state":"active","ping":89}]},{"server_id":106,"name":"Uncletopia | Chicago | 2 | All Maps","name_short":"chi-2","host":"chi-1.us.uncletopia.com","port":27025,"enabled":true,"region":"us-central","cc":"us","latitude":41.881832,"longitude":-87.62318,"reserved":0,"last_update":"0001-01-01T00:00:00Z","name_a2s":"Uncletopia | Chicago | 2 | All Maps","protocol":17,"map":"pl_borneo","folder":"tf","game":"Team Fortress","app_id":440,"player_count":23,"max_players":24,"Bots":0,"server_type":"Dedicated","server_os":"Linux","password":true,"vac":true,"version":"7961495","steam_id":85568392924469985,"keywords":["nocrits","nodmgspread","payload","uncletopia"],"game_id":440,"stv_port":27026,"stv_name":"Uncletopia | Chicago | 2 | All Maps | STV","players":[{"user_id":182,"name":"Faerun_F","steam_id":76561198443906094,"connected_time":1452000000000,"state":"active","ping":62},{"user_id":140,"name":"meo ♥","steam_id":76561197992719272,"connected_time":4872000000000,"state":"active","ping":51},{"user_id":172,"name":"Dick Peniston","steam_id":76561199006864414,"connected_time":2519000000000,"state":"active","ping":68},{"user_id":88,"name":"a bucket of chicken","steam_id":76561198023710042,"connected_time":8219000000000,"state":"active","ping":83},{"user_id":192,"name":"Rein","steam_id":76561198300340427,"connected_time":823000000000,"state":"active","ping":62},{"user_id":193,"name":"kite","steam_id":76561198346516392,"connected_time":816000000000,"state":"active","ping":68},{"user_id":170,"name":"garette*","steam_id":76561198330911140,"connected_time":2762000000000,"state":"active","ping":86},{"user_id":194,"name":"♥ Tomboy ♥","steam_id":76561198069881436,"connected_time":785000000000,"state":"active","ping":90},{"user_id":163,"name":"anonpain","steam_id":76561198081317092,"connected_time":3219000000000,"state":"active","ping":47},{"user_id":149,"name":"Rornir","steam_id":76561198081829615,"connected_time":3713000000000,"state":"active","ping":37},{"user_id":195,"name":"NAEM CHEGG","steam_id":76561199074984482,"connected_time":773000000000,"state":"active","ping":59},{"user_id":175,"name":"Ajax","steam_id":76561197962240140,"connected_time":2498000000000,"state":"active","ping":62},{"user_id":90,"name":"leeroy","steam_id":76561198226418600,"connected_time":7807000000000,"state":"active","ping":90},{"user_id":166,"name":"Strange Child","steam_id":76561198082523009,"connected_time":3039000000000,"state":"active","ping":75},{"user_id":187,"name":"Scuba Steve","steam_id":76561198313018251,"connected_time":1418000000000,"state":"active","ping":85},{"user_id":196,"name":"ee err","steam_id":76561197986847586,"connected_time":721000000000,"state":"active","ping":63},{"user_id":200,"name":"Freestyle Brapper #savehiphop","steam_id":76561198090074621,"connected_time":127000000000,"state":"active","ping":45},{"user_id":164,"name":"I'm bad I know thx \u003c3","steam_id":76561198058840477,"connected_time":3151000000000,"state":"active","ping":99},{"user_id":203,"name":"Vocalwerx","steam_id":76561198069526089,"connected_time":30000000000,"state":"active","ping":76},{"user_id":167,"name":"Pootis","steam_id":76561198042482648,"connected_time":3038000000000,"state":"active","ping":108},{"user_id":197,"name":"Vladimir Chirgin","steam_id":76561198170035235,"connected_time":716000000000,"state":"active","ping":43},{"user_id":188,"name":"ChebJeb","steam_id":76561198981377081,"connected_time":1400000000000,"state":"active","ping":82},{"user_id":202,"name":"sHinstagram","steam_id":76561198133099582,"connected_time":93000000000,"state":"active","ping":102}]},{"server_id":402,"name":"Uncletopia | Chicago | 3 | All Maps","name_short":"chi-3","host":"chi-1.us.uncletopia.com","port":27035,"enabled":true,"region":"us-central","cc":"us","latitude":41.881832,"longitude":-87.62318,"reserved":0,"last_update":"0001-01-01T00:00:00Z","name_a2s":"Uncletopia | Chicago | 3 | All Maps","protocol":17,"map":"pl_swiftwater_final1","folder":"tf","game":"Team Fortress","app_id":440,"player_count":23,"max_players":24,"Bots":0,"server_type":"Dedicated","server_os":"Linux","password":true,"vac":true,"version":"7961495","steam_id":85568392924515191,"keywords":["nocrits","nodmgspread","payload","uncletopia"],"game_id":440,"stv_port":27036,"stv_name":"Uncletopia | Chicago | 3 | All Maps | STV","players":[{"user_id":46,"name":"JaHeeK","steam_id":76561198056928613,"connected_time":696000000000,"state":"active","ping":70},{"user_id":16,"name":"fasterbum","steam_id":76561198142577444,"connected_time":1818000000000,"state":"active","ping":58},{"user_id":17,"name":"friendly salamander","steam_id":76561198888219116,"connected_time":1674000000000,"state":"active","ping":73},{"user_id":21,"name":"FreonAddict9x19","steam_id":76561198060010824,"connected_time":1412000000000,"state":"active","ping":71},{"user_id":55,"name":"nonagon infinity","steam_id":76561198397662124,"connected_time":6000000000,"state":"spawning","ping":116},{"user_id":50,"name":"Beers","steam_id":76561198886650342,"connected_time":461000000000,"state":"active","ping":91},{"user_id":22,"name":"t.tv/stabslive","steam_id":76561198293116584,"connected_time":1309000000000,"state":"active","ping":75},{"user_id":23,"name":"kevin","steam_id":76561198878628282,"connected_time":1306000000000,"state":"active","ping":54},{"user_id":49,"name":"Keon","steam_id":76561198817910439,"connected_time":553000000000,"state":"active","ping":60},{"user_id":28,"name":"Minion Fartly","steam_id":76561197987805095,"connected_time":1273000000000,"state":"active","ping":89},{"user_id":26,"name":"rust","steam_id":76561199039337171,"connected_time":1286000000000,"state":"active","ping":62},{"user_id":27,"name":"gremlin0o0","steam_id":76561199468331835,"connected_time":1280000000000,"state":"active","ping":156},{"user_id":29,"name":"rickyrickyricky","steam_id":76561198041765918,"connected_time":1243000000000,"state":"active","ping":83},{"user_id":31,"name":"Major Woody","steam_id":76561198835541533,"connected_time":1197000000000,"state":"active","ping":76},{"user_id":32,"name":"my mom","steam_id":76561199225201569,"connected_time":1181000000000,"state":"active","ping":60},{"user_id":51,"name":"$limek✔ngEM0.an1me.B0Y_33309","steam_id":76561198283687382,"connected_time":139000000000,"state":"active","ping":74},{"user_id":35,"name":"Guardian","steam_id":76561199008367158,"connected_time":1029000000000,"state":"active","ping":72},{"user_id":42,"name":"Wigl","steam_id":76561198019324464,"connected_time":843000000000,"state":"active","ping":74},{"user_id":52,"name":"Lee Thats It","steam_id":76561199200579913,"connected_time":118000000000,"state":"active","ping":107},{"user_id":54,"name":"gregoryhens","steam_id":76561199434318315,"connected_time":60000000000,"state":"active","ping":192},{"user_id":48,"name":"Tufo","steam_id":76561198068963190,"connected_time":627000000000,"state":"active","ping":75},{"user_id":44,"name":"クケイ","steam_id":76561198215122444,"connected_time":796000000000,"state":"active","ping":71},{"user_id":45,"name":"non_ai","steam_id":76561198270951938,"connected_time":758000000000,"state":"active","ping":63}]},{"server_id":403,"name":"Uncletopia | Chicago | 4 | All Maps","name_short":"chi-4","host":"chi-1.us.uncletopia.com","port":27045,"enabled":true,"region":"us-central","cc":"us","latitude":41.881832,"longitude":-87.62318,"reserved":0,"last_update":"0001-01-01T00:00:00Z","name_a2s":"Uncletopia | Chicago | 4 | All Maps","protocol":17,"map":"koth_cascade","folder":"tf","game":"Team Fortress","app_id":440,"player_count":0,"max_players":24,"Bots":0,"server_type":"Dedicated","server_os":"Linux","password":true,"vac":true,"version":"7961495","steam_id":85568392924515193,"keywords":["cp","nocrits","nodmgspread","uncletopia"],"game_id":440,"stv_port":27046,"stv_name":"Uncletopia | Chicago | 4 | All Maps | STV","players":null},{"server_id":36,"name":"Uncletopia | Chicago | 5 | All Maps","name_short":"chi-5","host":"chi-2.us.uncletopia.com","port":27015,"enabled":true,"region":"us-central","cc":"us","latitude":41.881832,"longitude":-87.62318,"reserved":0,"last_update":"0001-01-01T00:00:00Z","name_a2s":"Uncletopia | Chicago | 5 | All Maps","protocol":17,"map":"pl_badwater","folder":"tf","game":"Team Fortress","app_id":440,"player_count":24,"max_players":24,"Bots":0,"server_type":"Dedicated","server_os":"Linux","password":true,"vac":true,"version":"7961495","steam_id":85568392924866362,"keywords":["nocrits","nodmgspread","payload","uncletopia"],"game_id":440,"stv_port":27016,"stv_name":"Uncletopia | Chicago | 5 | All Maps | STV","players":[{"user_id":75,"name":"koichice","steam_id":76561198309274090,"connected_time":3285000000000,"state":"active","ping":141},{"user_id":4,"name":"bleach65","steam_id":76561198115270571,"connected_time":7931000000000,"state":"active","ping":80},{"user_id":109,"name":"Meat Dragon","steam_id":76561198120319256,"connected_time":560000000000,"state":"active","ping":48},{"user_id":100,"name":"yes","steam_id":76561199094011002,"connected_time":1509000000000,"state":"active","ping":59},{"user_id":110,"name":"dingle dongler","steam_id":76561198072986994,"connected_time":434000000000,"state":"active","ping":70},{"user_id":116,"name":"Dad","steam_id":76561198009425458,"connected_time":329000000000,"state":"active","ping":91},{"user_id":107,"name":"m.a.d.","steam_id":76561198040553982,"connected_time":936000000000,"state":"active","ping":59},{"user_id":111,"name":"canakblasteran","steam_id":76561199472518822,"connected_time":423000000000,"state":"active","ping":100},{"user_id":114,"name":"ChampionOfSheets","steam_id":76561198297380028,"connected_time":352000000000,"state":"active","ping":69},{"user_id":79,"name":"Ace","steam_id":76561198806699742,"connected_time":2682000000000,"state":"active","ping":89},{"user_id":113,"name":"CUBENSiS","steam_id":76561199138699358,"connected_time":381000000000,"state":"active","ping":61},{"user_id":115,"name":"Pollen! Buying backpacks \u0026 keys","steam_id":76561198061779536,"connected_time":342000000000,"state":"active","ping":72},{"user_id":117,"name":"Hero8171","steam_id":76561199239824271,"connected_time":293000000000,"state":"active","ping":68},{"user_id":123,"name":"Fresh Lychee","steam_id":76561198045399559,"connected_time":87000000000,"state":"active","ping":56},{"user_id":74,"name":"Coleden","steam_id":76561198047354861,"connected_time":3343000000000,"state":"active","ping":86},{"user_id":25,"name":"dawgamez","steam_id":76561198089293509,"connected_time":5756000000000,"state":"active","ping":82},{"user_id":119,"name":"zackcraft102","steam_id":76561199238048549,"connected_time":281000000000,"state":"active","ping":148},{"user_id":96,"name":"Koishi","steam_id":76561198054541054,"connected_time":1751000000000,"state":"active","ping":59},{"user_id":120,"name":"The World's Softest Sandwich","steam_id":76561198015577707,"connected_time":255000000000,"state":"active","ping":84},{"user_id":121,"name":"Phindoll in Bottled Water","steam_id":76561198069744042,"connected_time":196000000000,"state":"active","ping":45},{"user_id":122,"name":"barefoot fruitscato","steam_id":76561198094225038,"connected_time":194000000000,"state":"active","ping":55},{"user_id":105,"name":"Fiendish Frog","steam_id":76561198029478821,"connected_time":1049000000000,"state":"active","ping":73},{"user_id":106,"name":"Joft6","steam_id":76561198122100429,"connected_time":1026000000000,"state":"active","ping":69},{"user_id":99,"name":"SoWhich","steam_id":76561198237125842,"connected_time":1725000000000,"state":"active","ping":54}]},{"server_id":37,"name":"Uncletopia | Chicago | 6 | All Maps","name_short":"chi-6","host":"chi-2.us.uncletopia.com","port":27025,"enabled":true,"region":"us-central","cc":"us","latitude":41.881832,"longitude":-87.62318,"reserved":0,"last_update":"0001-01-01T00:00:00Z","name_a2s":"Uncletopia | Chicago | 6 | All Maps","protocol":17,"map":"cp_mountainlab","folder":"tf","game":"Team Fortress","app_id":440,"player_count":4,"max_players":24,"Bots":0,"server_type":"Dedicated","server_os":"Linux","password":true,"vac":true,"version":"7961495","steam_id":85568392924866363,"keywords":["cp","nocrits","nodmgspread","uncletopia"],"game_id":440,"stv_port":27026,"stv_name":"Uncletopia | Chicago | 6 | All Maps | STV","players":[{"user_id":11,"name":"MacAndCheese69","steam_id":76561199013464592,"connected_time":775000000000,"state":"active","ping":59},{"user_id":12,"name":"dipinpreet","steam_id":76561198329035044,"connected_time":471000000000,"state":"active","ping":44},{"user_id":13,"name":"Berb","steam_id":76561198193911899,"connected_time":295000000000,"state":"active","ping":97},{"user_id":14,"name":"Menacing","steam_id":76561198009093788,"connected_time":271000000000,"state":"active","ping":64}]},{"server_id":38,"name":"Uncletopia | Chicago | 7 | Stopwatch","name_short":"chi-7","host":"chi-2.us.uncletopia.com","port":27035,"enabled":true,"region":"us-central","cc":"us","latitude":41.881832,"longitude":-87.62318,"reserved":0,"last_update":"0001-01-01T00:00:00Z","name_a2s":"Uncletopia | Chicago | 7 | Stopwatch","protocol":17,"map":"workshop/pl_barnblitz_pro7.ugc582280235","folder":"tf","game":"Team Fortress","app_id":440,"player_count":5,"max_players":24,"Bots":0,"server_type":"Dedicated","server_os":"Linux","password":true,"vac":true,"version":"7961495","steam_id":85568392924866364,"keywords":["nocrits","nodmgspread","payload","uncletopia"],"game_id":440,"stv_port":27036,"stv_name":"Uncletopia | Chicago | 7 | Stopwatch | STV","players":[{"user_id":60,"name":"King","steam_id":76561198123927752,"connected_time":800000000000,"state":"active","ping":47},{"user_id":18,"name":"goonggingginggaang","steam_id":76561198061397427,"connected_time":2838000000000,"state":"active","ping":69},{"user_id":64,"name":"dork","steam_id":76561198086615208,"connected_time":599000000000,"state":"active","ping":59},{"user_id":67,"name":"tomiz","steam_id":76561198827013832,"connected_time":552000000000,"state":"active","ping":101},{"user_id":47,"name":"IplayToonTown","steam_id":76561198027966715,"connected_time":1710000000000,"state":"active","ping":55}]},{"server_id":39,"name":"Uncletopia | Chicago | 8 | Community","name_short":"chi-8","host":"chi-2.us.uncletopia.com","port":27045,"enabled":true,"region":"us-central","cc":"us","latitude":41.881832,"longitude":-87.62318,"reserved":0,"last_update":"0001-01-01T00:00:00Z","name_a2s":"Uncletopia | Chicago | 8 | Community","protocol":17,"map":"pl_pier","folder":"tf","game":"Team Fortress","app_id":440,"player_count":0,"max_players":24,"Bots":0,"server_type":"Dedicated","server_os":"Linux","password":true,"vac":true,"version":"7961495","steam_id":85568392924866365,"keywords":["nocrits","nodmgspread","payload","uncletopia"],"game_id":440,"stv_port":27046,"stv_name":"Uncletopia | Chicago | 8 | Community | STV","players":null},{"server_id":8,"name":"Uncletopia | Dallas | 1 | All Maps","name_short":"dal-1","host":"dal-1.us.uncletopia.com","port":27015,"enabled":true,"region":"us-central","cc":"us","latitude":32.779167,"longitude":-96.80889,"reserved":0,"last_update":"0001-01-01T00:00:00Z","name_a2s":"Uncletopia | Dallas | 1 | All Maps","protocol":17,"map":"cp_5gorge","folder":"tf","game":"Team Fortress","app_id":440,"player_count":24,"max_players":24,"Bots":0,"server_type":"Dedicated","server_os":"Linux","password":true,"vac":true,"version":"7961495","steam_id":85568392924469986,"keywords":["cp","nocrits","nodmgspread","uncletopia"],"game_id":440,"stv_port":27016,"stv_name":"Uncletopia | Dallas | 1 | All Maps | STV","players":[{"user_id":118,"name":"corn","steam_id":76561199489247622,"connected_time":1015000000000,"state":"active","ping":58},{"user_id":52,"name":"♩Karmism♩","steam_id":76561199453410299,"connected_time":7002000000000,"state":"active","ping":99},{"user_id":101,"name":"rf","steam_id":76561199018207049,"connected_time":2767000000000,"state":"active","ping":70},{"user_id":99,"name":"leesh","steam_id":76561198079603938,"connected_time":2857000000000,"state":"active","ping":59},{"user_id":121,"name":"A Straw","steam_id":76561199367935846,"connected_time":858000000000,"state":"active","ping":70},{"user_id":87,"name":"Tickle Monster","steam_id":76561198839604775,"connected_time":4675000000000,"state":"active","ping":102},{"user_id":123,"name":"Squagol","steam_id":76561197987486159,"connected_time":128000000000,"state":"active","ping":60},{"user_id":124,"name":"Toondogjoe","steam_id":76561198117533625,"connected_time":123000000000,"state":"active","ping":43},{"user_id":107,"name":"Lain","steam_id":76561198029303534,"connected_time":2245000000000,"state":"active","ping":63},{"user_id":108,"name":"Taskrabbits","steam_id":76561198366682546,"connected_time":2161000000000,"state":"active","ping":117},{"user_id":110,"name":"Shaqdaddylong","steam_id":76561198987222560,"connected_time":1597000000000,"state":"active","ping":67},{"user_id":125,"name":"Not a Can","steam_id":76561198064264767,"connected_time":2000000000,"state":"spawning","ping":65},{"user_id":115,"name":"Cloey","steam_id":76561199161591235,"connected_time":1422000000000,"state":"active","ping":54},{"user_id":122,"name":"Cat in a fedora","steam_id":76561198187502875,"connected_time":513000000000,"state":"active","ping":59},{"user_id":76,"name":"Chad MorningWood","steam_id":76561198139832291,"connected_time":5813000000000,"state":"active","ping":62},{"user_id":44,"name":"Horizons","steam_id":76561198106417594,"connected_time":7632000000000,"state":"active","ping":47},{"user_id":106,"name":"Human Resources Manager","steam_id":76561198066386411,"connected_time":2264000000000,"state":"active","ping":90},{"user_id":89,"name":"Oxygen User","steam_id":76561199111975528,"connected_time":3926000000000,"state":"active","ping":100},{"user_id":58,"name":"anakin skywalker in the hood","steam_id":76561198209267577,"connected_time":6786000000000,"state":"active","ping":60},{"user_id":104,"name":"Whompert","steam_id":76561198042939624,"connected_time":2363000000000,"state":"active","ping":94},{"user_id":98,"name":"kermitcreeper(ZAZA)","steam_id":76561199222829972,"connected_time":3218000000000,"state":"active","ping":65},{"user_id":105,"name":"Pyro Pootis","steam_id":76561199385177651,"connected_time":2308000000000,"state":"active","ping":61},{"user_id":109,"name":"Kirby.exe","steam_id":76561198242714582,"connected_time":2131000000000,"state":"active","ping":54},{"user_id":117,"name":"cyborgjo2147","steam_id":76561199184761439,"connected_time":1038000000000,"state":"active","ping":75}]},{"server_id":108,"name":"Uncletopia | Dallas | 2 | All Maps","name_short":"dal-2","host":"dal-1.us.uncletopia.com","port":27025,"enabled":true,"region":"us-central","cc":"us","latitude":32.779167,"longitude":-96.80889,"reserved":0,"last_update":"0001-01-01T00:00:00Z","name_a2s":"Uncletopia | Dallas | 2 | All Maps","protocol":17,"map":"koth_cascade","folder":"tf","game":"Team Fortress","app_id":440,"player_count":6,"max_players":24,"Bots":0,"server_type":"Dedicated","server_os":"Linux","password":true,"vac":true,"version":"7961495","steam_id":85568392924469988,"keywords":["cp","nocrits","nodmgspread","uncletopia"],"game_id":440,"stv_port":27026,"stv_name":"Uncletopia | Dallas | 2 | All Maps | STV","players":[{"user_id":27,"name":"uncletopia dallas 2 player","steam_id":76561198412786186,"connected_time":1448000000000,"state":"active","ping":54},{"user_id":29,"name":"w7j14","steam_id":76561199194856245,"connected_time":1152000000000,"state":"active","ping":42},{"user_id":30,"name":"Oninja94","steam_id":76561199467195274,"connected_time":537000000000,"state":"active","ping":62},{"user_id":31,"name":"Noobynoob15","steam_id":76561199497020916,"connected_time":522000000000,"state":"active","ping":99},{"user_id":32,"name":"djjones1999","steam_id":76561199121937746,"connected_time":402000000000,"state":"active","ping":69},{"user_id":33,"name":"BatMatt","steam_id":76561198045910433,"connected_time":329000000000,"state":"active","ping":49}]},{"server_id":404,"name":"Uncletopia | Dallas | 3 | All Maps","name_short":"dal-3","host":"dal-1.us.uncletopia.com","port":27035,"enabled":true,"region":"us-central","cc":"us","latitude":32.779167,"longitude":-96.80889,"reserved":0,"last_update":"0001-01-01T00:00:00Z","name_a2s":"Uncletopia | Dallas | 3 | All Maps","protocol":17,"map":"koth_lakeside_final","folder":"tf","game":"Team Fortress","app_id":440,"player_count":0,"max_players":24,"Bots":0,"server_type":"Dedicated","server_os":"Linux","password":true,"vac":true,"version":"7961495","steam_id":85568392924515219,"keywords":["cp","nocrits","nodmgspread","uncletopia"],"game_id":440,"stv_port":27036,"stv_name":"Uncletopia | Dallas | 3 | All Maps | STV","players":null},{"server_id":405,"name":"Uncletopia | Dallas | 4 | Community","name_short":"dal-4","host":"dal-1.us.uncletopia.com","port":27045,"enabled":true,"region":"us-central","cc":"us","latitude":32.779167,"longitude":-96.80889,"reserved":0,"last_update":"0001-01-01T00:00:00Z","name_a2s":"Uncletopia | Dallas | 4 | Community","protocol":17,"map":"workshop/cp_propaganda_b18.ugc1603743849","folder":"tf","game":"Team Fortress","app_id":440,"player_count":3,"max_players":24,"Bots":0,"server_type":"Dedicated","server_os":"Linux","password":true,"vac":true,"version":"7961495","steam_id":85568392924515220,"keywords":["cp","nocrits","nodmgspread","uncletopia"],"game_id":440,"stv_port":27046,"stv_name":"Uncletopia | Dallas | 4 | Community | STV","players":[{"user_id":5,"name":"jimmy skillet","steam_id":76561198067232126,"connected_time":862000000000,"state":"active","ping":55},{"user_id":6,"name":"Spookiest Breakfast","steam_id":76561198995031387,"connected_time":851000000000,"state":"active","ping":55},{"user_id":7,"name":"Snitzman","steam_id":76561198068303272,"connected_time":40000000000,"state":"active","ping":70}]},{"server_id":5,"name":"Uncletopia | Frankfurt | 1 | All Maps","name_short":"frk-1","host":"frk-1.de.uncletopia.com","port":27015,"enabled":true,"region":"eu","cc":"de","latitude":50.110924,"longitude":8.682127,"reserved":0,"last_update":"0001-01-01T00:00:00Z","name_a2s":"Uncletopia | Frankfurt | 1 | All Maps","protocol":17,"map":"pl_pier","folder":"tf","game":"Team Fortress","app_id":440,"player_count":24,"max_players":24,"Bots":0,"server_type":"Dedicated","server_os":"Linux","password":true,"vac":true,"version":"7961495","steam_id":85568392924469989,"keywords":["nocrits","nodmgspread","payload","uncletopia"],"game_id":440,"stv_port":27016,"stv_name":"Uncletopia | Frankfurt | 1 | All Maps | STV","players":[{"user_id":411,"name":"Farmercy","steam_id":76561198000038039,"connected_time":216000000000,"state":"active","ping":46},{"user_id":406,"name":"Zazou","steam_id":76561198028076362,"connected_time":946000000000,"state":"active","ping":60},{"user_id":413,"name":"Dictatorial Karelian","steam_id":76561198196736457,"connected_time":152000000000,"state":"active","ping":75},{"user_id":405,"name":"TruckOperator47","steam_id":76561198192924663,"connected_time":1005000000000,"state":"active","ping":55},{"user_id":408,"name":"FUKAYOU","steam_id":76561198380484033,"connected_time":820000000000,"state":"active","ping":54},{"user_id":385,"name":"Luigi","steam_id":76561199194954220,"connected_time":3473000000000,"state":"active","ping":65},{"user_id":359,"name":"Silver 25","steam_id":76561198038182012,"connected_time":5303000000000,"state":"active","ping":90},{"user_id":389,"name":"Rimx","steam_id":76561198053034840,"connected_time":2737000000000,"state":"active","ping":88},{"user_id":338,"name":"Optimist 50","steam_id":76561198039631442,"connected_time":5873000000000,"state":"active","ping":84},{"user_id":402,"name":"Soulman25 (FIN)","steam_id":76561198103611974,"connected_time":1073000000000,"state":"active","ping":87},{"user_id":412,"name":"Storm's Foreshadow","steam_id":76561198098462526,"connected_time":203000000000,"state":"active","ping":60},{"user_id":390,"name":"Jude!","steam_id":76561197983597798,"connected_time":2733000000000,"state":"active","ping":54},{"user_id":392,"name":"Toasty5050","steam_id":76561198073540881,"connected_time":2676000000000,"state":"active","ping":45},{"user_id":396,"name":"Jack-McSnipey","steam_id":76561198009596202,"connected_time":1887000000000,"state":"active","ping":104},{"user_id":376,"name":"mq","steam_id":76561198091888948,"connected_time":3919000000000,"state":"active","ping":55},{"user_id":363,"name":"Tynnyri","steam_id":76561198075516541,"connected_time":5092000000000,"state":"active","ping":113},{"user_id":368,"name":"GazerBazer","steam_id":76561198879107565,"connected_time":4405000000000,"state":"active","ping":57},{"user_id":397,"name":"Trollstoy","steam_id":76561198072017175,"connected_time":1737000000000,"state":"active","ping":60},{"user_id":399,"name":"rajAs","steam_id":76561198035928111,"connected_time":1250000000000,"state":"active","ping":83},{"user_id":414,"name":"Hugee ツ","steam_id":76561198245495152,"connected_time":120000000000,"state":"active","ping":63},{"user_id":415,"name":"Colonel Dimanche","steam_id":76561197994792632,"connected_time":64000000000,"state":"active","ping":46},{"user_id":404,"name":"Admiral Ackbar","steam_id":76561198131881705,"connected_time":1060000000000,"state":"active","ping":85},{"user_id":382,"name":"Dot","steam_id":76561198047299145,"connected_time":3642000000000,"state":"active","ping":79},{"user_id":409,"name":"LOBZIK","steam_id":76561198114830120,"connected_time":714000000000,"state":"active","ping":75}]},{"server_id":110,"name":"Uncletopia | Frankfurt | 2 | All Maps","name_short":"frk-2","host":"frk-1.de.uncletopia.com","port":27025,"enabled":true,"region":"eu","cc":"de","latitude":50.110924,"longitude":8.682127,"reserved":0,"last_update":"0001-01-01T00:00:00Z","name_a2s":"Uncletopia | Frankfurt | 2 | All Maps","protocol":17,"map":"koth_lakeside_final","folder":"tf","game":"Team Fortress","app_id":440,"player_count":19,"max_players":24,"Bots":0,"server_type":"Dedicated","server_os":"Linux","password":true,"vac":true,"version":"7961495","steam_id":85568392924469990,"keywords":["cp","nocrits","nodmgspread","uncletopia"],"game_id":440,"stv_port":27026,"stv_name":"Uncletopia | Frankfurt | 2 | All Maps | STV","players":[{"user_id":365,"name":"chiken","steam_id":76561198051497921,"connected_time":1456000000000,"state":"active","ping":70},{"user_id":369,"name":"Быдла вой","steam_id":76561198041371314,"connected_time":1371000000000,"state":"active","ping":120},{"user_id":366,"name":"Whirlwind","steam_id":76561198942024930,"connected_time":1451000000000,"state":"active","ping":92},{"user_id":368,"name":"n-ski","steam_id":76561198020550849,"connected_time":1403000000000,"state":"active","ping":75},{"user_id":264,"name":"CzechMate #SaveTF2","steam_id":76561198012687703,"connected_time":6784000000000,"state":"active","ping":45},{"user_id":370,"name":"immunity666","steam_id":76561198894574244,"connected_time":1355000000000,"state":"active","ping":182},{"user_id":354,"name":"Klorophyte","steam_id":76561198885112655,"connected_time":2096000000000,"state":"active","ping":93},{"user_id":343,"name":"ozz-man","steam_id":76561198084676522,"connected_time":2694000000000,"state":"active","ping":105},{"user_id":376,"name":"bum","steam_id":76561198067678158,"connected_time":1016000000000,"state":"active","ping":60},{"user_id":300,"name":"nop","steam_id":76561198064180797,"connected_time":4398000000000,"state":"active","ping":66},{"user_id":378,"name":"Wookie257","steam_id":76561198984452441,"connected_time":703000000000,"state":"active","ping":191},{"user_id":371,"name":"spitoon","steam_id":76561198848936142,"connected_time":1354000000000,"state":"active","ping":60},{"user_id":375,"name":"LeDispenser James","steam_id":76561198847661022,"connected_time":1317000000000,"state":"active","ping":100},{"user_id":377,"name":"WeArMature","steam_id":76561198046116420,"connected_time":898000000000,"state":"active","ping":61},{"user_id":372,"name":"the rizzard of oz","steam_id":76561198066631833,"connected_time":1342000000000,"state":"active","ping":69},{"user_id":380,"name":"The Major Squadron","steam_id":76561198144692735,"connected_time":275000000000,"state":"active","ping":70},{"user_id":361,"name":"Odinmuninn99","steam_id":76561198393712705,"connected_time":1782000000000,"state":"active","ping":99},{"user_id":374,"name":"Soverney","steam_id":76561197997961169,"connected_time":1340000000000,"state":"active","ping":104},{"user_id":363,"name":"FapeRace","steam_id":76561198049312442,"connected_time":1720000000000,"state":"active","ping":62}]},{"server_id":308,"name":"Uncletopia | Frankfurt | 3 | All Maps","name_short":"frk-3","host":"frk-1.de.uncletopia.com","port":27035,"enabled":true,"region":"eu","cc":"de","latitude":50.110924,"longitude":8.682127,"reserved":0,"last_update":"0001-01-01T00:00:00Z","name_a2s":"Uncletopia | Frankfurt | 3 | All Maps","protocol":17,"map":"pl_swiftwater_final1","folder":"tf","game":"Team Fortress","app_id":440,"player_count":24,"max_players":24,"Bots":0,"server_type":"Dedicated","server_os":"Linux","password":true,"vac":true,"version":"7961495","steam_id":85568392924504274,"keywords":["nocrits","nodmgspread","payload","uncletopia"],"game_id":440,"stv_port":27036,"stv_name":"Uncletopia | Frankfurt | 3 | All Maps | STV","players":[{"user_id":450,"name":"Miito","steam_id":76561198188000642,"connected_time":320000000000,"state":"active","ping":67},{"user_id":412,"name":"phrög","steam_id":76561199230709660,"connected_time":2561000000000,"state":"active","ping":46},{"user_id":415,"name":"mini-sentry","steam_id":76561198884712155,"connected_time":2107000000000,"state":"active","ping":180},{"user_id":443,"name":"ChicoColo [ A1r ]","steam_id":76561198045977760,"connected_time":578000000000,"state":"active","ping":45},{"user_id":441,"name":"Rad","steam_id":76561199001560866,"connected_time":623000000000,"state":"active","ping":163},{"user_id":444,"name":"Morpheus","steam_id":76561198984889776,"connected_time":576000000000,"state":"active","ping":75},{"user_id":419,"name":"xam.₉⁹₉","steam_id":76561198375761256,"connected_time":2027000000000,"state":"active","ping":75},{"user_id":379,"name":"MR BUBBLES","steam_id":76561198019005259,"connected_time":4744000000000,"state":"active","ping":103},{"user_id":356,"name":"Hexagon","steam_id":76561198151205758,"connected_time":6137000000000,"state":"active","ping":50},{"user_id":445,"name":"tjuvjakt","steam_id":76561198214848887,"connected_time":570000000000,"state":"active","ping":62},{"user_id":404,"name":"sex toilet","steam_id":76561198412197820,"connected_time":3388000000000,"state":"active","ping":82},{"user_id":460,"name":"Dingle Loui","steam_id":76561198114985331,"connected_time":82000000000,"state":"active","ping":50},{"user_id":420,"name":"nozzo","steam_id":76561198012367783,"connected_time":2001000000000,"state":"active","ping":75},{"user_id":453,"name":"panapoly","steam_id":76561198808125985,"connected_time":273000000000,"state":"active","ping":113},{"user_id":341,"name":"endlesshills","steam_id":76561198081908373,"connected_time":7086000000000,"state":"active","ping":56},{"user_id":421,"name":"akakez","steam_id":76561198095432821,"connected_time":1988000000000,"state":"active","ping":118},{"user_id":358,"name":"willardfarran","steam_id":76561199500477314,"connected_time":6043000000000,"state":"active","ping":125},{"user_id":380,"name":"denismaidanov","steam_id":76561198338601367,"connected_time":4547000000000,"state":"active","ping":102},{"user_id":440,"name":"Cocsam","steam_id":76561198050827179,"connected_time":682000000000,"state":"active","ping":67},{"user_id":449,"name":"ztrs6","steam_id":76561198314853803,"connected_time":494000000000,"state":"active","ping":90},{"user_id":435,"name":"Makłowicz","steam_id":76561198281831506,"connected_time":1363000000000,"state":"active","ping":77},{"user_id":423,"name":"Gabys","steam_id":76561198282892553,"connected_time":1961000000000,"state":"active","ping":73},{"user_id":448,"name":"Ujin","steam_id":76561197995386642,"connected_time":540000000000,"state":"active","ping":86},{"user_id":454,"name":"Haschgott 2.0","steam_id":76561198049820307,"connected_time":266000000000,"state":"active","ping":56}]},{"server_id":309,"name":"Uncletopia | Frankfurt | 4 | All Maps","name_short":"frk-4","host":"frk-1.de.uncletopia.com","port":27045,"enabled":true,"region":"eu","cc":"de","latitude":50.110924,"longitude":8.682127,"reserved":0,"last_update":"0001-01-01T00:00:00Z","name_a2s":"Uncletopia | Frankfurt | 4 | All Maps","protocol":17,"map":"plr_hightower","folder":"tf","game":"Team Fortress","app_id":440,"player_count":22,"max_players":24,"Bots":0,"server_type":"Dedicated","server_os":"Linux","password":true,"vac":true,"version":"7961495","steam_id":85568392924504275,"keywords":["nocrits","nodmgspread","payload","uncletopia"],"game_id":440,"stv_port":27046,"stv_name":"Uncletopia | Frankfurt | 4 | All Maps | STV","players":[{"user_id":484,"name":"Delyake","steam_id":76561198038671970,"connected_time":1810000000000,"state":"active","ping":67},{"user_id":525,"name":"sloppy transgirl toppy","steam_id":76561198057092208,"connected_time":1001000000000,"state":"active","ping":60},{"user_id":530,"name":"Panzerwaffle","steam_id":76561198030382800,"connected_time":372000000000,"state":"active","ping":63},{"user_id":487,"name":"Euro_General","steam_id":76561198263258087,"connected_time":1682000000000,"state":"active","ping":71},{"user_id":531,"name":"armadillo","steam_id":76561198324656652,"connected_time":371000000000,"state":"active","ping":64},{"user_id":510,"name":"Smoking problem","steam_id":76561198361351449,"connected_time":1273000000000,"state":"active","ping":55},{"user_id":479,"name":"SalCrabber deluxe","steam_id":76561198275942961,"connected_time":2162000000000,"state":"active","ping":45},{"user_id":539,"name":"Hegyi tahó F2P","steam_id":76561199219150356,"connected_time":146000000000,"state":"active","ping":79},{"user_id":488,"name":"Tuosan","steam_id":76561198062611429,"connected_time":1677000000000,"state":"active","ping":74},{"user_id":520,"name":"Artemis","steam_id":76561198199091801,"connected_time":1071000000000,"state":"active","ping":44},{"user_id":490,"name":"Waltism","steam_id":76561199447676489,"connected_time":1609000000000,"state":"active","ping":82},{"user_id":513,"name":"LineaTGG","steam_id":76561198384103356,"connected_time":1230000000000,"state":"active","ping":116},{"user_id":537,"name":"Cosmetic brain","steam_id":76561198055936410,"connected_time":181000000000,"state":"active","ping":90},{"user_id":518,"name":"deathbed","steam_id":76561198160609968,"connected_time":1147000000000,"state":"active","ping":54},{"user_id":533,"name":"Rigel","steam_id":76561198042636040,"connected_time":337000000000,"state":"active","ping":64},{"user_id":512,"name":"KingGalaxyKnight","steam_id":76561198217130020,"connected_time":1262000000000,"state":"active","ping":61},{"user_id":536,"name":"Zerfesh","steam_id":76561198117534358,"connected_time":188000000000,"state":"active","ping":95},{"user_id":469,"name":"mr.resetti","steam_id":76561198974520642,"connected_time":3169000000000,"state":"active","ping":65},{"user_id":526,"name":"Der Herr Doktor","steam_id":76561198119476089,"connected_time":781000000000,"state":"active","ping":60},{"user_id":502,"name":"T_G_G","steam_id":76561199114568070,"connected_time":1451000000000,"state":"active","ping":80},{"user_id":456,"name":"antlionguard","steam_id":76561198072747143,"connected_time":4696000000000,"state":"active","ping":111},{"user_id":459,"name":"Real (Real)","steam_id":76561198323425034,"connected_time":4483000000000,"state":"active","ping":66}]},{"server_id":310,"name":"Uncletopia | Frankfurt | 5 | All Maps","name_short":"frk-5","host":"frk-1.de.uncletopia.com","port":27055,"enabled":true,"region":"eu","cc":"de","latitude":50.110924,"longitude":8.682127,"reserved":0,"last_update":"0001-01-01T00:00:00Z","name_a2s":"Uncletopia | Frankfurt | 5 | All Maps","protocol":17,"map":"pl_swiftwater_final1","folder":"tf","game":"Team Fortress","app_id":440,"player_count":20,"max_players":24,"Bots":0,"server_type":"Dedicated","server_os":"Linux","password":true,"vac":true,"version":"7961495","steam_id":85568392924504277,"keywords":["nocrits","nodmgspread","payload","uncletopia"],"game_id":440,"stv_port":27056,"stv_name":"Uncletopia | Frankfurt | 5 | All Maps | STV","players":[{"user_id":399,"name":"Claw","steam_id":76561198060985181,"connected_time":137000000000,"state":"active","ping":62},{"user_id":400,"name":"Meanderthal","steam_id":76561197962377653,"connected_time":126000000000,"state":"active","ping":67},{"user_id":397,"name":"dirhs","steam_id":76561198383867611,"connected_time":161000000000,"state":"active","ping":62},{"user_id":390,"name":"greezelag","steam_id":76561198053015949,"connected_time":727000000000,"state":"active","ping":61},{"user_id":396,"name":"Ádóóó\u003c3","steam_id":76561198186810393,"connected_time":193000000000,"state":"active","ping":70},{"user_id":364,"name":"I hate Phlog","steam_id":76561199214163032,"connected_time":1807000000000,"state":"active","ping":88},{"user_id":362,"name":"HelwiiHill","steam_id":76561198066730552,"connected_time":2180000000000,"state":"active","ping":79},{"user_id":401,"name":"rollup","steam_id":76561199150367705,"connected_time":107000000000,"state":"active","ping":174},{"user_id":384,"name":"[SSRB] Kiri","steam_id":76561198193983787,"connected_time":1115000000000,"state":"active","ping":134},{"user_id":373,"name":"frank lampard #nr1 legend","steam_id":76561198097712283,"connected_time":1417000000000,"state":"active","ping":86},{"user_id":376,"name":"Uzakta","steam_id":76561198061717026,"connected_time":1293000000000,"state":"active","ping":60},{"user_id":272,"name":"MEDiUM","steam_id":76561198112328561,"connected_time":7763000000000,"state":"active","ping":69},{"user_id":380,"name":"CNTRL","steam_id":76561199125803827,"connected_time":1160000000000,"state":"active","ping":69},{"user_id":402,"name":"Kugel","steam_id":76561198253624688,"connected_time":100000000000,"state":"spawning","ping":170},{"user_id":403,"name":"Johnny","steam_id":76561198055225513,"connected_time":38000000000,"state":"spawning","ping":82},{"user_id":404,"name":"Brem","steam_id":76561198202349485,"connected_time":11000000000,"state":"spawning","ping":60},{"user_id":374,"name":"Ghost of Kiev","steam_id":76561199001334565,"connected_time":1383000000000,"state":"active","ping":97},{"user_id":291,"name":"[UM-monster","steam_id":76561198085098243,"connected_time":6670000000000,"state":"active","ping":105},{"user_id":389,"name":"spy","steam_id":76561199053898447,"connected_time":828000000000,"state":"active","ping":76},{"user_id":393,"name":"Cursehat","steam_id":76561198071867237,"connected_time":413000000000,"state":"active","ping":90}]},{"server_id":311,"name":"Uncletopia | Frankfurt | 6 | All Maps","name_short":"frk-6","host":"frk-1.de.uncletopia.com","port":27065,"enabled":true,"region":"eu","cc":"de","latitude":50.110924,"longitude":8.682127,"reserved":0,"last_update":"0001-01-01T00:00:00Z","name_a2s":"Uncletopia | Frankfurt | 6 | All Maps","protocol":17,"map":"pl_upward","folder":"tf","game":"Team Fortress","app_id":440,"player_count":24,"max_players":24,"Bots":0,"server_type":"Dedicated","server_os":"Linux","password":true,"vac":true,"version":"7961495","steam_id":85568392924504278,"keywords":["nocrits","nodmgspread","payload","uncletopia"],"game_id":440,"stv_port":27066,"stv_name":"Uncletopia | Frankfurt | 6 | All Maps | STV","players":[{"user_id":219,"name":"The Beverage","steam_id":76561198046967039,"connected_time":1872000000000,"state":"active","ping":93},{"user_id":227,"name":"Finnish Farmer","steam_id":76561198205366043,"connected_time":771000000000,"state":"active","ping":84},{"user_id":228,"name":"ゆず tacsist","steam_id":76561198154199104,"connected_time":751000000000,"state":"active","ping":56},{"user_id":66,"name":"cirrem","steam_id":76561198265192382,"connected_time":11547000000000,"state":"active","ping":60},{"user_id":173,"name":"katten","steam_id":76561198163615254,"connected_time":5021000000000,"state":"active","ping":58},{"user_id":226,"name":"Krabs","steam_id":76561198161679477,"connected_time":780000000000,"state":"active","ping":61},{"user_id":177,"name":"xavier","steam_id":76561198076494034,"connected_time":4720000000000,"state":"active","ping":58},{"user_id":187,"name":"Woman (Real)","steam_id":76561199151823932,"connected_time":4440000000000,"state":"active","ping":75},{"user_id":103,"name":"putrefied meat","steam_id":76561198280507478,"connected_time":9347000000000,"state":"active","ping":57},{"user_id":150,"name":"mertefe","steam_id":76561199237126613,"connected_time":6139000000000,"state":"active","ping":113},{"user_id":218,"name":"zaleek69","steam_id":76561198058877595,"connected_time":1920000000000,"state":"active","ping":61},{"user_id":231,"name":"Wardruna96","steam_id":76561199057083828,"connected_time":431000000000,"state":"active","ping":76},{"user_id":208,"name":"knight","steam_id":76561198935810867,"connected_time":2703000000000,"state":"active","ping":182},{"user_id":193,"name":"static","steam_id":76561198836825741,"connected_time":4081000000000,"state":"active","ping":57},{"user_id":220,"name":"sihvoperhe","steam_id":76561198236112926,"connected_time":1834000000000,"state":"active","ping":99},{"user_id":216,"name":"let a fella trial","steam_id":76561198108014277,"connected_time":1944000000000,"state":"active","ping":64},{"user_id":212,"name":"Team Fortress 2","steam_id":76561198190936635,"connected_time":2597000000000,"state":"active","ping":62},{"user_id":225,"name":"Burbie","steam_id":76561198046069449,"connected_time":869000000000,"state":"active","ping":73},{"user_id":235,"name":"Citler","steam_id":76561199115241703,"connected_time":79000000000,"state":"spawning","ping":74},{"user_id":224,"name":"goz","steam_id":76561198155229347,"connected_time":921000000000,"state":"active","ping":45},{"user_id":233,"name":"Pottery Knight","steam_id":76561198094455814,"connected_time":266000000000,"state":"active","ping":114},{"user_id":234,"name":"cazador","steam_id":76561198123096922,"connected_time":232000000000,"state":"active","ping":90},{"user_id":210,"name":"void","steam_id":76561198035831433,"connected_time":2687000000000,"state":"active","ping":71},{"user_id":108,"name":"vomitlust","steam_id":76561197994492154,"connected_time":9303000000000,"state":"active","ping":65}]},{"server_id":23,"name":"Uncletopia | Frankfurt | 7 | Stopwatch","name_short":"frk-7","host":"frk-1.de.uncletopia.com","port":27075,"enabled":true,"region":"eu","cc":"de","latitude":50.110924,"longitude":8.682127,"reserved":0,"last_update":"0001-01-01T00:00:00Z","name_a2s":"Uncletopia | Frankfurt | 7 | Stopwatch","protocol":17,"map":"workshop/koth_ramjam_rc1.ugc459778887","folder":"tf","game":"Team Fortress","app_id":440,"player_count":0,"max_players":24,"Bots":0,"server_type":"Dedicated","server_os":"Linux","password":true,"vac":true,"version":"7961495","steam_id":85568392924742827,"keywords":["cp","nocrits","nodmgspread","uncletopia"],"game_id":440,"stv_port":27076,"stv_name":"Uncletopia | Frankfurt | 7 | Stopwatch | STV","players":null},{"server_id":24,"name":"Uncletopia | Frankfurt | 8 | Community","name_short":"frk-8","host":"frk-1.de.uncletopia.com","port":27085,"enabled":true,"region":"eu","cc":"de","latitude":50.110924,"longitude":8.682127,"reserved":0,"last_update":"0001-01-01T00:00:00Z","name_a2s":"Uncletopia | Frankfurt | 8 | Community","protocol":17,"map":"workshop/koth_synthetic_rc6a.ugc1549817316","folder":"tf","game":"Team Fortress","app_id":440,"player_count":0,"max_players":24,"Bots":0,"server_type":"Dedicated","server_os":"Linux","password":true,"vac":true,"version":"7961495","steam_id":85568392924742828,"keywords":["cp","nocrits","nodmgspread","uncletopia"],"game_id":440,"stv_port":27086,"stv_name":"Uncletopia | Frankfurt | 8 | Community | STV","players":null},{"server_id":202,"name":"Uncletopia | Hong Kong | 1 | All Maps","name_short":"hgk-1","host":"hgk-1.hk.uncletopia.com","port":27015,"enabled":true,"region":"asia","cc":"hk","latitude":22.302711,"longitude":114.177216,"reserved":0,"last_update":"0001-01-01T00:00:00Z","name_a2s":"Uncletopia | Hong Kong | 1 | All Maps","protocol":17,"map":"koth_viaduct","folder":"tf","game":"Team Fortress","app_id":440,"player_count":0,"max_players":24,"Bots":0,"server_type":"Dedicated","server_os":"Linux","password":true,"vac":true,"version":"7961495","steam_id":85568392924494504,"keywords":["cp","nocrits","nodmgspread","uncletopia"],"game_id":440,"stv_port":27016,"stv_name":"Uncletopia | Hong Kong | 1 | All Maps | STV","players":null},{"server_id":1,"name":"Uncletopia | Los Angeles | 1 | All Maps","name_short":"lax-1","host":"lax-1.us.uncletopia.com","port":27015,"enabled":true,"region":"us-west","cc":"us","latitude":33.94279,"longitude":-118.41004,"reserved":0,"last_update":"0001-01-01T00:00:00Z","name_a2s":"Uncletopia | Los Angeles | 1 | All Maps","protocol":17,"map":"pl_upward","folder":"tf","game":"Team Fortress","app_id":440,"player_count":13,"max_players":24,"Bots":0,"server_type":"Dedicated","server_os":"Linux","password":true,"vac":true,"version":"7961495","steam_id":85568392924469991,"keywords":["nocrits","nodmgspread","payload","uncletopia"],"game_id":440,"stv_port":27016,"stv_name":"Uncletopia | Los Angeles | 1 | All Maps | STV","players":[{"user_id":5,"name":"The_Skull","steam_id":76561198121244647,"connected_time":5424000000000,"state":"active","ping":109},{"user_id":16,"name":"The_RainbowTrout","steam_id":76561199309554436,"connected_time":736000000000,"state":"active","ping":80},{"user_id":11,"name":"Mix56374","steam_id":76561199093717909,"connected_time":1218000000000,"state":"active","ping":52},{"user_id":8,"name":"asm_ghost","steam_id":76561199205363547,"connected_time":2781000000000,"state":"active","ping":67},{"user_id":17,"name":"Nooblord","steam_id":76561199105123730,"connected_time":485000000000,"state":"active","ping":322},{"user_id":14,"name":"Jazpy","steam_id":76561198036872545,"connected_time":937000000000,"state":"active","ping":73},{"user_id":18,"name":"Tmiracle","steam_id":76561198052375275,"connected_time":388000000000,"state":"active","ping":42},{"user_id":19,"name":"Snekmn","steam_id":76561198259498003,"connected_time":325000000000,"state":"active","ping":60},{"user_id":20,"name":"BlitzTheBlock","steam_id":76561198239546394,"connected_time":276000000000,"state":"spawning","ping":39},{"user_id":21,"name":"lolosaur","steam_id":76561199186671167,"connected_time":264000000000,"state":"active","ping":87},{"user_id":22,"name":"Spider_god","steam_id":76561199097791017,"connected_time":138000000000,"state":"spawning","ping":69},{"user_id":23,"name":"Dr. Bubs","steam_id":76561198011696595,"connected_time":36000000000,"state":"active","ping":49},{"user_id":24,"name":"es","steam_id":76561198006892337,"connected_time":7000000000,"state":"spawning","ping":87}]},{"server_id":112,"name":"Uncletopia | Los Angeles | 2 | All Maps","name_short":"lax-2","host":"lax-1.us.uncletopia.com","port":27025,"enabled":true,"region":"us-west","cc":"us","latitude":33.94279,"longitude":-118.41004,"reserved":0,"last_update":"0001-01-01T00:00:00Z","name_a2s":"Uncletopia | Los Angeles | 2 | All Maps","protocol":17,"map":"koth_cascade","folder":"tf","game":"Team Fortress","app_id":440,"player_count":0,"max_players":24,"Bots":0,"server_type":"Dedicated","server_os":"Linux","password":true,"vac":true,"version":"7961495","steam_id":85568392924469992,"keywords":["cp","nocrits","nodmgspread","uncletopia"],"game_id":440,"stv_port":27026,"stv_name":"Uncletopia | Los Angeles | 2 | All Maps | STV","players":null},{"server_id":324,"name":"Uncletopia | Los Angeles | 3 | All Maps","name_short":"lax-3","host":"lax-1.us.uncletopia.com","port":27035,"enabled":true,"region":"us-west","cc":"us","latitude":33.94279,"longitude":-118.41004,"reserved":0,"last_update":"0001-01-01T00:00:00Z","name_a2s":"Uncletopia | Los Angeles | 3 | All Maps","protocol":17,"map":"pl_frontier_final","folder":"tf","game":"Team Fortress","app_id":440,"player_count":0,"max_players":24,"Bots":0,"server_type":"Dedicated","server_os":"Linux","password":true,"vac":true,"version":"7961495","steam_id":85568392924510198,"keywords":["nocrits","nodmgspread","payload","uncletopia"],"game_id":440,"stv_port":27036,"stv_name":"Uncletopia | Los Angeles | 3 | All Maps | STV","players":null},{"server_id":25,"name":"Uncletopia | Los Angeles | 4 | Stopwatch","name_short":"lax-4","host":"lax-1.us.uncletopia.com","port":27045,"enabled":true,"region":"us-west","cc":"us","latitude":33.94279,"longitude":-118.41004,"reserved":0,"last_update":"0001-01-01T00:00:00Z","name_a2s":"Uncletopia | Los Angeles | 4 | Stopwatch","protocol":17,"map":"workshop/cp_process_f12.ugc2302948105","folder":"tf","game":"Team Fortress","app_id":440,"player_count":0,"max_players":24,"Bots":0,"server_type":"Dedicated","server_os":"Linux","password":true,"vac":true,"version":"7961495","steam_id":85568392924510199,"keywords":["cp","nocrits","nodmgspread","uncletopia"],"game_id":440,"stv_port":27046,"stv_name":"Uncletopia | Los Angeles | 4 | Stopwatch | STV","players":null},{"server_id":11,"name":"Uncletopia | London | 1 | All Maps","name_short":"lon-1","host":"lon-1.uk.uncletopia.com","port":27015,"enabled":true,"region":"eu","cc":"gb","latitude":51.509865,"longitude":-0.118092,"reserved":0,"last_update":"0001-01-01T00:00:00Z","name_a2s":"Uncletopia | London | 1 | All Maps","protocol":17,"map":"pl_swiftwater_final1","folder":"tf","game":"Team Fortress","app_id":440,"player_count":24,"max_players":24,"Bots":0,"server_type":"Dedicated","server_os":"Linux","password":true,"vac":true,"version":"7961495","steam_id":85568392924367362,"keywords":["nocrits","nodmgspread","payload","uncletopia"],"game_id":440,"stv_port":27016,"stv_name":"Uncletopia | London | 1 | All Maps | STV","players":[{"user_id":480,"name":"Nutty Dark^^","steam_id":76561198036241064,"connected_time":2008000000000,"state":"active","ping":68},{"user_id":348,"name":"neJ","steam_id":76561198003397488,"connected_time":13855000000000,"state":"active","ping":77},{"user_id":430,"name":"Nugget","steam_id":76561198338916407,"connected_time":5328000000000,"state":"active","ping":73},{"user_id":433,"name":"Scottish Fox","steam_id":76561198052990270,"connected_time":5287000000000,"state":"active","ping":48},{"user_id":484,"name":"Jack","steam_id":76561198079575891,"connected_time":1161000000000,"state":"active","ping":45},{"user_id":478,"name":"SacredWyv3rn","steam_id":76561198799153975,"connected_time":2261000000000,"state":"active","ping":55},{"user_id":421,"name":"Boki","steam_id":76561198044553351,"connected_time":6842000000000,"state":"active","ping":75},{"user_id":438,"name":"kittylover55","steam_id":76561198136297981,"connected_time":4925000000000,"state":"active","ping":74},{"user_id":446,"name":"Dogdigger","steam_id":76561198032893130,"connected_time":4087000000000,"state":"active","ping":102},{"user_id":488,"name":"THE REAL, LORD KEVIN","steam_id":76561198992520519,"connected_time":746000000000,"state":"active","ping":71},{"user_id":490,"name":"brtaba","steam_id":76561198796334790,"connected_time":30000000000,"state":"active","ping":96},{"user_id":481,"name":"HarmlessCanine2","steam_id":76561198389475312,"connected_time":1386000000000,"state":"active","ping":66},{"user_id":491,"name":"jermany","steam_id":76561198126599355,"connected_time":19000000000,"state":"active","ping":218},{"user_id":390,"name":"paypig","steam_id":76561198035137115,"connected_time":9522000000000,"state":"active","ping":45},{"user_id":449,"name":"Wonton","steam_id":76561198026843002,"connected_time":4025000000000,"state":"active","ping":44},{"user_id":479,"name":"Anri Okita's Massive Milkers","steam_id":76561199186352720,"connected_time":2053000000000,"state":"active","ping":59},{"user_id":461,"name":"✪ Danny","steam_id":76561198104483241,"connected_time":3469000000000,"state":"active","ping":54},{"user_id":489,"name":"Luis prime","steam_id":76561198161402859,"connected_time":447000000000,"state":"active","ping":80},{"user_id":472,"name":"Clown :o)","steam_id":76561198074657015,"connected_time":2481000000000,"state":"active","ping":54},{"user_id":382,"name":"Scout","steam_id":76561198992898803,"connected_time":10859000000000,"state":"active","ping":55},{"user_id":471,"name":"Luuk","steam_id":76561198088266026,"connected_time":2525000000000,"state":"active","ping":45},{"user_id":470,"name":"I'm gonna eat you","steam_id":76561198073769916,"connected_time":2694000000000,"state":"active","ping":47},{"user_id":487,"name":"David Blaine","steam_id":76561198019715229,"connected_time":760000000000,"state":"active","ping":134},{"user_id":457,"name":"Ixsus\u003c3","steam_id":76561198094756869,"connected_time":3773000000000,"state":"active","ping":60}]},{"server_id":114,"name":"Uncletopia | London | 2 | All Maps","name_short":"lon-2","host":"lon-1.uk.uncletopia.com","port":27025,"enabled":true,"region":"eu","cc":"gb","latitude":51.509865,"longitude":-0.118092,"reserved":0,"last_update":"0001-01-01T00:00:00Z","name_a2s":"Uncletopia | London | 2 | All Maps","protocol":17,"map":"cp_steel","folder":"tf","game":"Team Fortress","app_id":440,"player_count":20,"max_players":24,"Bots":0,"server_type":"Dedicated","server_os":"Linux","password":true,"vac":true,"version":"7961495","steam_id":85568392924470941,"keywords":["cp","nocrits","nodmgspread","uncletopia"],"game_id":440,"stv_port":27026,"stv_name":"Uncletopia | London | 2 | All Maps | STV","players":[{"user_id":306,"name":"Romultra","steam_id":76561198354105082,"connected_time":903000000000,"state":"active","ping":44},{"user_id":313,"name":"Dwight Schrute","steam_id":76561198015871883,"connected_time":261000000000,"state":"active","ping":71},{"user_id":318,"name":"The worst TF2 player(real)","steam_id":76561199184873889,"connected_time":27000000000,"state":"active","ping":70},{"user_id":314,"name":"Sodsboy","steam_id":76561198030482006,"connected_time":253000000000,"state":"active","ping":45},{"user_id":300,"name":"Scarlet","steam_id":76561198075966579,"connected_time":1492000000000,"state":"active","ping":40},{"user_id":311,"name":"PicklesTRT","steam_id":76561198053440288,"connected_time":365000000000,"state":"active","ping":161},{"user_id":301,"name":"Palex","steam_id":76561198093219465,"connected_time":1476000000000,"state":"active","ping":45},{"user_id":308,"name":"Dr. Funkenstein","steam_id":76561197977816210,"connected_time":822000000000,"state":"active","ping":63},{"user_id":316,"name":"Yefch","steam_id":76561199375126278,"connected_time":133000000000,"state":"active","ping":100},{"user_id":310,"name":"Nobaddy","steam_id":76561198037871007,"connected_time":759000000000,"state":"active","ping":74},{"user_id":271,"name":"Caramel","steam_id":76561198021214844,"connected_time":4138000000000,"state":"active","ping":45},{"user_id":259,"name":"Adwulf","steam_id":76561198045489942,"connected_time":4743000000000,"state":"active","ping":43},{"user_id":317,"name":":3","steam_id":76561198169471853,"connected_time":129000000000,"state":"active","ping":44},{"user_id":299,"name":"Luri","steam_id":76561197993880197,"connected_time":1560000000000,"state":"active","ping":85},{"user_id":282,"name":"Lithe","steam_id":76561198097130024,"connected_time":3444000000000,"state":"active","ping":54},{"user_id":297,"name":"i hack smart refrigerators","steam_id":76561199265289808,"connected_time":1639000000000,"state":"active","ping":118},{"user_id":273,"name":"STARRI","steam_id":76561198245784188,"connected_time":4089000000000,"state":"active","ping":51},{"user_id":309,"name":"oskaroku00","steam_id":76561199025360128,"connected_time":793000000000,"state":"active","ping":78},{"user_id":274,"name":"Ruvik","steam_id":76561198031040533,"connected_time":4066000000000,"state":"active","ping":61},{"user_id":305,"name":"sork","steam_id":76561198082446459,"connected_time":1240000000000,"state":"active","ping":79}]},{"server_id":320,"name":"Uncletopia | London | 3 | All Maps","name_short":"lon-3","host":"lon-1.uk.uncletopia.com","port":27035,"enabled":true,"region":"eu","cc":"gb","latitude":51.509865,"longitude":-0.118092,"reserved":0,"last_update":"0001-01-01T00:00:00Z","name_a2s":"Uncletopia | London | 3 | All Maps","protocol":17,"map":"koth_viaduct","folder":"tf","game":"Team Fortress","app_id":440,"player_count":23,"max_players":24,"Bots":0,"server_type":"Dedicated","server_os":"Linux","password":true,"vac":true,"version":"7961495","steam_id":85568392924510192,"keywords":["cp","nocrits","nodmgspread","uncletopia"],"game_id":440,"stv_port":27036,"stv_name":"Uncletopia | London | 3 | All Maps | STV","players":[{"user_id":508,"name":"xX_DogWater-Gaming69_Xx","steam_id":76561198335486000,"connected_time":88000000000,"state":"active","ping":67},{"user_id":459,"name":"john fortress","steam_id":76561198013237629,"connected_time":2973000000000,"state":"active","ping":100},{"user_id":457,"name":"error","steam_id":76561198065364691,"connected_time":3361000000000,"state":"active","ping":74},{"user_id":495,"name":"Mébh Óg MacTíre","steam_id":76561198346399624,"connected_time":711000000000,"state":"active","ping":84},{"user_id":507,"name":"Dr. Livesey","steam_id":76561198071049943,"connected_time":184000000000,"state":"active","ping":69},{"user_id":502,"name":"tr4ce","steam_id":76561198085296732,"connected_time":626000000000,"state":"active","ping":43},{"user_id":500,"name":"St✭rr","steam_id":76561198352329537,"connected_time":660000000000,"state":"active","ping":77},{"user_id":448,"name":"Richard nixon roleplayer","steam_id":76561198236015392,"connected_time":4039000000000,"state":"active","ping":121},{"user_id":368,"name":"Vibing Wave","steam_id":76561198866358613,"connected_time":9899000000000,"state":"active","ping":177},{"user_id":479,"name":"lizard","steam_id":76561198061513180,"connected_time":1980000000000,"state":"active","ping":51},{"user_id":400,"name":"bapab","steam_id":76561198307556377,"connected_time":7582000000000,"state":"active","ping":49},{"user_id":486,"name":"Drift7114","steam_id":76561199044419505,"connected_time":1312000000000,"state":"active","ping":73},{"user_id":501,"name":"TomNoSocks","steam_id":76561198114071046,"connected_time":648000000000,"state":"active","ping":65},{"user_id":503,"name":"Jan Paweł Długi","steam_id":76561198002849717,"connected_time":613000000000,"state":"active","ping":80},{"user_id":469,"name":"Skiper","steam_id":76561198255911945,"connected_time":2289000000000,"state":"active","ping":57},{"user_id":407,"name":"volkiano","steam_id":76561198319802031,"connected_time":7227000000000,"state":"active","ping":49},{"user_id":504,"name":"24/7 lofi hip hop beats","steam_id":76561198130597374,"connected_time":594000000000,"state":"active","ping":65},{"user_id":477,"name":"Margaret Thatcher","steam_id":76561198124463930,"connected_time":2017000000000,"state":"active","ping":44},{"user_id":432,"name":"FROG IndigoJones","steam_id":76561198050284262,"connected_time":5574000000000,"state":"active","ping":45},{"user_id":458,"name":"doctor sex","steam_id":76561198029044617,"connected_time":3334000000000,"state":"active","ping":51},{"user_id":483,"name":"Pinochet","steam_id":76561198194042394,"connected_time":1826000000000,"state":"active","ping":148},{"user_id":485,"name":"Mikha","steam_id":76561197974719822,"connected_time":1787000000000,"state":"active","ping":57}]},{"server_id":321,"name":"Uncletopia | London | 4 | All Maps","name_short":"lon-4","host":"lon-1.uk.uncletopia.com","port":27045,"enabled":true,"region":"eu","cc":"gb","latitude":51.509865,"longitude":-0.118092,"reserved":0,"last_update":"0001-01-01T00:00:00Z","name_a2s":"Uncletopia | London | 4 | All Maps","protocol":17,"map":"pl_thundermountain","folder":"tf","game":"Team Fortress","app_id":440,"player_count":24,"max_players":24,"Bots":0,"server_type":"Dedicated","server_os":"Linux","password":true,"vac":true,"version":"7961495","steam_id":85568392924510193,"keywords":["nocrits","nodmgspread","payload","uncletopia"],"game_id":440,"stv_port":27046,"stv_name":"Uncletopia | London | 4 | All Maps | STV","players":[{"user_id":290,"name":"Taez","steam_id":76561198261820803,"connected_time":522000000000,"state":"active","ping":65},{"user_id":287,"name":"KiwiHour","steam_id":76561198101793923,"connected_time":722000000000,"state":"active","ping":46},{"user_id":219,"name":"Lonekus","steam_id":76561198055613110,"connected_time":3683000000000,"state":"active","ping":70},{"user_id":294,"name":"RiX","steam_id":76561197969053733,"connected_time":307000000000,"state":"active","ping":61},{"user_id":292,"name":"2fort's silliest soldier","steam_id":76561198128613675,"connected_time":463000000000,"state":"active","ping":50},{"user_id":275,"name":"Rez","steam_id":76561198410598772,"connected_time":1375000000000,"state":"active","ping":46},{"user_id":284,"name":"Rain","steam_id":76561198186993269,"connected_time":995000000000,"state":"active","ping":66},{"user_id":280,"name":"cbt wizard","steam_id":76561198327069633,"connected_time":1205000000000,"state":"active","ping":66},{"user_id":263,"name":"Krautklopper","steam_id":76561198077399444,"connected_time":1779000000000,"state":"active","ping":58},{"user_id":264,"name":"znunney","steam_id":76561199438501613,"connected_time":1762000000000,"state":"active","ping":50},{"user_id":230,"name":"rwota","steam_id":76561198385769722,"connected_time":3077000000000,"state":"active","ping":105},{"user_id":296,"name":"Shaylux276","steam_id":76561198054596165,"connected_time":187000000000,"state":"active","ping":81},{"user_id":234,"name":"panda","steam_id":76561198215136941,"connected_time":2871000000000,"state":"active","ping":115},{"user_id":248,"name":"Spitfire","steam_id":76561198220627816,"connected_time":2417000000000,"state":"active","ping":81},{"user_id":235,"name":"Sir Crust","steam_id":76561199122077146,"connected_time":2862000000000,"state":"active","ping":60},{"user_id":236,"name":"Hotdogs","steam_id":76561199112737347,"connected_time":2860000000000,"state":"active","ping":63},{"user_id":297,"name":"SnareBreaker","steam_id":76561198854045058,"connected_time":185000000000,"state":"active","ping":188},{"user_id":242,"name":"Yuzu","steam_id":76561198121694613,"connected_time":2640000000000,"state":"active","ping":43},{"user_id":243,"name":"JVLIVS","steam_id":76561198366167099,"connected_time":2634000000000,"state":"active","ping":45},{"user_id":298,"name":"Sandvich","steam_id":76561199079493666,"connected_time":167000000000,"state":"active","ping":110},{"user_id":278,"name":"LuckyHappyGuy","steam_id":76561198353023996,"connected_time":1322000000000,"state":"active","ping":83},{"user_id":249,"name":"confusion","steam_id":76561199199499453,"connected_time":2409000000000,"state":"active","ping":85},{"user_id":266,"name":"obscure","steam_id":76561198119532381,"connected_time":1684000000000,"state":"active","ping":50},{"user_id":282,"name":"Seyho","steam_id":76561198181313670,"connected_time":1184000000000,"state":"active","ping":39}]},{"server_id":21,"name":"Uncletopia | London | 5 | All Maps","name_short":"lon-5","host":"lon-1.uk.uncletopia.com","port":27055,"enabled":true,"region":"eu","cc":"gb","latitude":51.509865,"longitude":-0.118092,"reserved":0,"last_update":"0001-01-01T00:00:00Z","name_a2s":"Uncletopia | London | 5 | All Maps","protocol":17,"map":"koth_highpass","folder":"tf","game":"Team Fortress","app_id":440,"player_count":20,"max_players":24,"Bots":0,"server_type":"Dedicated","server_os":"Linux","password":true,"vac":true,"version":"7961495","steam_id":85568392924742829,"keywords":["cp","nocrits","nodmgspread","uncletopia"],"game_id":440,"stv_port":27056,"stv_name":"Uncletopia | London | 5 | All Maps | STV","players":[{"user_id":284,"name":"Kamelåså","steam_id":76561198149072785,"connected_time":427000000000,"state":"active","ping":64},{"user_id":285,"name":"Dr. Senpai","steam_id":76561199217893562,"connected_time":362000000000,"state":"active","ping":71},{"user_id":288,"name":"4doorsmorewhores","steam_id":76561198232250076,"connected_time":104000000000,"state":"active","ping":55},{"user_id":286,"name":"lege schappen","steam_id":76561199077022985,"connected_time":325000000000,"state":"active","ping":52},{"user_id":276,"name":"Macro","steam_id":76561199442846226,"connected_time":672000000000,"state":"active","ping":158},{"user_id":241,"name":"shenanigan","steam_id":76561198043452925,"connected_time":3162000000000,"state":"active","ping":95},{"user_id":273,"name":"Panda_Waffle","steam_id":76561198078328398,"connected_time":728000000000,"state":"active","ping":58},{"user_id":271,"name":"waffle toaster","steam_id":76561198799089628,"connected_time":802000000000,"state":"active","ping":41},{"user_id":287,"name":"ｄｅｓｋｒａｙ","steam_id":76561198805536170,"connected_time":250000000000,"state":"active","ping":77},{"user_id":289,"name":"CalzoneCarl456","steam_id":76561198846982793,"connected_time":81000000000,"state":"active","ping":51},{"user_id":290,"name":"(≖ᴗ≖✿)","steam_id":76561198095560087,"connected_time":31000000000,"state":"active","ping":79},{"user_id":258,"name":"worgeral","steam_id":76561198050781898,"connected_time":1875000000000,"state":"active","ping":60},{"user_id":278,"name":"Jussukka","steam_id":76561198122894683,"connected_time":667000000000,"state":"active","ping":87},{"user_id":259,"name":"Qwerty","steam_id":76561198023525894,"connected_time":1834000000000,"state":"active","ping":90},{"user_id":274,"name":"Oxide","steam_id":76561198040389973,"connected_time":682000000000,"state":"active","ping":94},{"user_id":275,"name":"torn","steam_id":76561198223003236,"connected_time":682000000000,"state":"active","ping":34},{"user_id":209,"name":"Snowy","steam_id":76561198169992461,"connected_time":5111000000000,"state":"active","ping":43},{"user_id":281,"name":"ZereLaatikko™","steam_id":76561198068151511,"connected_time":648000000000,"state":"active","ping":106},{"user_id":266,"name":"KFD","steam_id":76561198157183003,"connected_time":1105000000000,"state":"active","ping":88},{"user_id":282,"name":"the lorax","steam_id":76561199180176442,"connected_time":615000000000,"state":"active","ping":71}]},{"server_id":22,"name":"Uncletopia | London | 6 | All Maps","name_short":"lon-6","host":"lon-1.uk.uncletopia.com","port":27065,"enabled":true,"region":"eu","cc":"gb","latitude":51.509865,"longitude":-0.118092,"reserved":0,"last_update":"0001-01-01T00:00:00Z","name_a2s":"Uncletopia | London | 6 | All Maps","protocol":17,"map":"pl_swiftwater_final1","folder":"tf","game":"Team Fortress","app_id":440,"player_count":0,"max_players":24,"Bots":0,"server_type":"Dedicated","server_os":"Linux","password":true,"vac":true,"version":"7961495","steam_id":85568392924742830,"keywords":["nocrits","nodmgspread","payload","uncletopia"],"game_id":440,"stv_port":27066,"stv_name":"Uncletopia | London | 6 | All Maps | STV","players":null},{"server_id":40,"name":"Uncletopia | London | 7 | Stopwatch","name_short":"lon-7","host":"lon-1.uk.uncletopia.com","port":27075,"enabled":true,"region":"eu","cc":"gb","latitude":51.509865,"longitude":-0.118092,"reserved":0,"last_update":"0001-01-01T00:00:00Z","name_a2s":"Uncletopia | London | 7 | Stopwatch","protocol":17,"map":"cp_sunshine","folder":"tf","game":"Team Fortress","app_id":440,"player_count":0,"max_players":24,"Bots":0,"server_type":"Dedicated","server_os":"Linux","password":true,"vac":true,"version":"7961495","steam_id":85568392924964314,"keywords":["cp","nocrits","nodmgspread","uncletopia"],"game_id":440,"stv_port":27076,"stv_name":"Uncletopia | London | 7 | Stopwatch | STV","players":null},{"server_id":41,"name":"Uncletopia | London | 8 | Community","name_short":"lon-8","host":"lon-1.uk.uncletopia.com","port":27085,"enabled":true,"region":"eu","cc":"gb","latitude":51.509865,"longitude":-0.118092,"reserved":0,"last_update":"0001-01-01T00:00:00Z","name_a2s":"Uncletopia | London | 8 | Community","protocol":17,"map":"workshop/cp_alloy_rc3.ugc592805587","folder":"tf","game":"Team Fortress","app_id":440,"player_count":0,"max_players":24,"Bots":0,"server_type":"Dedicated","server_os":"Linux","password":true,"vac":true,"version":"7961495","steam_id":85568392924964315,"keywords":["cp","nocrits","nodmgspread","uncletopia"],"game_id":440,"stv_port":27086,"stv_name":"Uncletopia | London | 8 | Community | STV","players":null},{"server_id":300,"name":"Uncletopia | Montréal | 1 | One Thousand Uncles","name_short":"mtl-1","host":"mtl-1.ca.uncletopia.com","port":27015,"enabled":true,"region":"us-east","cc":"ca","latitude":45.50889,"longitude":-73.56167,"reserved":0,"last_update":"0001-01-01T00:00:00Z","name_a2s":"","protocol":0,"map":"","folder":"","game":"","app_id":0,"player_count":1,"max_players":0,"Bots":0,"server_type":"","server_os":"","password":false,"vac":false,"version":"","steam_id":0,"keywords":null,"game_id":0,"stv_port":0,"stv_name":"","players":[{"user_id":19,"name":"wonky","steam_id":76561199190356691,"connected_time":19000000000,"state":"active","ping":110}]},{"server_id":301,"name":"Uncletopia | Montréal | 2 | One Thousand Uncles","name_short":"mtl-2","host":"mtl-1.ca.uncletopia.com","port":27025,"enabled":true,"region":"us-east","cc":"ca","latitude":45.50889,"longitude":-73.56167,"reserved":0,"last_update":"0001-01-01T00:00:00Z","name_a2s":"","protocol":0,"map":"","folder":"","game":"","app_id":0,"player_count":0,"max_players":0,"Bots":0,"server_type":"","server_os":"","password":false,"vac":false,"version":"","steam_id":0,"keywords":null,"game_id":0,"stv_port":0,"stv_name":"","players":null},{"server_id":302,"name":"Uncletopia | Montréal | 3 | One Thousand Uncles","name_short":"mtl-3","host":"mtl-1.ca.uncletopia.com","port":27035,"enabled":true,"region":"us-east","cc":"ca","latitude":45.50889,"longitude":-73.56167,"reserved":0,"last_update":"0001-01-01T00:00:00Z","name_a2s":"","protocol":0,"map":"","folder":"","game":"","app_id":0,"player_count":0,"max_players":0,"Bots":0,"server_type":"","server_os":"","password":false,"vac":false,"version":"","steam_id":0,"keywords":null,"game_id":0,"stv_port":0,"stv_name":"","players":null},{"server_id":13,"name":"Uncletopia | New York City | 1 | All Maps","name_short":"nyc-1","host":"nyc-1.us.uncletopia.com","port":27015,"enabled":true,"region":"us-east","cc":"us","latitude":40.73061,"longitude":-73.93524,"reserved":0,"last_update":"0001-01-01T00:00:00Z","name_a2s":"Uncletopia | New York City | 1 | All Maps","protocol":17,"map":"pl_upward","folder":"tf","game":"Team Fortress","app_id":440,"player_count":24,"max_players":24,"Bots":0,"server_type":"Dedicated","server_os":"Linux","password":true,"vac":true,"version":"7961495","steam_id":85568392924469993,"keywords":["nocrits","nodmgspread","payload","uncletopia"],"game_id":440,"stv_port":27016,"stv_name":"Uncletopia | New York City | 1 | All Maps | STV","players":[{"user_id":347,"name":"Ginger Jesus","steam_id":76561198052386458,"connected_time":991000000000,"state":"active","ping":42},{"user_id":298,"name":"tacofever","steam_id":76561198010966507,"connected_time":4501000000000,"state":"active","ping":109},{"user_id":335,"name":"Gargathor the Entity Catcher","steam_id":76561198189429665,"connected_time":2227000000000,"state":"active","ping":77},{"user_id":364,"name":"Ripping Heads","steam_id":76561198006146062,"connected_time":43000000000,"state":"active","ping":62},{"user_id":293,"name":"Micro","steam_id":76561198319239296,"connected_time":5022000000000,"state":"active","ping":69},{"user_id":342,"name":"pea ttv/peabeanz","steam_id":76561198119551968,"connected_time":1113000000000,"state":"active","ping":66},{"user_id":343,"name":"neph","steam_id":76561198962318010,"connected_time":1103000000000,"state":"active","ping":72},{"user_id":354,"name":"feleven","steam_id":76561198853721046,"connected_time":565000000000,"state":"active","ping":55},{"user_id":365,"name":"pipebombrater","steam_id":76561199029030831,"connected_time":41000000000,"state":"active","ping":63},{"user_id":360,"name":"eduard","steam_id":76561198136550093,"connected_time":183000000000,"state":"active","ping":74},{"user_id":348,"name":"Lord Chunk Ass","steam_id":76561198377576721,"connected_time":977000000000,"state":"active","ping":167},{"user_id":355,"name":"Nice21","steam_id":76561199427548141,"connected_time":530000000000,"state":"active","ping":71},{"user_id":330,"name":"disengage!","steam_id":76561198044856349,"connected_time":2369000000000,"state":"active","ping":75},{"user_id":362,"name":"Doctor !","steam_id":76561198058264019,"connected_time":123000000000,"state":"active","ping":68},{"user_id":340,"name":"Verily","steam_id":76561198200558318,"connected_time":1431000000000,"state":"active","ping":46},{"user_id":321,"name":"eWVra2Vy","steam_id":76561198453565942,"connected_time":2879000000000,"state":"active","ping":73},{"user_id":361,"name":"carrot cake","steam_id":76561198055174915,"connected_time":149000000000,"state":"active","ping":71},{"user_id":356,"name":"Exhiet","steam_id":76561198218111020,"connected_time":447000000000,"state":"active","ping":57},{"user_id":323,"name":"Ya viene...🥵","steam_id":76561198298364415,"connected_time":2793000000000,"state":"active","ping":121},{"user_id":333,"name":"eatmysteel","steam_id":76561198976437527,"connected_time":2285000000000,"state":"active","ping":79},{"user_id":363,"name":"gerf.","steam_id":76561198811706201,"connected_time":113000000000,"state":"active","ping":57},{"user_id":296,"name":"gungybungy","steam_id":76561199165338893,"connected_time":4894000000000,"state":"active","ping":85},{"user_id":339,"name":"Bald Vegeta","steam_id":76561198844143746,"connected_time":1602000000000,"state":"active","ping":74},{"user_id":358,"name":"dillon/dylan","steam_id":76561198118054166,"connected_time":409000000000,"state":"active","ping":60}]},{"server_id":14,"name":"Uncletopia | New York City | 2 | All Maps","name_short":"nyc-2","host":"nyc-1.us.uncletopia.com","port":27025,"enabled":true,"region":"us-east","cc":"us","latitude":40.73061,"longitude":-73.93524,"reserved":0,"last_update":"0001-01-01T00:00:00Z","name_a2s":"Uncletopia | New York City | 2 | All Maps","protocol":17,"map":"pl_frontier_final","folder":"tf","game":"Team Fortress","app_id":440,"player_count":24,"max_players":24,"Bots":0,"server_type":"Dedicated","server_os":"Linux","password":true,"vac":true,"version":"7961495","steam_id":85568392924469994,"keywords":["nocrits","nodmgspread","payload","uncletopia"],"game_id":440,"stv_port":27026,"stv_name":"Uncletopia | New York City | 2 | All Maps | STV","players":[{"user_id":140,"name":"Rated_C","steam_id":76561199226478414,"connected_time":7470000000000,"state":"active","ping":91},{"user_id":222,"name":"phroliax","steam_id":76561198207075529,"connected_time":846000000000,"state":"active","ping":75},{"user_id":195,"name":"tsaide","steam_id":76561198384120999,"connected_time":2792000000000,"state":"active","ping":58},{"user_id":210,"name":"TARP","steam_id":76561198981788304,"connected_time":1722000000000,"state":"active","ping":40},{"user_id":219,"name":"'LaxAttack","steam_id":76561198044129346,"connected_time":1295000000000,"state":"active","ping":60},{"user_id":158,"name":"Tabby!!!!","steam_id":76561198018288153,"connected_time":6671000000000,"state":"active","ping":58},{"user_id":228,"name":"BoxOfStaples","steam_id":76561198834773017,"connected_time":44000000000,"state":"active","ping":83},{"user_id":192,"name":"wew","steam_id":76561198062608696,"connected_time":3076000000000,"state":"active","ping":74},{"user_id":212,"name":"Pyloroid","steam_id":76561199259867180,"connected_time":1708000000000,"state":"active","ping":125},{"user_id":199,"name":"François Viète","steam_id":76561198072975518,"connected_time":2643000000000,"state":"active","ping":71},{"user_id":191,"name":"Babylon","steam_id":76561198048291984,"connected_time":3613000000000,"state":"active","ping":82},{"user_id":213,"name":"Simmons","steam_id":76561198024778135,"connected_time":1574000000000,"state":"active","ping":57},{"user_id":224,"name":"Nightman","steam_id":76561198089513762,"connected_time":743000000000,"state":"active","ping":82},{"user_id":202,"name":"imng","steam_id":76561198014988031,"connected_time":2622000000000,"state":"active","ping":76},{"user_id":203,"name":"Dinosaur","steam_id":76561199079626189,"connected_time":2607000000000,"state":"active","ping":76},{"user_id":225,"name":"Gerald Jay Sussman","steam_id":76561198114515026,"connected_time":700000000000,"state":"active","ping":45},{"user_id":208,"name":"Squope","steam_id":76561198983129293,"connected_time":1787000000000,"state":"active","ping":53},{"user_id":178,"name":"Redkiller","steam_id":76561199453655288,"connected_time":5295000000000,"state":"active","ping":66},{"user_id":229,"name":"Dallas","steam_id":76561198066542919,"connected_time":1000000000,"state":"spawning","ping":60},{"user_id":174,"name":"perro","steam_id":76561199055667840,"connected_time":5522000000000,"state":"active","ping":61},{"user_id":185,"name":"ItzFluffyex","steam_id":76561198289521685,"connected_time":4646000000000,"state":"active","ping":61},{"user_id":151,"name":"Yeti","steam_id":76561198176049478,"connected_time":6955000000000,"state":"active","ping":69},{"user_id":220,"name":"Diego el cacharrero","steam_id":76561199168519521,"connected_time":1290000000000,"state":"active","ping":144},{"user_id":226,"name":"nav","steam_id":76561198872608266,"connected_time":699000000000,"state":"active","ping":67}]},{"server_id":15,"name":"Uncletopia | New York City | 3 | Stopwatch","name_short":"nyc-3","host":"nyc-1.us.uncletopia.com","port":27035,"enabled":true,"region":"us-east","cc":"us","latitude":40.73061,"longitude":-73.93524,"reserved":0,"last_update":"0001-01-01T00:00:00Z","name_a2s":"Uncletopia | New York City | 3 | Stopwatch","protocol":17,"map":"workshop/koth_product_final.ugc454272353","folder":"tf","game":"Team Fortress","app_id":440,"player_count":0,"max_players":24,"Bots":0,"server_type":"Dedicated","server_os":"Linux","password":true,"vac":true,"version":"7961495","steam_id":85568392924742820,"keywords":["cp","nocrits","nodmgspread","uncletopia"],"game_id":440,"stv_port":27036,"stv_name":"Uncletopia | New York City | 3 | Stopwatch | STV","players":null},{"server_id":16,"name":"Uncletopia | New York City | 4 | Community","name_short":"nyc-4","host":"nyc-1.us.uncletopia.com","port":27045,"enabled":true,"region":"us-east","cc":"us","latitude":40.73061,"longitude":-73.93524,"reserved":0,"last_update":"0001-01-01T00:00:00Z","name_a2s":"Uncletopia | New York City | 4 | Community","protocol":17,"map":"workshop/pl_emerge_rc2.ugc888027758","folder":"tf","game":"Team Fortress","app_id":440,"player_count":0,"max_players":24,"Bots":0,"server_type":"Dedicated","server_os":"Linux","password":true,"vac":true,"version":"7961495","steam_id":85568392924742821,"keywords":["nocrits","nodmgspread","payload","uncletopia"],"game_id":440,"stv_port":27046,"stv_name":"Uncletopia | New York City | 4 | Community | STV","players":null},{"server_id":142,"name":"Uncletopia | São Paulo | 1 | All Maps","name_short":"sao-1","host":"sao-1.br.uncletopia.com","port":27015,"enabled":true,"region":"sa","cc":"br","latitude":-23.533773,"longitude":-46.62529,"reserved":0,"last_update":"0001-01-01T00:00:00Z","name_a2s":"Uncletopia | São Paulo | 1 | All Maps","protocol":17,"map":"cp_sunshine","folder":"tf","game":"Team Fortress","app_id":440,"player_count":0,"max_players":24,"Bots":0,"server_type":"Dedicated","server_os":"Linux","password":true,"vac":true,"version":"7961495","steam_id":85568392924469996,"keywords":["cp","nocrits","nodmgspread","uncletopia"],"game_id":440,"stv_port":27016,"stv_name":"Uncletopia | São Paulo | 1 | All Maps | STV","players":null},{"server_id":143,"name":"Uncletopia | São Paulo | 2 | Community","name_short":"sao-2","host":"sao-2.br.uncletopia.com","port":27015,"enabled":true,"region":"sa","cc":"br","latitude":-23.533773,"longitude":-46.62529,"reserved":0,"last_update":"0001-01-01T00:00:00Z","name_a2s":"Uncletopia | São Paulo | 2 | Community","protocol":17,"map":"workshop/pl_badwater_pro_v12.ugc2142942074","folder":"tf","game":"Team Fortress","app_id":440,"player_count":0,"max_players":24,"Bots":0,"server_type":"Dedicated","server_os":"Linux","password":true,"vac":true,"version":"7961495","steam_id":85568392924485349,"keywords":["nocrits","nodmgspread","payload","uncletopia"],"game_id":440,"stv_port":27016,"stv_name":"Uncletopia | São Paulo | 2 | Community | STV","players":null},{"server_id":7,"name":"Uncletopia | Seattle | 1 | All Maps","name_short":"sea-1","host":"sea-1.us.uncletopia.com","port":27015,"enabled":true,"region":"us-west","cc":"us","latitude":47.608013,"longitude":-122.33517,"reserved":0,"last_update":"0001-01-01T00:00:00Z","name_a2s":"Uncletopia | Seattle | 1 | All Maps","protocol":17,"map":"pl_swiftwater_final1","folder":"tf","game":"Team Fortress","app_id":440,"player_count":24,"max_players":24,"Bots":0,"server_type":"Dedicated","server_os":"Linux","password":true,"vac":true,"version":"7961495","steam_id":85568392924469997,"keywords":["nocrits","nodmgspread","payload","uncletopia"],"game_id":440,"stv_port":27016,"stv_name":"Uncletopia | Seattle | 1 | All Maps | STV","players":[{"user_id":99,"name":"mr. hello","steam_id":76561199382661194,"connected_time":1651000000000,"state":"active","ping":62},{"user_id":82,"name":"Why does glass taste like blood","steam_id":76561198253922494,"connected_time":2946000000000,"state":"active","ping":75},{"user_id":100,"name":"dwight schrute","steam_id":76561198001237877,"connected_time":1473000000000,"state":"active","ping":93},{"user_id":118,"name":"dearender the burger fan","steam_id":76561199427644498,"connected_time":6000000000,"state":"spawning","ping":72},{"user_id":105,"name":"Why","steam_id":76561199388826335,"connected_time":1086000000000,"state":"active","ping":119},{"user_id":38,"name":"Zee✞","steam_id":76561198274550638,"connected_time":5356000000000,"state":"active","ping":105},{"user_id":33,"name":"Wheaty","steam_id":76561198003553412,"connected_time":5702000000000,"state":"active","ping":51},{"user_id":84,"name":"Mr_MagicMan","steam_id":76561198372713689,"connected_time":2692000000000,"state":"active","ping":115},{"user_id":106,"name":"darren","steam_id":76561199050155136,"connected_time":1041000000000,"state":"active","ping":66},{"user_id":107,"name":"plink","steam_id":76561198274112032,"connected_time":996000000000,"state":"active","ping":87},{"user_id":114,"name":"theslayert4","steam_id":76561199258578780,"connected_time":628000000000,"state":"active","ping":52},{"user_id":112,"name":"Lé Mon","steam_id":76561198078626283,"connected_time":799000000000,"state":"active","ping":20},{"user_id":116,"name":"TheCowledWiz","steam_id":76561198016735868,"connected_time":281000000000,"state":"active","ping":49},{"user_id":44,"name":"Jeramosa","steam_id":76561198811000094,"connected_time":4829000000000,"state":"active","ping":81},{"user_id":91,"name":"Sean","steam_id":76561199367470003,"connected_time":2104000000000,"state":"active","ping":77},{"user_id":117,"name":"Kazoo","steam_id":76561199229748300,"connected_time":229000000000,"state":"active","ping":69},{"user_id":111,"name":"Salazar9","steam_id":76561198049903973,"connected_time":865000000000,"state":"active","ping":54},{"user_id":103,"name":"Pneumo.","steam_id":76561197987911883,"connected_time":1330000000000,"state":"active","ping":56},{"user_id":94,"name":"Rick Assley","steam_id":76561198365019199,"connected_time":2073000000000,"state":"active","ping":102},{"user_id":102,"name":"The Nikocado Enjoyer","steam_id":76561198263154374,"connected_time":1398000000000,"state":"active","ping":111},{"user_id":104,"name":"Speedycat","steam_id":76561198024821259,"connected_time":1202000000000,"state":"active","ping":75},{"user_id":110,"name":"Jonatello","steam_id":76561198045699189,"connected_time":872000000000,"state":"active","ping":77},{"user_id":97,"name":"kirby7","steam_id":76561199167006749,"connected_time":1941000000000,"state":"active","ping":102},{"user_id":115,"name":"Dimple","steam_id":76561198980324190,"connected_time":615000000000,"state":"active","ping":52}]},{"server_id":119,"name":"Uncletopia | Seattle | 2 | All Maps","name_short":"sea-2","host":"sea-1.us.uncletopia.com","port":27025,"enabled":true,"region":"us-west","cc":"us","latitude":47.608013,"longitude":-122.33517,"reserved":0,"last_update":"0001-01-01T00:00:00Z","name_a2s":"Uncletopia | Seattle | 2 | All Maps","protocol":17,"map":"pl_upward","folder":"tf","game":"Team Fortress","app_id":440,"player_count":0,"max_players":24,"Bots":0,"server_type":"Dedicated","server_os":"Linux","password":true,"vac":true,"version":"7961495","steam_id":85568392924469998,"keywords":["nocrits","nodmgspread","payload","uncletopia"],"game_id":440,"stv_port":27026,"stv_name":"Uncletopia | Seattle | 2 | All Maps | STV","players":null},{"server_id":406,"name":"Uncletopia | Seattle | 3 | Stopwatch","name_short":"sea-3","host":"sea-1.us.uncletopia.com","port":27035,"enabled":true,"region":"us-west","cc":"us","latitude":47.608013,"longitude":-122.33517,"reserved":0,"last_update":"0001-01-01T00:00:00Z","name_a2s":"Uncletopia | Seattle | 3 | Stopwatch","protocol":17,"map":"pl_pier","folder":"tf","game":"Team Fortress","app_id":440,"player_count":0,"max_players":24,"Bots":0,"server_type":"Dedicated","server_os":"Linux","password":true,"vac":true,"version":"7961495","steam_id":85568392924515217,"keywords":["nocrits","nodmgspread","payload","uncletopia"],"game_id":440,"stv_port":27036,"stv_name":"Uncletopia | Seattle | 3 | Stopwatch | STV","players":null},{"server_id":17,"name":"Uncletopia | San Francisco | 1 | All Maps","name_short":"sfo-1","host":"sfo-1.us.uncletopia.com","port":27015,"enabled":true,"region":"us-west","cc":"us","latitude":37.77397,"longitude":-122.4313,"reserved":0,"last_update":"0001-01-01T00:00:00Z","name_a2s":"Uncletopia | San Francisco | 1 | All Maps","protocol":17,"map":"koth_cascade","folder":"tf","game":"Team Fortress","app_id":440,"player_count":0,"max_players":24,"Bots":0,"server_type":"Dedicated","server_os":"Linux","password":true,"vac":true,"version":"7961495","steam_id":85568392924469999,"keywords":["cp","nocrits","nodmgspread","uncletopia"],"game_id":440,"stv_port":27016,"stv_name":"Uncletopia | San Francisco | 1 | All Maps | STV","players":null},{"server_id":18,"name":"Uncletopia | San Francisco | 2 | All Maps","name_short":"sfo-2","host":"sfo-1.us.uncletopia.com","port":27025,"enabled":true,"region":"us-west","cc":"us","latitude":37.77397,"longitude":-122.4313,"reserved":0,"last_update":"0001-01-01T00:00:00Z","name_a2s":"Uncletopia | San Francisco | 2 | All Maps","protocol":17,"map":"pl_frontier_final","folder":"tf","game":"Team Fortress","app_id":440,"player_count":0,"max_players":24,"Bots":0,"server_type":"Dedicated","server_os":"Linux","password":true,"vac":true,"version":"7961495","steam_id":85568392924470000,"keywords":["nocrits","nodmgspread","payload","uncletopia"],"game_id":440,"stv_port":27026,"stv_name":"Uncletopia | San Francisco | 2 | All Maps | STV","players":null},{"server_id":19,"name":"Uncletopia | San Francisco | 3 | Stopwatch","name_short":"sfo-3","host":"sfo-1.us.uncletopia.com","port":27035,"enabled":true,"region":"us-west","cc":"us","latitude":37.77397,"longitude":-122.4313,"reserved":0,"last_update":"0001-01-01T00:00:00Z","name_a2s":"Uncletopia | San Francisco | 3 | Stopwatch","protocol":17,"map":"pl_pier","folder":"tf","game":"Team Fortress","app_id":440,"player_count":0,"max_players":24,"Bots":0,"server_type":"Dedicated","server_os":"Linux","password":true,"vac":true,"version":"7961495","steam_id":85568392924742824,"keywords":["nocrits","nodmgspread","payload","uncletopia"],"game_id":440,"stv_port":27036,"stv_name":"Uncletopia | San Francisco | 3 | Stopwatch | STV","players":null},{"server_id":20,"name":"Uncletopia | San Francisco | 4 | Community","name_short":"sfo-4","host":"sfo-1.us.uncletopia.com","port":27045,"enabled":true,"region":"us-west","cc":"us","latitude":37.77397,"longitude":-122.4313,"reserved":0,"last_update":"0001-01-01T00:00:00Z","name_a2s":"Uncletopia | San Francisco | 4 | Community","protocol":17,"map":"pl_pier","folder":"tf","game":"Team Fortress","app_id":440,"player_count":0,"max_players":24,"Bots":0,"server_type":"Dedicated","server_os":"Linux","password":true,"vac":true,"version":"7961495","steam_id":85568392924742826,"keywords":["nocrits","nodmgspread","payload","uncletopia"],"game_id":440,"stv_port":27046,"stv_name":"Uncletopia | San Francisco | 4 | Community | STV","players":null},{"server_id":141,"name":"Uncletopia | Sydney | 1 | All Maps","name_short":"syd-1","host":"syd-1.au.uncletopia.com","port":27015,"enabled":true,"region":"au","cc":"au","latitude":-33.865143,"longitude":151.2099,"reserved":0,"last_update":"0001-01-01T00:00:00Z","name_a2s":"Uncletopia | Sydney | 1 | All Maps","protocol":17,"map":"cp_altitude","folder":"tf","game":"Team Fortress","app_id":440,"player_count":0,"max_players":24,"Bots":0,"server_type":"Dedicated","server_os":"Linux","password":true,"vac":true,"version":"7961495","steam_id":85568392924470001,"keywords":["cp","nocrits","nodmgspread","uncletopia"],"game_id":440,"stv_port":27016,"stv_name":"Uncletopia | Sydney | 1 | All Maps | STV","players":null},{"server_id":123,"name":"Uncletopia | Sydney | 2 | All Maps","name_short":"syd-2","host":"syd-1.au.uncletopia.com","port":27025,"enabled":true,"region":"au","cc":"au","latitude":-33.865143,"longitude":151.2099,"reserved":0,"last_update":"0001-01-01T00:00:00Z","name_a2s":"Uncletopia | Sydney | 2 | All Maps","protocol":17,"map":"cp_snakewater_final1","folder":"tf","game":"Team Fortress","app_id":440,"player_count":0,"max_players":24,"Bots":0,"server_type":"Dedicated","server_os":"Linux","password":true,"vac":true,"version":"7961495","steam_id":85568392924470002,"keywords":["cp","nocrits","nodmgspread","uncletopia"],"game_id":440,"stv_port":27026,"stv_name":"Uncletopia | Sydney | 2 | All Maps | STV","players":null},{"server_id":395,"name":"Uncletopia | Sydney | 3 | All Maps","name_short":"syd-3","host":"syd-1.au.uncletopia.com","port":27035,"enabled":true,"region":"au","cc":"au","latitude":-33.865143,"longitude":151.2099,"reserved":0,"last_update":"0001-01-01T00:00:00Z","name_a2s":"Uncletopia | Sydney | 3 | All Maps","protocol":17,"map":"koth_king","folder":"tf","game":"Team Fortress","app_id":440,"player_count":0,"max_players":24,"Bots":0,"server_type":"Dedicated","server_os":"Linux","password":true,"vac":true,"version":"7961495","steam_id":85568392925194467,"keywords":["cp","nocrits","nodmgspread","uncletopia"],"game_id":440,"stv_port":27036,"stv_name":"Uncletopia | Sydney | 3 | All Maps | STV","players":null},{"server_id":396,"name":"Uncletopia | Sydney | 4 | All Maps","name_short":"syd-4","host":"syd-1.au.uncletopia.com","port":27045,"enabled":true,"region":"au","cc":"au","latitude":-33.865143,"longitude":151.2099,"reserved":0,"last_update":"0001-01-01T00:00:00Z","name_a2s":"Uncletopia | Sydney | 4 | All Maps","protocol":17,"map":"cp_process_final","folder":"tf","game":"Team Fortress","app_id":440,"player_count":0,"max_players":24,"Bots":0,"server_type":"Dedicated","server_os":"Linux","password":true,"vac":true,"version":"7961495","steam_id":85568392925397958,"keywords":["cp","nocrits","nodmgspread","uncletopia"],"game_id":440,"stv_port":27046,"stv_name":"Uncletopia | Sydney | 4 | All Maps | STV","players":null},{"server_id":58,"name":"Uncletopia | Sydney | 5 | Stopwatch","name_short":"syd-5","host":"syd-1.au.uncletopia.com","port":27055,"enabled":true,"region":"au","cc":"au","latitude":-33.865143,"longitude":151.2099,"reserved":0,"last_update":"0001-01-01T00:00:00Z","name_a2s":"Uncletopia | Sydney | 5 | Stopwatch","protocol":17,"map":"pl_frontier_final","folder":"tf","game":"Team Fortress","app_id":440,"player_count":0,"max_players":24,"Bots":0,"server_type":"Dedicated","server_os":"Linux","password":true,"vac":true,"version":"7961495","steam_id":85568392925397959,"keywords":["nocrits","nodmgspread","payload","uncletopia"],"game_id":440,"stv_port":27056,"stv_name":"Uncletopia | Sydney | 5 | Stopwatch | STV","players":null},{"server_id":59,"name":"Uncletopia | Sydney | 6 | Community","name_short":"syd-6","host":"syd-1.au.uncletopia.com","port":27065,"enabled":true,"region":"au","cc":"au","latitude":-33.865143,"longitude":151.2099,"reserved":0,"last_update":"0001-01-01T00:00:00Z","name_a2s":"Uncletopia | Sydney | 6 | Community","protocol":17,"map":"cp_sunshine","folder":"tf","game":"Team Fortress","app_id":440,"player_count":0,"max_players":24,"Bots":0,"server_type":"Dedicated","server_os":"Linux","password":true,"vac":true,"version":"7961495","steam_id":85568392925397960,"keywords":["cp","nocrits","nodmgspread","uncletopia"],"game_id":440,"stv_port":27066,"stv_name":"Uncletopia | Sydney | 6 | Community | STV","players":null},{"server_id":49,"name":"Uncletopia | Warsaw | 1 | One Thousand Uncles","name_short":"waw-1","host":"waw-1.pl.uncletopia.com","port":27015,"enabled":true,"region":"eu","cc":"pl","latitude":52.2297,"longitude":21.017532,"reserved":0,"last_update":"0001-01-01T00:00:00Z","name_a2s":"Uncletopia | Warsaw | 1 | One Thousand Uncles","protocol":17,"map":"cp_altitude","folder":"tf","game":"Team Fortress","app_id":440,"player_count":21,"max_players":32,"Bots":16,"server_type":"Dedicated","server_os":"Linux","password":true,"vac":true,"version":"7961495","steam_id":85568392925397850,"keywords":["alltalk","bots","cp","danepve","increased_maxplayers","nocrits","norespawntime","uncletopia"],"game_id":440,"stv_port":0,"stv_name":"","players":[{"user_id":590,"name":"Fotosíntesis","steam_id":76561198034253525,"connected_time":914000000000,"state":"active","ping":82},{"user_id":607,"name":"babijon","steam_id":76561199283633044,"connected_time":842000000000,"state":"active","ping":115},{"user_id":608,"name":"adv6","steam_id":76561198029789989,"connected_time":612000000000,"state":"active","ping":68},{"user_id":609,"name":"Greem","steam_id":76561198241711724,"connected_time":214000000000,"state":"active","ping":64},{"user_id":610,"name":"aolkdi","steam_id":76561198025479415,"connected_time":156000000000,"state":"active","ping":135}]},{"server_id":50,"name":"Uncletopia | Warsaw | 2 | One Thousand Uncles","name_short":"waw-2","host":"waw-1.pl.uncletopia.com","port":27025,"enabled":true,"region":"eu","cc":"pl","latitude":52.2297,"longitude":21.017532,"reserved":0,"last_update":"0001-01-01T00:00:00Z","name_a2s":"Uncletopia | Warsaw | 2 | One Thousand Uncles","protocol":17,"map":"cp_dustbowl","folder":"tf","game":"Team Fortress","app_id":440,"player_count":28,"max_players":32,"Bots":16,"server_type":"Dedicated","server_os":"Linux","password":true,"vac":true,"version":"7961495","steam_id":85568392925397851,"keywords":["alltalk","bots","cp","danepve","increased_maxplayers","nocrits","norespawntime","uncletopia"],"game_id":440,"stv_port":0,"stv_name":"","players":[{"user_id":338,"name":"Majami","steam_id":76561198054365738,"connected_time":1572000000000,"state":"active","ping":70},{"user_id":330,"name":"Soya Suki","steam_id":76561197998106435,"connected_time":2865000000000,"state":"active","ping":63},{"user_id":305,"name":"C.E.O. of stab industry","steam_id":76561198242840202,"connected_time":7426000000000,"state":"active","ping":74},{"user_id":306,"name":"loup le solitaire","steam_id":76561198884393063,"connected_time":7387000000000,"state":"active","ping":93},{"user_id":331,"name":"caramel❤","steam_id":76561198819353867,"connected_time":2762000000000,"state":"active","ping":68},{"user_id":329,"name":"Irme","steam_id":76561198161590299,"connected_time":3134000000000,"state":"active","ping":90},{"user_id":347,"name":"vurtun","steam_id":76561198857395274,"connected_time":967000000000,"state":"active","ping":61},{"user_id":339,"name":"Detective KOnan","steam_id":76561198046702519,"connected_time":1392000000000,"state":"active","ping":144},{"user_id":348,"name":"Shadowwalker","steam_id":76561198344642637,"connected_time":690000000000,"state":"active","ping":174},{"user_id":340,"name":"Womanticore","steam_id":76561199235582031,"connected_time":1326000000000,"state":"active","ping":258},{"user_id":349,"name":"JayMaloney","steam_id":76561198050173547,"connected_time":221000000000,"state":"active","ping":69},{"user_id":345,"name":"CouchPotato","steam_id":76561198849369915,"connected_time":1104000000000,"state":"active","ping":61}]},{"server_id":51,"name":"Uncletopia | Warsaw | 3 | All Maps","name_short":"waw-3","host":"waw-1.pl.uncletopia.com","port":27035,"enabled":true,"region":"eu","cc":"pl","latitude":52.2297,"longitude":21.017532,"reserved":0,"last_update":"0001-01-01T00:00:00Z","name_a2s":"Uncletopia | Warsaw | 3 | All Maps","protocol":17,"map":"pl_badwater","folder":"tf","game":"Team Fortress","app_id":440,"player_count":0,"max_players":24,"Bots":0,"server_type":"Dedicated","server_os":"Linux","password":true,"vac":true,"version":"7961495","steam_id":85568392925397852,"keywords":["nocrits","nodmgspread","payload","uncletopia"],"game_id":440,"stv_port":27036,"stv_name":"Uncletopia | Warsaw | 3 | All Maps | STV","players":null},{"server_id":52,"name":"Uncletopia | Warsaw | 4 | All Maps","name_short":"waw-4","host":"waw-1.pl.uncletopia.com","port":27045,"enabled":true,"region":"eu","cc":"pl","latitude":52.2297,"longitude":21.017532,"reserved":0,"last_update":"0001-01-01T00:00:00Z","name_a2s":"Uncletopia | Warsaw | 4 | All Maps","protocol":17,"map":"cp_process_final","folder":"tf","game":"Team Fortress","app_id":440,"player_count":0,"max_players":24,"Bots":0,"server_type":"Dedicated","server_os":"Linux","password":true,"vac":true,"version":"7961495","steam_id":85568392925397853,"keywords":["cp","nocrits","nodmgspread","uncletopia"],"game_id":440,"stv_port":27046,"stv_name":"Uncletopia | Warsaw | 4 | All Maps | STV","players":null},{"server_id":53,"name":"Uncletopia | Warsaw | 5 | Stopwatch","name_short":"waw-5","host":"waw-1.pl.uncletopia.com","port":27055,"enabled":true,"region":"eu","cc":"pl","latitude":52.2297,"longitude":21.017532,"reserved":0,"last_update":"0001-01-01T00:00:00Z","name_a2s":"Uncletopia | Warsaw | 5 | Stopwatch","protocol":17,"map":"cp_gullywash_final1","folder":"tf","game":"Team Fortress","app_id":440,"player_count":1,"max_players":24,"Bots":0,"server_type":"Dedicated","server_os":"Linux","password":true,"vac":true,"version":"7961495","steam_id":85568392925397854,"keywords":["cp","nocrits","nodmgspread","uncletopia"],"game_id":440,"stv_port":27056,"stv_name":"Uncletopia | Warsaw | 5 | Stopwatch | STV","players":[{"user_id":21,"name":"Denialman (Muted)","steam_id":76561198309182092,"connected_time":47000000000,"state":"spawning","ping":74}]},{"server_id":54,"name":"Uncletopia | Warsaw | 6 | Community","name_short":"waw-6","host":"waw-1.pl.uncletopia.com","port":27065,"enabled":true,"region":"eu","cc":"pl","latitude":52.2297,"longitude":21.017532,"reserved":0,"last_update":"0001-01-01T00:00:00Z","name_a2s":"Uncletopia | Warsaw | 6 | Community","protocol":17,"map":"workshop/rd_asteroid_redux_b1.ugc2154902912","folder":"tf","game":"Team Fortress","app_id":440,"player_count":0,"max_players":24,"Bots":0,"server_type":"Dedicated","server_os":"Linux","password":true,"vac":true,"version":"7961495","steam_id":85568392925397856,"keywords":["beta","nocrits","nodmgspread","rd","uncletopia"],"game_id":440,"stv_port":27066,"stv_name":"Uncletopia | Warsaw | 6 | Community | STV","players":null}]}