{"status":true,"message":"","result":[{"server_id":2,"name":"Uncletopia | Chicago | 1 | All Maps","name_short":"chi-1","host":"chi-1.us.uncletopia.com","port":27015,"enabled":true,"region":"us-central","cc":"us","latitude":41.881832,"longitude":-87.62318,"reserved":0,"last_update":"0001-01-01T00:00:00Z","name_a2s":"Uncletopia | Chicago | 1 | All Maps","protocol":17,"map":"pl_upward","folder":"tf","game":"Team Fortress","app_id":440,"player_count":23,"max_players":24,"Bots":0,"server_type":"Dedicated","server_os":"Linux","password":true,"vac":true,"version":"7961495","steam_id":85568392924469984,"keywords":["nocrits","nodmgspread","payload","uncletopia"],"game_id":440,"stv_port":27016,"stv_name":"Uncletopia | Chicago | 1 | All Maps | STV","players":[{"user_id":44,"name":"cruky","steam_id":76561199097185897,"connected_time":603000000000,"state":"active","ping":67},{"user_id":5,"name":"Astoriae!","steam_id":76561199090168858,"connected_time":1726000000000,"state":"active","ping":68},{"user_id":43,"name":"good soup guy","steam_id":76561199210237835,"connected_time":679000000000,"state":"active","ping":70},{"user_id":37,"name":"Golden","steam_id":76561199128320581,"connected_time":1042000000000,"state":"active","ping":90},{"user_id":8,"name":"Emily50AE","steam_id":76561198088619665,"connected_time":1717000000000,"state":"active","ping":79},{"user_id":45,"name":"Santamen","steam_id":76561198119478199,"connected_time":286000000000,"state":"active","ping":52},{"user_id":10,"name":"mikey","steam_id":76561198095803763,"connected_time":1701000000000,"state":"active","ping":66},{"user_id":11,"name":"Herdez Hot Salsa","steam_id":76561197991740906,"connected_time":1699000000000,"state":"active","ping":55},{"user_id":12,"name":"Walkiing","steam_id":76561198074473413,"connected_time":1698000000000,"state":"active","ping":37},{"user_id":13,"name":"Robin","steam_id":76561198121165149,"connected_time":1695000000000,"state":"active","ping":43},{"user_id":14,"name":"Harold","steam_id":76561198057317770,"connected_time":1692000000000,"state":"active","ping":95},{"user_id":38,"name":"Ibrahim","steam_id":76561198028320625,"connected_time":1027000000000,"state":"active","ping":67},{"user_id":16,"name":"Ellen Baker","steam_id":76561198065712435,"connected_time":1687000000000,"state":"active","ping":115},{"user_id":42,"name":"LEGO® Indiana Jones","steam_id":76561198091266742,"connected_time":962000000000,"state":"active","ping":119},{"user_id":46,"name":"Rudy","steam_id":76561198013456828,"connected_time":282000000000,"state":"active","ping":60},{"user_id":19,"name":"L + Ratio","steam_id":76561198263786953,"connected_time":1675000000000,"state":"active","ping":75},{"user_id":40,"name":"subdromeda","steam_id":76561198884351860,"connected_time":1000000000000,"state":"active","ping":60},{"user_id":29,"name":"StonedGiant","steam_id":76561197984386932,"connected_time":1543000000000,"state":"active","ping":53},{"user_id":47,"name":"OneTrueCorvid","steam_id":76561199012953221,"connected_time":27000000000,"state":"spawning","ping":120},{"user_id":27,"name":"Whapper","steam_id":76561198044029606,"connected_time":1635000000000,"state":"active","ping":99},{"user_id":30,"name":"grailed scammer","steam_id":76561198150382695,"connected_time":1525000000000,"state":"active","ping":75},{"user_id":25,"name":"Hoofuyu","steam_id":76561199022142345,"connected_time":1647000000000,"state":"active","ping":74},{"user_id":36,"name":"b","steam_id":76561198156336213,"connected_time":1126000000000,"state":"active","ping":75}]},{"server_id":106,"name":"Uncletopia | Chicago | 2 | All Maps","name_short":"chi-2","host":"chi-1.us.uncletopia.com","port":27025,"enabled":true,"region":"us-central","cc":"us","latitude":41.881832,"longitude":-87.62318,"reserved":0,"last_update":"0001-01-01T00:00:00Z","name_a2s":"Uncletopia | Chicago | 2 | All Maps","protocol":17,"map":"pl_pier","folder":"tf","game":"Team Fortress","app_id":440,"player_count":22,"max_players":24,"Bots":0,"server_type":"Dedicated","server_os":"Linux","password":true,"vac":true,"version":"7961495","steam_id":85568392924469985,"keywords":["nocrits","nodmgspread","payload","uncletopia"],"game_id":440,"stv_port":27026,"stv_name":"Uncletopia | Chicago | 2 | All Maps | STV","players":[{"user_id":46,"name":"Mr Happy","steam_id":76561198067689328,"connected_time":19000000000,"state":"spawning","ping":47},{"user_id":43,"name":"Kalhoun","steam_id":76561197999648122,"connected_time":51000000000,"state":"spawning","ping":71},{"user_id":13,"name":"Lord TriM","steam_id":76561198048332533,"connected_time":1715000000000,"state":"active","ping":54},{"user_id":38,"name":"gorf?","steam_id":76561198142286417,"connected_time":1331000000000,"state":"active","ping":57},{"user_id":37,"name":"wunkem","steam_id":76561198055948497,"connected_time":1358000000000,"state":"active","ping":56},{"user_id":44,"name":"DinkleBerg","steam_id":76561198891626233,"connected_time":49000000000,"state":"active","ping":60},{"user_id":9,"name":"cat","steam_id":76561198096347625,"connected_time":1719000000000,"state":"active","ping":75},{"user_id":41,"name":"John16Mark","steam_id":76561198119445407,"connected_time":826000000000,"state":"active","ping":88},{"user_id":45,"name":"BurnN8or101","steam_id":76561198132668224,"connected_time":45000000000,"state":"active","ping":50},{"user_id":14,"name":"looloopaa","steam_id":76561198048179242,"connected_time":1714000000000,"state":"active","ping":57},{"user_id":15,"name":"cozy","steam_id":76561199044037628,"connected_time":1713000000000,"state":"active","ping":102},{"user_id":40,"name":"Kathy Bates","steam_id":76561198066958280,"connected_time":893000000000,"state":"active","ping":65},{"user_id":31,"name":"ZoeLikesTrees","steam_id":76561198080784636,"connected_time":1659000000000,"state":"active","ping":61},{"user_id":19,"name":"kentrell jr.","steam_id":76561198136642793,"connected_time":1704000000000,"state":"active","ping":86},{"user_id":42,"name":"ZirØhh","steam_id":76561198202286460,"connected_time":72000000000,"state":"spawning","ping":99},{"user_id":22,"name":"Mi1stOG","steam_id":76561198158796326,"connected_time":1702000000000,"state":"active","ping":68},{"user_id":24,"name":"unc havin a fent battle","steam_id":76561198144766439,"connected_time":1691000000000,"state":"active","ping":32},{"user_id":25,"name":"Mr. Call You Back","steam_id":76561198025172811,"connected_time":1687000000000,"state":"active","ping":59},{"user_id":26,"name":"CrunchCisco","steam_id":76561199162724832,"connected_time":1687000000000,"state":"active","ping":76},{"user_id":34,"name":"pele","steam_id":76561198021224745,"connected_time":1638000000000,"state":"active","ping":59},{"user_id":29,"name":"eWVra2Vy","steam_id":76561198453565942,"connected_time":1682000000000,"state":"active","ping":84},{"user_id":36,"name":"Fox","steam_id":76561198191887141,"connected_time":1606000000000,"state":"active","ping":61}]},{"server_id":402,"name":"Uncletopia | Chicago | 3 | All Maps","name_short":"chi-3","host":"chi-1.us.uncletopia.com","port":27035,"enabled":true,"region":"us-central","cc":"us","latitude":41.881832,"longitude":-87.62318,"reserved":0,"last_update":"0001-01-01T00:00:00Z","name_a2s":"Uncletopia | Chicago | 3 | All Maps","protocol":17,"map":"pl_badwater","folder":"tf","game":"Team Fortress","app_id":440,"player_count":24,"max_players":24,"Bots":0,"server_type":"Dedicated","server_os":"Linux","password":true,"vac":true,"version":"7961495","steam_id":85568392924515191,"keywords":["nocrits","nodmgspread","payload","uncletopia"],"game_id":440,"stv_port":27036,"stv_name":"Uncletopia | Chicago | 3 | All Maps | STV","players":[{"user_id":3,"name":"aphexjh","steam_id":76561197985854658,"connected_time":1722000000000,"state":"active","ping":53},{"user_id":18,"name":"menonamed","steam_id":76561198199564382,"connected_time":1358000000000,"state":"active","ping":71},{"user_id":32,"name":"GreekGoat_Coffee","steam_id":76561198129331088,"connected_time":1033000000000,"state":"active","ping":46},{"user_id":23,"name":"Medic BF","steam_id":76561198197422098,"connected_time":1160000000000,"state":"active","ping":54},{"user_id":7,"name":"Help Me","steam_id":76561198133851467,"connected_time":1712000000000,"state":"spawning","ping":91},{"user_id":11,"name":"Red Scientist","steam_id":76561198151349793,"connected_time":1620000000000,"state":"active","ping":72},{"user_id":24,"name":"Tri-Dot","steam_id":76561199075186597,"connected_time":1136000000000,"state":"active","ping":59},{"user_id":45,"name":"Blue Bones","steam_id":76561198169284141,"connected_time":714000000000,"state":"active","ping":91},{"user_id":48,"name":"Letters","steam_id":76561198035508148,"connected_time":127000000000,"state":"active","ping":90},{"user_id":50,"name":"lamb cutlet","steam_id":76561199063557758,"connected_time":9000000000,"state":"spawning","ping":165},{"user_id":49,"name":"the spanish nomad","steam_id":76561198123034240,"connected_time":126000000000,"state":"active","ping":75},{"user_id":39,"name":"ᴍᴇɴᴀᴄᴇ 200 ping demo","steam_id":76561198271948299,"connected_time":953000000000,"state":"active","ping":101},{"user_id":28,"name":"FroggerGaming20","steam_id":76561199112470899,"connected_time":1059000000000,"state":"active","ping":91},{"user_id":29,"name":"ShawnLmao","steam_id":76561198350691501,"connected_time":1050000000000,"state":"spawning","ping":139},{"user_id":40,"name":"That Guy","steam_id":76561198074138740,"connected_time":950000000000,"state":"active","ping":75},{"user_id":44,"name":"Isotope","steam_id":76561199480883504,"connected_time":755000000000,"state":"active","ping":63},{"user_id":33,"name":"k8o","steam_id":76561198042481882,"connected_time":1032000000000,"state":"active","ping":33},{"user_id":35,"name":"RusticCarp42989","steam_id":76561198361151865,"connected_time":995000000000,"state":"active","ping":121},{"user_id":36,"name":"Im wanted in 6 countries.","steam_id":76561198042937036,"connected_time":986000000000,"state":"active","ping":61},{"user_id":37,"name":"Marrow","steam_id":76561199076969033,"connected_time":976000000000,"state":"active","ping":48},{"user_id":38,"name":"Bassasin","steam_id":76561198125947844,"connected_time":970000000000,"state":"active","ping":93},{"user_id":42,"name":"RedBatman","steam_id":76561198064252016,"connected_time":948000000000,"state":"active","ping":79},{"user_id":43,"name":"SiltyStar85","steam_id":76561198309175923,"connected_time":927000000000,"state":"active","ping":75},{"user_id":47,"name":"Heathcliff","steam_id":76561198044288534,"connected_time":546000000000,"state":"active","ping":88}]},{"server_id":403,"name":"Uncletopia | Chicago | 4 | All Maps","name_short":"chi-4","host":"chi-1.us.uncletopia.com","port":27045,"enabled":true,"region":"us-central","cc":"us","latitude":41.881832,"longitude":-87.62318,"reserved":0,"last_update":"0001-01-01T00:00:00Z","name_a2s":"Uncletopia | Chicago | 4 | All Maps","protocol":17,"map":"pl_upward","folder":"tf","game":"Team Fortress","app_id":440,"player_count":24,"max_players":24,"Bots":0,"server_type":"Dedicated","server_os":"Linux","password":true,"vac":true,"version":"7961495","steam_id":85568392924515193,"keywords":["nocrits","nodmgspread","payload","uncletopia"],"game_id":440,"stv_port":27046,"stv_name":"Uncletopia | Chicago | 4 | All Maps | STV","players":[{"user_id":40,"name":"*","steam_id":76561198173047169,"connected_time":61000000000,"state":"active","ping":54},{"user_id":4,"name":"Raccoon.Of.Waffle.House","steam_id":76561199018770554,"connected_time":1725000000000,"state":"active","ping":88},{"user_id":6,"name":"Sentient Plaid Shirt","steam_id":76561198073338999,"connected_time":1707000000000,"state":"active","ping":70},{"user_id":8,"name":"Your Dad™","steam_id":76561198254739340,"connected_time":1697000000000,"state":"active","ping":99},{"user_id":9,"name":"TimTam Tom","steam_id":76561198045988062,"connected_time":1695000000000,"state":"active","ping":71},{"user_id":10,"name":"the gunker","steam_id":76561199453865135,"connected_time":1694000000000,"state":"active","ping":67},{"user_id":37,"name":"Jama-Lama","steam_id":76561198803782938,"connected_time":770000000000,"state":"active","ping":64},{"user_id":29,"name":"Caerr","steam_id":76561198018698474,"connected_time":1483000000000,"state":"active","ping":113},{"user_id":39,"name":"Ze_Über_Nerd","steam_id":76561198091148675,"connected_time":107000000000,"state":"active","ping":62},{"user_id":34,"name":"Coach Nebula","steam_id":76561198034552198,"connected_time":1429000000000,"state":"active","ping":62},{"user_id":17,"name":"Uber","steam_id":76561198060564605,"connected_time":1556000000000,"state":"active","ping":56},{"user_id":18,"name":"Slap","steam_id":76561198065145622,"connected_time":1547000000000,"state":"active","ping":65},{"user_id":30,"name":"Extoned","steam_id":76561198391311164,"connected_time":1475000000000,"state":"active","ping":66},{"user_id":20,"name":"Chip_pz","steam_id":76561198139443361,"connected_time":1539000000000,"state":"active","ping":66},{"user_id":21,"name":"Boredbombknight","steam_id":76561199124037552,"connected_time":1532000000000,"state":"active","ping":56},{"user_id":38,"name":"wedoalittletrolling TF2EASY.COM","steam_id":76561198984807162,"connected_time":544000000000,"state":"active","ping":58},{"user_id":24,"name":"Inevitable","steam_id":76561198210050169,"connected_time":1504000000000,"state":"active","ping":69},{"user_id":35,"name":"Ineffable","steam_id":76561198968869068,"connected_time":1366000000000,"state":"active","ping":78},{"user_id":26,"name":"PieTheMan","steam_id":76561198027825469,"connected_time":1500000000000,"state":"active","ping":94},{"user_id":27,"name":"Zarg0n","steam_id":76561198199264549,"connected_time":1485000000000,"state":"active","ping":54},{"user_id":28,"name":"single mother of 24/24 ctf_2for","steam_id":76561198034096805,"connected_time":1485000000000,"state":"active","ping":74},{"user_id":31,"name":"Borealis Frost","steam_id":76561199115807272,"connected_time":1464000000000,"state":"active","ping":97},{"user_id":32,"name":"M","steam_id":76561198286792807,"connected_time":1458000000000,"state":"active","ping":608},{"user_id":36,"name":"The Pan Man From Slavic Land","steam_id":76561198401875841,"connected_time":1346000000000,"state":"active","ping":53}]},{"server_id":36,"name":"Uncletopia | Chicago | 5 | All Maps","name_short":"chi-5","host":"chi-2.us.uncletopia.com","port":27015,"enabled":true,"region":"us-central","cc":"us","latitude":41.881832,"longitude":-87.62318,"reserved":0,"last_update":"0001-01-01T00:00:00Z","name_a2s":"Uncletopia | Chicago | 5 | All Maps","protocol":17,"map":"pl_frontier_final","folder":"tf","game":"Team Fortress","app_id":440,"player_count":24,"max_players":24,"Bots":0,"server_type":"Dedicated","server_os":"Linux","password":true,"vac":true,"version":"7961495","steam_id":85568392924866362,"keywords":["nocrits","nodmgspread","payload","uncletopia"],"game_id":440,"stv_port":27016,"stv_name":"Uncletopia | Chicago | 5 | All Maps | STV","players":[{"user_id":3,"name":"[Champ] Marssygurl","steam_id":76561198014928241,"connected_time":561000000000,"state":"active","ping":88},{"user_id":4,"name":"Hugs","steam_id":76561198214584133,"connected_time":561000000000,"state":"active","ping":114},{"user_id":5,"name":"Chucklin","steam_id":76561198010823579,"connected_time":559000000000,"state":"active","ping":82},{"user_id":6,"name":"jubanya","steam_id":76561198830921046,"connected_time":558000000000,"state":"active","ping":57},{"user_id":7,"name":"An Erect Penis :)","steam_id":76561198086477485,"connected_time":557000000000,"state":"active","ping":45},{"user_id":8,"name":"Mog","steam_id":76561198025575870,"connected_time":557000000000,"state":"active","ping":51},{"user_id":13,"name":"gothpapa","steam_id":76561198452122510,"connected_time":547000000000,"state":"active","ping":60},{"user_id":11,"name":"Hindmost","steam_id":76561199081837220,"connected_time":551000000000,"state":"active","ping":78},{"user_id":31,"name":"Rikuus","steam_id":76561198093799835,"connected_time":350000000000,"state":"active","ping":63},{"user_id":14,"name":"Weerk","steam_id":76561199209543551,"connected_time":542000000000,"state":"active","ping":79},{"user_id":15,"name":"SepplesTheDuck","steam_id":76561198069174592,"connected_time":541000000000,"state":"active","ping":68},{"user_id":16,"name":"lytewerk","steam_id":76561198002819791,"connected_time":541000000000,"state":"active","ping":75},{"user_id":17,"name":"run fast fall down","steam_id":76561198167207112,"connected_time":538000000000,"state":"active","ping":73},{"user_id":18,"name":"jolo","steam_id":76561198042831480,"connected_time":536000000000,"state":"active","ping":64},{"user_id":28,"name":"Stranger in a Strange Land","steam_id":76561198049843671,"connected_time":497000000000,"state":"active","ping":62},{"user_id":30,"name":"MEATBALL","steam_id":76561198028499312,"connected_time":398000000000,"state":"active","ping":63},{"user_id":21,"name":"native sugondese speaker","steam_id":76561198043862737,"connected_time":531000000000,"state":"active","ping":60},{"user_id":22,"name":"nucket","steam_id":76561198028658527,"connected_time":531000000000,"state":"active","ping":99},{"user_id":23,"name":"Duncan Idaho","steam_id":76561197988963861,"connected_time":527000000000,"state":"active","ping":68},{"user_id":24,"name":"[DATS➡] Sugar Meowth","steam_id":76561197995251793,"connected_time":526000000000,"state":"active","ping":91},{"user_id":25,"name":"Tuvok Shakur","steam_id":76561198018875334,"connected_time":524000000000,"state":"active","ping":87},{"user_id":26,"name":"phone","steam_id":76561198029268743,"connected_time":522000000000,"state":"active","ping":60},{"user_id":27,"name":"Rodgedan","steam_id":76561198226236524,"connected_time":520000000000,"state":"active","ping":84},{"user_id":33,"name":"darkness consumes","steam_id":76561198048925904,"connected_time":56000000000,"state":"active","ping":105}]},{"server_id":37,"name":"Uncletopia | Chicago | 6 | All Maps","name_short":"chi-6","host":"chi-2.us.uncletopia.com","port":27025,"enabled":true,"region":"us-central","cc":"us","latitude":41.881832,"longitude":-87.62318,"reserved":0,"last_update":"0001-01-01T00:00:00Z","name_a2s":"Uncletopia | Chicago | 6 | All Maps","protocol":17,"map":"cp_snakewater_final1","folder":"tf","game":"Team Fortress","app_id":440,"player_count":0,"max_players":24,"Bots":0,"server_type":"Dedicated","server_os":"Linux","password":true,"vac":true,"version":"7961495","steam_id":85568392924866363,"keywords":["cp","nocrits","nodmgspread","uncletopia"],"game_id":440,"stv_port":27026,"stv_name":"Uncletopia | Chicago | 6 | All Maps | STV","players":null},{"server_id":38,"name":"Uncletopia | Chicago | 7 | Stopwatch Beta","name_short":"chi-7","host":"chi-2.us.uncletopia.com","port":27035,"enabled":true,"region":"us-central","cc":"us","latitude":41.881832,"longitude":-87.62318,"reserved":0,"last_update":"0001-01-01T00:00:00Z","name_a2s":"Uncletopia | Chicago | 7 | Stopwatch Beta","protocol":17,"map":"cp_process_final","folder":"tf","game":"Team Fortress","app_id":440,"player_count":0,"max_players":24,"Bots":0,"server_type":"Dedicated","server_os":"Linux","password":true,"vac":true,"version":"7961495","steam_id":85568392924866364,"keywords":["cp","nocrits","nodmgspread","uncletopia"],"game_id":440,"stv_port":27036,"stv_name":"Uncletopia | Chicago | 7 | Stopwatch Beta | STV","players":null},{"server_id":39,"name":"Uncletopia | Chicago | 8 | Community","name_short":"chi-8","host":"chi-2.us.uncletopia.com","port":27045,"enabled":true,"region":"us-central","cc":"us","latitude":41.881832,"longitude":-87.62318,"reserved":0,"last_update":"0001-01-01T00:00:00Z","name_a2s":"Uncletopia | Chicago | 8 | Community","protocol":17,"map":"workshop/cp_croissant_final.ugc458840209","folder":"tf","game":"Team Fortress","app_id":440,"player_count":1,"max_players":24,"Bots":0,"server_type":"Dedicated","server_os":"Linux","password":true,"vac":true,"version":"7961495","steam_id":85568392924866365,"keywords":["cp","nocrits","nodmgspread","uncletopia"],"game_id":440,"stv_port":27046,"stv_name":"Uncletopia | Chicago | 8 | Community | STV","players":[{"user_id":6,"name":"Cleric","steam_id":76561198045887994,"connected_time":439000000000,"state":"active","ping":36}]},{"server_id":8,"name":"Uncletopia | Dallas | 1 | All Maps","name_short":"dal-1","host":"dal-1.us.uncletopia.com","port":27015,"enabled":true,"region":"us-central","cc":"us","latitude":32.779167,"longitude":-96.80889,"reserved":0,"last_update":"0001-01-01T00:00:00Z","name_a2s":"Uncletopia | Dallas | 1 | All Maps","protocol":17,"map":"koth_cascade","folder":"tf","game":"Team Fortress","app_id":440,"player_count":24,"max_players":24,"Bots":0,"server_type":"Dedicated","server_os":"Linux","password":true,"vac":true,"version":"7961495","steam_id":85568392924469986,"keywords":["cp","nocrits","nodmgspread","uncletopia"],"game_id":440,"stv_port":27016,"stv_name":"Uncletopia | Dallas | 1 | All Maps | STV","players":[{"user_id":532,"name":"noel","steam_id":76561198128280883,"connected_time":475000000000,"state":"active","ping":104},{"user_id":534,"name":"Nine-Tails Delsin","steam_id":76561198149825187,"connected_time":464000000000,"state":"active","ping":151},{"user_id":501,"name":"markiplier the real","steam_id":76561198156467907,"connected_time":4363000000000,"state":"active","ping":50},{"user_id":527,"name":"MegaMudkipz","steam_id":76561198354776000,"connected_time":1137000000000,"state":"active","ping":52},{"user_id":541,"name":"Meownsterhunter","steam_id":76561198319992602,"connected_time":57000000000,"state":"active","ping":59},{"user_id":487,"name":"Insizhen","steam_id":76561198051352605,"connected_time":5274000000000,"state":"active","ping":56},{"user_id":540,"name":"now thats a clip","steam_id":76561198109872295,"connected_time":240000000000,"state":"active","ping":81},{"user_id":538,"name":"Jaemison","steam_id":76561199261212592,"connected_time":413000000000,"state":"active","ping":81},{"user_id":539,"name":"Rookie","steam_id":76561198074607715,"connected_time":380000000000,"state":"active","ping":91},{"user_id":520,"name":"Rafl","steam_id":76561198055222756,"connected_time":2307000000000,"state":"active","ping":42},{"user_id":509,"name":"heavy weapons guy","steam_id":76561198151135298,"connected_time":3239000000000,"state":"active","ping":60},{"user_id":536,"name":"AT✪MIC","steam_id":76561198100385184,"connected_time":459000000000,"state":"active","ping":76},{"user_id":514,"name":"sophie","steam_id":76561199007333656,"connected_time":2379000000000,"state":"active","ping":75},{"user_id":537,"name":"Walter White","steam_id":76561199014118479,"connected_time":457000000000,"state":"active","ping":67},{"user_id":528,"name":"IlTrashPanda","steam_id":76561198447864095,"connected_time":922000000000,"state":"active","ping":65},{"user_id":513,"name":"Marc Antony","steam_id":76561198011366517,"connected_time":2386000000000,"state":"active","ping":73},{"user_id":497,"name":"Pornelius Hubert","steam_id":76561198186128723,"connected_time":4743000000000,"state":"active","ping":48},{"user_id":530,"name":"what da dog doin","steam_id":76561198090573639,"connected_time":501000000000,"state":"active","ping":76},{"user_id":516,"name":"errant","steam_id":76561197961758410,"connected_time":2374000000000,"state":"active","ping":37},{"user_id":510,"name":"DankusMemius","steam_id":76561198155223222,"connected_time":3192000000000,"state":"active","ping":57},{"user_id":512,"name":"Ace_Steele23","steam_id":76561198086867678,"connected_time":2669000000000,"state":"active","ping":66},{"user_id":507,"name":"y e e t o  b u r r i t o","steam_id":76561198963628161,"connected_time":3951000000000,"state":"active","ping":50},{"user_id":519,"name":"HanakoToast","steam_id":76561198045233131,"connected_time":2345000000000,"state":"active","ping":81},{"user_id":531,"name":"AyoBreezyo","steam_id":76561199077837616,"connected_time":501000000000,"state":"active","ping":86}]},{"server_id":108,"name":"Uncletopia | Dallas | 2 | All Maps","name_short":"dal-2","host":"dal-1.us.uncletopia.com","port":27025,"enabled":true,"region":"us-central","cc":"us","latitude":32.779167,"longitude":-96.80889,"reserved":0,"last_update":"0001-01-01T00:00:00Z","name_a2s":"Uncletopia | Dallas | 2 | All Maps","protocol":17,"map":"pl_snowycoast","folder":"tf","game":"Team Fortress","app_id":440,"player_count":24,"max_players":24,"Bots":0,"server_type":"Dedicated","server_os":"Linux","password":true,"vac":true,"version":"7961495","steam_id":85568392924469988,"keywords":["nocrits","nodmgspread","payload","uncletopia"],"game_id":440,"stv_port":27026,"stv_name":"Uncletopia | Dallas | 2 | All Maps | STV","players":[{"user_id":595,"name":"Per My Last Email","steam_id":76561197970096950,"connected_time":8067000000000,"state":"active","ping":44},{"user_id":678,"name":"eish","steam_id":76561198089463603,"connected_time":284000000000,"state":"active","ping":135},{"user_id":640,"name":"Alcohol Hominid","steam_id":76561198320313950,"connected_time":4619000000000,"state":"active","ping":61},{"user_id":681,"name":"thedoud1201","steam_id":76561199007734851,"connected_time":267000000000,"state":"active","ping":70},{"user_id":581,"name":"a bucket of chicken","steam_id":76561198023710042,"connected_time":9383000000000,"state":"active","ping":58},{"user_id":586,"name":"ChozoChorizo","steam_id":76561198272609196,"connected_time":9027000000000,"state":"active","ping":57},{"user_id":676,"name":"TwoBit","steam_id":76561198062437559,"connected_time":1016000000000,"state":"active","ping":103},{"user_id":649,"name":"Chromosome_dog","steam_id":76561198965031894,"connected_time":3369000000000,"state":"active","ping":58},{"user_id":651,"name":"dailydiamond","steam_id":76561199123582502,"connected_time":3323000000000,"state":"active","ping":97},{"user_id":671,"name":"ninety9dragonfly","steam_id":76561198363406983,"connected_time":1157000000000,"state":"active","ping":102},{"user_id":646,"name":"GibbusGod","steam_id":76561199232436690,"connected_time":3491000000000,"state":"active","ping":91},{"user_id":680,"name":"barker bill","steam_id":76561198018451994,"connected_time":272000000000,"state":"active","ping":60},{"user_id":672,"name":"TOKENLIZARD","steam_id":76561198218765205,"connected_time":1154000000000,"state":"active","ping":67},{"user_id":660,"name":"Neco-Arc","steam_id":76561198196211121,"connected_time":2390000000000,"state":"active","ping":63},{"user_id":665,"name":"Wiener Hole Paper Cut","steam_id":76561198000808203,"connected_time":1602000000000,"state":"active","ping":88},{"user_id":663,"name":"NovaMonkey","steam_id":76561198157828317,"connected_time":2371000000000,"state":"active","ping":70},{"user_id":673,"name":"McDonald","steam_id":76561199028533497,"connected_time":1145000000000,"state":"active","ping":81},{"user_id":674,"name":"Peppino Spaghetti","steam_id":76561199390353195,"connected_time":1131000000000,"state":"active","ping":56},{"user_id":677,"name":"envy","steam_id":76561198099470277,"connected_time":288000000000,"state":"active","ping":90},{"user_id":661,"name":"Dubious Adubio","steam_id":76561198442369067,"connected_time":2387000000000,"state":"active","ping":70},{"user_id":648,"name":"Shmootis","steam_id":76561198128764422,"connected_time":3405000000000,"state":"active","ping":87},{"user_id":668,"name":"Manic","steam_id":76561198128149670,"connected_time":1195000000000,"state":"active","ping":46},{"user_id":566,"name":"Spritz?","steam_id":76561198095118798,"connected_time":11327000000000,"state":"active","ping":93},{"user_id":683,"name":"Legally not a heavy","steam_id":76561198288458595,"connected_time":220000000000,"state":"active","ping":177}]},{"server_id":5,"name":"Uncletopia | Frankfurt | 1 | All Maps","name_short":"frk-1","host":"frk-1.de.uncletopia.com","port":27015,"enabled":true,"region":"eu","cc":"de","latitude":50.110924,"longitude":8.682127,"reserved":0,"last_update":"0001-01-01T00:00:00Z","name_a2s":"Uncletopia | Frankfurt | 1 | All Maps","protocol":17,"map":"cp_altitude","folder":"tf","game":"Team Fortress","app_id":440,"player_count":0,"max_players":24,"Bots":0,"server_type":"Dedicated","server_os":"Linux","password":true,"vac":true,"version":"7961495","steam_id":85568392924469989,"keywords":["cp","nocrits","nodmgspread","uncletopia"],"game_id":440,"stv_port":27016,"stv_name":"Uncletopia | Frankfurt | 1 | All Maps | STV","players":null},{"server_id":110,"name":"Uncletopia | Frankfurt | 2 | All Maps","name_short":"frk-2","host":"frk-1.de.uncletopia.com","port":27025,"enabled":true,"region":"eu","cc":"de","latitude":50.110924,"longitude":8.682127,"reserved":0,"last_update":"0001-01-01T00:00:00Z","name_a2s":"Uncletopia | Frankfurt | 2 | All Maps","protocol":17,"map":"cp_sunshine","folder":"tf","game":"Team Fortress","app_id":440,"player_count":0,"max_players":24,"Bots":0,"server_type":"Dedicated","server_os":"Linux","password":true,"vac":true,"version":"7961495","steam_id":85568392924469990,"keywords":["cp","nocrits","nodmgspread","uncletopia"],"game_id":440,"stv_port":27026,"stv_name":"Uncletopia | Frankfurt | 2 | All Maps | STV","players":null},{"server_id":308,"name":"Uncletopia | Frankfurt | 3 | All Maps","name_short":"frk-3","host":"frk-1.de.uncletopia.com","port":27035,"enabled":true,"region":"eu","cc":"de","latitude":50.110924,"longitude":8.682127,"reserved":0,"last_update":"0001-01-01T00:00:00Z","name_a2s":"Uncletopia | Frankfurt | 3 | All Maps","protocol":17,"map":"cp_mountainlab","folder":"tf","game":"Team Fortress","app_id":440,"player_count":0,"max_players":24,"Bots":0,"server_type":"Dedicated","server_os":"Linux","password":true,"vac":true,"version":"7961495","steam_id":85568392924504274,"keywords":["cp","nocrits","nodmgspread","uncletopia"],"game_id":440,"stv_port":27036,"stv_name":"Uncletopia | Frankfurt | 3 | All Maps | STV","players":null},{"server_id":309,"name":"Uncletopia | Frankfurt | 4 | All Maps","name_short":"frk-4","host":"frk-1.de.uncletopia.com","port":27045,"enabled":true,"region":"eu","cc":"de","latitude":50.110924,"longitude":8.682127,"reserved":0,"last_update":"0001-01-01T00:00:00Z","name_a2s":"Uncletopia | Frankfurt | 4 | All Maps","protocol":17,"map":"cp_process_final","folder":"tf","game":"Team Fortress","app_id":440,"player_count":0,"max_players":24,"Bots":0,"server_type":"Dedicated","server_os":"Linux","password":true,"vac":true,"version":"7961495","steam_id":85568392924504275,"keywords":["cp","nocrits","nodmgspread","uncletopia"],"game_id":440,"stv_port":27046,"stv_name":"Uncletopia | Frankfurt | 4 | All Maps | STV","players":null},{"server_id":310,"name":"Uncletopia | Frankfurt | 5 | All Maps","name_short":"frk-5","host":"frk-1.de.uncletopia.com","port":27055,"enabled":true,"region":"eu","cc":"de","latitude":50.110924,"longitude":8.682127,"reserved":0,"last_update":"0001-01-01T00:00:00Z","name_a2s":"Uncletopia | Frankfurt | 5 | All Maps","protocol":17,"map":"koth_viaduct","folder":"tf","game":"Team Fortress","app_id":440,"player_count":0,"max_players":24,"Bots":0,"server_type":"Dedicated","server_os":"Linux","password":true,"vac":true,"version":"7961495","steam_id":85568392924504277,"keywords":["cp","nocrits","nodmgspread","uncletopia"],"game_id":440,"stv_port":27056,"stv_name":"Uncletopia | Frankfurt | 5 | All Maps | STV","players":null},{"server_id":311,"name":"Uncletopia | Frankfurt | 6 | All Maps","name_short":"frk-6","host":"frk-1.de.uncletopia.com","port":27065,"enabled":true,"region":"eu","cc":"de","latitude":50.110924,"longitude":8.682127,"reserved":0,"last_update":"0001-01-01T00:00:00Z","name_a2s":"Uncletopia | Frankfurt | 6 | All Maps","protocol":17,"map":"pl_pier","folder":"tf","game":"Team Fortress","app_id":440,"player_count":0,"max_players":24,"Bots":0,"server_type":"Dedicated","server_os":"Linux","password":true,"vac":true,"version":"7961495","steam_id":85568392924504278,"keywords":["nocrits","nodmgspread","payload","uncletopia"],"game_id":440,"stv_port":27066,"stv_name":"Uncletopia | Frankfurt | 6 | All Maps | STV","players":null},{"server_id":23,"name":"Uncletopia | Frankfurt | 7 | Stopwatch Beta","name_short":"frk-7","host":"frk-1.de.uncletopia.com","port":27075,"enabled":true,"region":"eu","cc":"de","latitude":50.110924,"longitude":8.682127,"reserved":0,"last_update":"0001-01-01T00:00:00Z","name_a2s":"Uncletopia | Frankfurt | 7 | Stopwatch Beta","protocol":17,"map":"koth_cascade","folder":"tf","game":"Team Fortress","app_id":440,"player_count":0,"max_players":24,"Bots":0,"server_type":"Dedicated","server_os":"Linux","password":true,"vac":true,"version":"7961495","steam_id":85568392924742827,"keywords":["cp","nocrits","nodmgspread","uncletopia"],"game_id":440,"stv_port":27076,"stv_name":"Uncletopia | Frankfurt | 7 | Stopwatch Beta | STV","players":null},{"server_id":24,"name":"Uncletopia | Frankfurt | 8 | Community","name_short":"frk-8","host":"frk-1.de.uncletopia.com","port":27085,"enabled":true,"region":"eu","cc":"de","latitude":50.110924,"longitude":8.682127,"reserved":0,"last_update":"0001-01-01T00:00:00Z","name_a2s":"Uncletopia | Frankfurt | 8 | Community","protocol":17,"map":"cp_process_final","folder":"tf","game":"Team Fortress","app_id":440,"player_count":0,"max_players":24,"Bots":0,"server_type":"Dedicated","server_os":"Linux","password":true,"vac":true,"version":"7961495","steam_id":85568392924742828,"keywords":["cp","nocrits","nodmgspread","uncletopia"],"game_id":440,"stv_port":27086,"stv_name":"Uncletopia | Frankfurt | 8 | Community | STV","players":null},{"server_id":202,"name":"Uncletopia | Hong Kong | 1 | All Maps","name_short":"hgk-1","host":"hgk-1.hk.uncletopia.com","port":27015,"enabled":true,"region":"asia","cc":"hk","latitude":22.302711,"longitude":114.177216,"reserved":0,"last_update":"0001-01-01T00:00:00Z","name_a2s":"Uncletopia | Hong Kong | 1 | All Maps","protocol":17,"map":"pl_pier","folder":"tf","game":"Team Fortress","app_id":440,"player_count":0,"max_players":24,"Bots":0,"server_type":"Dedicated","server_os":"Linux","password":true,"vac":true,"version":"7961495","steam_id":85568392924494504,"keywords":["nocrits","nodmgspread","payload","uncletopia"],"game_id":440,"stv_port":27016,"stv_name":"Uncletopia | Hong Kong | 1 | All Maps | STV","players":null},{"server_id":1,"name":"Uncletopia | Los Angeles | 1 | All Maps","name_short":"lax-1","host":"lax-1.us.uncletopia.com","port":27015,"enabled":true,"region":"us-west","cc":"us","latitude":33.94279,"longitude":-118.41004,"reserved":0,"last_update":"0001-01-01T00:00:00Z","name_a2s":"Uncletopia | Los Angeles | 1 | All Maps","protocol":17,"map":"pl_upward","folder":"tf","game":"Team Fortress","app_id":440,"player_count":24,"max_players":24,"Bots":0,"server_type":"Dedicated","server_os":"Linux","password":true,"vac":true,"version":"7961495","steam_id":85568392924469991,"keywords":["nocrits","nodmgspread","payload","uncletopia"],"game_id":440,"stv_port":27016,"stv_name":"Uncletopia | Los Angeles | 1 | All Maps | STV","players":[{"user_id":7,"name":"femboy on hrt","steam_id":76561198204075083,"connected_time":2016000000000,"state":"active","ping":103},{"user_id":46,"name":"yall need me frfr","steam_id":76561198294192287,"connected_time":153000000000,"state":"active","ping":47},{"user_id":9,"name":"☭Borris☭","steam_id":76561198011136886,"connected_time":2013000000000,"state":"active","ping":70},{"user_id":10,"name":"YouAreReadingThis","steam_id":76561198367831600,"connected_time":2000000000000,"state":"active","ping":67},{"user_id":36,"name":"Gabe","steam_id":76561198081153719,"connected_time":1672000000000,"state":"active","ping":84},{"user_id":48,"name":"Vlone","steam_id":76561199119064542,"connected_time":144000000000,"state":"active","ping":63},{"user_id":40,"name":"Mugen","steam_id":76561198411174773,"connected_time":1548000000000,"state":"active","ping":51},{"user_id":37,"name":"Cypress","steam_id":76561198070560915,"connected_time":1665000000000,"state":"active","ping":69},{"user_id":16,"name":"DORK","steam_id":76561198037384555,"connected_time":1946000000000,"state":"active","ping":63},{"user_id":17,"name":"NFL.com","steam_id":76561198113405376,"connected_time":1937000000000,"state":"active","ping":49},{"user_id":18,"name":"Igrium","steam_id":76561198119549811,"connected_time":1929000000000,"state":"active","ping":55},{"user_id":45,"name":"HAT-WEARING™ Maggot Gamer Cat","steam_id":76561197973992705,"connected_time":474000000000,"state":"active","ping":62},{"user_id":43,"name":"vvitch","steam_id":76561198279661941,"connected_time":562000000000,"state":"active","ping":45},{"user_id":49,"name":"Wackydavo","steam_id":76561197990094209,"connected_time":144000000000,"state":"active","ping":84},{"user_id":54,"name":"thisisSteve","steam_id":76561198420882318,"connected_time":58000000000,"state":"active","ping":54},{"user_id":23,"name":"Zaiah","steam_id":76561198377588247,"connected_time":1873000000000,"state":"active","ping":83},{"user_id":50,"name":"Owl_eyes","steam_id":76561198066199203,"connected_time":143000000000,"state":"active","ping":56},{"user_id":27,"name":"magunyamu","steam_id":76561198823083676,"connected_time":1820000000000,"state":"active","ping":54},{"user_id":52,"name":"werolat","steam_id":76561197960544784,"connected_time":124000000000,"state":"active","ping":64},{"user_id":29,"name":"Nooblord","steam_id":76561199105123730,"connected_time":1793000000000,"state":"active","ping":93},{"user_id":42,"name":"MintyFreshMentos","steam_id":76561198839944799,"connected_time":1049000000000,"state":"active","ping":58},{"user_id":35,"name":"Taffy","steam_id":76561198276612538,"connected_time":1721000000000,"state":"active","ping":54},{"user_id":33,"name":"SomeRandomMail","steam_id":76561199002913110,"connected_time":1768000000000,"state":"active","ping":59},{"user_id":39,"name":"but why though?","steam_id":76561198091871087,"connected_time":1663000000000,"state":"active","ping":49}]},{"server_id":112,"name":"Uncletopia | Los Angeles | 2 | All Maps","name_short":"lax-2","host":"lax-1.us.uncletopia.com","port":27025,"enabled":true,"region":"us-west","cc":"us","latitude":33.94279,"longitude":-118.41004,"reserved":0,"last_update":"0001-01-01T00:00:00Z","name_a2s":"Uncletopia | Los Angeles | 2 | All Maps","protocol":17,"map":"pl_swiftwater_final1","folder":"tf","game":"Team Fortress","app_id":440,"player_count":24,"max_players":24,"Bots":0,"server_type":"Dedicated","server_os":"Linux","password":true,"vac":true,"version":"7961495","steam_id":85568392924469992,"keywords":["nocrits","nodmgspread","payload","uncletopia"],"game_id":440,"stv_port":27026,"stv_name":"Uncletopia | Los Angeles | 2 | All Maps | STV","players":[{"user_id":16,"name":"De Monki","steam_id":76561198964210411,"connected_time":917000000000,"state":"active","ping":65},{"user_id":22,"name":"AS ABOVE, SO BELOW","steam_id":76561198072879485,"connected_time":562000000000,"state":"active","ping":60},{"user_id":15,"name":"flop","steam_id":76561197989058876,"connected_time":1080000000000,"state":"active","ping":225},{"user_id":17,"name":"stickg","steam_id":76561199193020423,"connected_time":901000000000,"state":"active","ping":56},{"user_id":45,"name":"charm","steam_id":76561198126751384,"connected_time":147000000000,"state":"active","ping":92},{"user_id":20,"name":"Kylar","steam_id":76561198196979431,"connected_time":625000000000,"state":"active","ping":60},{"user_id":21,"name":"cup","steam_id":76561198121245586,"connected_time":618000000000,"state":"active","ping":98},{"user_id":41,"name":"KP","steam_id":76561198077911451,"connected_time":431000000000,"state":"active","ping":129},{"user_id":24,"name":"Dededoo","steam_id":76561198279033471,"connected_time":544000000000,"state":"active","ping":101},{"user_id":25,"name":"Big Mon","steam_id":76561198409907417,"connected_time":542000000000,"state":"active","ping":72},{"user_id":26,"name":"Man Man","steam_id":76561199068338634,"connected_time":538000000000,"state":"active","ping":89},{"user_id":43,"name":"Just1ceFury","steam_id":76561198126904706,"connected_time":275000000000,"state":"active","ping":73},{"user_id":28,"name":"Edwon","steam_id":76561198319902846,"connected_time":525000000000,"state":"active","ping":52},{"user_id":38,"name":"MayKaye","steam_id":76561199016092265,"connected_time":470000000000,"state":"active","ping":64},{"user_id":30,"name":"migool2010","steam_id":76561199134630244,"connected_time":488000000000,"state":"active","ping":60},{"user_id":31,"name":"St. Bimmius","steam_id":76561198013595716,"connected_time":481000000000,"state":"active","ping":60},{"user_id":32,"name":"Ω Das Gebeine Δ","steam_id":76561198063665024,"connected_time":479000000000,"state":"active","ping":82},{"user_id":33,"name":"WesyUWU (The mini crit pig)","steam_id":76561198069188177,"connected_time":478000000000,"state":"active","ping":88},{"user_id":34,"name":"☆Ruke☆","steam_id":76561198072441047,"connected_time":476000000000,"state":"active","ping":76},{"user_id":44,"name":"Petrivus","steam_id":76561198202152453,"connected_time":231000000000,"state":"active","ping":73},{"user_id":36,"name":"FireQuiz","steam_id":76561198107357249,"connected_time":475000000000,"state":"active","ping":72},{"user_id":39,"name":"Mike Bean Burritos","steam_id":76561198173430607,"connected_time":469000000000,"state":"active","ping":85},{"user_id":40,"name":"geniusgo","steam_id":76561198025064008,"connected_time":468000000000,"state":"active","ping":59},{"user_id":42,"name":"Definitely A Spy (For Real)","steam_id":76561198060426615,"connected_time":430000000000,"state":"active","ping":112}]},{"server_id":324,"name":"Uncletopia | Los Angeles | 3 | All Maps","name_short":"lax-3","host":"lax-1.us.uncletopia.com","port":27035,"enabled":true,"region":"us-west","cc":"us","latitude":33.94279,"longitude":-118.41004,"reserved":0,"last_update":"0001-01-01T00:00:00Z","name_a2s":"Uncletopia | Los Angeles | 3 | All Maps","protocol":17,"map":"pl_pier","folder":"tf","game":"Team Fortress","app_id":440,"player_count":4,"max_players":24,"Bots":0,"server_type":"Dedicated","server_os":"Linux","password":true,"vac":true,"version":"7961495","steam_id":85568392924510198,"keywords":["nocrits","nodmgspread","payload","uncletopia"],"game_id":440,"stv_port":27036,"stv_name":"Uncletopia | Los Angeles | 3 | All Maps | STV","players":[{"user_id":13,"name":"Grand","steam_id":76561198290143399,"connected_time":553000000000,"state":"active","ping":78},{"user_id":14,"name":"Truffles","steam_id":76561198095868800,"connected_time":505000000000,"state":"active","ping":95},{"user_id":15,"name":"Fernando","steam_id":76561198443038047,"connected_time":441000000000,"state":"active","ping":59},{"user_id":18,"name":"$limek✔ngEM0.an1me.B0Y_33309","steam_id":76561198283687382,"connected_time":322000000000,"state":"active","ping":84}]},{"server_id":25,"name":"Uncletopia | Los Angeles | 4 | Stopwatch Beta","name_short":"lax-4","host":"lax-1.us.uncletopia.com","port":27045,"enabled":true,"region":"us-west","cc":"us","latitude":33.94279,"longitude":-118.41004,"reserved":0,"last_update":"0001-01-01T00:00:00Z","name_a2s":"Uncletopia | Los Angeles | 4 | Stopwatch Beta","protocol":17,"map":"pl_frontier_final","folder":"tf","game":"Team Fortress","app_id":440,"player_count":0,"max_players":24,"Bots":0,"server_type":"Dedicated","server_os":"Linux","password":true,"vac":true,"version":"7961495","steam_id":85568392924510199,"keywords":["nocrits","nodmgspread","payload","uncletopia"],"game_id":440,"stv_port":27046,"stv_name":"Uncletopia | Los Angeles | 4 | Stopwatch Beta | STV","players":null},{"server_id":11,"name":"Uncletopia | London | 1 | All Maps","name_short":"lon-1","host":"lon-1.uk.uncletopia.com","port":27015,"enabled":true,"region":"eu","cc":"gb","latitude":51.509865,"longitude":-0.118092,"reserved":0,"last_update":"0001-01-01T00:00:00Z","name_a2s":"Uncletopia | London | 1 | All Maps","protocol":17,"map":"pl_snowycoast","folder":"tf","game":"Team Fortress","app_id":440,"player_count":24,"max_players":24,"Bots":0,"server_type":"Dedicated","server_os":"Linux","password":true,"vac":true,"version":"7961495","steam_id":85568392924367362,"keywords":["nocrits","nodmgspread","payload","uncletopia"],"game_id":440,"stv_port":27016,"stv_name":"Uncletopia | London | 1 | All Maps | STV","players":[{"user_id":3,"name":"yuno appreciator","steam_id":76561198083286511,"connected_time":865000000000,"state":"active","ping":43},{"user_id":19,"name":"Mittep","steam_id":76561198082888891,"connected_time":755000000000,"state":"active","ping":44},{"user_id":5,"name":"Cosmetic brain","steam_id":76561198055936410,"connected_time":860000000000,"state":"active","ping":86},{"user_id":30,"name":"Mook-a-Matic 5000","steam_id":76561198000840947,"connected_time":298000000000,"state":"active","ping":149},{"user_id":7,"name":"LiterallyRyanGosling","steam_id":76561199017856691,"connected_time":854000000000,"state":"active","ping":55},{"user_id":8,"name":"snowycoast","steam_id":76561198346638308,"connected_time":852000000000,"state":"active","ping":58},{"user_id":9,"name":"Jarl SwagDog","steam_id":76561198097553711,"connected_time":848000000000,"state":"active","ping":126},{"user_id":10,"name":"Nyhde","steam_id":76561198012771416,"connected_time":843000000000,"state":"active","ping":96},{"user_id":11,"name":"FatalRyhme","steam_id":76561198018713483,"connected_time":842000000000,"state":"active","ping":89},{"user_id":12,"name":"LegendaryBananaCat[PT]","steam_id":76561198050650648,"connected_time":841000000000,"state":"active","ping":76},{"user_id":31,"name":"joethefool","steam_id":76561199015436319,"connected_time":274000000000,"state":"active","ping":123},{"user_id":14,"name":"ja","steam_id":76561199228540618,"connected_time":837000000000,"state":"active","ping":74},{"user_id":15,"name":"Pronton","steam_id":76561198082502910,"connected_time":837000000000,"state":"active","ping":62},{"user_id":16,"name":"sHIFTINGvORTEX","steam_id":76561198231648332,"connected_time":835000000000,"state":"active","ping":65},{"user_id":17,"name":"Arthur","steam_id":76561198066109166,"connected_time":813000000000,"state":"active","ping":76},{"user_id":21,"name":"Carbonated milk","steam_id":76561199161028679,"connected_time":650000000000,"state":"active","ping":66},{"user_id":22,"name":"Oki (Bon)","steam_id":76561199047748534,"connected_time":590000000000,"state":"active","ping":55},{"user_id":23,"name":"hmscole09","steam_id":76561198811362788,"connected_time":565000000000,"state":"active","ping":55},{"user_id":34,"name":"shr","steam_id":76561198449852071,"connected_time":126000000000,"state":"active","ping":38},{"user_id":32,"name":"Subxo","steam_id":76561198341198154,"connected_time":249000000000,"state":"active","ping":126},{"user_id":27,"name":"Ghandi (voice sound off)","steam_id":76561197965130067,"connected_time":495000000000,"state":"active","ping":75},{"user_id":28,"name":"Mike Nolan","steam_id":76561198250529178,"connected_time":480000000000,"state":"active","ping":160},{"user_id":29,"name":"Grey Clay","steam_id":76561198025646032,"connected_time":389000000000,"state":"active","ping":138},{"user_id":35,"name":"noob)","steam_id":76561198382281653,"connected_time":54000000000,"state":"active","ping":84}]},{"server_id":114,"name":"Uncletopia | London | 2 | All Maps","name_short":"lon-2","host":"lon-1.uk.uncletopia.com","port":27025,"enabled":true,"region":"eu","cc":"gb","latitude":51.509865,"longitude":-0.118092,"reserved":0,"last_update":"0001-01-01T00:00:00Z","name_a2s":"Uncletopia | London | 2 | All Maps","protocol":17,"map":"pl_badwater","folder":"tf","game":"Team Fortress","app_id":440,"player_count":1,"max_players":24,"Bots":0,"server_type":"Dedicated","server_os":"Linux","password":true,"vac":true,"version":"7961495","steam_id":85568392924470941,"keywords":["nocrits","nodmgspread","payload","uncletopia"],"game_id":440,"stv_port":27026,"stv_name":"Uncletopia | London | 2 | All Maps | STV","players":[{"user_id":3,"name":"monsieur sex","steam_id":76561198057215355,"connected_time":11000000000,"state":"spawning","ping":84}]},{"server_id":320,"name":"Uncletopia | London | 3 | All Maps","name_short":"lon-3","host":"lon-1.uk.uncletopia.com","port":27035,"enabled":true,"region":"eu","cc":"gb","latitude":51.509865,"longitude":-0.118092,"reserved":0,"last_update":"0001-01-01T00:00:00Z","name_a2s":"Uncletopia | London | 3 | All Maps","protocol":17,"map":"pl_barnblitz","folder":"tf","game":"Team Fortress","app_id":440,"player_count":0,"max_players":24,"Bots":0,"server_type":"Dedicated","server_os":"Linux","password":true,"vac":true,"version":"7961495","steam_id":85568392924510192,"keywords":["nocrits","nodmgspread","payload","uncletopia"],"game_id":440,"stv_port":27036,"stv_name":"Uncletopia | London | 3 | All Maps | STV","players":null},{"server_id":321,"name":"Uncletopia | London | 4 | All Maps","name_short":"lon-4","host":"lon-1.uk.uncletopia.com","port":27045,"enabled":true,"region":"eu","cc":"gb","latitude":51.509865,"longitude":-0.118092,"reserved":0,"last_update":"0001-01-01T00:00:00Z","name_a2s":"Uncletopia | London | 4 | All Maps","protocol":17,"map":"koth_cascade","folder":"tf","game":"Team Fortress","app_id":440,"player_count":0,"max_players":24,"Bots":0,"server_type":"Dedicated","server_os":"Linux","password":true,"vac":true,"version":"7961495","steam_id":85568392924510193,"keywords":["cp","nocrits","nodmgspread","uncletopia"],"game_id":440,"stv_port":27046,"stv_name":"Uncletopia | London | 4 | All Maps | STV","players":null},{"server_id":21,"name":"Uncletopia | London | 5 | All Maps","name_short":"lon-5","host":"lon-1.uk.uncletopia.com","port":27055,"enabled":true,"region":"eu","cc":"gb","latitude":51.509865,"longitude":-0.118092,"reserved":0,"last_update":"0001-01-01T00:00:00Z","name_a2s":"Uncletopia | London | 5 | All Maps","protocol":17,"map":"pl_snowycoast","folder":"tf","game":"Team Fortress","app_id":440,"player_count":0,"max_players":24,"Bots":0,"server_type":"Dedicated","server_os":"Linux","password":true,"vac":true,"version":"7961495","steam_id":85568392924742829,"keywords":["nocrits","nodmgspread","payload","uncletopia"],"game_id":440,"stv_port":27056,"stv_name":"Uncletopia | London | 5 | All Maps | STV","players":null},{"server_id":22,"name":"Uncletopia | London | 6 | All Maps","name_short":"lon-6","host":"lon-1.uk.uncletopia.com","port":27065,"enabled":true,"region":"eu","cc":"gb","latitude":51.509865,"longitude":-0.118092,"reserved":0,"last_update":"0001-01-01T00:00:00Z","name_a2s":"Uncletopia | London | 6 | All Maps","protocol":17,"map":"koth_lakeside_final","folder":"tf","game":"Team Fortress","app_id":440,"player_count":0,"max_players":24,"Bots":0,"server_type":"Dedicated","server_os":"Linux","password":true,"vac":true,"version":"7961495","steam_id":85568392924742830,"keywords":["cp","nocrits","nodmgspread","uncletopia"],"game_id":440,"stv_port":27066,"stv_name":"Uncletopia | London | 6 | All Maps | STV","players":null},{"server_id":40,"name":"Uncletopia | London | 7 | No Payload","name_short":"lon-7","host":"lon-1.uk.uncletopia.com","port":27075,"enabled":true,"region":"eu","cc":"gb","latitude":51.509865,"longitude":-0.118092,"reserved":0,"last_update":"0001-01-01T00:00:00Z","name_a2s":"Uncletopia | London | 7 | No Payload","protocol":17,"map":"pl_snowycoast","folder":"tf","game":"Team Fortress","app_id":440,"player_count":0,"max_players":24,"Bots":0,"server_type":"Dedicated","server_os":"Linux","password":true,"vac":true,"version":"7961495","steam_id":85568392924964314,"keywords":["nocrits","nodmgspread","payload","uncletopia"],"game_id":440,"stv_port":27076,"stv_name":"Uncletopia | London | 7 | No Payload | STV","players":null},{"server_id":41,"name":"Uncletopia | London | 8 | Community","name_short":"lon-8","host":"lon-1.uk.uncletopia.com","port":27085,"enabled":true,"region":"eu","cc":"gb","latitude":51.509865,"longitude":-0.118092,"reserved":0,"last_update":"0001-01-01T00:00:00Z","name_a2s":"Uncletopia | London | 8 | Community","protocol":17,"map":"koth_viaduct","folder":"tf","game":"Team Fortress","app_id":440,"player_count":0,"max_players":24,"Bots":0,"server_type":"Dedicated","server_os":"Linux","password":true,"vac":true,"version":"7961495","steam_id":85568392924964315,"keywords":["cp","nocrits","nodmgspread","uncletopia"],"game_id":440,"stv_port":27086,"stv_name":"Uncletopia | London | 8 | Community | STV","players":null},{"server_id":300,"name":"Uncletopia | Montréal | 1 | All Maps","name_short":"mtl-1","host":"mtl-1.ca.uncletopia.com","port":27015,"enabled":true,"region":"us-east","cc":"ca","latitude":45.50889,"longitude":-73.56167,"reserved":0,"last_update":"0001-01-01T00:00:00Z","name_a2s":"Uncletopia | Montréal | 1 | All Maps","protocol":17,"map":"koth_viaduct","folder":"tf","game":"Team Fortress","app_id":440,"player_count":24,"max_players":24,"Bots":0,"server_type":"Dedicated","server_os":"Linux","password":true,"vac":true,"version":"7961495","steam_id":85568392924500087,"keywords":["cp","nocrits","nodmgspread","uncletopia"],"game_id":440,"stv_port":27016,"stv_name":"Uncletopia | Montréal | 1 | All Maps | STV","players":[{"user_id":272,"name":"d4efeb","steam_id":76561198148098761,"connected_time":1263000000000,"state":"active","ping":58},{"user_id":265,"name":"prosciutto","steam_id":76561198882758067,"connected_time":2083000000000,"state":"active","ping":59},{"user_id":273,"name":"Acquiescence","steam_id":76561198127915191,"connected_time":1227000000000,"state":"active","ping":102},{"user_id":274,"name":"CoRot-7 B","steam_id":76561199013689510,"connected_time":1174000000000,"state":"active","ping":73},{"user_id":290,"name":"selling rice","steam_id":76561198063357023,"connected_time":545000000000,"state":"active","ping":106},{"user_id":276,"name":"millie","steam_id":76561198008366811,"connected_time":1150000000000,"state":"active","ping":74},{"user_id":268,"name":"Aeris","steam_id":76561198287271028,"connected_time":1398000000000,"state":"active","ping":85},{"user_id":258,"name":"JelloSniffer","steam_id":76561198142770733,"connected_time":2933000000000,"state":"active","ping":67},{"user_id":238,"name":"Fludd-Stop","steam_id":76561198161703678,"connected_time":5155000000000,"state":"active","ping":103},{"user_id":261,"name":"bobbymcbobington","steam_id":76561199089411172,"connected_time":2675000000000,"state":"active","ping":137},{"user_id":277,"name":"Fraglin","steam_id":76561198124964000,"connected_time":1095000000000,"state":"active","ping":69},{"user_id":278,"name":"Ⓑ⓪⓪ⓣⓨⓒⓐⓚⓔⓢ","steam_id":76561198088776421,"connected_time":1093000000000,"state":"active","ping":75},{"user_id":239,"name":"Tajay245","steam_id":76561199472017545,"connected_time":5151000000000,"state":"active","ping":78},{"user_id":123,"name":"whoisbandaidboy","steam_id":76561198085896305,"connected_time":12344000000000,"state":"active","ping":71},{"user_id":279,"name":"onetickledpickle","steam_id":76561199445983352,"connected_time":1091000000000,"state":"active","ping":88},{"user_id":286,"name":"keeganwade","steam_id":76561198300553450,"connected_time":889000000000,"state":"active","ping":143},{"user_id":292,"name":"Chaffy2125","steam_id":76561198232839260,"connected_time":203000000000,"state":"active","ping":122},{"user_id":282,"name":"Average Dispenser Enjoyer","steam_id":76561198989154975,"connected_time":977000000000,"state":"active","ping":92},{"user_id":283,"name":"The Pestilence","steam_id":76561199081252282,"connected_time":940000000000,"state":"active","ping":83},{"user_id":284,"name":"Zigadox","steam_id":76561198079813479,"connected_time":940000000000,"state":"active","ping":88},{"user_id":285,"name":"dr peppah chug!","steam_id":76561198068835693,"connected_time":901000000000,"state":"active","ping":74},{"user_id":287,"name":"Abu Dhabi Stanky Leg","steam_id":76561198073313850,"connected_time":880000000000,"state":"active","ping":74},{"user_id":291,"name":"2 Percent Milk","steam_id":76561198118529039,"connected_time":335000000000,"state":"active","ping":59}]},{"server_id":301,"name":"Uncletopia | Montréal | 2 | All Maps","name_short":"mtl-2","host":"mtl-1.ca.uncletopia.com","port":27025,"enabled":true,"region":"us-east","cc":"ca","latitude":45.50889,"longitude":-73.56167,"reserved":0,"last_update":"0001-01-01T00:00:00Z","name_a2s":"Uncletopia | Montréal | 2 | All Maps","protocol":17,"map":"pl_snowycoast","folder":"tf","game":"Team Fortress","app_id":440,"player_count":24,"max_players":24,"Bots":0,"server_type":"Dedicated","server_os":"Linux","password":true,"vac":true,"version":"7961495","steam_id":85568392924500088,"keywords":["nocrits","nodmgspread","payload","uncletopia"],"game_id":440,"stv_port":27026,"stv_name":"Uncletopia | Montréal | 2 | All Maps | STV","players":[{"user_id":24,"name":"simedogg","steam_id":76561198069286632,"connected_time":10480000000000,"state":"active","ping":80},{"user_id":144,"name":"Denzel McFlurry","steam_id":76561199231296521,"connected_time":1873000000000,"state":"active","ping":62},{"user_id":164,"name":"breathing meat donut","steam_id":76561198123566649,"connected_time":123000000000,"state":"active","ping":89},{"user_id":28,"name":"Auklin","steam_id":76561198069877582,"connected_time":9819000000000,"state":"active","ping":82},{"user_id":126,"name":"Snoogs","steam_id":76561198444880931,"connected_time":3659000000000,"state":"active","ping":70},{"user_id":156,"name":"Pizza","steam_id":76561198118748364,"connected_time":634000000000,"state":"active","ping":89},{"user_id":154,"name":"The Apprentice","steam_id":76561198119215388,"connected_time":926000000000,"state":"active","ping":99},{"user_id":159,"name":"(VoodooMagicGuy)","steam_id":76561198271653436,"connected_time":371000000000,"state":"active","ping":56},{"user_id":112,"name":"CoolioJulio","steam_id":76561199014738999,"connected_time":4961000000000,"state":"active","ping":132},{"user_id":160,"name":"b","steam_id":76561198118211523,"connected_time":364000000000,"state":"active","ping":46},{"user_id":149,"name":"Cash Money","steam_id":76561199122915153,"connected_time":1450000000000,"state":"active","ping":40},{"user_id":129,"name":"Ozald","steam_id":76561199092019322,"connected_time":3441000000000,"state":"active","ping":73},{"user_id":158,"name":"Apetometrist","steam_id":76561198045391635,"connected_time":478000000000,"state":"active","ping":63},{"user_id":59,"name":"Nilantive","steam_id":76561198177565082,"connected_time":7927000000000,"state":"active","ping":47},{"user_id":42,"name":"THGAwesome","steam_id":76561198162847218,"connected_time":8494000000000,"state":"active","ping":58},{"user_id":139,"name":"Bandicam Recording Software","steam_id":76561199122281764,"connected_time":1944000000000,"state":"active","ping":103},{"user_id":163,"name":"Joz104","steam_id":76561198018468737,"connected_time":135000000000,"state":"active","ping":84},{"user_id":151,"name":"yoshido","steam_id":76561198846313229,"connected_time":1233000000000,"state":"active","ping":42},{"user_id":165,"name":"lol. lmao.(currently laughing!)","steam_id":76561198877232084,"connected_time":10000000000,"state":"active","ping":102},{"user_id":148,"name":"thug shaker mind control","steam_id":76561198984612489,"connected_time":1568000000000,"state":"active","ping":125},{"user_id":142,"name":"No Chance of Pearly Gates","steam_id":76561198042570322,"connected_time":1905000000000,"state":"active","ping":72},{"user_id":157,"name":"april foos day prankster","steam_id":76561198175741741,"connected_time":490000000000,"state":"active","ping":89},{"user_id":152,"name":"Bastard_Yanisaur","steam_id":76561199134114075,"connected_time":1219000000000,"state":"active","ping":68},{"user_id":162,"name":"Big Sex","steam_id":76561199108421736,"connected_time":348000000000,"state":"active","ping":118}]},{"server_id":302,"name":"Uncletopia | Montréal | 3 | All Maps","name_short":"mtl-3","host":"mtl-1.ca.uncletopia.com","port":27035,"enabled":true,"region":"us-east","cc":"ca","latitude":45.50889,"longitude":-73.56167,"reserved":0,"last_update":"0001-01-01T00:00:00Z","name_a2s":"Uncletopia | Montréal | 3 | All Maps","protocol":17,"map":"pl_frontier_final","folder":"tf","game":"Team Fortress","app_id":440,"player_count":0,"max_players":24,"Bots":0,"server_type":"Dedicated","server_os":"Linux","password":true,"vac":true,"version":"7961495","steam_id":85568392924500089,"keywords":["nocrits","nodmgspread","payload","uncletopia"],"game_id":440,"stv_port":27036,"stv_name":"Uncletopia | Montréal | 3 | All Maps | STV","players":null},{"server_id":303,"name":"Uncletopia | Montréal | 4 | No Payload","name_short":"mtl-4","host":"mtl-1.ca.uncletopia.com","port":27045,"enabled":true,"region":"us-east","cc":"ca","latitude":45.50889,"longitude":-73.56167,"reserved":0,"last_update":"0001-01-01T00:00:00Z","name_a2s":"Uncletopia | Montréal | 4 | No Payload","protocol":17,"map":"cp_powerhouse","folder":"tf","game":"Team Fortress","app_id":440,"player_count":24,"max_players":24,"Bots":0,"server_type":"Dedicated","server_os":"Linux","password":true,"vac":true,"version":"7961495","steam_id":85568392924500090,"keywords":["cp","nocrits","nodmgspread","uncletopia"],"game_id":440,"stv_port":27046,"stv_name":"Uncletopia | Montréal | 4 | No Payload | STV","players":[{"user_id":392,"name":"Piyono","steam_id":76561197962188504,"connected_time":1506000000000,"state":"active","ping":61},{"user_id":388,"name":"Nungel","steam_id":76561198272961376,"connected_time":2022000000000,"state":"active","ping":105},{"user_id":396,"name":"sciencenerd42","steam_id":76561198274563320,"connected_time":1363000000000,"state":"active","ping":36},{"user_id":328,"name":"Trogdor","steam_id":76561198121353181,"connected_time":6541000000000,"state":"active","ping":115},{"user_id":402,"name":"warp","steam_id":76561198190417719,"connected_time":878000000000,"state":"active","ping":57},{"user_id":340,"name":"Kwik-E-Mart","steam_id":76561198128994896,"connected_time":5965000000000,"state":"active","ping":142},{"user_id":408,"name":"craniumsex","steam_id":76561198090085764,"connected_time":212000000000,"state":"active","ping":57},{"user_id":379,"name":"RavingLuntic","steam_id":76561198010360784,"connected_time":2781000000000,"state":"active","ping":111},{"user_id":323,"name":"Ad Astra","steam_id":76561198355662980,"connected_time":6815000000000,"state":"active","ping":83},{"user_id":409,"name":"Monsrox","steam_id":76561198253732619,"connected_time":157000000000,"state":"active","ping":74},{"user_id":405,"name":"PyroBurger","steam_id":76561198847213969,"connected_time":571000000000,"state":"active","ping":63},{"user_id":359,"name":"Un_Zipped","steam_id":76561197990111649,"connected_time":4313000000000,"state":"active","ping":58},{"user_id":321,"name":"hestalus","steam_id":76561198420130869,"connected_time":6849000000000,"state":"active","ping":73},{"user_id":403,"name":"917-258-3609","steam_id":76561198174436329,"connected_time":738000000000,"state":"active","ping":64},{"user_id":400,"name":"MellowBoy-2354","steam_id":76561199080630632,"connected_time":970000000000,"state":"active","ping":108},{"user_id":385,"name":"Engideer","steam_id":76561198145733164,"connected_time":2503000000000,"state":"active","ping":85},{"user_id":386,"name":"jimmyfnaf172198yay","steam_id":76561198311446636,"connected_time":2461000000000,"state":"active","ping":85},{"user_id":382,"name":"Franksta","steam_id":76561198049024304,"connected_time":2740000000000,"state":"active","ping":93},{"user_id":412,"name":"The Lord Of The Gooses","steam_id":76561198195702923,"connected_time":7000000000,"state":"spawning","ping":98},{"user_id":410,"name":"teeth","steam_id":76561198072843023,"connected_time":116000000000,"state":"active","ping":53},{"user_id":325,"name":"Polar","steam_id":76561198043108060,"connected_time":6792000000000,"state":"active","ping":74},{"user_id":391,"name":"decimalist","steam_id":76561198271751596,"connected_time":1708000000000,"state":"active","ping":39},{"user_id":411,"name":"Coach McFish","steam_id":76561198210456405,"connected_time":113000000000,"state":"active","ping":93}]},{"server_id":13,"name":"Uncletopia | New York City | 1 | All Maps","name_short":"nyc-1","host":"nyc-1.us.uncletopia.com","port":27015,"enabled":true,"region":"us-east","cc":"us","latitude":40.73061,"longitude":-73.93524,"reserved":0,"last_update":"0001-01-01T00:00:00Z","name_a2s":"Uncletopia | New York City | 1 | All Maps","protocol":17,"map":"pl_upward","folder":"tf","game":"Team Fortress","app_id":440,"player_count":24,"max_players":24,"Bots":0,"server_type":"Dedicated","server_os":"Linux","password":true,"vac":true,"version":"7961495","steam_id":85568392924469993,"keywords":["nocrits","nodmgspread","payload","uncletopia"],"game_id":440,"stv_port":27016,"stv_name":"Uncletopia | New York City | 1 | All Maps | STV","players":[{"user_id":748,"name":"KentuckyFriedPossum","steam_id":76561198930277086,"connected_time":3098000000000,"state":"active","ping":80},{"user_id":693,"name":"Jamendithas","steam_id":76561198119537716,"connected_time":6968000000000,"state":"active","ping":63},{"user_id":779,"name":"K. O. E.","steam_id":76561198025188490,"connected_time":381000000000,"state":"active","ping":75},{"user_id":728,"name":"bkiller","steam_id":76561198029265697,"connected_time":5258000000000,"state":"active","ping":72},{"user_id":749,"name":"residentevilfan82","steam_id":76561198024662861,"connected_time":3072000000000,"state":"active","ping":61},{"user_id":768,"name":"Park","steam_id":76561198057222814,"connected_time":1583000000000,"state":"active","ping":52},{"user_id":783,"name":"boe jiden","steam_id":76561198041048289,"connected_time":250000000000,"state":"active","ping":43},{"user_id":777,"name":"It's FoolMoon","steam_id":76561198153344375,"connected_time":504000000000,"state":"active","ping":40},{"user_id":766,"name":"docsechs","steam_id":76561198029417627,"connected_time":1603000000000,"state":"active","ping":56},{"user_id":767,"name":"shouleil","steam_id":76561198970370243,"connected_time":1593000000000,"state":"active","ping":35},{"user_id":758,"name":"Slinko","steam_id":76561198040643030,"connected_time":2623000000000,"state":"active","ping":74},{"user_id":769,"name":"The Sabotuer","steam_id":76561198053046161,"connected_time":1578000000000,"state":"active","ping":46},{"user_id":770,"name":"stupid haver 2","steam_id":76561198044443985,"connected_time":1565000000000,"state":"active","ping":104},{"user_id":746,"name":"$0.18","steam_id":76561198360134800,"connected_time":3396000000000,"state":"active","ping":56},{"user_id":760,"name":"no way","steam_id":76561198068419729,"connected_time":2607000000000,"state":"active","ping":73},{"user_id":761,"name":"Raga","steam_id":76561198067410411,"connected_time":2606000000000,"state":"active","ping":60},{"user_id":782,"name":"lpk","steam_id":76561198025478698,"connected_time":288000000000,"state":"active","ping":58},{"user_id":712,"name":"Two-Teste Tommy","steam_id":76561198064308936,"connected_time":6110000000000,"state":"active","ping":60},{"user_id":736,"name":"ascendant meme psion","steam_id":76561198059524615,"connected_time":4437000000000,"state":"active","ping":77},{"user_id":776,"name":"FueledBurrito","steam_id":76561198094396678,"connected_time":820000000000,"state":"active","ping":64},{"user_id":754,"name":"Phillip","steam_id":76561198020792427,"connected_time":3010000000000,"state":"active","ping":64},{"user_id":781,"name":"cyberas","steam_id":76561198257092290,"connected_time":332000000000,"state":"active","ping":68},{"user_id":753,"name":"Not Ghostie","steam_id":76561198068686762,"connected_time":3053000000000,"state":"active","ping":55},{"user_id":774,"name":"Ruby Gillman","steam_id":76561198366299848,"connected_time":1302000000000,"state":"active","ping":68}]},{"server_id":14,"name":"Uncletopia | New York City | 2 | All Maps","name_short":"nyc-2","host":"nyc-1.us.uncletopia.com","port":27025,"enabled":true,"region":"us-east","cc":"us","latitude":40.73061,"longitude":-73.93524,"reserved":0,"last_update":"0001-01-01T00:00:00Z","name_a2s":"Uncletopia | New York City | 2 | All Maps","protocol":17,"map":"koth_suijin","folder":"tf","game":"Team Fortress","app_id":440,"player_count":24,"max_players":24,"Bots":0,"server_type":"Dedicated","server_os":"Linux","password":true,"vac":true,"version":"7961495","steam_id":85568392924469994,"keywords":["cp","nocrits","nodmgspread","uncletopia"],"game_id":440,"stv_port":27026,"stv_name":"Uncletopia | New York City | 2 | All Maps | STV","players":[{"user_id":700,"name":"Chimpanzee","steam_id":76561198850387282,"connected_time":250000000000,"state":"active","ping":83},{"user_id":701,"name":"AmazingPlasma","steam_id":76561199005527586,"connected_time":186000000000,"state":"active","ping":97},{"user_id":677,"name":"average rust player","steam_id":76561198047627340,"connected_time":1386000000000,"state":"active","ping":56},{"user_id":681,"name":"Justario","steam_id":76561198016095410,"connected_time":1358000000000,"state":"active","ping":44},{"user_id":696,"name":"Capn' Crunk","steam_id":76561198848399887,"connected_time":402000000000,"state":"active","ping":57},{"user_id":690,"name":"Ballistic","steam_id":76561197992355477,"connected_time":796000000000,"state":"active","ping":58},{"user_id":688,"name":"Bert.","steam_id":76561198140666346,"connected_time":927000000000,"state":"active","ping":48},{"user_id":670,"name":"msay","steam_id":76561198170888029,"connected_time":2276000000000,"state":"active","ping":79},{"user_id":694,"name":"enzowolf10","steam_id":76561198028696728,"connected_time":469000000000,"state":"active","ping":44},{"user_id":691,"name":"extra purple","steam_id":76561198044344111,"connected_time":794000000000,"state":"active","ping":37},{"user_id":679,"name":"David De Bergerac","steam_id":76561198010306294,"connected_time":1371000000000,"state":"active","ping":84},{"user_id":689,"name":"Storm the Snep","steam_id":76561198129214232,"connected_time":896000000000,"state":"active","ping":72},{"user_id":545,"name":"Prod. By WARCHI3F","steam_id":76561198871224298,"connected_time":14166000000000,"state":"active","ping":94},{"user_id":682,"name":"Shneebly","steam_id":76561198046654391,"connected_time":1358000000000,"state":"active","ping":72},{"user_id":693,"name":"slonked","steam_id":76561198124191084,"connected_time":699000000000,"state":"active","ping":68},{"user_id":559,"name":"DB1","steam_id":76561199172642819,"connected_time":12679000000000,"state":"active","ping":68},{"user_id":672,"name":"Sigiferd","steam_id":76561198148788110,"connected_time":1858000000000,"state":"active","ping":120},{"user_id":657,"name":"็Periculosum PhD in Funny","steam_id":76561198123370914,"connected_time":3769000000000,"state":"active","ping":84},{"user_id":673,"name":"braindead","steam_id":76561198263631055,"connected_time":1768000000000,"state":"active","ping":63},{"user_id":674,"name":"Blood Moon","steam_id":76561197995279133,"connected_time":1701000000000,"state":"active","ping":78},{"user_id":666,"name":"SuperNovaFox","steam_id":76561198052172564,"connected_time":2896000000000,"state":"active","ping":74},{"user_id":654,"name":"[NAME-REDACTED]","steam_id":76561198035682975,"connected_time":3888000000000,"state":"active","ping":56},{"user_id":699,"name":"Bee_Pirate","steam_id":76561199000599111,"connected_time":324000000000,"state":"active","ping":69}]},{"server_id":15,"name":"Uncletopia | New York City | 3 | Stopwatch Beta","name_short":"nyc-3","host":"nyc-1.us.uncletopia.com","port":27035,"enabled":true,"region":"us-east","cc":"us","latitude":40.73061,"longitude":-73.93524,"reserved":0,"last_update":"0001-01-01T00:00:00Z","name_a2s":"Uncletopia | New York City | 3 | Stopwatch Beta","protocol":17,"map":"cp_snakewater_final1","folder":"tf","game":"Team Fortress","app_id":440,"player_count":23,"max_players":24,"Bots":0,"server_type":"Dedicated","server_os":"Linux","password":true,"vac":true,"version":"7961495","steam_id":85568392924742820,"keywords":["cp","nocrits","nodmgspread","uncletopia"],"game_id":440,"stv_port":27036,"stv_name":"Uncletopia | New York City | 3 | Stopwatch Beta | STV","players":[{"user_id":584,"name":"sniff","steam_id":76561198065266282,"connected_time":357000000000,"state":"active","ping":59},{"user_id":585,"name":"Olive","steam_id":76561199134893517,"connected_time":163000000000,"state":"active","ping":113},{"user_id":577,"name":"nav","steam_id":76561198872608266,"connected_time":1542000000000,"state":"active","ping":63},{"user_id":579,"name":"1 Great Wooden Dad","steam_id":76561198377126974,"connected_time":1124000000000,"state":"active","ping":107},{"user_id":536,"name":"Lt. Slayer","steam_id":76561198066754651,"connected_time":4202000000000,"state":"active","ping":90},{"user_id":457,"name":"dirty tuna","steam_id":76561198021535785,"connected_time":9695000000000,"state":"active","ping":71},{"user_id":564,"name":"jfrizzle420","steam_id":76561198105544691,"connected_time":2424000000000,"state":"active","ping":99},{"user_id":560,"name":"heck","steam_id":76561198308547958,"connected_time":2731000000000,"state":"active","ping":71},{"user_id":517,"name":"Piss God","steam_id":76561198090504334,"connected_time":5419000000000,"state":"active","ping":61},{"user_id":574,"name":"f","steam_id":76561198215559840,"connected_time":1688000000000,"state":"active","ping":75},{"user_id":588,"name":"quacked!","steam_id":76561198970819395,"connected_time":70000000000,"state":"active","ping":92},{"user_id":583,"name":"jalapeno handjob","steam_id":76561198123298824,"connected_time":510000000000,"state":"active","ping":93},{"user_id":518,"name":"dog","steam_id":76561198263873491,"connected_time":5407000000000,"state":"active","ping":61},{"user_id":576,"name":"Santa Heavy","steam_id":76561199263352577,"connected_time":1579000000000,"state":"active","ping":51},{"user_id":563,"name":"LordOfTheNoobs","steam_id":76561197962697523,"connected_time":2641000000000,"state":"active","ping":80},{"user_id":569,"name":"Ferret","steam_id":76561198060416458,"connected_time":1772000000000,"state":"active","ping":131},{"user_id":519,"name":"St. Bobson Q Dugnutt III Esq Sr","steam_id":76561197993459985,"connected_time":5284000000000,"state":"active","ping":59},{"user_id":575,"name":"YASAI JUICE","steam_id":76561198131971992,"connected_time":1610000000000,"state":"active","ping":53},{"user_id":582,"name":"wepry","steam_id":76561198114091417,"connected_time":580000000000,"state":"active","ping":61},{"user_id":572,"name":"ultralisk52","steam_id":76561198051666604,"connected_time":1725000000000,"state":"active","ping":79},{"user_id":580,"name":"绵羊游戏","steam_id":76561198048013802,"connected_time":961000000000,"state":"active","ping":110},{"user_id":521,"name":"Jango","steam_id":76561198084589742,"connected_time":5184000000000,"state":"active","ping":75},{"user_id":578,"name":"lost in spaaaaace","steam_id":76561199085974120,"connected_time":1141000000000,"state":"active","ping":69}]},{"server_id":16,"name":"Uncletopia | New York City | 4 | Community","name_short":"nyc-4","host":"nyc-1.us.uncletopia.com","port":27045,"enabled":true,"region":"us-east","cc":"us","latitude":40.73061,"longitude":-73.93524,"reserved":0,"last_update":"0001-01-01T00:00:00Z","name_a2s":"Uncletopia | New York City | 4 | Community","protocol":17,"map":"workshop/pl_fifthcurve_rc1.ugc648227046","folder":"tf","game":"Team Fortress","app_id":440,"player_count":24,"max_players":24,"Bots":0,"server_type":"Dedicated","server_os":"Linux","password":true,"vac":true,"version":"7961495","steam_id":85568392924742821,"keywords":["nocrits","nodmgspread","payload","uncletopia"],"game_id":440,"stv_port":27046,"stv_name":"Uncletopia | New York City | 4 | Community | STV","players":[{"user_id":135,"name":"Observer","steam_id":76561198326814067,"connected_time":4124000000000,"state":"active","ping":98},{"user_id":167,"name":"goober","steam_id":76561198344499440,"connected_time":432000000000,"state":"active","ping":80},{"user_id":168,"name":"Centurion","steam_id":76561197968930753,"connected_time":416000000000,"state":"active","ping":68},{"user_id":166,"name":"Moss","steam_id":76561199122200727,"connected_time":441000000000,"state":"active","ping":57},{"user_id":172,"name":"IanFishooks","steam_id":76561199403427527,"connected_time":165000000000,"state":"active","ping":63},{"user_id":161,"name":"helicas","steam_id":76561198165911011,"connected_time":932000000000,"state":"active","ping":67},{"user_id":171,"name":"Magik","steam_id":76561198200169706,"connected_time":319000000000,"state":"active","ping":51},{"user_id":111,"name":"canid","steam_id":76561198103496593,"connected_time":5311000000000,"state":"active","ping":65},{"user_id":158,"name":"Sneeze (Human Emotion)","steam_id":76561198065056177,"connected_time":1011000000000,"state":"active","ping":86},{"user_id":149,"name":"Dampé","steam_id":76561198063031202,"connected_time":1729000000000,"state":"active","ping":47},{"user_id":154,"name":"The Deer Consumer","steam_id":76561198812026312,"connected_time":1151000000000,"state":"active","ping":63},{"user_id":160,"name":"GigaPenguin","steam_id":76561198805906456,"connected_time":996000000000,"state":"active","ping":43},{"user_id":175,"name":"Genn","steam_id":76561198070450699,"connected_time":23000000000,"state":"spawning","ping":162},{"user_id":143,"name":"^2snuffle","steam_id":76561198120360279,"connected_time":2939000000000,"state":"active","ping":69},{"user_id":81,"name":"ThtGyVrThr","steam_id":76561198805852870,"connected_time":6579000000000,"state":"active","ping":102},{"user_id":142,"name":"Oopsie Daisy ❋","steam_id":76561198042144492,"connected_time":3306000000000,"state":"active","ping":75},{"user_id":170,"name":"AverageGloop","steam_id":76561198243395378,"connected_time":376000000000,"state":"active","ping":36},{"user_id":131,"name":"The Elder Hobo","steam_id":76561198039357659,"connected_time":4497000000000,"state":"active","ping":65},{"user_id":139,"name":"hazel (she/her)","steam_id":76561198879911815,"connected_time":3897000000000,"state":"active","ping":55},{"user_id":148,"name":"Treader","steam_id":76561198096555885,"connected_time":1801000000000,"state":"active","ping":74},{"user_id":165,"name":"Dusklight","steam_id":76561198036982638,"connected_time":654000000000,"state":"active","ping":88},{"user_id":144,"name":"Spiral Mountain","steam_id":76561198058683715,"connected_time":2343000000000,"state":"active","ping":66},{"user_id":146,"name":"RuinLucky","steam_id":76561199481172481,"connected_time":2135000000000,"state":"active","ping":85},{"user_id":174,"name":"jerma but crying and lesbian","steam_id":76561198110661425,"connected_time":143000000000,"state":"active","ping":65}]},{"server_id":142,"name":"Uncletopia | São Paulo | 1 | All Maps","name_short":"sao-1","host":"sao-1.br.uncletopia.com","port":27015,"enabled":true,"region":"sa","cc":"br","latitude":-23.533773,"longitude":-46.62529,"reserved":0,"last_update":"0001-01-01T00:00:00Z","name_a2s":"Uncletopia | São Paulo | 1 | All Maps","protocol":17,"map":"pl_upward","folder":"tf","game":"Team Fortress","app_id":440,"player_count":0,"max_players":24,"Bots":0,"server_type":"Dedicated","server_os":"Linux","password":true,"vac":true,"version":"7961495","steam_id":85568392924469996,"keywords":["nocrits","nodmgspread","payload","uncletopia"],"game_id":440,"stv_port":27016,"stv_name":"Uncletopia | São Paulo | 1 | All Maps | STV","players":null},{"server_id":143,"name":"Uncletopia | São Paulo | 2 | All Maps","name_short":"sao-2","host":"sao-2.br.uncletopia.com","port":27015,"enabled":true,"region":"sa","cc":"br","latitude":-23.533773,"longitude":-46.62529,"reserved":0,"last_update":"0001-01-01T00:00:00Z","name_a2s":"Uncletopia | São Paulo | 2 | All Maps","protocol":17,"map":"pl_barnblitz","folder":"tf","game":"Team Fortress","app_id":440,"player_count":0,"max_players":24,"Bots":0,"server_type":"Dedicated","server_os":"Linux","password":true,"vac":true,"version":"7961495","steam_id":85568392924485349,"keywords":["nocrits","nodmgspread","payload","uncletopia"],"game_id":440,"stv_port":27016,"stv_name":"Uncletopia | São Paulo | 2 | All Maps | STV","players":null},{"server_id":7,"name":"Uncletopia | Seattle | 1 | All Maps","name_short":"sea-1","host":"sea-1.us.uncletopia.com","port":27015,"enabled":true,"region":"us-west","cc":"us","latitude":47.608013,"longitude":-122.33517,"reserved":0,"last_update":"0001-01-01T00:00:00Z","name_a2s":"Uncletopia | Seattle | 1 | All Maps","protocol":17,"map":"cp_gorge","folder":"tf","game":"Team Fortress","app_id":440,"player_count":24,"max_players":24,"Bots":0,"server_type":"Dedicated","server_os":"Linux","password":true,"vac":true,"version":"7961495","steam_id":85568392924469997,"keywords":["cp","nocrits","nodmgspread","uncletopia"],"game_id":440,"stv_port":27016,"stv_name":"Uncletopia | Seattle | 1 | All Maps | STV","players":[{"user_id":34,"name":"wrench","steam_id":76561198137242573,"connected_time":2346000000000,"state":"active","ping":50},{"user_id":83,"name":"Vorpas Jabwak","steam_id":76561198112186064,"connected_time":653000000000,"state":"active","ping":87},{"user_id":79,"name":"don't get mad","steam_id":76561198064662875,"connected_time":836000000000,"state":"active","ping":63},{"user_id":73,"name":"Stapler","steam_id":76561198099295077,"connected_time":902000000000,"state":"active","ping":64},{"user_id":67,"name":"BREAD MANN","steam_id":76561198949379945,"connected_time":1311000000000,"state":"active","ping":104},{"user_id":75,"name":"SeriousBread","steam_id":76561198043901577,"connected_time":885000000000,"state":"active","ping":53},{"user_id":54,"name":"Wafflemuscle","steam_id":76561198868628982,"connected_time":1887000000000,"state":"active","ping":54},{"user_id":89,"name":"Pretentious Gunspy","steam_id":76561199241325005,"connected_time":200000000000,"state":"active","ping":125},{"user_id":90,"name":"Jane Against the Grain","steam_id":76561198424248616,"connected_time":152000000000,"state":"active","ping":88},{"user_id":84,"name":"orbisg","steam_id":76561198004133638,"connected_time":529000000000,"state":"active","ping":81},{"user_id":76,"name":"Vincent Van Bro","steam_id":76561197966919802,"connected_time":882000000000,"state":"active","ping":54},{"user_id":85,"name":"Yack Skag","steam_id":76561198068251493,"connected_time":526000000000,"state":"active","ping":68},{"user_id":56,"name":"keithykeithers","steam_id":76561197995552615,"connected_time":1851000000000,"state":"active","ping":45},{"user_id":58,"name":"ふわふわ毛布","steam_id":76561198088403016,"connected_time":1807000000000,"state":"active","ping":152},{"user_id":69,"name":"DrD","steam_id":76561198067266383,"connected_time":1125000000000,"state":"active","ping":33},{"user_id":68,"name":"Deathkillsme","steam_id":76561198059468746,"connected_time":1301000000000,"state":"active","ping":53},{"user_id":82,"name":"soup","steam_id":76561198043209046,"connected_time":742000000000,"state":"active","ping":82},{"user_id":62,"name":"Trueno","steam_id":76561199080515661,"connected_time":1569000000000,"state":"active","ping":68},{"user_id":70,"name":"squart guy","steam_id":76561199411560141,"connected_time":1069000000000,"state":"active","ping":47},{"user_id":77,"name":"Acolyte of Goatse","steam_id":76561198046526036,"connected_time":874000000000,"state":"active","ping":75},{"user_id":87,"name":"Wunder","steam_id":76561198325846318,"connected_time":485000000000,"state":"active","ping":70},{"user_id":48,"name":"Stauxie","steam_id":76561198255030077,"connected_time":2237000000000,"state":"active","ping":135},{"user_id":49,"name":"nbwingdinger","steam_id":76561198412627015,"connected_time":2234000000000,"state":"active","ping":65},{"user_id":51,"name":"I just joined","steam_id":76561198057999536,"connected_time":2124000000000,"state":"active","ping":31}]},{"server_id":119,"name":"Uncletopia | Seattle | 2 | All Maps","name_short":"sea-2","host":"sea-1.us.uncletopia.com","port":27025,"enabled":true,"region":"us-west","cc":"us","latitude":47.608013,"longitude":-122.33517,"reserved":0,"last_update":"0001-01-01T00:00:00Z","name_a2s":"Uncletopia | Seattle | 2 | All Maps","protocol":17,"map":"pl_barnblitz","folder":"tf","game":"Team Fortress","app_id":440,"player_count":24,"max_players":24,"Bots":0,"server_type":"Dedicated","server_os":"Linux","password":true,"vac":true,"version":"7961495","steam_id":85568392924469998,"keywords":["nocrits","nodmgspread","payload","uncletopia"],"game_id":440,"stv_port":27026,"stv_name":"Uncletopia | Seattle | 2 | All Maps | STV","players":[{"user_id":15,"name":"Neophyte","steam_id":76561198027183394,"connected_time":1567000000000,"state":"active","ping":105},{"user_id":16,"name":"blueboy23","steam_id":76561199121889873,"connected_time":1563000000000,"state":"active","ping":47},{"user_id":46,"name":"Drapph","steam_id":76561199384213314,"connected_time":329000000000,"state":"active","ping":98},{"user_id":43,"name":"Teddy","steam_id":76561198048106221,"connected_time":502000000000,"state":"active","ping":67},{"user_id":11,"name":"Argon","steam_id":76561199254804349,"connected_time":1706000000000,"state":"active","ping":144},{"user_id":44,"name":"exephur","steam_id":76561198135763234,"connected_time":490000000000,"state":"active","ping":64},{"user_id":13,"name":"CashGordon","steam_id":76561197975594096,"connected_time":1638000000000,"state":"active","ping":40},{"user_id":20,"name":"Samiho","steam_id":76561198984374561,"connected_time":1478000000000,"state":"active","ping":67},{"user_id":18,"name":"Greskrendtregk","steam_id":76561197969553142,"connected_time":1527000000000,"state":"active","ping":58},{"user_id":19,"name":"Milf n' Cookies","steam_id":76561198104805359,"connected_time":1524000000000,"state":"active","ping":118},{"user_id":37,"name":"Bobby Ray","steam_id":76561198044131188,"connected_time":1055000000000,"state":"active","ping":75},{"user_id":22,"name":"u,____u","steam_id":76561198370431307,"connected_time":1451000000000,"state":"active","ping":68},{"user_id":48,"name":"Mico (Mico)","steam_id":76561198125462953,"connected_time":119000000000,"state":"active","ping":54},{"user_id":28,"name":"XxNeighbour's_Cat_Eater_69xX","steam_id":76561199228058495,"connected_time":1402000000000,"state":"active","ping":138},{"user_id":49,"name":"Ground Control to Majortom","steam_id":76561198065589126,"connected_time":89000000000,"state":"active","ping":131},{"user_id":42,"name":"tkeati","steam_id":76561198056356574,"connected_time":573000000000,"state":"active","ping":46},{"user_id":29,"name":"Deliqene","steam_id":76561198227901308,"connected_time":1400000000000,"state":"active","ping":81},{"user_id":30,"name":"radio","steam_id":76561198010226481,"connected_time":1396000000000,"state":"active","ping":75},{"user_id":31,"name":"haadis55555","steam_id":76561199117504724,"connected_time":1387000000000,"state":"active","ping":80},{"user_id":32,"name":"Wolfie","steam_id":76561198971938881,"connected_time":1381000000000,"state":"active","ping":94},{"user_id":33,"name":"Soap","steam_id":76561197994893383,"connected_time":1375000000000,"state":"active","ping":75},{"user_id":45,"name":"2 Point Tom","steam_id":76561198087617008,"connected_time":488000000000,"state":"active","ping":52},{"user_id":35,"name":"Artic_Ryuu","steam_id":76561198182194918,"connected_time":1363000000000,"state":"active","ping":74},{"user_id":50,"name":"?","steam_id":76561198209880837,"connected_time":82000000000,"state":"active","ping":55}]},{"server_id":406,"name":"Uncletopia | Seattle | 3 | Stopwatch Beta","name_short":"sea-3","host":"sea-1.us.uncletopia.com","port":27035,"enabled":true,"region":"us-west","cc":"us","latitude":47.608013,"longitude":-122.33517,"reserved":0,"last_update":"0001-01-01T00:00:00Z","name_a2s":"Uncletopia | Seattle | 3 | Stopwatch Beta","protocol":17,"map":"koth_highpass","folder":"tf","game":"Team Fortress","app_id":440,"player_count":0,"max_players":24,"Bots":0,"server_type":"Dedicated","server_os":"Linux","password":true,"vac":true,"version":"7961495","steam_id":85568392924515217,"keywords":["cp","nocrits","nodmgspread","uncletopia"],"game_id":440,"stv_port":27036,"stv_name":"Uncletopia | Seattle | 3 | Stopwatch Beta | STV","players":null},{"server_id":17,"name":"Uncletopia | San Francisco | 1 | All Maps","name_short":"sfo-1","host":"sfo-1.us.uncletopia.com","port":27015,"enabled":true,"region":"us-west","cc":"us","latitude":37.77397,"longitude":-122.4313,"reserved":0,"last_update":"0001-01-01T00:00:00Z","name_a2s":"Uncletopia | San Francisco | 1 | All Maps","protocol":17,"map":"pl_frontier_final","folder":"tf","game":"Team Fortress","app_id":440,"player_count":0,"max_players":24,"Bots":0,"server_type":"Dedicated","server_os":"Linux","password":true,"vac":true,"version":"7961495","steam_id":85568392924469999,"keywords":["nocrits","nodmgspread","payload","uncletopia"],"game_id":440,"stv_port":27016,"stv_name":"Uncletopia | San Francisco | 1 | All Maps | STV","players":null},{"server_id":18,"name":"Uncletopia | San Francisco | 2 | All Maps","name_short":"sfo-2","host":"sfo-1.us.uncletopia.com","port":27025,"enabled":true,"region":"us-west","cc":"us","latitude":37.77397,"longitude":-122.4313,"reserved":0,"last_update":"0001-01-01T00:00:00Z","name_a2s":"Uncletopia | San Francisco | 2 | All Maps","protocol":17,"map":"cp_snakewater_final1","folder":"tf","game":"Team Fortress","app_id":440,"player_count":0,"max_players":24,"Bots":0,"server_type":"Dedicated","server_os":"Linux","password":true,"vac":true,"version":"7961495","steam_id":85568392924470000,"keywords":["cp","nocrits","nodmgspread","uncletopia"],"game_id":440,"stv_port":27026,"stv_name":"Uncletopia | San Francisco | 2 | All Maps | STV","players":null},{"server_id":19,"name":"Uncletopia | San Francisco | 3 | Stopwatch Beta","name_short":"sfo-3","host":"sfo-1.us.uncletopia.com","port":27035,"enabled":true,"region":"us-west","cc":"us","latitude":37.77397,"longitude":-122.4313,"reserved":0,"last_update":"0001-01-01T00:00:00Z","name_a2s":"Uncletopia | San Francisco | 3 | Stopwatch Beta","protocol":17,"map":"koth_lakeside_final","folder":"tf","game":"Team Fortress","app_id":440,"player_count":0,"max_players":24,"Bots":0,"server_type":"Dedicated","server_os":"Linux","password":true,"vac":true,"version":"7961495","steam_id":85568392924742824,"keywords":["cp","nocrits","nodmgspread","uncletopia"],"game_id":440,"stv_port":27036,"stv_name":"Uncletopia | San Francisco | 3 | Stopwatch Beta | STV","players":null},{"server_id":20,"name":"Uncletopia | San Francisco | 4 | Community","name_short":"sfo-4","host":"sfo-1.us.uncletopia.com","port":27045,"enabled":true,"region":"us-west","cc":"us","latitude":37.77397,"longitude":-122.4313,"reserved":0,"last_update":"0001-01-01T00:00:00Z","name_a2s":"Uncletopia | San Francisco | 4 | Community","protocol":17,"map":"pl_borneo","folder":"tf","game":"Team Fortress","app_id":440,"player_count":0,"max_players":24,"Bots":0,"server_type":"Dedicated","server_os":"Linux","password":true,"vac":true,"version":"7961495","steam_id":85568392924742826,"keywords":["nocrits","nodmgspread","payload","uncletopia"],"game_id":440,"stv_port":27046,"stv_name":"Uncletopia | San Francisco | 4 | Community | STV","players":null},{"server_id":141,"name":"Uncletopia | Sydney | 1 | All Maps","name_short":"syd-1","host":"syd-1.au.uncletopia.com","port":27015,"enabled":true,"region":"au","cc":"au","latitude":-33.865143,"longitude":151.2099,"reserved":0,"last_update":"0001-01-01T00:00:00Z","name_a2s":"Uncletopia | Sydney | 1 | All Maps","protocol":17,"map":"cp_well","folder":"tf","game":"Team Fortress","app_id":440,"player_count":23,"max_players":24,"Bots":0,"server_type":"Dedicated","server_os":"Linux","password":true,"vac":true,"version":"7961495","steam_id":85568392924470001,"keywords":["cp","nocrits","nodmgspread","uncletopia"],"game_id":440,"stv_port":27016,"stv_name":"Uncletopia | Sydney | 1 | All Maps | STV","players":[{"user_id":162,"name":"DonkeyKing","steam_id":76561199380484053,"connected_time":2170000000000,"state":"active","ping":70},{"user_id":205,"name":"Jacob","steam_id":76561198059341907,"connected_time":338000000000,"state":"active","ping":87},{"user_id":72,"name":"Golfing with Joel","steam_id":76561199161637215,"connected_time":8332000000000,"state":"active","ping":106},{"user_id":105,"name":"shaymii","steam_id":76561198058562392,"connected_time":6140000000000,"state":"active","ping":87},{"user_id":165,"name":"Drowsyy","steam_id":76561199150176953,"connected_time":2031000000000,"state":"active","ping":71},{"user_id":202,"name":"dad","steam_id":76561198063032696,"connected_time":450000000000,"state":"active","ping":54},{"user_id":185,"name":"Tnttoad","steam_id":76561198297360775,"connected_time":1202000000000,"state":"active","ping":66},{"user_id":189,"name":"tren","steam_id":76561199184547017,"connected_time":1038000000000,"state":"active","ping":40},{"user_id":211,"name":"[TÐK] KeRpaL","steam_id":76561197974427061,"connected_time":23000000000,"state":"active","ping":67},{"user_id":203,"name":"Tofu","steam_id":76561198025637573,"connected_time":444000000000,"state":"active","ping":42},{"user_id":194,"name":"RAINY","steam_id":76561198009848533,"connected_time":733000000000,"state":"active","ping":60},{"user_id":191,"name":"Bigrichard","steam_id":76561198032092945,"connected_time":840000000000,"state":"active","ping":79},{"user_id":204,"name":"JP","steam_id":76561198026221737,"connected_time":420000000000,"state":"active","ping":49},{"user_id":183,"name":"DIY Miracle","steam_id":76561198046228152,"connected_time":1485000000000,"state":"active","ping":56},{"user_id":210,"name":"Louis","steam_id":76561198013395847,"connected_time":101000000000,"state":"spawning","ping":113},{"user_id":208,"name":"dumbvent","steam_id":76561198190062810,"connected_time":131000000000,"state":"active","ping":61},{"user_id":209,"name":"Owlenstein™","steam_id":76561198093983826,"connected_time":131000000000,"state":"active","ping":117},{"user_id":158,"name":"Emerald the Snake","steam_id":76561199013344853,"connected_time":2435000000000,"state":"active","ping":59},{"user_id":172,"name":"little raw meat boy","steam_id":76561199248254676,"connected_time":1864000000000,"state":"active","ping":52},{"user_id":177,"name":"Sriracha Hot Chilli Sauce","steam_id":76561198107715206,"connected_time":1662000000000,"state":"active","ping":88},{"user_id":212,"name":"Scary Gal Alert","steam_id":76561199440190709,"connected_time":4000000000,"state":"spawning","ping":60},{"user_id":197,"name":"michael","steam_id":76561198052848358,"connected_time":692000000000,"state":"active","ping":66},{"user_id":160,"name":"Frog Salesman","steam_id":76561198042073633,"connected_time":2330000000000,"state":"active","ping":45}]},{"server_id":123,"name":"Uncletopia | Sydney | 2 | All Maps","name_short":"syd-2","host":"syd-1.au.uncletopia.com","port":27025,"enabled":true,"region":"au","cc":"au","latitude":-33.865143,"longitude":151.2099,"reserved":0,"last_update":"0001-01-01T00:00:00Z","name_a2s":"Uncletopia | Sydney | 2 | All Maps","protocol":17,"map":"pl_barnblitz","folder":"tf","game":"Team Fortress","app_id":440,"player_count":7,"max_players":24,"Bots":0,"server_type":"Dedicated","server_os":"Linux","password":true,"vac":true,"version":"7961495","steam_id":85568392924470002,"keywords":["nocrits","nodmgspread","payload","uncletopia"],"game_id":440,"stv_port":27026,"stv_name":"Uncletopia | Sydney | 2 | All Maps | STV","players":[{"user_id":10,"name":"TheOrang","steam_id":76561199232263206,"connected_time":2774000000000,"state":"active","ping":92},{"user_id":11,"name":"Skylight","steam_id":76561199196900882,"connected_time":2704000000000,"state":"active","ping":85},{"user_id":12,"name":"pointless101","steam_id":76561199446931124,"connected_time":2408000000000,"state":"active","ping":85},{"user_id":16,"name":"Okie Dokie","steam_id":76561198125237921,"connected_time":1165000000000,"state":"active","ping":45},{"user_id":20,"name":"Cock Gobbler [F2P]","steam_id":76561199205335227,"connected_time":735000000000,"state":"active","ping":180},{"user_id":24,"name":"Earthling Jim","steam_id":76561198061960926,"connected_time":40000000000,"state":"active","ping":100},{"user_id":23,"name":"Milk Boi","steam_id":76561198238708000,"connected_time":144000000000,"state":"active","ping":84}]},{"server_id":395,"name":"Uncletopia | Sydney | 3 | All Maps","name_short":"syd-3","host":"syd-1.au.uncletopia.com","port":27035,"enabled":true,"region":"au","cc":"au","latitude":-33.865143,"longitude":151.2099,"reserved":0,"last_update":"0001-01-01T00:00:00Z","name_a2s":"Uncletopia | Sydney | 3 | All Maps","protocol":17,"map":"cp_mountainlab","folder":"tf","game":"Team Fortress","app_id":440,"player_count":0,"max_players":24,"Bots":0,"server_type":"Dedicated","server_os":"Linux","password":true,"vac":true,"version":"7961495","steam_id":85568392925194467,"keywords":["cp","nocrits","nodmgspread","uncletopia"],"game_id":440,"stv_port":27036,"stv_name":"Uncletopia | Sydney | 3 | All Maps | STV","players":null},{"server_id":396,"name":"Uncletopia | Sydney | 4 | All Maps","name_short":"syd-4","host":"syd-1.au.uncletopia.com","port":27045,"enabled":true,"region":"au","cc":"au","latitude":-33.865143,"longitude":151.2099,"reserved":0,"last_update":"0001-01-01T00:00:00Z","name_a2s":"Uncletopia | Sydney | 4 | All Maps","protocol":17,"map":"koth_cascade","folder":"tf","game":"Team Fortress","app_id":440,"player_count":0,"max_players":24,"Bots":0,"server_type":"Dedicated","server_os":"Linux","password":true,"vac":true,"version":"7961495","steam_id":85568392925397958,"keywords":["cp","nocrits","nodmgspread","uncletopia"],"game_id":440,"stv_port":27046,"stv_name":"Uncletopia | Sydney | 4 | All Maps | STV","players":null},{"server_id":58,"name":"Uncletopia | Sydney | 5 | Stopwatch Beta","name_short":"syd-5","host":"syd-1.au.uncletopia.com","port":27055,"enabled":true,"region":"au","cc":"au","latitude":-33.865143,"longitude":151.2099,"reserved":0,"last_update":"0001-01-01T00:00:00Z","name_a2s":"Uncletopia | Sydney | 5 | Stopwatch Beta","protocol":17,"map":"koth_viaduct","folder":"tf","game":"Team Fortress","app_id":440,"player_count":0,"max_players":24,"Bots":0,"server_type":"Dedicated","server_os":"Linux","password":true,"vac":true,"version":"7961495","steam_id":85568392925397959,"keywords":["cp","nocrits","nodmgspread","uncletopia"],"game_id":440,"stv_port":27056,"stv_name":"Uncletopia | Sydney | 5 | Stopwatch Beta | STV","players":null},{"server_id":59,"name":"Uncletopia | Sydney | 6 | Community","name_short":"syd-6","host":"syd-1.au.uncletopia.com","port":27065,"enabled":true,"region":"au","cc":"au","latitude":-33.865143,"longitude":151.2099,"reserved":0,"last_update":"0001-01-01T00:00:00Z","name_a2s":"Uncletopia | Sydney | 6 | Community","protocol":17,"map":"workshop/cp_glacier_rc6.ugc2905735376","folder":"tf","game":"Team Fortress","app_id":440,"player_count":0,"max_players":24,"Bots":0,"server_type":"Dedicated","server_os":"Linux","password":true,"vac":true,"version":"7961495","steam_id":85568392925397960,"keywords":["cp","nocrits","nodmgspread","uncletopia"],"game_id":440,"stv_port":27066,"stv_name":"Uncletopia | Sydney | 6 | Community | STV","players":null},{"server_id":49,"name":"Uncletopia | Warsaw | 1 | All Maps","name_short":"waw-1","host":"waw-1.pl.uncletopia.com","port":27015,"enabled":true,"region":"eu","cc":"pl","latitude":52.2297,"longitude":21.017532,"reserved":0,"last_update":"0001-01-01T00:00:00Z","name_a2s":"Uncletopia | Warsaw | 1 | All Maps","protocol":17,"map":"cp_process_final","folder":"tf","game":"Team Fortress","app_id":440,"player_count":0,"max_players":24,"Bots":0,"server_type":"Dedicated","server_os":"Linux","password":true,"vac":false,"version":"7961495","steam_id":0,"keywords":["cp","nocrits","nodmgspread","uncletopia"],"game_id":440,"stv_port":27016,"stv_name":"Uncletopia | Warsaw | 1 | All Maps | STV","players":null},{"server_id":50,"name":"Uncletopia | Warsaw | 2 | All Maps","name_short":"waw-2","host":"waw-1.pl.uncletopia.com","port":27025,"enabled":true,"region":"eu","cc":"pl","latitude":52.2297,"longitude":21.017532,"reserved":0,"last_update":"0001-01-01T00:00:00Z","name_a2s":"Uncletopia | Warsaw | 2 | All Maps","protocol":17,"map":"cp_mountainlab","folder":"tf","game":"Team Fortress","app_id":440,"player_count":0,"max_players":24,"Bots":0,"server_type":"Dedicated","server_os":"Linux","password":true,"vac":true,"version":"7961495","steam_id":85568392925397851,"keywords":["cp","nocrits","nodmgspread","uncletopia"],"game_id":440,"stv_port":27026,"stv_name":"Uncletopia | Warsaw | 2 | All Maps | STV","players":null},{"server_id":51,"name":"Uncletopia | Warsaw | 3 | All Maps","name_short":"waw-3","host":"waw-1.pl.uncletopia.com","port":27035,"enabled":true,"region":"eu","cc":"pl","latitude":52.2297,"longitude":21.017532,"reserved":0,"last_update":"0001-01-01T00:00:00Z","name_a2s":"Uncletopia | Warsaw | 3 | All Maps","protocol":17,"map":"pl_barnblitz","folder":"tf","game":"Team Fortress","app_id":440,"player_count":0,"max_players":24,"Bots":0,"server_type":"Dedicated","server_os":"Linux","password":true,"vac":true,"version":"7961495","steam_id":85568392925397852,"keywords":["nocrits","nodmgspread","payload","uncletopia"],"game_id":440,"stv_port":27036,"stv_name":"Uncletopia | Warsaw | 3 | All Maps | STV","players":null},{"server_id":52,"name":"Uncletopia | Warsaw | 4 | All Maps","name_short":"waw-4","host":"waw-1.pl.uncletopia.com","port":27045,"enabled":true,"region":"eu","cc":"pl","latitude":52.2297,"longitude":21.017532,"reserved":0,"last_update":"0001-01-01T00:00:00Z","name_a2s":"Uncletopia | Warsaw | 4 | All Maps","protocol":17,"map":"cp_dustbowl","folder":"tf","game":"Team Fortress","app_id":440,"player_count":0,"max_players":24,"Bots":0,"server_type":"Dedicated","server_os":"Linux","password":true,"vac":true,"version":"7961495","steam_id":85568392925397853,"keywords":["cp","nocrits","nodmgspread","uncletopia"],"game_id":440,"stv_port":27046,"stv_name":"Uncletopia | Warsaw | 4 | All Maps | STV","players":null},{"server_id":53,"name":"Uncletopia | Warsaw | 5 | Stopwatch Beta","name_short":"waw-5","host":"waw-1.pl.uncletopia.com","port":27055,"enabled":true,"region":"eu","cc":"pl","latitude":52.2297,"longitude":21.017532,"reserved":0,"last_update":"0001-01-01T00:00:00Z","name_a2s":"Uncletopia | Warsaw | 5 | Stopwatch Beta","protocol":17,"map":"pl_snowycoast","folder":"tf","game":"Team Fortress","app_id":440,"player_count":0,"max_players":24,"Bots":0,"server_type":"Dedicated","server_os":"Linux","password":true,"vac":true,"version":"7961495","steam_id":85568392925397854,"keywords":["nocrits","nodmgspread","payload","uncletopia"],"game_id":440,"stv_port":27056,"stv_name":"Uncletopia | Warsaw | 5 | Stopwatch Beta | STV","players":null},{"server_id":54,"name":"Uncletopia | Warsaw | 6 | Community","name_short":"waw-6","host":"waw-1.pl.uncletopia.com","port":27065,"enabled":true,"region":"eu","cc":"pl","latitude":52.2297,"longitude":21.017532,"reserved":0,"last_update":"0001-01-01T00:00:00Z","name_a2s":"Uncletopia | Warsaw | 6 | Community","protocol":17,"map":"pl_borneo","folder":"tf","game":"Team Fortress","app_id":440,"player_count":0,"max_players":24,"Bots":0,"server_type":"Dedicated","server_os":"Linux","password":true,"vac":true,"version":"7961495","steam_id":85568392925397856,"keywords":["nocrits","nodmgspread","payload","uncletopia"],"game_id":440,"stv_port":27066,"stv_name":"Uncletopia | Warsaw | 6 | Community | STV","players":null}]}