{"status":true,"message":"","result":[{"server_id":9,"name":"Uncletopia | Atlanta | 1 | All Maps","name_short":"atl-1","host":"atl-1.us.uncletopia.com","port":27015,"enabled":true,"region":"us-east","cc":"us","latitude":33.753746,"longitude":-84.38633,"reserved":0,"last_update":"0001-01-01T00:00:00Z","name_a2s":"Uncletopia | Atlanta | 1 | All Maps","protocol":17,"map":"pl_pier","folder":"tf","game":"Team Fortress","app_id":440,"player_count":24,"max_players":24,"Bots":0,"server_type":"Dedicated","server_os":"Linux","password":true,"vac":true,"version":"7757534","steam_id":85568392924469982,"keywords":["nocrits","nodmgspread","payload","uncletopia"],"game_id":440,"stv_port":27016,"stv_name":"Uncletopia | Atlanta | 1 | All Maps | STV","players":[{"user_id":127,"name":"prdxninja","steam_id":76561198170081774,"connected_time":121000000000,"state":"active","ping":45},{"user_id":102,"name":"Diesel","steam_id":76561198448815852,"connected_time":2546000000000,"state":"active","ping":103},{"user_id":120,"name":"BOT Positronic‚ô•June (they/she","steam_id":76561198042556857,"connected_time":372000000000,"state":"active","ping":71},{"user_id":119,"name":"Blitzy","steam_id":76561198149472890,"connected_time":407000000000,"state":"active","ping":108},{"user_id":109,"name":"ratie","steam_id":76561198059399661,"connected_time":1278000000000,"state":"active","ping":86},{"user_id":49,"name":"Bali","steam_id":76561198038693845,"connected_time":7761000000000,"state":"active","ping":77},{"user_id":126,"name":"üî•üêá","steam_id":76561198357456014,"connected_time":154000000000,"state":"active","ping":99},{"user_id":106,"name":"twix","steam_id":76561198040912048,"connected_time":1525000000000,"state":"active","ping":72},{"user_id":128,"name":"The Announcer's Feet","steam_id":76561199443456893,"connected_time":92000000000,"state":"active","ping":74},{"user_id":100,"name":"EatSports","steam_id":76561198009384115,"connected_time":2898000000000,"state":"active","ping":82},{"user_id":121,"name":"lu","steam_id":76561198080731872,"connected_time":306000000000,"state":"active","ping":73},{"user_id":28,"name":"That70sDog","steam_id":76561198119396142,"connected_time":8729000000000,"state":"active","ping":78},{"user_id":124,"name":"Insert_User_","steam_id":76561199229663997,"connected_time":264000000000,"state":"active","ping":73},{"user_id":95,"name":"freak on a leash","steam_id":76561198131576005,"connected_time":3632000000000,"state":"active","ping":57},{"user_id":116,"name":"Infinity","steam_id":76561199134919099,"connected_time":879000000000,"state":"active","ping":73},{"user_id":118,"name":"Speakeasy","steam_id":76561198134692556,"connected_time":429000000000,"state":"active","ping":81},{"user_id":103,"name":"ATL1 | on my hunting trip","steam_id":76561198315341646,"connected_time":2527000000000,"state":"active","ping":71},{"user_id":80,"name":"puffy","steam_id":76561198411347037,"connected_time":5075000000000,"state":"active","ping":70},{"user_id":58,"name":"[BBW] Justario","steam_id":76561198016095410,"connected_time":6355000000000,"state":"active","ping":55},{"user_id":70,"name":"dairy","steam_id":76561198117033273,"connected_time":5836000000000,"state":"active","ping":139},{"user_id":117,"name":"[chef] iron","steam_id":76561197970888616,"connected_time":874000000000,"state":"active","ping":62},{"user_id":112,"name":"Dreamzapp","steam_id":76561199084936632,"connected_time":1231000000000,"state":"active","ping":121},{"user_id":101,"name":"[Ringer] Tired Depresso","steam_id":76561198394787270,"connected_time":2748000000000,"state":"active","ping":86},{"user_id":129,"name":"Monkey Boss","steam_id":76561198249012916,"connected_time":8000000000,"state":"spawning","ping":118}]},{"server_id":400,"name":"Uncletopia | Atlanta | 3 | Community","name_short":"atl-3","host":"atl-1.us.uncletopia.com","port":27035,"enabled":true,"region":"us-east","cc":"us","latitude":33.753746,"longitude":-84.38633,"reserved":0,"last_update":"0001-01-01T00:00:00Z","name_a2s":"Uncletopia | Atlanta | 3 | Community","protocol":17,"map":"workshop/cp_glacier_rc6.ugc2905735376","folder":"tf","game":"Team Fortress","app_id":440,"player_count":0,"max_players":24,"Bots":0,"server_type":"Dedicated","server_os":"Linux","password":true,"vac":true,"version":"7757534","steam_id":85568392924515187,"keywords":["cp","nocrits","nodmgspread","uncletopia"],"game_id":440,"stv_port":27036,"stv_name":"Uncletopia | Atlanta | 3 | Community | STV","players":null},{"server_id":401,"name":"Uncletopia | Atlanta | 4 | No Payload","name_short":"atl-4","host":"atl-1.us.uncletopia.com","port":27045,"enabled":true,"region":"us-east","cc":"us","latitude":33.753746,"longitude":-84.38633,"reserved":0,"last_update":"0001-01-01T00:00:00Z","name_a2s":"","protocol":0,"map":"","folder":"","game":"","app_id":0,"player_count":0,"max_players":0,"Bots":0,"server_type":"","server_os":"","password":false,"vac":false,"version":"","steam_id":0,"keywords":null,"game_id":0,"stv_port":0,"stv_name":"","players":null},{"server_id":2,"name":"Uncletopia | Chicago | 1 | All Maps","name_short":"chi-1","host":"chi-1.us.uncletopia.com","port":27015,"enabled":true,"region":"us-central","cc":"us","latitude":41.881832,"longitude":-87.62318,"reserved":0,"last_update":"0001-01-01T00:00:00Z","name_a2s":"Uncletopia | Chicago | 1 | All Maps","protocol":17,"map":"koth_harvest_final","folder":"tf","game":"Team Fortress","app_id":440,"player_count":23,"max_players":24,"Bots":0,"server_type":"Dedicated","server_os":"Linux","password":true,"vac":true,"version":"7757534","steam_id":85568392924469984,"keywords":["cp","nocrits","nodmgspread","uncletopia"],"game_id":440,"stv_port":27016,"stv_name":"Uncletopia | Chicago | 1 | All Maps | STV","players":[{"user_id":376,"name":"DarkEmpireOne","steam_id":76561198106849547,"connected_time":590000000000,"state":"active","ping":46},{"user_id":362,"name":"mel","steam_id":76561198215559840,"connected_time":1817000000000,"state":"active","ping":60},{"user_id":369,"name":"bepis","steam_id":76561199097866312,"connected_time":936000000000,"state":"active","ping":111},{"user_id":332,"name":"Veir≈´ Viseris","steam_id":76561197989857176,"connected_time":4352000000000,"state":"active","ping":165},{"user_id":365,"name":"·πΩ‚ßâ cookie","steam_id":76561197998884823,"connected_time":1214000000000,"state":"active","ping":49},{"user_id":374,"name":"rontu","steam_id":76561199072955534,"connected_time":603000000000,"state":"active","ping":49},{"user_id":384,"name":"Astoriae!","steam_id":76561199090168858,"connected_time":207000000000,"state":"active","ping":77},{"user_id":351,"name":"Scum!","steam_id":76561198051805219,"connected_time":2549000000000,"state":"active","ping":54},{"user_id":387,"name":"chaos","steam_id":76561198055462404,"connected_time":194000000000,"state":"active","ping":81},{"user_id":381,"name":"dyllie1","steam_id":76561198075324940,"connected_time":236000000000,"state":"active","ping":70},{"user_id":386,"name":"Samus","steam_id":76561198121933439,"connected_time":205000000000,"state":"active","ping":332},{"user_id":371,"name":"bushman","steam_id":76561197996548146,"connected_time":748000000000,"state":"active","ping":59},{"user_id":343,"name":"Grify","steam_id":76561198012292317,"connected_time":3539000000000,"state":"active","ping":84},{"user_id":388,"name":"ax","steam_id":76561198025011611,"connected_time":180000000000,"state":"active","ping":61},{"user_id":379,"name":"Jeremy","steam_id":76561198352333793,"connected_time":529000000000,"state":"active","ping":55},{"user_id":392,"name":"doobs","steam_id":76561198056880716,"connected_time":91000000000,"state":"active","ping":65},{"user_id":378,"name":"CPUnit","steam_id":76561198162881878,"connected_time":551000000000,"state":"active","ping":46},{"user_id":383,"name":"bur","steam_id":76561198004231658,"connected_time":224000000000,"state":"active","ping":59},{"user_id":391,"name":"Mr.YoYo","steam_id":76561198988717854,"connected_time":145000000000,"state":"active","ping":73},{"user_id":326,"name":"Temujin","steam_id":76561198030936583,"connected_time":4670000000000,"state":"active","ping":58},{"user_id":360,"name":"SomeScuffedKid","steam_id":76561198086113234,"connected_time":1919000000000,"state":"active","ping":70},{"user_id":364,"name":"wokky bin laddn","steam_id":76561198265200834,"connected_time":1369000000000,"state":"active","ping":76},{"user_id":299,"name":"Femboy Hooters","steam_id":76561198333128330,"connected_time":5905000000000,"state":"active","ping":41}]},{"server_id":106,"name":"Uncletopia | Chicago | 2 | All Maps","name_short":"chi-2","host":"chi-1.us.uncletopia.com","port":27025,"enabled":true,"region":"us-central","cc":"us","latitude":41.881832,"longitude":-87.62318,"reserved":0,"last_update":"0001-01-01T00:00:00Z","name_a2s":"Uncletopia | Chicago | 2 | All Maps","protocol":17,"map":"pl_upward","folder":"tf","game":"Team Fortress","app_id":440,"player_count":24,"max_players":24,"Bots":0,"server_type":"Dedicated","server_os":"Linux","password":true,"vac":true,"version":"7757534","steam_id":85568392924469985,"keywords":["nocrits","nodmgspread","payload","uncletopia"],"game_id":440,"stv_port":27026,"stv_name":"Uncletopia | Chicago | 2 | All Maps | STV","players":[{"user_id":207,"name":"Brown_Dream","steam_id":76561198975766145,"connected_time":1203000000000,"state":"active","ping":78},{"user_id":181,"name":"Stormz64","steam_id":76561198239036482,"connected_time":2579000000000,"state":"active","ping":49},{"user_id":117,"name":"Ajax","steam_id":76561197962240140,"connected_time":7624000000000,"state":"active","ping":55},{"user_id":179,"name":"King Bingus the VI of Bohemia","steam_id":76561198164203984,"connected_time":2697000000000,"state":"active","ping":80},{"user_id":201,"name":"Soris","steam_id":76561198103635251,"connected_time":1514000000000,"state":"active","ping":64},{"user_id":215,"name":"McSmitten","steam_id":76561198022358379,"connected_time":186000000000,"state":"active","ping":122},{"user_id":187,"name":"Aristotle Voulton","steam_id":76561198100174923,"connected_time":2393000000000,"state":"active","ping":104},{"user_id":200,"name":"Evolution","steam_id":76561198144767370,"connected_time":1655000000000,"state":"active","ping":46},{"user_id":175,"name":"Humble Leader","steam_id":76561198169966346,"connected_time":3475000000000,"state":"active","ping":80},{"user_id":186,"name":"BIG DICK","steam_id":76561198295042981,"connected_time":2415000000000,"state":"active","ping":60},{"user_id":172,"name":"meat","steam_id":76561198300349976,"connected_time":3694000000000,"state":"active","ping":83},{"user_id":205,"name":"Garfield","steam_id":76561198037803087,"connected_time":1369000000000,"state":"active","ping":73},{"user_id":209,"name":"alolan duntski","steam_id":76561198038826744,"connected_time":813000000000,"state":"active","ping":53},{"user_id":157,"name":"Winter the Witchie","steam_id":76561198151971178,"connected_time":4689000000000,"state":"active","ping":55},{"user_id":222,"name":"you deserve better","steam_id":76561198398383076,"connected_time":51000000000,"state":"active","ping":75},{"user_id":220,"name":"Female Gamer","steam_id":76561199366482682,"connected_time":85000000000,"state":"active","ping":112},{"user_id":212,"name":"Dispenser (Twan)","steam_id":76561197991064908,"connected_time":492000000000,"state":"active","ping":62},{"user_id":196,"name":"pizza steve","steam_id":76561198811554257,"connected_time":2084000000000,"state":"active","ping":56},{"user_id":221,"name":"Shoe","steam_id":76561198951926312,"connected_time":74000000000,"state":"active","ping":69},{"user_id":204,"name":"CHARLIE","steam_id":76561199061380038,"connected_time":1429000000000,"state":"active","ping":150},{"user_id":224,"name":"Alpharius","steam_id":76561197996284353,"connected_time":19000000000,"state":"active","ping":122},{"user_id":223,"name":"RedSock","steam_id":76561198161243404,"connected_time":40000000000,"state":"active","ping":45},{"user_id":208,"name":"Drilly22","steam_id":76561198068838338,"connected_time":831000000000,"state":"active","ping":89},{"user_id":148,"name":"Ringo x Seiran","steam_id":76561198357437908,"connected_time":5236000000000,"state":"active","ping":61}]},{"server_id":402,"name":"Uncletopia | Chicago | 3 | All Maps","name_short":"chi-3","host":"chi-1.us.uncletopia.com","port":27035,"enabled":true,"region":"us-central","cc":"us","latitude":41.881832,"longitude":-87.62318,"reserved":0,"last_update":"0001-01-01T00:00:00Z","name_a2s":"Uncletopia | Chicago | 3 | All Maps","protocol":17,"map":"koth_cascade","folder":"tf","game":"Team Fortress","app_id":440,"player_count":7,"max_players":24,"Bots":0,"server_type":"Dedicated","server_os":"Linux","password":true,"vac":true,"version":"7757534","steam_id":85568392924515191,"keywords":["cp","nocrits","nodmgspread","uncletopia"],"game_id":440,"stv_port":27036,"stv_name":"Uncletopia | Chicago | 3 | All Maps | STV","players":[{"user_id":17,"name":"Squash","steam_id":76561198376453255,"connected_time":622000000000,"state":"active","ping":56},{"user_id":15,"name":"Finchy22","steam_id":76561198063355600,"connected_time":670000000000,"state":"active","ping":60},{"user_id":18,"name":"BasicPeaches","steam_id":76561198190890150,"connected_time":472000000000,"state":"active","ping":76},{"user_id":19,"name":"Mintavious","steam_id":76561198235953338,"connected_time":472000000000,"state":"active","ping":58},{"user_id":20,"name":"Trox","steam_id":76561198263581464,"connected_time":407000000000,"state":"active","ping":82},{"user_id":21,"name":"Helios79","steam_id":76561198198358469,"connected_time":359000000000,"state":"active","ping":60},{"user_id":22,"name":"Dankey Kang","steam_id":76561198090232160,"connected_time":41000000000,"state":"spawning","ping":74}]},{"server_id":403,"name":"Uncletopia | Chicago | 4 | All Maps","name_short":"chi-4","host":"chi-1.us.uncletopia.com","port":27045,"enabled":true,"region":"us-central","cc":"us","latitude":41.881832,"longitude":-87.62318,"reserved":0,"last_update":"0001-01-01T00:00:00Z","name_a2s":"Uncletopia | Chicago | 4 | All Maps","protocol":17,"map":"koth_cascade","folder":"tf","game":"Team Fortress","app_id":440,"player_count":0,"max_players":24,"Bots":0,"server_type":"Dedicated","server_os":"Linux","password":true,"vac":true,"version":"7757534","steam_id":85568392924515193,"keywords":["cp","nocrits","nodmgspread","uncletopia"],"game_id":440,"stv_port":27046,"stv_name":"Uncletopia | Chicago | 4 | All Maps | STV","players":null},{"server_id":36,"name":"Uncletopia | Chicago | 5 | All Maps","name_short":"chi-5","host":"chi-2.us.uncletopia.com","port":27015,"enabled":true,"region":"us-central","cc":"us","latitude":41.881832,"longitude":-87.62318,"reserved":0,"last_update":"0001-01-01T00:00:00Z","name_a2s":"Uncletopia | Chicago | 5 | All Maps","protocol":17,"map":"pl_upward","folder":"tf","game":"Team Fortress","app_id":440,"player_count":24,"max_players":24,"Bots":0,"server_type":"Dedicated","server_os":"Linux","password":true,"vac":true,"version":"7757534","steam_id":85568392924866362,"keywords":["nocrits","nodmgspread","payload","uncletopia"],"game_id":440,"stv_port":27016,"stv_name":"Uncletopia | Chicago | 5 | All Maps | STV","players":[{"user_id":5,"name":"creamgravy573","steam_id":76561198093308746,"connected_time":3358000000000,"state":"active","ping":72},{"user_id":11,"name":"ECCO","steam_id":76561198002821513,"connected_time":2426000000000,"state":"active","ping":57},{"user_id":7,"name":"goblin (real)","steam_id":76561198160235380,"connected_time":2990000000000,"state":"active","ping":80},{"user_id":8,"name":"Idiot Prince (They/Them)","steam_id":76561198048205270,"connected_time":2902000000000,"state":"active","ping":76},{"user_id":10,"name":"AnonymousCritter","steam_id":76561198864475187,"connected_time":2634000000000,"state":"active","ping":50},{"user_id":22,"name":"Doubting Dave","steam_id":76561198066410749,"connected_time":1649000000000,"state":"active","ping":63},{"user_id":49,"name":"battle clown","steam_id":76561198045788371,"connected_time":200000000000,"state":"active","ping":66},{"user_id":50,"name":"Mara Roo","steam_id":76561198279341789,"connected_time":27000000000,"state":"active","ping":98},{"user_id":35,"name":"Ya Boi Grant","steam_id":76561198050913950,"connected_time":1087000000000,"state":"active","ping":102},{"user_id":43,"name":"Flyfriend28","steam_id":76561198131983415,"connected_time":798000000000,"state":"active","ping":64},{"user_id":25,"name":"Acro Banwagon","steam_id":76561198092451804,"connected_time":1542000000000,"state":"active","ping":67},{"user_id":45,"name":"Indigolake","steam_id":76561198202215807,"connected_time":589000000000,"state":"active","ping":86},{"user_id":42,"name":"ThatThingWithaK","steam_id":76561198317602350,"connected_time":979000000000,"state":"active","ping":92},{"user_id":28,"name":"Thequirka","steam_id":76561198968058652,"connected_time":1271000000000,"state":"active","ping":95},{"user_id":47,"name":"miner","steam_id":76561198073035221,"connected_time":508000000000,"state":"active","ping":60},{"user_id":30,"name":"Amazingamerhawk","steam_id":76561199064935924,"connected_time":1251000000000,"state":"active","ping":63},{"user_id":31,"name":"Duncle Frazzle","steam_id":76561198145596626,"connected_time":1209000000000,"state":"active","ping":108},{"user_id":32,"name":"You Know What You Did","steam_id":76561198218558897,"connected_time":1199000000000,"state":"active","ping":114},{"user_id":33,"name":"Soda","steam_id":76561198219209367,"connected_time":1141000000000,"state":"active","ping":66},{"user_id":41,"name":"suckmycock47","steam_id":76561198063099828,"connected_time":1004000000000,"state":"active","ping":51},{"user_id":37,"name":"james may","steam_id":76561198043857339,"connected_time":1037000000000,"state":"active","ping":105},{"user_id":38,"name":"the spy from team fortress 2","steam_id":76561198047797306,"connected_time":1024000000000,"state":"active","ping":61},{"user_id":39,"name":"Yamijaz√©","steam_id":76561199061923427,"connected_time":1024000000000,"state":"active","ping":72},{"user_id":40,"name":"Burger King Employee","steam_id":76561198870203273,"connected_time":1021000000000,"state":"active","ping":90}]},{"server_id":37,"name":"Uncletopia | Chicago | 6 | All Maps","name_short":"chi-6","host":"chi-2.us.uncletopia.com","port":27025,"enabled":true,"region":"us-central","cc":"us","latitude":41.881832,"longitude":-87.62318,"reserved":0,"last_update":"0001-01-01T00:00:00Z","name_a2s":"Uncletopia | Chicago | 6 | All Maps","protocol":17,"map":"cp_dustbowl","folder":"tf","game":"Team Fortress","app_id":440,"player_count":0,"max_players":24,"Bots":0,"server_type":"Dedicated","server_os":"Linux","password":true,"vac":true,"version":"7757534","steam_id":85568392924866363,"keywords":["cp","nocrits","nodmgspread","uncletopia"],"game_id":440,"stv_port":27026,"stv_name":"Uncletopia | Chicago | 6 | All Maps | STV","players":null},{"server_id":38,"name":"Uncletopia | Chicago | 7 | Stopwatch Beta","name_short":"chi-7","host":"chi-2.us.uncletopia.com","port":27035,"enabled":true,"region":"us-central","cc":"us","latitude":41.881832,"longitude":-87.62318,"reserved":0,"last_update":"0001-01-01T00:00:00Z","name_a2s":"Uncletopia | Chicago | 7 | Stopwatch Beta","protocol":17,"map":"koth_viaduct","folder":"tf","game":"Team Fortress","app_id":440,"player_count":0,"max_players":24,"Bots":0,"server_type":"Dedicated","server_os":"Linux","password":true,"vac":true,"version":"7757534","steam_id":85568392924866364,"keywords":["cp","nocrits","nodmgspread","uncletopia"],"game_id":440,"stv_port":27036,"stv_name":"Uncletopia | Chicago | 7 | Stopwatch Beta | STV","players":null},{"server_id":39,"name":"Uncletopia | Chicago | 8 | Community","name_short":"chi-8","host":"chi-2.us.uncletopia.com","port":27045,"enabled":true,"region":"us-central","cc":"us","latitude":41.881832,"longitude":-87.62318,"reserved":0,"last_update":"0001-01-01T00:00:00Z","name_a2s":"Uncletopia | Chicago | 8 | Community","protocol":17,"map":"koth_lakeside_final","folder":"tf","game":"Team Fortress","app_id":440,"player_count":0,"max_players":24,"Bots":0,"server_type":"Dedicated","server_os":"Linux","password":true,"vac":true,"version":"7757534","steam_id":85568392924866365,"keywords":["cp","nocrits","nodmgspread","uncletopia"],"game_id":440,"stv_port":27046,"stv_name":"Uncletopia | Chicago | 8 | Community | STV","players":null},{"server_id":8,"name":"Uncletopia | Dallas | 1 | All Maps","name_short":"dal-1","host":"dal-1.us.uncletopia.com","port":27015,"enabled":true,"region":"us-central","cc":"us","latitude":32.779167,"longitude":-96.80889,"reserved":0,"last_update":"0001-01-01T00:00:00Z","name_a2s":"Uncletopia | Dallas | 1 | All Maps","protocol":17,"map":"cp_granary","folder":"tf","game":"Team Fortress","app_id":440,"player_count":24,"max_players":24,"Bots":0,"server_type":"Dedicated","server_os":"Linux","password":true,"vac":true,"version":"7757534","steam_id":85568392924469986,"keywords":["cp","nocrits","nodmgspread","uncletopia"],"game_id":440,"stv_port":27016,"stv_name":"Uncletopia | Dallas | 1 | All Maps | STV","players":[{"user_id":54,"name":"Voodo133","steam_id":76561198042670351,"connected_time":2908000000000,"state":"active","ping":98},{"user_id":91,"name":"Frisk Weatherfield","steam_id":76561198146435800,"connected_time":619000000000,"state":"active","ping":85},{"user_id":89,"name":"Croked","steam_id":76561199177562635,"connected_time":875000000000,"state":"active","ping":80},{"user_id":53,"name":"rlty","steam_id":76561198009395055,"connected_time":2975000000000,"state":"active","ping":75},{"user_id":97,"name":"Architect","steam_id":76561198015242016,"connected_time":211000000000,"state":"active","ping":69},{"user_id":26,"name":"Ccpop123a","steam_id":76561198883889729,"connected_time":5184000000000,"state":"active","ping":65},{"user_id":27,"name":"Lolxdloldx","steam_id":76561198136887125,"connected_time":4815000000000,"state":"active","ping":76},{"user_id":82,"name":"Riske","steam_id":76561198115840568,"connected_time":1097000000000,"state":"active","ping":94},{"user_id":29,"name":"Ryo31337","steam_id":76561198063083553,"connected_time":4763000000000,"state":"active","ping":55},{"user_id":92,"name":"rlen","steam_id":76561197996132951,"connected_time":584000000000,"state":"active","ping":55},{"user_id":79,"name":"Tyler\u0026Fingers","steam_id":76561198085154485,"connected_time":1190000000000,"state":"active","ping":86},{"user_id":32,"name":"Communist Killing Candy Cactus\ufffd","steam_id":76561198074980635,"connected_time":4686000000000,"state":"active","ping":142},{"user_id":50,"name":"Gaiduk","steam_id":76561198112323877,"connected_time":3490000000000,"state":"active","ping":107},{"user_id":90,"name":"GLG.Liz","steam_id":76561198021957956,"connected_time":717000000000,"state":"active","ping":45},{"user_id":58,"name":"SunnySideDown","steam_id":76561199259111611,"connected_time":2817000000000,"state":"active","ping":92},{"user_id":88,"name":"DrBenjas","steam_id":76561198345883103,"connected_time":949000000000,"state":"active","ping":74},{"user_id":86,"name":"yitz","steam_id":76561198375575841,"connected_time":973000000000,"state":"active","ping":72},{"user_id":81,"name":"Onet","steam_id":76561198983484410,"connected_time":1158000000000,"state":"active","ping":67},{"user_id":96,"name":"Demoman With One Joke","steam_id":76561197993467034,"connected_time":314000000000,"state":"active","ping":61},{"user_id":41,"name":"Doc{MDW}","steam_id":76561198075049640,"connected_time":4343000000000,"state":"active","ping":74},{"user_id":60,"name":"GreaseGuy","steam_id":76561198376469805,"connected_time":2788000000000,"state":"active","ping":86},{"user_id":85,"name":"i am off oxycontins","steam_id":76561198389005732,"connected_time":1072000000000,"state":"active","ping":76},{"user_id":68,"name":"Wang of Wall St","steam_id":76561198047460598,"connected_time":1980000000000,"state":"active","ping":102},{"user_id":61,"name":"[√òWQJ√ò]chubacaalatake","steam_id":76561198136201697,"connected_time":2765000000000,"state":"active","ping":118}]},{"server_id":108,"name":"Uncletopia | Dallas | 2 | All Maps","name_short":"dal-2","host":"dal-1.us.uncletopia.com","port":27025,"enabled":true,"region":"us-central","cc":"us","latitude":32.779167,"longitude":-96.80889,"reserved":0,"last_update":"0001-01-01T00:00:00Z","name_a2s":"Uncletopia | Dallas | 2 | All Maps","protocol":17,"map":"cp_altitude","folder":"tf","game":"Team Fortress","app_id":440,"player_count":0,"max_players":24,"Bots":0,"server_type":"Dedicated","server_os":"Linux","password":true,"vac":true,"version":"7757534","steam_id":85568392924469988,"keywords":["cp","nocrits","nodmgspread","uncletopia"],"game_id":440,"stv_port":27026,"stv_name":"Uncletopia | Dallas | 2 | All Maps | STV","players":null},{"server_id":5,"name":"Uncletopia | Frankfurt | 1 | All Maps","name_short":"frk-1","host":"frk-1.de.uncletopia.com","port":27015,"enabled":true,"region":"eu","cc":"de","latitude":50.110924,"longitude":8.682127,"reserved":0,"last_update":"0001-01-01T00:00:00Z","name_a2s":"Uncletopia | Frankfurt | 1 | All Maps","protocol":17,"map":"pl_badwater","folder":"tf","game":"Team Fortress","app_id":440,"player_count":24,"max_players":24,"Bots":0,"server_type":"Dedicated","server_os":"Linux","password":true,"vac":true,"version":"7757534","steam_id":85568392924469989,"keywords":["nocrits","nodmgspread","payload","uncletopia"],"game_id":440,"stv_port":27016,"stv_name":"Uncletopia | Frankfurt | 1 | All Maps | STV","players":[{"user_id":394,"name":"player","steam_id":76561198054474684,"connected_time":5829000000000,"state":"active","ping":71},{"user_id":507,"name":"„ÉÜ„Ç§„É´„Çπ","steam_id":76561198022403271,"connected_time":349000000000,"state":"active","ping":45},{"user_id":496,"name":"EdSuedi","steam_id":76561199387956486,"connected_time":1085000000000,"state":"active","ping":46},{"user_id":497,"name":"rizook","steam_id":76561198055010039,"connected_time":733000000000,"state":"active","ping":60},{"user_id":498,"name":"Uncle Moomin","steam_id":76561198011628656,"connected_time":715000000000,"state":"active","ping":77},{"user_id":508,"name":"amby","steam_id":76561198126634202,"connected_time":140000000000,"state":"active","ping":71},{"user_id":499,"name":"Ragles","steam_id":76561198132454783,"connected_time":708000000000,"state":"active","ping":68},{"user_id":490,"name":"Mawuin","steam_id":76561198976336122,"connected_time":1581000000000,"state":"active","ping":66},{"user_id":466,"name":"Grandpa Dingelberg","steam_id":76561198072166743,"connected_time":3444000000000,"state":"active","ping":152},{"user_id":500,"name":"Big Benn","steam_id":76561199024168373,"connected_time":703000000000,"state":"active","ping":74},{"user_id":502,"name":"100t","steam_id":76561198043601838,"connected_time":653000000000,"state":"active","ping":60},{"user_id":494,"name":"Serton‚ôù","steam_id":76561198011061126,"connected_time":1118000000000,"state":"active","ping":86},{"user_id":505,"name":"dunduu","steam_id":76561198875240717,"connected_time":430000000000,"state":"active","ping":68},{"user_id":478,"name":"erobrine2","steam_id":76561198173218318,"connected_time":2720000000000,"state":"active","ping":57},{"user_id":503,"name":"nostalgia critic side character","steam_id":76561198273681447,"connected_time":585000000000,"state":"active","ping":81},{"user_id":475,"name":"Milosz52","steam_id":76561199060940204,"connected_time":2754000000000,"state":"active","ping":83},{"user_id":459,"name":"Schnitzel","steam_id":76561198262231733,"connected_time":3665000000000,"state":"active","ping":60},{"user_id":489,"name":"Mr.Schnittlauch","steam_id":76561198295868113,"connected_time":1661000000000,"state":"active","ping":62},{"user_id":504,"name":"Chambersite","steam_id":76561198197022399,"connected_time":507000000000,"state":"active","ping":106},{"user_id":487,"name":"W√ºstenfuchs","steam_id":76561198453885708,"connected_time":1698000000000,"state":"active","ping":71},{"user_id":344,"name":"HurrpNana","steam_id":76561199102156562,"connected_time":6772000000000,"state":"active","ping":81},{"user_id":501,"name":"ChaosMaster","steam_id":76561198360983155,"connected_time":692000000000,"state":"active","ping":82},{"user_id":506,"name":"Mikeshowsha","steam_id":76561199114014127,"connected_time":395000000000,"state":"active","ping":68},{"user_id":483,"name":"Homosapien","steam_id":76561197972035953,"connected_time":2096000000000,"state":"active","ping":46}]},{"server_id":110,"name":"Uncletopia | Frankfurt | 2 | All Maps","name_short":"frk-2","host":"frk-1.de.uncletopia.com","port":27025,"enabled":true,"region":"eu","cc":"de","latitude":50.110924,"longitude":8.682127,"reserved":0,"last_update":"0001-01-01T00:00:00Z","name_a2s":"Uncletopia | Frankfurt | 2 | All Maps","protocol":17,"map":"pl_pier","folder":"tf","game":"Team Fortress","app_id":440,"player_count":0,"max_players":24,"Bots":0,"server_type":"Dedicated","server_os":"Linux","password":true,"vac":true,"version":"7757534","steam_id":85568392924469990,"keywords":["nocrits","nodmgspread","payload","uncletopia"],"game_id":440,"stv_port":27026,"stv_name":"Uncletopia | Frankfurt | 2 | All Maps | STV","players":null},{"server_id":308,"name":"Uncletopia | Frankfurt | 3 | All Maps","name_short":"frk-3","host":"frk-1.de.uncletopia.com","port":27035,"enabled":true,"region":"eu","cc":"de","latitude":50.110924,"longitude":8.682127,"reserved":0,"last_update":"0001-01-01T00:00:00Z","name_a2s":"Uncletopia | Frankfurt | 3 | All Maps","protocol":17,"map":"pl_thundermountain","folder":"tf","game":"Team Fortress","app_id":440,"player_count":24,"max_players":24,"Bots":0,"server_type":"Dedicated","server_os":"Linux","password":true,"vac":true,"version":"7757534","steam_id":85568392924504274,"keywords":["nocrits","nodmgspread","payload","uncletopia"],"game_id":440,"stv_port":27036,"stv_name":"Uncletopia | Frankfurt | 3 | All Maps | STV","players":[{"user_id":185,"name":"Spootnak","steam_id":76561198049052518,"connected_time":1940000000000,"state":"active","ping":71},{"user_id":201,"name":"Rops","steam_id":76561198031608011,"connected_time":271000000000,"state":"active","ping":78},{"user_id":168,"name":"Big Trader","steam_id":76561197992364667,"connected_time":2822000000000,"state":"active","ping":79},{"user_id":169,"name":"GEP Gun","steam_id":76561197981821003,"connected_time":2808000000000,"state":"active","ping":73},{"user_id":179,"name":"Qwerty","steam_id":76561198023525894,"connected_time":2564000000000,"state":"active","ping":88},{"user_id":191,"name":"Cotton Eye Joe","steam_id":76561198080594207,"connected_time":1388000000000,"state":"active","ping":69},{"user_id":208,"name":"I.C. Wiener","steam_id":76561197999912254,"connected_time":17000000000,"state":"spawning","ping":74},{"user_id":181,"name":"mmlock","steam_id":76561198069516191,"connected_time":2403000000000,"state":"active","ping":46},{"user_id":202,"name":"galaxy","steam_id":76561198164819022,"connected_time":266000000000,"state":"active","ping":55},{"user_id":205,"name":"Aigan","steam_id":76561198130354707,"connected_time":133000000000,"state":"active","ping":135},{"user_id":195,"name":"Spaenny","steam_id":76561198035850165,"connected_time":1043000000000,"state":"active","ping":53},{"user_id":159,"name":"romaingallo","steam_id":76561198268112907,"connected_time":3139000000000,"state":"active","ping":79},{"user_id":206,"name":"CalicoCat12","steam_id":76561198081933130,"connected_time":127000000000,"state":"active","ping":95},{"user_id":188,"name":"‡πñ€£€úsergiu ( Õ°¬∞ Õú ñ Õ°¬∞)","steam_id":76561198087851617,"connected_time":1710000000000,"state":"active","ping":63},{"user_id":200,"name":"noobdog","steam_id":76561198036486671,"connected_time":651000000000,"state":"active","ping":60},{"user_id":204,"name":"AverageJohn","steam_id":76561198085507990,"connected_time":240000000000,"state":"active","ping":87},{"user_id":194,"name":"Pingu","steam_id":76561198207966532,"connected_time":1291000000000,"state":"active","ping":68},{"user_id":161,"name":"Mr.Fosty","steam_id":76561198045212783,"connected_time":3119000000000,"state":"active","ping":95},{"user_id":144,"name":"Egor Pomidor","steam_id":76561199175688390,"connected_time":3413000000000,"state":"active","ping":75},{"user_id":196,"name":"Gordon Birdman","steam_id":76561198013382324,"connected_time":1024000000000,"state":"active","ping":76},{"user_id":197,"name":"EastmoreRandoms.","steam_id":76561198048921203,"connected_time":1019000000000,"state":"active","ping":66},{"user_id":192,"name":"Jovy Kujoh","steam_id":76561198410598772,"connected_time":1387000000000,"state":"active","ping":58},{"user_id":172,"name":"beurgeur","steam_id":76561198872426314,"connected_time":2764000000000,"state":"active","ping":45},{"user_id":199,"name":"BFF Dzerky","steam_id":76561199022604955,"connected_time":805000000000,"state":"active","ping":69}]},{"server_id":309,"name":"Uncletopia | Frankfurt | 4 | All Maps","name_short":"frk-4","host":"frk-1.de.uncletopia.com","port":27045,"enabled":true,"region":"eu","cc":"de","latitude":50.110924,"longitude":8.682127,"reserved":0,"last_update":"0001-01-01T00:00:00Z","name_a2s":"Uncletopia | Frankfurt | 4 | All Maps","protocol":17,"map":"pl_barnblitz","folder":"tf","game":"Team Fortress","app_id":440,"player_count":24,"max_players":24,"Bots":0,"server_type":"Dedicated","server_os":"Linux","password":true,"vac":true,"version":"7757534","steam_id":85568392924504275,"keywords":["nocrits","nodmgspread","payload","uncletopia"],"game_id":440,"stv_port":27046,"stv_name":"Uncletopia | Frankfurt | 4 | All Maps | STV","players":[{"user_id":372,"name":"Mr.killer","steam_id":76561198290584189,"connected_time":2078000000000,"state":"active","ping":87},{"user_id":374,"name":"Kenpachi","steam_id":76561198365750503,"connected_time":2035000000000,"state":"active","ping":51},{"user_id":360,"name":"canoksun","steam_id":76561198165664707,"connected_time":2269000000000,"state":"active","ping":88},{"user_id":385,"name":"Yachox","steam_id":76561198158259745,"connected_time":1377000000000,"state":"active","ping":89},{"user_id":397,"name":"Homeless man with a home","steam_id":76561198274105878,"connected_time":379000000000,"state":"active","ping":73},{"user_id":342,"name":"hud_saytext_time 0","steam_id":76561198010327228,"connected_time":2830000000000,"state":"active","ping":60},{"user_id":364,"name":"Danipp","steam_id":76561198027147377,"connected_time":2193000000000,"state":"active","ping":73},{"user_id":396,"name":"zaleek69","steam_id":76561198058877595,"connected_time":697000000000,"state":"active","ping":59},{"user_id":348,"name":"rz-/Atomic Punch","steam_id":76561199195508541,"connected_time":2475000000000,"state":"active","ping":77},{"user_id":358,"name":"X45Y","steam_id":76561198112534025,"connected_time":2324000000000,"state":"active","ping":47},{"user_id":386,"name":"BROOMSTER","steam_id":76561198344833818,"connected_time":1334000000000,"state":"active","ping":78},{"user_id":365,"name":"swueuws","steam_id":76561198020716743,"connected_time":2177000000000,"state":"active","ping":58},{"user_id":377,"name":"I have no path in life","steam_id":76561198418538887,"connected_time":1661000000000,"state":"active","ping":96},{"user_id":310,"name":"Mingo","steam_id":76561199191245650,"connected_time":5022000000000,"state":"active","ping":104},{"user_id":362,"name":"XavierSweet","steam_id":76561198091781913,"connected_time":2241000000000,"state":"active","ping":67},{"user_id":355,"name":"I AM THE ONE WHO BUILDS","steam_id":76561199438413886,"connected_time":2368000000000,"state":"active","ping":249},{"user_id":379,"name":"engineer sex","steam_id":76561199044794538,"connected_time":1609000000000,"state":"active","ping":98},{"user_id":357,"name":"Ged","steam_id":76561198079288943,"connected_time":2332000000000,"state":"active","ping":102},{"user_id":389,"name":"Cathedra","steam_id":76561198430227030,"connected_time":1201000000000,"state":"active","ping":43},{"user_id":384,"name":"Ixsus\u003c3","steam_id":76561198094756869,"connected_time":1400000000000,"state":"active","ping":56},{"user_id":373,"name":"Vitamin Weee","steam_id":76561199183937747,"connected_time":2068000000000,"state":"active","ping":84},{"user_id":369,"name":"Reiyo the Interloper","steam_id":76561198155092485,"connected_time":2142000000000,"state":"active","ping":47},{"user_id":370,"name":"fifamirek","steam_id":76561198160567190,"connected_time":2136000000000,"state":"active","ping":55},{"user_id":395,"name":"Ich stinke","steam_id":76561198065076046,"connected_time":796000000000,"state":"active","ping":57}]},{"server_id":310,"name":"Uncletopia | Frankfurt | 5 | All Maps","name_short":"frk-5","host":"frk-1.de.uncletopia.com","port":27055,"enabled":true,"region":"eu","cc":"de","latitude":50.110924,"longitude":8.682127,"reserved":0,"last_update":"0001-01-01T00:00:00Z","name_a2s":"Uncletopia | Frankfurt | 5 | All Maps","protocol":17,"map":"koth_suijin","folder":"tf","game":"Team Fortress","app_id":440,"player_count":23,"max_players":24,"Bots":0,"server_type":"Dedicated","server_os":"Linux","password":true,"vac":true,"version":"7757534","steam_id":85568392924504277,"keywords":["cp","nocrits","nodmgspread","uncletopia"],"game_id":440,"stv_port":27056,"stv_name":"Uncletopia | Frankfurt | 5 | All Maps | STV","players":[{"user_id":150,"name":"Freddy Fazbear Gaming","steam_id":76561198299179114,"connected_time":2801000000000,"state":"active","ping":88},{"user_id":175,"name":"Michael","steam_id":76561198003146906,"connected_time":119000000000,"state":"active","ping":59},{"user_id":183,"name":"2D","steam_id":76561199113659141,"connected_time":39000000000,"state":"active","ping":132},{"user_id":169,"name":"mommyüñ§x_x","steam_id":76561199204257697,"connected_time":752000000000,"state":"active","ping":60},{"user_id":177,"name":"True and honest medic main","steam_id":76561198388750592,"connected_time":81000000000,"state":"spawning","ping":179},{"user_id":176,"name":"stupid fucking anime girl","steam_id":76561198166773704,"connected_time":93000000000,"state":"active","ping":92},{"user_id":140,"name":"Gulaschkanone","steam_id":76561198157689006,"connected_time":3534000000000,"state":"active","ping":62},{"user_id":129,"name":"benifis163","steam_id":76561198420973492,"connected_time":3771000000000,"state":"active","ping":107},{"user_id":179,"name":"‚òÖpoyo‚òÖ","steam_id":76561198150078959,"connected_time":72000000000,"state":"spawning","ping":60},{"user_id":162,"name":"jo bidn' | ETLARTORM","steam_id":76561198869576262,"connected_time":1156000000000,"state":"active","ping":107},{"user_id":168,"name":"lanzer","steam_id":76561198049983016,"connected_time":765000000000,"state":"active","ping":91},{"user_id":121,"name":"L.A. Palm Tree","steam_id":76561199289526521,"connected_time":3986000000000,"state":"active","ping":74},{"user_id":139,"name":"BlinkedUp","steam_id":76561198249985618,"connected_time":3596000000000,"state":"active","ping":62},{"user_id":170,"name":"froggy","steam_id":76561198064115286,"connected_time":726000000000,"state":"active","ping":65},{"user_id":126,"name":"1sec no za","steam_id":76561198798657045,"connected_time":3861000000000,"state":"active","ping":70},{"user_id":180,"name":"Optimist 50","steam_id":76561198039631442,"connected_time":57000000000,"state":"active","ping":81},{"user_id":182,"name":"KajaStorm","steam_id":76561199215842872,"connected_time":41000000000,"state":"active","ping":130},{"user_id":158,"name":"Noiloi","steam_id":76561199124220205,"connected_time":1777000000000,"state":"active","ping":89},{"user_id":134,"name":"Seeker","steam_id":76561198873052772,"connected_time":3714000000000,"state":"active","ping":64},{"user_id":104,"name":"Ivarsmon","steam_id":76561198997393231,"connected_time":5196000000000,"state":"active","ping":85},{"user_id":164,"name":"joe","steam_id":76561198061717026,"connected_time":1139000000000,"state":"active","ping":61},{"user_id":181,"name":"LivEssense","steam_id":76561198052476979,"connected_time":47000000000,"state":"active","ping":75},{"user_id":167,"name":"I'm past the point of insanity","steam_id":76561198800954471,"connected_time":1082000000000,"state":"active","ping":78}]},{"server_id":311,"name":"Uncletopia | Frankfurt | 6 | All Maps","name_short":"frk-6","host":"frk-1.de.uncletopia.com","port":27065,"enabled":true,"region":"eu","cc":"de","latitude":50.110924,"longitude":8.682127,"reserved":0,"last_update":"0001-01-01T00:00:00Z","name_a2s":"Uncletopia | Frankfurt | 6 | All Maps","protocol":17,"map":"koth_highpass","folder":"tf","game":"Team Fortress","app_id":440,"player_count":23,"max_players":24,"Bots":0,"server_type":"Dedicated","server_os":"Linux","password":true,"vac":true,"version":"7757534","steam_id":85568392924504278,"keywords":["cp","nocrits","nodmgspread","uncletopia"],"game_id":440,"stv_port":27066,"stv_name":"Uncletopia | Frankfurt | 6 | All Maps | STV","players":[{"user_id":372,"name":"Wojowniczek.pl","steam_id":76561199228645329,"connected_time":1195000000000,"state":"active","ping":196},{"user_id":380,"name":"Amon Gus","steam_id":76561199094540960,"connected_time":641000000000,"state":"active","ping":55},{"user_id":375,"name":"TSx* Bargal","steam_id":76561198040266872,"connected_time":965000000000,"state":"active","ping":74},{"user_id":383,"name":"Talkkari","steam_id":76561198025327723,"connected_time":402000000000,"state":"active","ping":61},{"user_id":377,"name":"BŒ£NZOIC","steam_id":76561198875665995,"connected_time":747000000000,"state":"active","ping":88},{"user_id":381,"name":"DominikDob12","steam_id":76561199116536199,"connected_time":558000000000,"state":"active","ping":100},{"user_id":384,"name":"oog","steam_id":76561199470344786,"connected_time":349000000000,"state":"active","ping":74},{"user_id":385,"name":"fire","steam_id":76561198063674613,"connected_time":300000000000,"state":"active","ping":45},{"user_id":386,"name":"GMsU | Rebikas","steam_id":76561198077053764,"connected_time":259000000000,"state":"active","ping":45},{"user_id":387,"name":"dongus","steam_id":76561198042774930,"connected_time":244000000000,"state":"active","ping":71},{"user_id":389,"name":"Caro-Kann","steam_id":76561198065506317,"connected_time":226000000000,"state":"active","ping":67},{"user_id":391,"name":"cof","steam_id":76561199128417805,"connected_time":215000000000,"state":"active","ping":70},{"user_id":393,"name":"Bumblebee","steam_id":76561198033551105,"connected_time":183000000000,"state":"active","ping":61},{"user_id":394,"name":"Catangerine","steam_id":76561198043832867,"connected_time":178000000000,"state":"active","ping":57},{"user_id":398,"name":"halo 3 rat","steam_id":76561198439007717,"connected_time":117000000000,"state":"active","ping":80},{"user_id":396,"name":"TJ1212","steam_id":76561199013575313,"connected_time":157000000000,"state":"active","ping":63},{"user_id":404,"name":"Û†Ä°Û†Ä°","steam_id":76561198015585266,"connected_time":39000000000,"state":"active","ping":74},{"user_id":399,"name":"Sabesaroo","steam_id":76561198098751074,"connected_time":116000000000,"state":"active","ping":61},{"user_id":400,"name":"Dooble donk man look at me donk","steam_id":76561198225523596,"connected_time":108000000000,"state":"active","ping":74},{"user_id":401,"name":"s a i","steam_id":76561197970379754,"connected_time":104000000000,"state":"active","ping":57},{"user_id":402,"name":"***** ***","steam_id":76561198048037379,"connected_time":74000000000,"state":"active","ping":73},{"user_id":403,"name":"GrzMik","steam_id":76561198061951968,"connected_time":69000000000,"state":"active","ping":89},{"user_id":405,"name":"RiX","steam_id":76561197969053733,"connected_time":20000000000,"state":"active","ping":60}]},{"server_id":23,"name":"Uncletopia | Frankfurt | 7 | Stopwatch Beta","name_short":"frk-7","host":"frk-1.de.uncletopia.com","port":27075,"enabled":true,"region":"eu","cc":"de","latitude":50.110924,"longitude":8.682127,"reserved":0,"last_update":"0001-01-01T00:00:00Z","name_a2s":"Uncletopia | Frankfurt | 7 | Stopwatch Beta","protocol":17,"map":"workshop/koth_bagel_rc6.ugc2514036946","folder":"tf","game":"Team Fortress","app_id":440,"player_count":0,"max_players":24,"Bots":0,"server_type":"Dedicated","server_os":"Linux","password":true,"vac":true,"version":"7757534","steam_id":85568392924742827,"keywords":["cp","nocrits","nodmgspread","uncletopia"],"game_id":440,"stv_port":27076,"stv_name":"Uncletopia | Frankfurt | 7 | Stopwatch Beta | STV","players":null},{"server_id":24,"name":"Uncletopia | Frankfurt | 8 | Community","name_short":"frk-8","host":"frk-1.de.uncletopia.com","port":27085,"enabled":true,"region":"eu","cc":"de","latitude":50.110924,"longitude":8.682127,"reserved":0,"last_update":"0001-01-01T00:00:00Z","name_a2s":"Uncletopia | Frankfurt | 8 | Community","protocol":17,"map":"workshop/koth_ashville_final.ugc2130459942","folder":"tf","game":"Team Fortress","app_id":440,"player_count":0,"max_players":24,"Bots":0,"server_type":"Dedicated","server_os":"Linux","password":true,"vac":true,"version":"7757534","steam_id":85568392924742828,"keywords":["cp","nocrits","nodmgspread","uncletopia"],"game_id":440,"stv_port":27086,"stv_name":"Uncletopia | Frankfurt | 8 | Community | STV","players":null},{"server_id":202,"name":"Uncletopia | Hong Kong | 1 | All Maps","name_short":"hgk-1","host":"hgk-1.hk.uncletopia.com","port":27015,"enabled":true,"region":"asia","cc":"hk","latitude":22.302711,"longitude":114.177216,"reserved":0,"last_update":"0001-01-01T00:00:00Z","name_a2s":"Uncletopia | Hong Kong | 1 | All Maps","protocol":17,"map":"pl_badwater","folder":"tf","game":"Team Fortress","app_id":440,"player_count":0,"max_players":24,"Bots":0,"server_type":"Dedicated","server_os":"Linux","password":true,"vac":true,"version":"7757534","steam_id":85568392924494504,"keywords":["nocrits","nodmgspread","payload","uncletopia"],"game_id":440,"stv_port":27016,"stv_name":"Uncletopia | Hong Kong | 1 | All Maps | STV","players":null},{"server_id":1,"name":"Uncletopia | Los Angeles | 1 | All Maps","name_short":"lax-1","host":"lax-1.us.uncletopia.com","port":27015,"enabled":true,"region":"us-west","cc":"us","latitude":33.94279,"longitude":-118.41004,"reserved":0,"last_update":"0001-01-01T00:00:00Z","name_a2s":"Uncletopia | Los Angeles | 1 | All Maps","protocol":17,"map":"koth_highpass","folder":"tf","game":"Team Fortress","app_id":440,"player_count":0,"max_players":24,"Bots":0,"server_type":"Dedicated","server_os":"Linux","password":true,"vac":true,"version":"7757534","steam_id":85568392924469991,"keywords":["cp","nocrits","nodmgspread","uncletopia"],"game_id":440,"stv_port":27016,"stv_name":"Uncletopia | Los Angeles | 1 | All Maps | STV","players":null},{"server_id":112,"name":"Uncletopia | Los Angeles | 2 | All Maps","name_short":"lax-2","host":"lax-1.us.uncletopia.com","port":27025,"enabled":true,"region":"us-west","cc":"us","latitude":33.94279,"longitude":-118.41004,"reserved":0,"last_update":"0001-01-01T00:00:00Z","name_a2s":"Uncletopia | Los Angeles | 2 | All Maps","protocol":17,"map":"koth_lakeside_final","folder":"tf","game":"Team Fortress","app_id":440,"player_count":12,"max_players":24,"Bots":0,"server_type":"Dedicated","server_os":"Linux","password":true,"vac":true,"version":"7757534","steam_id":85568392924469992,"keywords":["cp","nocrits","nodmgspread","uncletopia"],"game_id":440,"stv_port":27026,"stv_name":"Uncletopia | Los Angeles | 2 | All Maps | STV","players":[{"user_id":224,"name":"Tommy Gruvich","steam_id":76561198047709672,"connected_time":936000000000,"state":"active","ping":111},{"user_id":230,"name":"Critical","steam_id":76561198123744966,"connected_time":545000000000,"state":"active","ping":126},{"user_id":225,"name":"Robofish","steam_id":76561198043800025,"connected_time":921000000000,"state":"active","ping":116},{"user_id":231,"name":"copium addict","steam_id":76561199401665282,"connected_time":467000000000,"state":"active","ping":238},{"user_id":229,"name":"Giselle","steam_id":76561198162593640,"connected_time":696000000000,"state":"active","ping":105},{"user_id":228,"name":"bad at video games","steam_id":76561198115270560,"connected_time":820000000000,"state":"active","ping":117},{"user_id":232,"name":"Crackbean","steam_id":76561199115082856,"connected_time":389000000000,"state":"active","ping":189},{"user_id":234,"name":"Pudsla","steam_id":76561198258974036,"connected_time":211000000000,"state":"active","ping":56},{"user_id":236,"name":"An Unhappy Clown","steam_id":76561198175516514,"connected_time":91000000000,"state":"active","ping":74},{"user_id":237,"name":"berserker_tf2 yt","steam_id":76561198303464488,"connected_time":33000000000,"state":"active","ping":60},{"user_id":217,"name":"Wacks","steam_id":76561198079476100,"connected_time":1573000000000,"state":"active","ping":58},{"user_id":212,"name":"aqua","steam_id":76561199407709552,"connected_time":2028000000000,"state":"active","ping":97}]},{"server_id":324,"name":"Uncletopia | Los Angeles | 3 | All Maps","name_short":"lax-3","host":"lax-1.us.uncletopia.com","port":27035,"enabled":true,"region":"us-west","cc":"us","latitude":33.94279,"longitude":-118.41004,"reserved":0,"last_update":"0001-01-01T00:00:00Z","name_a2s":"Uncletopia | Los Angeles | 3 | All Maps","protocol":17,"map":"cp_altitude","folder":"tf","game":"Team Fortress","app_id":440,"player_count":0,"max_players":24,"Bots":0,"server_type":"Dedicated","server_os":"Linux","password":true,"vac":true,"version":"7757534","steam_id":85568392924510198,"keywords":["cp","nocrits","nodmgspread","uncletopia"],"game_id":440,"stv_port":27036,"stv_name":"Uncletopia | Los Angeles | 3 | All Maps | STV","players":null},{"server_id":25,"name":"Uncletopia | Los Angeles | 4 | Stopwatch Beta","name_short":"lax-4","host":"lax-1.us.uncletopia.com","port":27045,"enabled":true,"region":"us-west","cc":"us","latitude":33.94279,"longitude":-118.41004,"reserved":0,"last_update":"0001-01-01T00:00:00Z","name_a2s":"Uncletopia | Los Angeles | 4 | Stopwatch Beta","protocol":17,"map":"cp_dustbowl","folder":"tf","game":"Team Fortress","app_id":440,"player_count":0,"max_players":24,"Bots":0,"server_type":"Dedicated","server_os":"Linux","password":true,"vac":true,"version":"7757534","steam_id":85568392924510199,"keywords":["cp","nocrits","nodmgspread","uncletopia"],"game_id":440,"stv_port":27046,"stv_name":"Uncletopia | Los Angeles | 4 | Stopwatch Beta | STV","players":null},{"server_id":11,"name":"Uncletopia | London | 1 | All Maps","name_short":"lon-1","host":"lon-1.uk.uncletopia.com","port":27015,"enabled":true,"region":"eu","cc":"gb","latitude":51.509865,"longitude":-0.118092,"reserved":0,"last_update":"0001-01-01T00:00:00Z","name_a2s":"Uncletopia | London | 1 | All Maps","protocol":17,"map":"pl_badwater","folder":"tf","game":"Team Fortress","app_id":440,"player_count":24,"max_players":24,"Bots":0,"server_type":"Dedicated","server_os":"Linux","password":true,"vac":true,"version":"7757534","steam_id":85568392924367362,"keywords":["nocrits","nodmgspread","payload","uncletopia"],"game_id":440,"stv_port":27016,"stv_name":"Uncletopia | London | 1 | All Maps | STV","players":[{"user_id":694,"name":"jimmy bob","steam_id":76561198319583692,"connected_time":1573000000000,"state":"active","ping":54},{"user_id":696,"name":"Firearms","steam_id":76561197989867612,"connected_time":1341000000000,"state":"active","ping":42},{"user_id":724,"name":"Croy","steam_id":76561197972552579,"connected_time":62000000000,"state":"active","ping":45},{"user_id":713,"name":"Aaron","steam_id":76561197990046953,"connected_time":926000000000,"state":"active","ping":73},{"user_id":722,"name":"KLAMA  ‚ù§","steam_id":76561198351549661,"connected_time":129000000000,"state":"active","ping":75},{"user_id":681,"name":"kelpie","steam_id":76561198128327529,"connected_time":2917000000000,"state":"active","ping":45},{"user_id":717,"name":"British Disapproval","steam_id":76561198001375260,"connected_time":673000000000,"state":"active","ping":57},{"user_id":691,"name":"Gry","steam_id":76561198053961616,"connected_time":2351000000000,"state":"active","ping":46},{"user_id":688,"name":"JOHN GAMING (based)","steam_id":76561199085822219,"connected_time":2493000000000,"state":"active","ping":88},{"user_id":671,"name":"walking sentry","steam_id":76561199225363633,"connected_time":3248000000000,"state":"active","ping":67},{"user_id":716,"name":"Koli","steam_id":76561197992428783,"connected_time":722000000000,"state":"active","ping":61},{"user_id":693,"name":"astra","steam_id":76561198042980579,"connected_time":2309000000000,"state":"active","ping":66},{"user_id":714,"name":"JustKarell","steam_id":76561199043504078,"connected_time":889000000000,"state":"active","ping":123},{"user_id":699,"name":"torn","steam_id":76561198223003236,"connected_time":1339000000000,"state":"active","ping":37},{"user_id":690,"name":"Swedish Vegan","steam_id":76561198042775020,"connected_time":2460000000000,"state":"active","ping":75},{"user_id":631,"name":"Hasty Fool","steam_id":76561199474081953,"connected_time":5251000000000,"state":"active","ping":120},{"user_id":676,"name":"HaZ","steam_id":76561198441043969,"connected_time":3174000000000,"state":"active","ping":32},{"user_id":701,"name":"Staffy","steam_id":76561198859722036,"connected_time":1291000000000,"state":"active","ping":105},{"user_id":702,"name":"BELADIT","steam_id":76561198011911501,"connected_time":1289000000000,"state":"active","ping":90},{"user_id":709,"name":"PavlosPaok04","steam_id":76561199076069361,"connected_time":1196000000000,"state":"active","ping":69},{"user_id":704,"name":"TacoDragon","steam_id":76561198215345581,"connected_time":1283000000000,"state":"active","ping":73},{"user_id":677,"name":"twitch.tv/vision515","steam_id":76561198065293729,"connected_time":3173000000000,"state":"active","ping":156},{"user_id":718,"name":"nathan","steam_id":76561198022025906,"connected_time":452000000000,"state":"active","ping":67},{"user_id":653,"name":"‚ô• ‚ô• Sp3ll soo SeXy ÊÆ∫Êâã#1","steam_id":76561197970593737,"connected_time":4123000000000,"state":"active","ping":75}]},{"server_id":114,"name":"Uncletopia | London | 2 | All Maps","name_short":"lon-2","host":"lon-1.uk.uncletopia.com","port":27025,"enabled":true,"region":"eu","cc":"gb","latitude":51.509865,"longitude":-0.118092,"reserved":0,"last_update":"0001-01-01T00:00:00Z","name_a2s":"Uncletopia | London | 2 | All Maps","protocol":17,"map":"cp_snakewater_final1","folder":"tf","game":"Team Fortress","app_id":440,"player_count":25,"max_players":24,"Bots":0,"server_type":"Dedicated","server_os":"Linux","password":true,"vac":true,"version":"7757534","steam_id":85568392924470941,"keywords":["cp","nocrits","nodmgspread","uncletopia"],"game_id":440,"stv_port":27026,"stv_name":"Uncletopia | London | 2 | All Maps | STV","players":[{"user_id":411,"name":"Not Sussy Tanuki","steam_id":76561198137289375,"connected_time":497000000000,"state":"active","ping":107},{"user_id":368,"name":"Bonca","steam_id":76561198137503531,"connected_time":2631000000000,"state":"active","ping":68},{"user_id":408,"name":"alma","steam_id":76561198857712172,"connected_time":556000000000,"state":"active","ping":46},{"user_id":392,"name":"CarBombEnthusiast","steam_id":76561199448185434,"connected_time":1315000000000,"state":"active","ping":69},{"user_id":393,"name":"BadLuckBard","steam_id":76561199404236041,"connected_time":1281000000000,"state":"active","ping":52},{"user_id":388,"name":"Wire  Bash","steam_id":76561198033268371,"connected_time":1453000000000,"state":"active","ping":45},{"user_id":404,"name":"Carrot","steam_id":76561198119340863,"connected_time":753000000000,"state":"active","ping":42},{"user_id":403,"name":"Caliban","steam_id":76561197999696839,"connected_time":813000000000,"state":"active","ping":109},{"user_id":316,"name":"Borat","steam_id":76561198122226417,"connected_time":4962000000000,"state":"active","ping":43},{"user_id":399,"name":"weed gaming","steam_id":76561198057412336,"connected_time":877000000000,"state":"active","ping":48},{"user_id":397,"name":"Fat Pigeon","steam_id":76561198817940142,"connected_time":1143000000000,"state":"active","ping":46},{"user_id":369,"name":"IceDreamer","steam_id":76561197997569989,"connected_time":2628000000000,"state":"active","ping":44},{"user_id":405,"name":"pulsar","steam_id":76561198842123868,"connected_time":693000000000,"state":"active","ping":111},{"user_id":409,"name":"WolfmanCZ","steam_id":76561199157141414,"connected_time":539000000000,"state":"active","ping":76},{"user_id":255,"name":"LordTrap.exe","steam_id":76561198318089716,"connected_time":7269000000000,"state":"active","ping":49},{"user_id":410,"name":"Yessirskiii","steam_id":76561198179324075,"connected_time":536000000000,"state":"active","ping":72},{"user_id":359,"name":"crx3","steam_id":76561198064490510,"connected_time":3312000000000,"state":"active","ping":60},{"user_id":421,"name":"Resounding","steam_id":76561198051011034,"connected_time":41000000000,"state":"spawning","ping":38},{"user_id":381,"name":"Sgreff","steam_id":76561198036304365,"connected_time":1696000000000,"state":"active","ping":44},{"user_id":401,"name":"Vince","steam_id":76561199103000131,"connected_time":876000000000,"state":"active","ping":45},{"user_id":344,"name":"hourglass","steam_id":76561198166613799,"connected_time":3852000000000,"state":"active","ping":78},{"user_id":345,"name":"Riel","steam_id":76561198066017633,"connected_time":3843000000000,"state":"active","ping":66},{"user_id":373,"name":"akakez","steam_id":76561198095432821,"connected_time":2329000000000,"state":"active","ping":114},{"user_id":419,"name":"etc","steam_id":76561197998394797,"connected_time":166000000000,"state":"active","ping":54},{"user_id":414,"name":"lofimonkeyjazz","steam_id":76561198117059662,"connected_time":462000000000,"state":"active","ping":80}]},{"server_id":320,"name":"Uncletopia | London | 3 | All Maps","name_short":"lon-3","host":"lon-1.uk.uncletopia.com","port":27035,"enabled":true,"region":"eu","cc":"gb","latitude":51.509865,"longitude":-0.118092,"reserved":0,"last_update":"0001-01-01T00:00:00Z","name_a2s":"Uncletopia | London | 3 | All Maps","protocol":17,"map":"cp_sunshine","folder":"tf","game":"Team Fortress","app_id":440,"player_count":19,"max_players":24,"Bots":0,"server_type":"Dedicated","server_os":"Linux","password":true,"vac":true,"version":"7757534","steam_id":85568392924510192,"keywords":["cp","nocrits","nodmgspread","uncletopia"],"game_id":440,"stv_port":27036,"stv_name":"Uncletopia | London | 3 | All Maps | STV","players":[{"user_id":172,"name":"Rafalexis","steam_id":76561198055792457,"connected_time":352000000000,"state":"active","ping":73},{"user_id":109,"name":"Syd","steam_id":76561198020515027,"connected_time":4217000000000,"state":"active","ping":83},{"user_id":150,"name":"CrazyEarth","steam_id":76561198101745576,"connected_time":1042000000000,"state":"active","ping":73},{"user_id":181,"name":"‚òûLaZe‚òú","steam_id":76561198202191400,"connected_time":50000000000,"state":"active","ping":52},{"user_id":178,"name":"Fraser","steam_id":76561198972280645,"connected_time":251000000000,"state":"active","ping":48},{"user_id":167,"name":"SpeddyMeddy","steam_id":76561197999693825,"connected_time":443000000000,"state":"active","ping":84},{"user_id":98,"name":"john fortress","steam_id":76561198013237629,"connected_time":4506000000000,"state":"active","ping":90},{"user_id":159,"name":"--","steam_id":76561198062247888,"connected_time":569000000000,"state":"active","ping":59},{"user_id":152,"name":"DOMINOS","steam_id":76561198334591211,"connected_time":904000000000,"state":"active","ping":101},{"user_id":163,"name":"After8","steam_id":76561198090750865,"connected_time":513000000000,"state":"active","ping":65},{"user_id":104,"name":"Kylul_","steam_id":76561198042981061,"connected_time":4282000000000,"state":"active","ping":30},{"user_id":162,"name":"Modulus X","steam_id":76561198178430222,"connected_time":517000000000,"state":"active","ping":45},{"user_id":168,"name":"MEDiUM","steam_id":76561198112328561,"connected_time":418000000000,"state":"active","ping":83},{"user_id":164,"name":"Ozzak","steam_id":76561198353664262,"connected_time":488000000000,"state":"active","ping":59},{"user_id":170,"name":"jge","steam_id":76561198123186387,"connected_time":398000000000,"state":"active","ping":58},{"user_id":171,"name":"fumo?","steam_id":76561198148074472,"connected_time":377000000000,"state":"active","ping":45},{"user_id":173,"name":"silly","steam_id":76561198147277460,"connected_time":345000000000,"state":"active","ping":60},{"user_id":179,"name":"trans takeover 2024","steam_id":76561198262910410,"connected_time":234000000000,"state":"active","ping":120},{"user_id":175,"name":"Nice!","steam_id":76561199230709660,"connected_time":315000000000,"state":"active","ping":60}]},{"server_id":321,"name":"Uncletopia | London | 4 | All Maps","name_short":"lon-4","host":"lon-1.uk.uncletopia.com","port":27045,"enabled":true,"region":"eu","cc":"gb","latitude":51.509865,"longitude":-0.118092,"reserved":0,"last_update":"0001-01-01T00:00:00Z","name_a2s":"Uncletopia | London | 4 | All Maps","protocol":17,"map":"pl_upward","folder":"tf","game":"Team Fortress","app_id":440,"player_count":1,"max_players":24,"Bots":0,"server_type":"Dedicated","server_os":"Linux","password":true,"vac":true,"version":"7757534","steam_id":85568392924510193,"keywords":["nocrits","nodmgspread","payload","uncletopia"],"game_id":440,"stv_port":27046,"stv_name":"Uncletopia | London | 4 | All Maps | STV","players":[{"user_id":23,"name":"TheToxicShredder","steam_id":76561199159370663,"connected_time":400000000000,"state":"active","ping":72}]},{"server_id":21,"name":"Uncletopia | London | 5 | All Maps","name_short":"lon-5","host":"lon-1.uk.uncletopia.com","port":27055,"enabled":true,"region":"eu","cc":"gb","latitude":51.509865,"longitude":-0.118092,"reserved":0,"last_update":"0001-01-01T00:00:00Z","name_a2s":"Uncletopia | London | 5 | All Maps","protocol":17,"map":"pl_pier","folder":"tf","game":"Team Fortress","app_id":440,"player_count":0,"max_players":24,"Bots":0,"server_type":"Dedicated","server_os":"Linux","password":true,"vac":true,"version":"7757534","steam_id":85568392924742829,"keywords":["nocrits","nodmgspread","payload","uncletopia"],"game_id":440,"stv_port":27056,"stv_name":"Uncletopia | London | 5 | All Maps | STV","players":null},{"server_id":22,"name":"Uncletopia | London | 6 | All Maps","name_short":"lon-6","host":"lon-1.uk.uncletopia.com","port":27065,"enabled":true,"region":"eu","cc":"gb","latitude":51.509865,"longitude":-0.118092,"reserved":0,"last_update":"0001-01-01T00:00:00Z","name_a2s":"Uncletopia | London | 6 | All Maps","protocol":17,"map":"koth_highpass","folder":"tf","game":"Team Fortress","app_id":440,"player_count":0,"max_players":24,"Bots":0,"server_type":"Dedicated","server_os":"Linux","password":true,"vac":true,"version":"7757534","steam_id":85568392924742830,"keywords":["cp","nocrits","nodmgspread","uncletopia"],"game_id":440,"stv_port":27066,"stv_name":"Uncletopia | London | 6 | All Maps | STV","players":null},{"server_id":40,"name":"Uncletopia | London | 7 | No Payload","name_short":"lon-7","host":"lon-1.uk.uncletopia.com","port":27075,"enabled":true,"region":"eu","cc":"gb","latitude":51.509865,"longitude":-0.118092,"reserved":0,"last_update":"0001-01-01T00:00:00Z","name_a2s":"Uncletopia | London | 7 | No Payload","protocol":17,"map":"koth_highpass","folder":"tf","game":"Team Fortress","app_id":440,"player_count":0,"max_players":24,"Bots":0,"server_type":"Dedicated","server_os":"Linux","password":true,"vac":true,"version":"7757534","steam_id":85568392924964314,"keywords":["cp","nocrits","nodmgspread","uncletopia"],"game_id":440,"stv_port":27076,"stv_name":"Uncletopia | London | 7 | No Payload | STV","players":null},{"server_id":41,"name":"Uncletopia | London | 8 | Community","name_short":"lon-8","host":"lon-1.uk.uncletopia.com","port":27085,"enabled":true,"region":"eu","cc":"gb","latitude":51.509865,"longitude":-0.118092,"reserved":0,"last_update":"0001-01-01T00:00:00Z","name_a2s":"Uncletopia | London | 8 | Community","protocol":17,"map":"workshop/pl_cactuscanyon_redux_final1.ugc2579644293","folder":"tf","game":"Team Fortress","app_id":440,"player_count":0,"max_players":24,"Bots":0,"server_type":"Dedicated","server_os":"Linux","password":true,"vac":true,"version":"7757534","steam_id":85568392924964315,"keywords":["nocrits","nodmgspread","payload","uncletopia"],"game_id":440,"stv_port":27086,"stv_name":"Uncletopia | London | 8 | Community | STV","players":null},{"server_id":300,"name":"Uncletopia | Montr√©al | 1 | All Maps","name_short":"mtl-1","host":"mtl-1.ca.uncletopia.com","port":27015,"enabled":true,"region":"us-east","cc":"ca","latitude":45.50889,"longitude":-73.56167,"reserved":0,"last_update":"0001-01-01T00:00:00Z","name_a2s":"Uncletopia | Montr√©al | 1 | All Maps","protocol":17,"map":"pl_pier","folder":"tf","game":"Team Fortress","app_id":440,"player_count":0,"max_players":24,"Bots":0,"server_type":"Dedicated","server_os":"Linux","password":true,"vac":true,"version":"7757534","steam_id":85568392924500087,"keywords":["nocrits","nodmgspread","payload","uncletopia"],"game_id":440,"stv_port":27016,"stv_name":"Uncletopia | Montr√©al | 1 | All Maps | STV","players":null},{"server_id":301,"name":"Uncletopia | Montr√©al | 2 | All Maps","name_short":"mtl-2","host":"mtl-1.ca.uncletopia.com","port":27025,"enabled":true,"region":"us-east","cc":"ca","latitude":45.50889,"longitude":-73.56167,"reserved":0,"last_update":"0001-01-01T00:00:00Z","name_a2s":"Uncletopia | Montr√©al | 2 | All Maps","protocol":17,"map":"pl_frontier_final","folder":"tf","game":"Team Fortress","app_id":440,"player_count":0,"max_players":24,"Bots":0,"server_type":"Dedicated","server_os":"Linux","password":true,"vac":true,"version":"7757534","steam_id":85568392924500088,"keywords":["nocrits","nodmgspread","payload","uncletopia"],"game_id":440,"stv_port":27026,"stv_name":"Uncletopia | Montr√©al | 2 | All Maps | STV","players":null},{"server_id":302,"name":"Uncletopia | Montr√©al | 3 | All Maps","name_short":"mtl-3","host":"mtl-1.ca.uncletopia.com","port":27035,"enabled":true,"region":"us-east","cc":"ca","latitude":45.50889,"longitude":-73.56167,"reserved":0,"last_update":"0001-01-01T00:00:00Z","name_a2s":"Uncletopia | Montr√©al | 3 | All Maps","protocol":17,"map":"pl_borneo","folder":"tf","game":"Team Fortress","app_id":440,"player_count":0,"max_players":24,"Bots":0,"server_type":"Dedicated","server_os":"Linux","password":true,"vac":true,"version":"7757534","steam_id":85568392924500089,"keywords":["nocrits","nodmgspread","payload","uncletopia"],"game_id":440,"stv_port":27036,"stv_name":"Uncletopia | Montr√©al | 3 | All Maps | STV","players":null},{"server_id":303,"name":"Uncletopia | Montr√©al | 4 | No Payload","name_short":"mtl-4","host":"mtl-1.ca.uncletopia.com","port":27045,"enabled":true,"region":"us-east","cc":"ca","latitude":45.50889,"longitude":-73.56167,"reserved":0,"last_update":"0001-01-01T00:00:00Z","name_a2s":"Uncletopia | Montr√©al | 4 | No Payload","protocol":17,"map":"ctf_turbine","folder":"tf","game":"Team Fortress","app_id":440,"player_count":0,"max_players":24,"Bots":0,"server_type":"Dedicated","server_os":"Linux","password":true,"vac":true,"version":"7757534","steam_id":85568392924500090,"keywords":["ctf","nocrits","nodmgspread","uncletopia"],"game_id":440,"stv_port":27046,"stv_name":"Uncletopia | Montr√©al | 4 | No Payload | STV","players":null},{"server_id":13,"name":"Uncletopia | New York City | 1 | All Maps","name_short":"nyc-1","host":"nyc-1.us.uncletopia.com","port":27015,"enabled":true,"region":"us-east","cc":"us","latitude":40.73061,"longitude":-73.93524,"reserved":0,"last_update":"0001-01-01T00:00:00Z","name_a2s":"Uncletopia | New York City | 1 | All Maps","protocol":17,"map":"koth_highpass","folder":"tf","game":"Team Fortress","app_id":440,"player_count":0,"max_players":24,"Bots":0,"server_type":"Dedicated","server_os":"Linux","password":true,"vac":true,"version":"7757534","steam_id":85568392924469993,"keywords":["cp","nocrits","nodmgspread","uncletopia"],"game_id":440,"stv_port":27016,"stv_name":"Uncletopia | New York City | 1 | All Maps | STV","players":null},{"server_id":14,"name":"Uncletopia | New York City | 2 | All Maps","name_short":"nyc-2","host":"nyc-1.us.uncletopia.com","port":27025,"enabled":true,"region":"us-east","cc":"us","latitude":40.73061,"longitude":-73.93524,"reserved":0,"last_update":"0001-01-01T00:00:00Z","name_a2s":"Uncletopia | New York City | 2 | All Maps","protocol":17,"map":"pl_frontier_final","folder":"tf","game":"Team Fortress","app_id":440,"player_count":24,"max_players":24,"Bots":0,"server_type":"Dedicated","server_os":"Linux","password":true,"vac":true,"version":"7757534","steam_id":85568392924469994,"keywords":["nocrits","nodmgspread","payload","uncletopia"],"game_id":440,"stv_port":27026,"stv_name":"Uncletopia | New York City | 2 | All Maps | STV","players":[{"user_id":220,"name":"Viokik","steam_id":76561198408846602,"connected_time":1561000000000,"state":"active","ping":57},{"user_id":209,"name":"LuizPSC","steam_id":76561198026982191,"connected_time":2465000000000,"state":"active","ping":171},{"user_id":227,"name":"Sove67","steam_id":76561198069919807,"connected_time":1364000000000,"state":"active","ping":106},{"user_id":233,"name":"Honest Tunnel Salesman","steam_id":76561198059071100,"connected_time":72000000000,"state":"active","ping":69},{"user_id":189,"name":"spimtmot733","steam_id":76561199029189825,"connected_time":3569000000000,"state":"active","ping":59},{"user_id":215,"name":"Crylec","steam_id":76561198092755279,"connected_time":2075000000000,"state":"active","ping":39},{"user_id":210,"name":"Cuttle's Fish","steam_id":76561198280483257,"connected_time":2445000000000,"state":"active","ping":72},{"user_id":185,"name":"YoYoshi","steam_id":76561198217770251,"connected_time":3742000000000,"state":"active","ping":68},{"user_id":223,"name":"creeeeeee","steam_id":76561198392539722,"connected_time":1463000000000,"state":"active","ping":78},{"user_id":219,"name":"Pig","steam_id":76561198276179693,"connected_time":1735000000000,"state":"active","ping":71},{"user_id":198,"name":"Typhon","steam_id":76561198252124564,"connected_time":3044000000000,"state":"active","ping":54},{"user_id":186,"name":"ml is fake cs","steam_id":76561198350747953,"connected_time":3710000000000,"state":"active","ping":51},{"user_id":229,"name":"[DEEP] Roz257","steam_id":76561198842844532,"connected_time":1316000000000,"state":"active","ping":69},{"user_id":173,"name":"EmptyB33R","steam_id":76561198993166528,"connected_time":4814000000000,"state":"active","ping":143},{"user_id":216,"name":"Frajer","steam_id":76561198059129680,"connected_time":2067000000000,"state":"active","ping":69},{"user_id":232,"name":"barbara","steam_id":76561198072417792,"connected_time":113000000000,"state":"active","ping":128},{"user_id":191,"name":"GoblinSoup","steam_id":76561198888203067,"connected_time":3527000000000,"state":"active","ping":93},{"user_id":236,"name":"urtle","steam_id":76561199115049428,"connected_time":50000000000,"state":"spawning","ping":76},{"user_id":211,"name":"shinon","steam_id":76561198373626848,"connected_time":2292000000000,"state":"active","ping":69},{"user_id":192,"name":"Warkeidan","steam_id":76561198118805546,"connected_time":3525000000000,"state":"active","ping":59},{"user_id":235,"name":"Socialism Doesn't Work","steam_id":76561198044115698,"connected_time":54000000000,"state":"active","ping":60},{"user_id":201,"name":"Gandalf Gaming","steam_id":76561198368151490,"connected_time":2775000000000,"state":"active","ping":46},{"user_id":228,"name":"Legit_Jaxer","steam_id":76561198172234053,"connected_time":1335000000000,"state":"active","ping":133},{"user_id":230,"name":"A Puppy","steam_id":76561198828184456,"connected_time":1281000000000,"state":"active","ping":48}]},{"server_id":15,"name":"Uncletopia | New York City | 3 | Stopwatch Beta","name_short":"nyc-3","host":"nyc-1.us.uncletopia.com","port":27035,"enabled":true,"region":"us-east","cc":"us","latitude":40.73061,"longitude":-73.93524,"reserved":0,"last_update":"0001-01-01T00:00:00Z","name_a2s":"Uncletopia | New York City | 3 | Stopwatch Beta","protocol":17,"map":"koth_cascade","folder":"tf","game":"Team Fortress","app_id":440,"player_count":0,"max_players":24,"Bots":0,"server_type":"Dedicated","server_os":"Linux","password":true,"vac":true,"version":"7757534","steam_id":85568392924742820,"keywords":["cp","nocrits","nodmgspread","uncletopia"],"game_id":440,"stv_port":27036,"stv_name":"Uncletopia | New York City | 3 | Stopwatch Beta | STV","players":null},{"server_id":16,"name":"Uncletopia | New York City | 4 | Community","name_short":"nyc-4","host":"nyc-1.us.uncletopia.com","port":27045,"enabled":true,"region":"us-east","cc":"us","latitude":40.73061,"longitude":-73.93524,"reserved":0,"last_update":"0001-01-01T00:00:00Z","name_a2s":"Uncletopia | New York City | 4 | Community","protocol":17,"map":"pl_frontier_final","folder":"tf","game":"Team Fortress","app_id":440,"player_count":0,"max_players":24,"Bots":0,"server_type":"Dedicated","server_os":"Linux","password":true,"vac":true,"version":"7757534","steam_id":85568392924742821,"keywords":["nocrits","nodmgspread","payload","uncletopia"],"game_id":440,"stv_port":27046,"stv_name":"Uncletopia | New York City | 4 | Community | STV","players":null},{"server_id":142,"name":"Uncletopia | S√£o Paulo | 1 | All Maps","name_short":"sao-1","host":"sao-1.br.uncletopia.com","port":27015,"enabled":true,"region":"sa","cc":"br","latitude":-23.533773,"longitude":-46.62529,"reserved":0,"last_update":"0001-01-01T00:00:00Z","name_a2s":"Uncletopia | S√£o Paulo | 1 | All Maps","protocol":17,"map":"cp_altitude","folder":"tf","game":"Team Fortress","app_id":440,"player_count":0,"max_players":24,"Bots":0,"server_type":"Dedicated","server_os":"Linux","password":true,"vac":true,"version":"7757534","steam_id":85568392924469996,"keywords":["cp","nocrits","nodmgspread","uncletopia"],"game_id":440,"stv_port":27016,"stv_name":"Uncletopia | S√£o Paulo | 1 | All Maps | STV","players":null},{"server_id":143,"name":"Uncletopia | S√£o Paulo | 2 | All Maps","name_short":"sao-2","host":"sao-2.br.uncletopia.com","port":27015,"enabled":true,"region":"sa","cc":"br","latitude":-23.533773,"longitude":-46.62529,"reserved":0,"last_update":"0001-01-01T00:00:00Z","name_a2s":"Uncletopia | S√£o Paulo | 2 | All Maps","protocol":17,"map":"koth_viaduct","folder":"tf","game":"Team Fortress","app_id":440,"player_count":0,"max_players":24,"Bots":0,"server_type":"Dedicated","server_os":"Linux","password":true,"vac":true,"version":"7757534","steam_id":85568392924485349,"keywords":["cp","nocrits","nodmgspread","uncletopia"],"game_id":440,"stv_port":27016,"stv_name":"Uncletopia | S√£o Paulo | 2 | All Maps | STV","players":null},{"server_id":7,"name":"Uncletopia | Seattle | 1 | All Maps","name_short":"sea-1","host":"sea-1.us.uncletopia.com","port":27015,"enabled":true,"region":"us-west","cc":"us","latitude":47.608013,"longitude":-122.33517,"reserved":0,"last_update":"0001-01-01T00:00:00Z","name_a2s":"Uncletopia | Seattle | 1 | All Maps","protocol":17,"map":"koth_highpass","folder":"tf","game":"Team Fortress","app_id":440,"player_count":0,"max_players":24,"Bots":0,"server_type":"Dedicated","server_os":"Linux","password":true,"vac":true,"version":"7757534","steam_id":85568392924469997,"keywords":["cp","nocrits","nodmgspread","uncletopia"],"game_id":440,"stv_port":27016,"stv_name":"Uncletopia | Seattle | 1 | All Maps | STV","players":null},{"server_id":119,"name":"Uncletopia | Seattle | 2 | All Maps","name_short":"sea-2","host":"sea-1.us.uncletopia.com","port":27025,"enabled":true,"region":"us-west","cc":"us","latitude":47.608013,"longitude":-122.33517,"reserved":0,"last_update":"0001-01-01T00:00:00Z","name_a2s":"Uncletopia | Seattle | 2 | All Maps","protocol":17,"map":"pl_badwater","folder":"tf","game":"Team Fortress","app_id":440,"player_count":23,"max_players":24,"Bots":0,"server_type":"Dedicated","server_os":"Linux","password":true,"vac":true,"version":"7757534","steam_id":85568392924469998,"keywords":["nocrits","nodmgspread","payload","uncletopia"],"game_id":440,"stv_port":27026,"stv_name":"Uncletopia | Seattle | 2 | All Maps | STV","players":[{"user_id":102,"name":"chicken","steam_id":76561198092340564,"connected_time":3058000000000,"state":"active","ping":81},{"user_id":139,"name":"Endorm","steam_id":76561198170108265,"connected_time":145000000000,"state":"active","ping":61},{"user_id":135,"name":"John Smith","steam_id":76561198185776555,"connected_time":371000000000,"state":"active","ping":47},{"user_id":117,"name":"all men are pigs","steam_id":76561198080301085,"connected_time":2050000000000,"state":"active","ping":48},{"user_id":128,"name":"pathulhu","steam_id":76561198323941614,"connected_time":857000000000,"state":"active","ping":93},{"user_id":127,"name":"MacchuPeachu","steam_id":76561199093242587,"connected_time":1048000000000,"state":"active","ping":60},{"user_id":131,"name":"Dill","steam_id":76561197995325198,"connected_time":568000000000,"state":"active","ping":92},{"user_id":132,"name":"AmyPercent","steam_id":76561198071896932,"connected_time":502000000000,"state":"active","ping":83},{"user_id":137,"name":"crouton.net","steam_id":76561198068374646,"connected_time":345000000000,"state":"active","ping":77},{"user_id":83,"name":"old birb man","steam_id":76561199410269097,"connected_time":4486000000000,"state":"active","ping":81},{"user_id":129,"name":"Novaside","steam_id":76561198079461961,"connected_time":790000000000,"state":"active","ping":129},{"user_id":85,"name":"The Pepsi¬Æ Superbowl¬Æ!","steam_id":76561198080828981,"connected_time":4390000000000,"state":"active","ping":76},{"user_id":95,"name":"vartion","steam_id":76561198272996824,"connected_time":3739000000000,"state":"active","ping":53},{"user_id":27,"name":"Little Linguine","steam_id":76561198816986370,"connected_time":6884000000000,"state":"active","ping":55},{"user_id":96,"name":"Pubk","steam_id":76561198095939571,"connected_time":3132000000000,"state":"active","ping":32},{"user_id":133,"name":"Sovereign","steam_id":76561198018841787,"connected_time":457000000000,"state":"active","ping":33},{"user_id":112,"name":"ApertureCity","steam_id":76561198004153607,"connected_time":2452000000000,"state":"active","ping":134},{"user_id":123,"name":"TheGreatDong","steam_id":76561198000634178,"connected_time":1377000000000,"state":"active","ping":61},{"user_id":124,"name":"forktails","steam_id":76561198046185082,"connected_time":1189000000000,"state":"active","ping":120},{"user_id":104,"name":"Keamy","steam_id":76561199471434875,"connected_time":3034000000000,"state":"active","ping":44},{"user_id":118,"name":"drift.ag21","steam_id":76561198093781093,"connected_time":1837000000000,"state":"active","ping":105},{"user_id":74,"name":"spider_murphy","steam_id":76561198079057101,"connected_time":5155000000000,"state":"active","ping":53},{"user_id":130,"name":"Mom","steam_id":76561198207936000,"connected_time":749000000000,"state":"active","ping":62}]},{"server_id":406,"name":"Uncletopia | Seattle | 3 | Stopwatch Beta","name_short":"sea-3","host":"sea-1.us.uncletopia.com","port":27035,"enabled":true,"region":"us-west","cc":"us","latitude":47.608013,"longitude":-122.33517,"reserved":0,"last_update":"0001-01-01T00:00:00Z","name_a2s":"Uncletopia | Seattle | 3 | Stopwatch Beta","protocol":17,"map":"cp_process_final","folder":"tf","game":"Team Fortress","app_id":440,"player_count":0,"max_players":24,"Bots":0,"server_type":"Dedicated","server_os":"Linux","password":true,"vac":true,"version":"7757534","steam_id":85568392924515217,"keywords":["cp","nocrits","nodmgspread","uncletopia"],"game_id":440,"stv_port":27036,"stv_name":"Uncletopia | Seattle | 3 | Stopwatch Beta | STV","players":null},{"server_id":17,"name":"Uncletopia | San Francisco | 1 | All Maps","name_short":"sfo-1","host":"sfo-1.us.uncletopia.com","port":27015,"enabled":true,"region":"us-west","cc":"us","latitude":37.77397,"longitude":-122.4313,"reserved":0,"last_update":"0001-01-01T00:00:00Z","name_a2s":"Uncletopia | San Francisco | 1 | All Maps","protocol":17,"map":"koth_lakeside_final","folder":"tf","game":"Team Fortress","app_id":440,"player_count":3,"max_players":24,"Bots":0,"server_type":"Dedicated","server_os":"Linux","password":true,"vac":true,"version":"7757534","steam_id":85568392924469999,"keywords":["cp","nocrits","nodmgspread","uncletopia"],"game_id":440,"stv_port":27016,"stv_name":"Uncletopia | San Francisco | 1 | All Maps | STV","players":[{"user_id":5,"name":".sebi","steam_id":76561199388503325,"connected_time":1292000000000,"state":"active","ping":216},{"user_id":6,"name":"dstirbu520","steam_id":76561199404556490,"connected_time":1285000000000,"state":"active","ping":220},{"user_id":7,"name":"where connect?","steam_id":76561199467334502,"connected_time":203000000000,"state":"active","ping":45}]},{"server_id":18,"name":"Uncletopia | San Francisco | 2 | All Maps","name_short":"sfo-2","host":"sfo-1.us.uncletopia.com","port":27025,"enabled":true,"region":"us-west","cc":"us","latitude":37.77397,"longitude":-122.4313,"reserved":0,"last_update":"0001-01-01T00:00:00Z","name_a2s":"Uncletopia | San Francisco | 2 | All Maps","protocol":17,"map":"koth_viaduct","folder":"tf","game":"Team Fortress","app_id":440,"player_count":0,"max_players":24,"Bots":0,"server_type":"Dedicated","server_os":"Linux","password":true,"vac":true,"version":"7757534","steam_id":85568392924470000,"keywords":["cp","nocrits","nodmgspread","uncletopia"],"game_id":440,"stv_port":27026,"stv_name":"Uncletopia | San Francisco | 2 | All Maps | STV","players":null},{"server_id":19,"name":"Uncletopia | San Francisco | 3 | Stopwatch Beta","name_short":"sfo-3","host":"sfo-1.us.uncletopia.com","port":27035,"enabled":true,"region":"us-west","cc":"us","latitude":37.77397,"longitude":-122.4313,"reserved":0,"last_update":"0001-01-01T00:00:00Z","name_a2s":"Uncletopia | San Francisco | 3 | Stopwatch Beta","protocol":17,"map":"workshop/koth_ramjam_rc1.ugc459778887","folder":"tf","game":"Team Fortress","app_id":440,"player_count":0,"max_players":24,"Bots":0,"server_type":"Dedicated","server_os":"Linux","password":true,"vac":true,"version":"7757534","steam_id":85568392924742824,"keywords":["cp","nocrits","nodmgspread","uncletopia"],"game_id":440,"stv_port":27036,"stv_name":"Uncletopia | San Francisco | 3 | Stopwatch Beta | STV","players":null},{"server_id":20,"name":"Uncletopia | San Francisco | 4 | Community","name_short":"sfo-4","host":"sfo-1.us.uncletopia.com","port":27045,"enabled":true,"region":"us-west","cc":"us","latitude":37.77397,"longitude":-122.4313,"reserved":0,"last_update":"0001-01-01T00:00:00Z","name_a2s":"Uncletopia | San Francisco | 4 | Community","protocol":17,"map":"workshop/cp_glassworks_rc6a.ugc454118349","folder":"tf","game":"Team Fortress","app_id":440,"player_count":0,"max_players":24,"Bots":0,"server_type":"Dedicated","server_os":"Linux","password":true,"vac":true,"version":"7757534","steam_id":85568392924742826,"keywords":["cp","nocrits","nodmgspread","uncletopia"],"game_id":440,"stv_port":27046,"stv_name":"Uncletopia | San Francisco | 4 | Community | STV","players":null},{"server_id":141,"name":"Uncletopia | Sydney | 1 | All Maps","name_short":"syd-1","host":"syd-1.au.uncletopia.com","port":27015,"enabled":true,"region":"au","cc":"au","latitude":-33.865143,"longitude":151.2099,"reserved":0,"last_update":"0001-01-01T00:00:00Z","name_a2s":"Uncletopia | Sydney | 1 | All Maps","protocol":17,"map":"cp_dustbowl","folder":"tf","game":"Team Fortress","app_id":440,"player_count":0,"max_players":24,"Bots":0,"server_type":"Dedicated","server_os":"Linux","password":true,"vac":true,"version":"7757534","steam_id":85568392924470001,"keywords":["cp","nocrits","nodmgspread","uncletopia"],"game_id":440,"stv_port":27016,"stv_name":"Uncletopia | Sydney | 1 | All Maps | STV","players":null},{"server_id":123,"name":"Uncletopia | Sydney | 2 | All Maps","name_short":"syd-2","host":"syd-1.au.uncletopia.com","port":27025,"enabled":true,"region":"au","cc":"au","latitude":-33.865143,"longitude":151.2099,"reserved":0,"last_update":"0001-01-01T00:00:00Z","name_a2s":"Uncletopia | Sydney | 2 | All Maps","protocol":17,"map":"pl_badwater","folder":"tf","game":"Team Fortress","app_id":440,"player_count":0,"max_players":24,"Bots":0,"server_type":"Dedicated","server_os":"Linux","password":true,"vac":true,"version":"7757534","steam_id":85568392924470002,"keywords":["nocrits","nodmgspread","payload","uncletopia"],"game_id":440,"stv_port":27026,"stv_name":"Uncletopia | Sydney | 2 | All Maps | STV","players":null},{"server_id":395,"name":"Uncletopia | Sydney | 3 | All Maps","name_short":"syd-3","host":"syd-1.au.uncletopia.com","port":27035,"enabled":true,"region":"au","cc":"au","latitude":-33.865143,"longitude":151.2099,"reserved":0,"last_update":"0001-01-01T00:00:00Z","name_a2s":"Uncletopia | Sydney | 3 | All Maps","protocol":17,"map":"pl_badwater","folder":"tf","game":"Team Fortress","app_id":440,"player_count":0,"max_players":24,"Bots":0,"server_type":"Dedicated","server_os":"Linux","password":true,"vac":true,"version":"7757534","steam_id":85568392925194467,"keywords":["nocrits","nodmgspread","payload","uncletopia"],"game_id":440,"stv_port":27036,"stv_name":"Uncletopia | Sydney | 3 | All Maps | STV","players":null},{"server_id":396,"name":"Uncletopia | Sydney | 4 | All Maps","name_short":"syd-4","host":"syd-1.au.uncletopia.com","port":27045,"enabled":true,"region":"au","cc":"au","latitude":-33.865143,"longitude":151.2099,"reserved":0,"last_update":"0001-01-01T00:00:00Z","name_a2s":"Uncletopia | Sydney | 4 | All Maps","protocol":17,"map":"pl_snowycoast","folder":"tf","game":"Team Fortress","app_id":440,"player_count":0,"max_players":24,"Bots":0,"server_type":"Dedicated","server_os":"Linux","password":true,"vac":true,"version":"7757534","steam_id":85568392925397958,"keywords":["nocrits","nodmgspread","payload","uncletopia"],"game_id":440,"stv_port":27046,"stv_name":"Uncletopia | Sydney | 4 | All Maps | STV","players":null},{"server_id":58,"name":"Uncletopia | Sydney | 5 | Stopwatch Beta","name_short":"syd-5","host":"syd-1.au.uncletopia.com","port":27055,"enabled":true,"region":"au","cc":"au","latitude":-33.865143,"longitude":151.2099,"reserved":0,"last_update":"0001-01-01T00:00:00Z","name_a2s":"Uncletopia | Sydney | 5 | Stopwatch Beta","protocol":17,"map":"cp_gullywash_final1","folder":"tf","game":"Team Fortress","app_id":440,"player_count":0,"max_players":24,"Bots":0,"server_type":"Dedicated","server_os":"Linux","password":true,"vac":true,"version":"7757534","steam_id":85568392925397959,"keywords":["cp","nocrits","nodmgspread","uncletopia"],"game_id":440,"stv_port":27056,"stv_name":"Uncletopia | Sydney | 5 | Stopwatch Beta | STV","players":null},{"server_id":59,"name":"Uncletopia | Sydney | 6 | Community","name_short":"syd-6","host":"syd-1.au.uncletopia.com","port":27065,"enabled":true,"region":"au","cc":"au","latitude":-33.865143,"longitude":151.2099,"reserved":0,"last_update":"0001-01-01T00:00:00Z","name_a2s":"Uncletopia | Sydney | 6 | Community","protocol":17,"map":"workshop/pl_cactuscanyon_redux_final1.ugc2579644293","folder":"tf","game":"Team Fortress","app_id":440,"player_count":0,"max_players":24,"Bots":0,"server_type":"Dedicated","server_os":"Linux","password":true,"vac":true,"version":"7757534","steam_id":85568392925397960,"keywords":["nocrits","nodmgspread","payload","uncletopia"],"game_id":440,"stv_port":27066,"stv_name":"Uncletopia | Sydney | 6 | Community | STV","players":null},{"server_id":49,"name":"Uncletopia | Warsaw | 1 | All Maps","name_short":"waw-1","host":"waw-1.pl.uncletopia.com","port":27015,"enabled":true,"region":"eu","cc":"pl","latitude":52.2297,"longitude":21.017532,"reserved":0,"last_update":"0001-01-01T00:00:00Z","name_a2s":"","protocol":0,"map":"","folder":"","game":"","app_id":0,"player_count":0,"max_players":0,"Bots":0,"server_type":"","server_os":"","password":false,"vac":false,"version":"","steam_id":0,"keywords":null,"game_id":0,"stv_port":0,"stv_name":"","players":null},{"server_id":50,"name":"Uncletopia | Warsaw | 2 | All Maps","name_short":"waw-2","host":"waw-1.pl.uncletopia.com","port":27025,"enabled":true,"region":"eu","cc":"pl","latitude":52.2297,"longitude":21.017532,"reserved":0,"last_update":"0001-01-01T00:00:00Z","name_a2s":"Uncletopia | Warsaw | 2 | All Maps","protocol":17,"map":"koth_highpass","folder":"tf","game":"Team Fortress","app_id":440,"player_count":0,"max_players":24,"Bots":0,"server_type":"Dedicated","server_os":"Linux","password":true,"vac":true,"version":"7757534","steam_id":85568392925397851,"keywords":["cp","nocrits","nodmgspread","uncletopia"],"game_id":440,"stv_port":27026,"stv_name":"Uncletopia | Warsaw | 2 | All Maps | STV","players":null},{"server_id":51,"name":"Uncletopia | Warsaw | 3 | All Maps","name_short":"waw-3","host":"waw-1.pl.uncletopia.com","port":27035,"enabled":true,"region":"eu","cc":"pl","latitude":52.2297,"longitude":21.017532,"reserved":0,"last_update":"0001-01-01T00:00:00Z","name_a2s":"Uncletopia | Warsaw | 3 | All Maps","protocol":17,"map":"koth_highpass","folder":"tf","game":"Team Fortress","app_id":440,"player_count":4,"max_players":24,"Bots":0,"server_type":"Dedicated","server_os":"Linux","password":true,"vac":true,"version":"7757534","steam_id":85568392925397852,"keywords":["cp","nocrits","nodmgspread","uncletopia"],"game_id":440,"stv_port":27036,"stv_name":"Uncletopia | Warsaw | 3 | All Maps | STV","players":[{"user_id":5,"name":"BlankFedora","steam_id":76561198215486596,"connected_time":476000000000,"state":"active","ping":50},{"user_id":6,"name":"eguanoinyourtaco","steam_id":76561199473858715,"connected_time":375000000000,"state":"active","ping":71},{"user_id":7,"name":"fried","steam_id":76561198307522022,"connected_time":35000000000,"state":"active","ping":51},{"user_id":8,"name":"gaz","steam_id":76561198843714742,"connected_time":7000000000,"state":"spawning","ping":130}]},{"server_id":52,"name":"Uncletopia | Warsaw | 4 | All Maps","name_short":"waw-4","host":"waw-1.pl.uncletopia.com","port":27045,"enabled":true,"region":"eu","cc":"pl","latitude":52.2297,"longitude":21.017532,"reserved":0,"last_update":"0001-01-01T00:00:00Z","name_a2s":"Uncletopia | Warsaw | 4 | All Maps","protocol":17,"map":"cp_altitude","folder":"tf","game":"Team Fortress","app_id":440,"player_count":0,"max_players":24,"Bots":0,"server_type":"Dedicated","server_os":"Linux","password":true,"vac":true,"version":"7757534","steam_id":85568392925397853,"keywords":["cp","nocrits","nodmgspread","uncletopia"],"game_id":440,"stv_port":27046,"stv_name":"Uncletopia | Warsaw | 4 | All Maps | STV","players":null},{"server_id":53,"name":"Uncletopia | Warsaw | 5 | Stopwatch Beta","name_short":"waw-5","host":"waw-1.pl.uncletopia.com","port":27055,"enabled":true,"region":"eu","cc":"pl","latitude":52.2297,"longitude":21.017532,"reserved":0,"last_update":"0001-01-01T00:00:00Z","name_a2s":"Uncletopia | Warsaw | 5 | Stopwatch Beta","protocol":17,"map":"pl_pier","folder":"tf","game":"Team Fortress","app_id":440,"player_count":0,"max_players":24,"Bots":0,"server_type":"Dedicated","server_os":"Linux","password":true,"vac":true,"version":"7757534","steam_id":85568392925397854,"keywords":["nocrits","nodmgspread","payload","uncletopia"],"game_id":440,"stv_port":27056,"stv_name":"Uncletopia | Warsaw | 5 | Stopwatch Beta | STV","players":null},{"server_id":54,"name":"Uncletopia | Warsaw | 6 | Community","name_short":"waw-6","host":"waw-1.pl.uncletopia.com","port":27065,"enabled":true,"region":"eu","cc":"pl","latitude":52.2297,"longitude":21.017532,"reserved":0,"last_update":"0001-01-01T00:00:00Z","name_a2s":"Uncletopia | Warsaw | 6 | Community","protocol":17,"map":"koth_highpass","folder":"tf","game":"Team Fortress","app_id":440,"player_count":0,"max_players":24,"Bots":0,"server_type":"Dedicated","server_os":"Linux","password":true,"vac":true,"version":"7757534","steam_id":85568392925397856,"keywords":["cp","nocrits","nodmgspread","uncletopia"],"game_id":440,"stv_port":27066,"stv_name":"Uncletopia | Warsaw | 6 | Community | STV","players":null}]}