{"status":true,"message":"","result":[{"server_id":2,"name":"Uncletopia | Chicago | 1 | All Maps","name_short":"chi-1","host":"chi-1.us.uncletopia.com","port":27015,"enabled":true,"region":"us-central","cc":"us","latitude":41.881832,"longitude":-87.62318,"reserved":0,"last_update":"0001-01-01T00:00:00Z","name_a2s":"Uncletopia | Chicago | 1 | All Maps","protocol":17,"map":"pl_goldrush","folder":"tf","game":"Team Fortress","app_id":440,"player_count":20,"max_players":24,"Bots":0,"server_type":"Dedicated","server_os":"Linux","password":true,"vac":true,"version":"7932396","steam_id":85568392924469984,"keywords":["nocrits","nodmgspread","payload","uncletopia"],"game_id":440,"stv_port":27016,"stv_name":"Uncletopia | Chicago | 1 | All Maps | STV","players":[{"user_id":1012,"name":"Zelith","steam_id":76561198234980480,"connected_time":703000000000,"state":"active","ping":45},{"user_id":923,"name":"rAnch","steam_id":76561198024562587,"connected_time":9105000000000,"state":"active","ping":53},{"user_id":994,"name":"Travorski","steam_id":76561198072493142,"connected_time":2283000000000,"state":"active","ping":89},{"user_id":1014,"name":"Lex","steam_id":76561198069948353,"connected_time":679000000000,"state":"active","ping":77},{"user_id":986,"name":"Vorpas Jabwak","steam_id":76561198112186064,"connected_time":3295000000000,"state":"active","ping":84},{"user_id":1017,"name":"codeine demon","steam_id":76561198051015496,"connected_time":422000000000,"state":"active","ping":128},{"user_id":1005,"name":"Marv_L","steam_id":76561198035709541,"connected_time":1990000000000,"state":"active","ping":116},{"user_id":1015,"name":"ShapedSky0","steam_id":76561199486555735,"connected_time":586000000000,"state":"active","ping":89},{"user_id":1022,"name":"Latinx Goyslop","steam_id":76561198237204598,"connected_time":55000000000,"state":"active","ping":118},{"user_id":1020,"name":"Lumi","steam_id":76561198089978036,"connected_time":363000000000,"state":"active","ping":68},{"user_id":1008,"name":"Evillou","steam_id":76561198010395648,"connected_time":1763000000000,"state":"active","ping":72},{"user_id":1021,"name":"Comradical","steam_id":76561197990808285,"connected_time":107000000000,"state":"active","ping":85},{"user_id":992,"name":"Stranger in a Strange Land","steam_id":76561198049843671,"connected_time":2376000000000,"state":"active","ping":57},{"user_id":991,"name":"Always Here for You","steam_id":76561198219252313,"connected_time":2379000000000,"state":"active","ping":56},{"user_id":977,"name":"1-800-GHOST-DANCE","steam_id":76561198835430429,"connected_time":3468000000000,"state":"active","ping":88},{"user_id":922,"name":"room temp IQ","steam_id":76561198018724712,"connected_time":9327000000000,"state":"active","ping":60},{"user_id":971,"name":"Max","steam_id":76561199033599445,"connected_time":4379000000000,"state":"active","ping":102},{"user_id":973,"name":"TDOB","steam_id":76561198062701904,"connected_time":3859000000000,"state":"active","ping":73},{"user_id":1011,"name":"Spy Gaming","steam_id":76561198453295613,"connected_time":1140000000000,"state":"active","ping":108},{"user_id":1003,"name":"Ice Bear","steam_id":76561198154926406,"connected_time":2104000000000,"state":"active","ping":78}]},{"server_id":106,"name":"Uncletopia | Chicago | 2 | All Maps","name_short":"chi-2","host":"chi-1.us.uncletopia.com","port":27025,"enabled":true,"region":"us-central","cc":"us","latitude":41.881832,"longitude":-87.62318,"reserved":0,"last_update":"0001-01-01T00:00:00Z","name_a2s":"Uncletopia | Chicago | 2 | All Maps","protocol":17,"map":"cp_mountainlab","folder":"tf","game":"Team Fortress","app_id":440,"player_count":21,"max_players":24,"Bots":0,"server_type":"Dedicated","server_os":"Linux","password":true,"vac":true,"version":"7932396","steam_id":85568392924469985,"keywords":["cp","nocrits","nodmgspread","uncletopia"],"game_id":440,"stv_port":27026,"stv_name":"Uncletopia | Chicago | 2 | All Maps | STV","players":[{"user_id":787,"name":"❤ A Good Name (she/her) ❤","steam_id":76561198858190691,"connected_time":1510000000000,"state":"active","ping":115},{"user_id":789,"name":"AVI","steam_id":76561198144224422,"connected_time":1439000000000,"state":"active","ping":92},{"user_id":675,"name":"RainbowHeavy FM","steam_id":76561198070800159,"connected_time":8293000000000,"state":"active","ping":103},{"user_id":678,"name":"Zoltán","steam_id":76561197996909075,"connected_time":7363000000000,"state":"active","ping":93},{"user_id":752,"name":"lb Diamond","steam_id":76561197967998740,"connected_time":2921000000000,"state":"active","ping":115},{"user_id":749,"name":"mel kush","steam_id":76561198215559840,"connected_time":3327000000000,"state":"active","ping":61},{"user_id":732,"name":"Bob Sapp","steam_id":76561197980254440,"connected_time":3914000000000,"state":"active","ping":61},{"user_id":751,"name":"reero","steam_id":76561198071785065,"connected_time":3117000000000,"state":"active","ping":57},{"user_id":790,"name":"Mr_Kooly","steam_id":76561198011033160,"connected_time":1361000000000,"state":"active","ping":75},{"user_id":750,"name":"cucumper","steam_id":76561198079504588,"connected_time":3170000000000,"state":"active","ping":71},{"user_id":762,"name":"gerg","steam_id":76561197997127387,"connected_time":2292000000000,"state":"active","ping":114},{"user_id":734,"name":"amalgam","steam_id":76561198159058576,"connected_time":3771000000000,"state":"active","ping":89},{"user_id":736,"name":"pinkytoe","steam_id":76561198254052870,"connected_time":3755000000000,"state":"active","ping":55},{"user_id":740,"name":"Ludcmorais","steam_id":76561198359217809,"connected_time":3634000000000,"state":"active","ping":188},{"user_id":757,"name":"trash beast","steam_id":76561198015792736,"connected_time":2425000000000,"state":"active","ping":68},{"user_id":796,"name":"social distance warrior","steam_id":76561198128992994,"connected_time":709000000000,"state":"active","ping":89},{"user_id":797,"name":"Moonadoo","steam_id":76561198133377546,"connected_time":163000000000,"state":"active","ping":74},{"user_id":738,"name":"High School Nudical","steam_id":76561198172120615,"connected_time":3719000000000,"state":"active","ping":52},{"user_id":708,"name":"haikranok","steam_id":76561198084885479,"connected_time":5710000000000,"state":"active","ping":88},{"user_id":763,"name":"Chiaki Nanami","steam_id":76561198164782653,"connected_time":2292000000000,"state":"active","ping":65},{"user_id":741,"name":"Yummy Kabobz","steam_id":76561198067661705,"connected_time":3632000000000,"state":"active","ping":94}]},{"server_id":402,"name":"Uncletopia | Chicago | 3 | All Maps","name_short":"chi-3","host":"chi-1.us.uncletopia.com","port":27035,"enabled":true,"region":"us-central","cc":"us","latitude":41.881832,"longitude":-87.62318,"reserved":0,"last_update":"0001-01-01T00:00:00Z","name_a2s":"Uncletopia | Chicago | 3 | All Maps","protocol":17,"map":"pl_swiftwater_final1","folder":"tf","game":"Team Fortress","app_id":440,"player_count":24,"max_players":24,"Bots":0,"server_type":"Dedicated","server_os":"Linux","password":true,"vac":true,"version":"7932396","steam_id":85568392924515191,"keywords":["nocrits","nodmgspread","payload","uncletopia"],"game_id":440,"stv_port":27036,"stv_name":"Uncletopia | Chicago | 3 | All Maps | STV","players":[{"user_id":817,"name":"his flatulence","steam_id":76561198799404824,"connected_time":4569000000000,"state":"active","ping":82},{"user_id":902,"name":"Fargo","steam_id":76561198044703931,"connected_time":781000000000,"state":"active","ping":62},{"user_id":861,"name":"Zen56","steam_id":76561198074554894,"connected_time":2909000000000,"state":"active","ping":83},{"user_id":877,"name":"ChozoChorizo","steam_id":76561198272609196,"connected_time":2193000000000,"state":"active","ping":58},{"user_id":910,"name":"badboy6996","steam_id":76561197969386201,"connected_time":136000000000,"state":"active","ping":46},{"user_id":903,"name":"Dankest Cat","steam_id":76561198152685045,"connected_time":778000000000,"state":"active","ping":85},{"user_id":879,"name":"NubNub21","steam_id":76561197995743317,"connected_time":2053000000000,"state":"active","ping":155},{"user_id":880,"name":"SirKnight5067","steam_id":76561198377306047,"connected_time":2049000000000,"state":"active","ping":56},{"user_id":905,"name":"playguy carter","steam_id":76561198080679337,"connected_time":679000000000,"state":"active","ping":51},{"user_id":908,"name":"Pink fluoride","steam_id":76561198055337107,"connected_time":476000000000,"state":"active","ping":51},{"user_id":886,"name":"Zippy","steam_id":76561198279229422,"connected_time":1859000000000,"state":"active","ping":58},{"user_id":897,"name":"O.G. C.E.O","steam_id":76561198063928325,"connected_time":1378000000000,"state":"active","ping":55},{"user_id":812,"name":"Ping","steam_id":76561198072947773,"connected_time":4895000000000,"state":"active","ping":62},{"user_id":883,"name":"DoesZeMason","steam_id":76561198186303547,"connected_time":2000000000000,"state":"active","ping":61},{"user_id":911,"name":"Siren","steam_id":76561198047395823,"connected_time":8000000000,"state":"spawning","ping":79},{"user_id":901,"name":"Flex Pexico","steam_id":76561198041838930,"connected_time":1157000000000,"state":"active","ping":66},{"user_id":906,"name":"scrapheap","steam_id":76561198202407087,"connected_time":618000000000,"state":"active","ping":73},{"user_id":898,"name":"twink floyd","steam_id":76561199487086586,"connected_time":1378000000000,"state":"active","ping":58},{"user_id":888,"name":"Glennithy","steam_id":76561198339332079,"connected_time":1840000000000,"state":"active","ping":86},{"user_id":899,"name":"perfect inCell","steam_id":76561198059182316,"connected_time":1359000000000,"state":"active","ping":56},{"user_id":900,"name":"vulcan nightclub pon farr night","steam_id":76561197974283797,"connected_time":1337000000000,"state":"active","ping":42},{"user_id":909,"name":"123","steam_id":76561198106308056,"connected_time":217000000000,"state":"active","ping":134},{"user_id":891,"name":"euphoricfilth (it/her)","steam_id":76561198100160865,"connected_time":1810000000000,"state":"active","ping":60},{"user_id":892,"name":"Yoshimelon","steam_id":76561198253054325,"connected_time":1795000000000,"state":"active","ping":60}]},{"server_id":403,"name":"Uncletopia | Chicago | 4 | All Maps","name_short":"chi-4","host":"chi-1.us.uncletopia.com","port":27045,"enabled":true,"region":"us-central","cc":"us","latitude":41.881832,"longitude":-87.62318,"reserved":0,"last_update":"0001-01-01T00:00:00Z","name_a2s":"Uncletopia | Chicago | 4 | All Maps","protocol":17,"map":"pl_upward","folder":"tf","game":"Team Fortress","app_id":440,"player_count":0,"max_players":24,"Bots":0,"server_type":"Dedicated","server_os":"Linux","password":true,"vac":true,"version":"7932396","steam_id":85568392924515193,"keywords":["nocrits","nodmgspread","payload","uncletopia"],"game_id":440,"stv_port":27046,"stv_name":"Uncletopia | Chicago | 4 | All Maps | STV","players":null},{"server_id":36,"name":"Uncletopia | Chicago | 5 | All Maps","name_short":"chi-5","host":"chi-2.us.uncletopia.com","port":27015,"enabled":true,"region":"us-central","cc":"us","latitude":41.881832,"longitude":-87.62318,"reserved":0,"last_update":"0001-01-01T00:00:00Z","name_a2s":"Uncletopia | Chicago | 5 | All Maps","protocol":17,"map":"pl_borneo","folder":"tf","game":"Team Fortress","app_id":440,"player_count":0,"max_players":24,"Bots":0,"server_type":"Dedicated","server_os":"Linux","password":true,"vac":true,"version":"7932396","steam_id":85568392924866362,"keywords":["nocrits","nodmgspread","payload","uncletopia"],"game_id":440,"stv_port":27016,"stv_name":"Uncletopia | Chicago | 5 | All Maps | STV","players":null},{"server_id":37,"name":"Uncletopia | Chicago | 6 | All Maps","name_short":"chi-6","host":"chi-2.us.uncletopia.com","port":27025,"enabled":true,"region":"us-central","cc":"us","latitude":41.881832,"longitude":-87.62318,"reserved":0,"last_update":"0001-01-01T00:00:00Z","name_a2s":"Uncletopia | Chicago | 6 | All Maps","protocol":17,"map":"pl_upward","folder":"tf","game":"Team Fortress","app_id":440,"player_count":0,"max_players":24,"Bots":0,"server_type":"Dedicated","server_os":"Linux","password":true,"vac":true,"version":"7932396","steam_id":85568392924866363,"keywords":["nocrits","nodmgspread","payload","uncletopia"],"game_id":440,"stv_port":27026,"stv_name":"Uncletopia | Chicago | 6 | All Maps | STV","players":null},{"server_id":38,"name":"Uncletopia | Chicago | 7 | Stopwatch Beta","name_short":"chi-7","host":"chi-2.us.uncletopia.com","port":27035,"enabled":true,"region":"us-central","cc":"us","latitude":41.881832,"longitude":-87.62318,"reserved":0,"last_update":"0001-01-01T00:00:00Z","name_a2s":"Uncletopia | Chicago | 7 | Stopwatch Beta","protocol":17,"map":"workshop/pl_badwater_pro_v12.ugc2142942074","folder":"tf","game":"Team Fortress","app_id":440,"player_count":0,"max_players":24,"Bots":0,"server_type":"Dedicated","server_os":"Linux","password":true,"vac":true,"version":"7932396","steam_id":85568392924866364,"keywords":["nocrits","nodmgspread","payload","uncletopia"],"game_id":440,"stv_port":27036,"stv_name":"Uncletopia | Chicago | 7 | Stopwatch Beta | STV","players":null},{"server_id":39,"name":"Uncletopia | Chicago | 8 | Community","name_short":"chi-8","host":"chi-2.us.uncletopia.com","port":27045,"enabled":true,"region":"us-central","cc":"us","latitude":41.881832,"longitude":-87.62318,"reserved":0,"last_update":"0001-01-01T00:00:00Z","name_a2s":"Uncletopia | Chicago | 8 | Community","protocol":17,"map":"workshop/pl_divulgence_b4b.ugc2884808746","folder":"tf","game":"Team Fortress","app_id":440,"player_count":0,"max_players":24,"Bots":0,"server_type":"Dedicated","server_os":"Linux","password":true,"vac":true,"version":"7932396","steam_id":85568392924866365,"keywords":["nocrits","nodmgspread","payload","uncletopia"],"game_id":440,"stv_port":27046,"stv_name":"Uncletopia | Chicago | 8 | Community | STV","players":null},{"server_id":8,"name":"Uncletopia | Dallas | 1 | All Maps","name_short":"dal-1","host":"dal-1.us.uncletopia.com","port":27015,"enabled":true,"region":"us-central","cc":"us","latitude":32.779167,"longitude":-96.80889,"reserved":0,"last_update":"0001-01-01T00:00:00Z","name_a2s":"Uncletopia | Dallas | 1 | All Maps","protocol":17,"map":"cp_dustbowl","folder":"tf","game":"Team Fortress","app_id":440,"player_count":17,"max_players":24,"Bots":0,"server_type":"Dedicated","server_os":"Linux","password":true,"vac":true,"version":"7932396","steam_id":85568392924469986,"keywords":["cp","nocrits","nodmgspread","uncletopia"],"game_id":440,"stv_port":27016,"stv_name":"Uncletopia | Dallas | 1 | All Maps | STV","players":[{"user_id":778,"name":"dekapon","steam_id":76561198069523062,"connected_time":4115000000000,"state":"active","ping":74},{"user_id":808,"name":"Scorcho","steam_id":76561198071413833,"connected_time":1957000000000,"state":"active","ping":113},{"user_id":755,"name":"AzuriousAlex","steam_id":76561198158026405,"connected_time":6226000000000,"state":"active","ping":70},{"user_id":802,"name":"CyanPlaza","steam_id":76561198037850703,"connected_time":2473000000000,"state":"active","ping":68},{"user_id":814,"name":"DSM-IVCE","steam_id":76561199438515797,"connected_time":1312000000000,"state":"active","ping":127},{"user_id":822,"name":"cypherzero","steam_id":76561199182960322,"connected_time":1017000000000,"state":"active","ping":52},{"user_id":811,"name":"papersamurai","steam_id":76561198313608698,"connected_time":1774000000000,"state":"active","ping":74},{"user_id":817,"name":"Sereno Blackwood","steam_id":76561198150111039,"connected_time":1184000000000,"state":"active","ping":69},{"user_id":750,"name":"younggflylyfe","steam_id":76561199477357832,"connected_time":6731000000000,"state":"active","ping":39},{"user_id":821,"name":"Fat Kid","steam_id":76561198304180941,"connected_time":1073000000000,"state":"active","ping":64},{"user_id":823,"name":"Viren","steam_id":76561198012636897,"connected_time":1012000000000,"state":"active","ping":26},{"user_id":838,"name":"ＣＨＡＭＰＩＯＮ","steam_id":76561198883157736,"connected_time":358000000000,"state":"active","ping":66},{"user_id":794,"name":"Space Magic","steam_id":76561199006292310,"connected_time":2881000000000,"state":"active","ping":83},{"user_id":842,"name":"Kenku","steam_id":76561199086762926,"connected_time":252000000000,"state":"active","ping":56},{"user_id":815,"name":"peebs","steam_id":76561198261319753,"connected_time":1235000000000,"state":"active","ping":40},{"user_id":779,"name":"King","steam_id":76561198039763676,"connected_time":4067000000000,"state":"active","ping":97},{"user_id":824,"name":"caligulasAquarium","steam_id":76561198297961039,"connected_time":965000000000,"state":"active","ping":100}]},{"server_id":108,"name":"Uncletopia | Dallas | 2 | All Maps","name_short":"dal-2","host":"dal-1.us.uncletopia.com","port":27025,"enabled":true,"region":"us-central","cc":"us","latitude":32.779167,"longitude":-96.80889,"reserved":0,"last_update":"0001-01-01T00:00:00Z","name_a2s":"Uncletopia | Dallas | 2 | All Maps","protocol":17,"map":"koth_viaduct","folder":"tf","game":"Team Fortress","app_id":440,"player_count":0,"max_players":24,"Bots":0,"server_type":"Dedicated","server_os":"Linux","password":true,"vac":true,"version":"7932396","steam_id":85568392924469988,"keywords":["cp","nocrits","nodmgspread","uncletopia"],"game_id":440,"stv_port":27026,"stv_name":"Uncletopia | Dallas | 2 | All Maps | STV","players":null},{"server_id":5,"name":"Uncletopia | Frankfurt | 1 | All Maps","name_short":"frk-1","host":"frk-1.de.uncletopia.com","port":27015,"enabled":true,"region":"eu","cc":"de","latitude":50.110924,"longitude":8.682127,"reserved":0,"last_update":"0001-01-01T00:00:00Z","name_a2s":"Uncletopia | Frankfurt | 1 | All Maps","protocol":17,"map":"pl_badwater","folder":"tf","game":"Team Fortress","app_id":440,"player_count":0,"max_players":24,"Bots":0,"server_type":"Dedicated","server_os":"Linux","password":true,"vac":true,"version":"7932396","steam_id":85568392924469989,"keywords":["nocrits","nodmgspread","payload","uncletopia"],"game_id":440,"stv_port":27016,"stv_name":"Uncletopia | Frankfurt | 1 | All Maps | STV","players":null},{"server_id":110,"name":"Uncletopia | Frankfurt | 2 | All Maps","name_short":"frk-2","host":"frk-1.de.uncletopia.com","port":27025,"enabled":true,"region":"eu","cc":"de","latitude":50.110924,"longitude":8.682127,"reserved":0,"last_update":"0001-01-01T00:00:00Z","name_a2s":"Uncletopia | Frankfurt | 2 | All Maps","protocol":17,"map":"pl_borneo","folder":"tf","game":"Team Fortress","app_id":440,"player_count":0,"max_players":24,"Bots":0,"server_type":"Dedicated","server_os":"Linux","password":true,"vac":true,"version":"7932396","steam_id":85568392924469990,"keywords":["nocrits","nodmgspread","payload","uncletopia"],"game_id":440,"stv_port":27026,"stv_name":"Uncletopia | Frankfurt | 2 | All Maps | STV","players":null},{"server_id":308,"name":"Uncletopia | Frankfurt | 3 | All Maps","name_short":"frk-3","host":"frk-1.de.uncletopia.com","port":27035,"enabled":true,"region":"eu","cc":"de","latitude":50.110924,"longitude":8.682127,"reserved":0,"last_update":"0001-01-01T00:00:00Z","name_a2s":"Uncletopia | Frankfurt | 3 | All Maps","protocol":17,"map":"pl_badwater","folder":"tf","game":"Team Fortress","app_id":440,"player_count":3,"max_players":24,"Bots":0,"server_type":"Dedicated","server_os":"Linux","password":true,"vac":true,"version":"7932396","steam_id":85568392924504274,"keywords":["nocrits","nodmgspread","payload","uncletopia"],"game_id":440,"stv_port":27036,"stv_name":"Uncletopia | Frankfurt | 3 | All Maps | STV","players":[{"user_id":4,"name":"K-Kauppa","steam_id":76561198944072942,"connected_time":337000000000,"state":"active","ping":77},{"user_id":5,"name":"Ran33","steam_id":76561197991474499,"connected_time":190000000000,"state":"active","ping":93},{"user_id":6,"name":"MEOWMEOWMEOWMEOWMEOWMEOWMEOWMEO","steam_id":76561198723244199,"connected_time":16000000000,"state":"active","ping":82}]},{"server_id":309,"name":"Uncletopia | Frankfurt | 4 | All Maps","name_short":"frk-4","host":"frk-1.de.uncletopia.com","port":27045,"enabled":true,"region":"eu","cc":"de","latitude":50.110924,"longitude":8.682127,"reserved":0,"last_update":"0001-01-01T00:00:00Z","name_a2s":"Uncletopia | Frankfurt | 4 | All Maps","protocol":17,"map":"pl_barnblitz","folder":"tf","game":"Team Fortress","app_id":440,"player_count":0,"max_players":24,"Bots":0,"server_type":"Dedicated","server_os":"Linux","password":true,"vac":true,"version":"7932396","steam_id":85568392924504275,"keywords":["nocrits","nodmgspread","payload","uncletopia"],"game_id":440,"stv_port":27046,"stv_name":"Uncletopia | Frankfurt | 4 | All Maps | STV","players":null},{"server_id":310,"name":"Uncletopia | Frankfurt | 5 | All Maps","name_short":"frk-5","host":"frk-1.de.uncletopia.com","port":27055,"enabled":true,"region":"eu","cc":"de","latitude":50.110924,"longitude":8.682127,"reserved":0,"last_update":"0001-01-01T00:00:00Z","name_a2s":"Uncletopia | Frankfurt | 5 | All Maps","protocol":17,"map":"pl_badwater","folder":"tf","game":"Team Fortress","app_id":440,"player_count":0,"max_players":24,"Bots":0,"server_type":"Dedicated","server_os":"Linux","password":true,"vac":true,"version":"7932396","steam_id":85568392924504277,"keywords":["nocrits","nodmgspread","payload","uncletopia"],"game_id":440,"stv_port":27056,"stv_name":"Uncletopia | Frankfurt | 5 | All Maps | STV","players":null},{"server_id":311,"name":"Uncletopia | Frankfurt | 6 | All Maps","name_short":"frk-6","host":"frk-1.de.uncletopia.com","port":27065,"enabled":true,"region":"eu","cc":"de","latitude":50.110924,"longitude":8.682127,"reserved":0,"last_update":"0001-01-01T00:00:00Z","name_a2s":"Uncletopia | Frankfurt | 6 | All Maps","protocol":17,"map":"koth_viaduct","folder":"tf","game":"Team Fortress","app_id":440,"player_count":0,"max_players":24,"Bots":0,"server_type":"Dedicated","server_os":"Linux","password":true,"vac":true,"version":"7932396","steam_id":85568392924504278,"keywords":["cp","nocrits","nodmgspread","uncletopia"],"game_id":440,"stv_port":27066,"stv_name":"Uncletopia | Frankfurt | 6 | All Maps | STV","players":null},{"server_id":23,"name":"Uncletopia | Frankfurt | 7 | Stopwatch Beta","name_short":"frk-7","host":"frk-1.de.uncletopia.com","port":27075,"enabled":true,"region":"eu","cc":"de","latitude":50.110924,"longitude":8.682127,"reserved":0,"last_update":"0001-01-01T00:00:00Z","name_a2s":"Uncletopia | Frankfurt | 7 | Stopwatch Beta","protocol":17,"map":"pl_snowycoast","folder":"tf","game":"Team Fortress","app_id":440,"player_count":0,"max_players":24,"Bots":0,"server_type":"Dedicated","server_os":"Linux","password":true,"vac":true,"version":"7932396","steam_id":85568392924742827,"keywords":["nocrits","nodmgspread","payload","uncletopia"],"game_id":440,"stv_port":27076,"stv_name":"Uncletopia | Frankfurt | 7 | Stopwatch Beta | STV","players":null},{"server_id":24,"name":"Uncletopia | Frankfurt | 8 | Community","name_short":"frk-8","host":"frk-1.de.uncletopia.com","port":27085,"enabled":true,"region":"eu","cc":"de","latitude":50.110924,"longitude":8.682127,"reserved":0,"last_update":"0001-01-01T00:00:00Z","name_a2s":"Uncletopia | Frankfurt | 8 | Community","protocol":17,"map":"pl_barnblitz","folder":"tf","game":"Team Fortress","app_id":440,"player_count":0,"max_players":24,"Bots":0,"server_type":"Dedicated","server_os":"Linux","password":true,"vac":true,"version":"7932396","steam_id":85568392924742828,"keywords":["nocrits","nodmgspread","payload","uncletopia"],"game_id":440,"stv_port":27086,"stv_name":"Uncletopia | Frankfurt | 8 | Community | STV","players":null},{"server_id":202,"name":"Uncletopia | Hong Kong | 1 | All Maps","name_short":"hgk-1","host":"hgk-1.hk.uncletopia.com","port":27015,"enabled":true,"region":"asia","cc":"hk","latitude":22.302711,"longitude":114.177216,"reserved":0,"last_update":"0001-01-01T00:00:00Z","name_a2s":"Uncletopia | Hong Kong | 1 | All Maps","protocol":17,"map":"pl_upward","folder":"tf","game":"Team Fortress","app_id":440,"player_count":6,"max_players":24,"Bots":0,"server_type":"Dedicated","server_os":"Linux","password":true,"vac":true,"version":"7932396","steam_id":85568392924494504,"keywords":["nocrits","nodmgspread","payload","uncletopia"],"game_id":440,"stv_port":27016,"stv_name":"Uncletopia | Hong Kong | 1 | All Maps | STV","players":[{"user_id":12,"name":"hotgamerth","steam_id":76561199026418153,"connected_time":3305000000000,"state":"active","ping":102},{"user_id":13,"name":"KHMaster","steam_id":76561199198453345,"connected_time":3247000000000,"state":"active","ping":63},{"user_id":26,"name":"ketsu","steam_id":76561197966171554,"connected_time":697000000000,"state":"active","ping":121},{"user_id":29,"name":"蠢脸骑士脸不蠢","steam_id":76561198422372840,"connected_time":531000000000,"state":"active","ping":53},{"user_id":30,"name":"screaming sniper","steam_id":76561199085568674,"connected_time":307000000000,"state":"active","ping":62},{"user_id":32,"name":"TomProPlayer","steam_id":76561199223292521,"connected_time":233000000000,"state":"active","ping":67}]},{"server_id":1,"name":"Uncletopia | Los Angeles | 1 | All Maps","name_short":"lax-1","host":"lax-1.us.uncletopia.com","port":27015,"enabled":true,"region":"us-west","cc":"us","latitude":33.94279,"longitude":-118.41004,"reserved":0,"last_update":"0001-01-01T00:00:00Z","name_a2s":"Uncletopia | Los Angeles | 1 | All Maps","protocol":17,"map":"cp_sunshine","folder":"tf","game":"Team Fortress","app_id":440,"player_count":0,"max_players":24,"Bots":0,"server_type":"Dedicated","server_os":"Linux","password":true,"vac":true,"version":"7932396","steam_id":85568392924469991,"keywords":["cp","nocrits","nodmgspread","uncletopia"],"game_id":440,"stv_port":27016,"stv_name":"Uncletopia | Los Angeles | 1 | All Maps | STV","players":null},{"server_id":112,"name":"Uncletopia | Los Angeles | 2 | All Maps","name_short":"lax-2","host":"lax-1.us.uncletopia.com","port":27025,"enabled":true,"region":"us-west","cc":"us","latitude":33.94279,"longitude":-118.41004,"reserved":0,"last_update":"0001-01-01T00:00:00Z","name_a2s":"Uncletopia | Los Angeles | 2 | All Maps","protocol":17,"map":"pl_badwater","folder":"tf","game":"Team Fortress","app_id":440,"player_count":17,"max_players":24,"Bots":0,"server_type":"Dedicated","server_os":"Linux","password":true,"vac":true,"version":"7932396","steam_id":85568392924469992,"keywords":["nocrits","nodmgspread","payload","uncletopia"],"game_id":440,"stv_port":27026,"stv_name":"Uncletopia | Los Angeles | 2 | All Maps | STV","players":[{"user_id":676,"name":"Your Dinosaurs","steam_id":76561198392670237,"connected_time":698000000000,"state":"active","ping":57},{"user_id":667,"name":"nat","steam_id":76561198179923093,"connected_time":1794000000000,"state":"active","ping":40},{"user_id":678,"name":"Turrón","steam_id":76561198272381217,"connected_time":687000000000,"state":"active","ping":58},{"user_id":677,"name":"KrylonHeretic","steam_id":76561198139811459,"connected_time":696000000000,"state":"active","ping":60},{"user_id":674,"name":"Vinny Wheeler","steam_id":76561198133070640,"connected_time":779000000000,"state":"active","ping":203},{"user_id":682,"name":"elephant thumb","steam_id":76561198118859752,"connected_time":490000000000,"state":"active","ping":42},{"user_id":683,"name":"Jeremy","steam_id":76561198286240347,"connected_time":358000000000,"state":"active","ping":115},{"user_id":679,"name":"ThatOneGuy","steam_id":76561198416902755,"connected_time":683000000000,"state":"active","ping":70},{"user_id":680,"name":"KIRLSON","steam_id":76561199372227807,"connected_time":649000000000,"state":"active","ping":247},{"user_id":681,"name":"Faber","steam_id":76561198156982075,"connected_time":649000000000,"state":"active","ping":68},{"user_id":624,"name":"blobmasterer","steam_id":76561198001131403,"connected_time":6159000000000,"state":"active","ping":54},{"user_id":684,"name":"twan","steam_id":76561198170220290,"connected_time":263000000000,"state":"active","ping":44},{"user_id":657,"name":"toes","steam_id":76561198221151676,"connected_time":2690000000000,"state":"active","ping":85},{"user_id":685,"name":"NPC","steam_id":76561198104086771,"connected_time":182000000000,"state":"active","ping":46},{"user_id":686,"name":"you wouldn't get it","steam_id":76561198369227436,"connected_time":10000000000,"state":"spawning","ping":46},{"user_id":636,"name":"Literal Vampire Potbelly Goblin","steam_id":76561197970527356,"connected_time":4980000000000,"state":"active","ping":44},{"user_id":656,"name":"dubious little creature","steam_id":76561198113251746,"connected_time":2985000000000,"state":"active","ping":54}]},{"server_id":324,"name":"Uncletopia | Los Angeles | 3 | All Maps","name_short":"lax-3","host":"lax-1.us.uncletopia.com","port":27035,"enabled":true,"region":"us-west","cc":"us","latitude":33.94279,"longitude":-118.41004,"reserved":0,"last_update":"0001-01-01T00:00:00Z","name_a2s":"Uncletopia | Los Angeles | 3 | All Maps","protocol":17,"map":"cp_mountainlab","folder":"tf","game":"Team Fortress","app_id":440,"player_count":0,"max_players":24,"Bots":0,"server_type":"Dedicated","server_os":"Linux","password":true,"vac":true,"version":"7932396","steam_id":85568392924510198,"keywords":["cp","nocrits","nodmgspread","uncletopia"],"game_id":440,"stv_port":27036,"stv_name":"Uncletopia | Los Angeles | 3 | All Maps | STV","players":null},{"server_id":25,"name":"Uncletopia | Los Angeles | 4 | Stopwatch Beta","name_short":"lax-4","host":"lax-1.us.uncletopia.com","port":27045,"enabled":true,"region":"us-west","cc":"us","latitude":33.94279,"longitude":-118.41004,"reserved":0,"last_update":"0001-01-01T00:00:00Z","name_a2s":"Uncletopia | Los Angeles | 4 | Stopwatch Beta","protocol":17,"map":"cp_granary","folder":"tf","game":"Team Fortress","app_id":440,"player_count":0,"max_players":24,"Bots":0,"server_type":"Dedicated","server_os":"Linux","password":true,"vac":true,"version":"7932396","steam_id":85568392924510199,"keywords":["cp","nocrits","nodmgspread","uncletopia"],"game_id":440,"stv_port":27046,"stv_name":"Uncletopia | Los Angeles | 4 | Stopwatch Beta | STV","players":null},{"server_id":11,"name":"Uncletopia | London | 1 | All Maps","name_short":"lon-1","host":"lon-1.uk.uncletopia.com","port":27015,"enabled":true,"region":"eu","cc":"gb","latitude":51.509865,"longitude":-0.118092,"reserved":0,"last_update":"0001-01-01T00:00:00Z","name_a2s":"Uncletopia | London | 1 | All Maps","protocol":17,"map":"koth_cascade","folder":"tf","game":"Team Fortress","app_id":440,"player_count":0,"max_players":24,"Bots":0,"server_type":"Dedicated","server_os":"Linux","password":true,"vac":true,"version":"7932396","steam_id":85568392924367362,"keywords":["cp","nocrits","nodmgspread","uncletopia"],"game_id":440,"stv_port":27016,"stv_name":"Uncletopia | London | 1 | All Maps | STV","players":null},{"server_id":114,"name":"Uncletopia | London | 2 | All Maps","name_short":"lon-2","host":"lon-1.uk.uncletopia.com","port":27025,"enabled":true,"region":"eu","cc":"gb","latitude":51.509865,"longitude":-0.118092,"reserved":0,"last_update":"0001-01-01T00:00:00Z","name_a2s":"Uncletopia | London | 2 | All Maps","protocol":17,"map":"koth_highpass","folder":"tf","game":"Team Fortress","app_id":440,"player_count":0,"max_players":24,"Bots":0,"server_type":"Dedicated","server_os":"Linux","password":true,"vac":true,"version":"7932396","steam_id":85568392924470941,"keywords":["cp","nocrits","nodmgspread","uncletopia"],"game_id":440,"stv_port":27026,"stv_name":"Uncletopia | London | 2 | All Maps | STV","players":null},{"server_id":320,"name":"Uncletopia | London | 3 | All Maps","name_short":"lon-3","host":"lon-1.uk.uncletopia.com","port":27035,"enabled":true,"region":"eu","cc":"gb","latitude":51.509865,"longitude":-0.118092,"reserved":0,"last_update":"0001-01-01T00:00:00Z","name_a2s":"Uncletopia | London | 3 | All Maps","protocol":17,"map":"cp_altitude","folder":"tf","game":"Team Fortress","app_id":440,"player_count":0,"max_players":24,"Bots":0,"server_type":"Dedicated","server_os":"Linux","password":true,"vac":true,"version":"7932396","steam_id":85568392924510192,"keywords":["cp","nocrits","nodmgspread","uncletopia"],"game_id":440,"stv_port":27036,"stv_name":"Uncletopia | London | 3 | All Maps | STV","players":null},{"server_id":321,"name":"Uncletopia | London | 4 | All Maps","name_short":"lon-4","host":"lon-1.uk.uncletopia.com","port":27045,"enabled":true,"region":"eu","cc":"gb","latitude":51.509865,"longitude":-0.118092,"reserved":0,"last_update":"0001-01-01T00:00:00Z","name_a2s":"Uncletopia | London | 4 | All Maps","protocol":17,"map":"pl_pier","folder":"tf","game":"Team Fortress","app_id":440,"player_count":24,"max_players":24,"Bots":0,"server_type":"Dedicated","server_os":"Linux","password":true,"vac":true,"version":"7932396","steam_id":85568392924510193,"keywords":["nocrits","nodmgspread","payload","uncletopia"],"game_id":440,"stv_port":27046,"stv_name":"Uncletopia | London | 4 | All Maps | STV","players":[{"user_id":140,"name":"James ;)","steam_id":76561198123159605,"connected_time":1776000000000,"state":"active","ping":53},{"user_id":149,"name":"sriracha..","steam_id":76561198005560221,"connected_time":885000000000,"state":"active","ping":79},{"user_id":108,"name":"big naked bruh","steam_id":76561199179040672,"connected_time":4919000000000,"state":"active","ping":39},{"user_id":144,"name":"lofimonkeyjazz","steam_id":76561198117059662,"connected_time":1395000000000,"state":"active","ping":78},{"user_id":142,"name":"Hey, I´m Andy!","steam_id":76561198060337777,"connected_time":1505000000000,"state":"active","ping":78},{"user_id":121,"name":"Neimon","steam_id":76561198343485710,"connected_time":3091000000000,"state":"active","ping":126},{"user_id":75,"name":"levnemcev","steam_id":76561198057205970,"connected_time":6314000000000,"state":"active","ping":91},{"user_id":129,"name":"sol316","steam_id":76561198242607954,"connected_time":2814000000000,"state":"active","ping":59},{"user_id":125,"name":"Jerryx01","steam_id":76561198145236247,"connected_time":3028000000000,"state":"active","ping":72},{"user_id":117,"name":"S E X P R E S I D E N T","steam_id":76561198139714370,"connected_time":3945000000000,"state":"active","ping":64},{"user_id":147,"name":"IronHawk✨","steam_id":76561198008959448,"connected_time":1219000000000,"state":"active","ping":71},{"user_id":148,"name":"Weaponized_Battle_Toaster","steam_id":76561198285512826,"connected_time":1212000000000,"state":"active","ping":56},{"user_id":130,"name":"yeldad","steam_id":76561198447264153,"connected_time":2793000000000,"state":"active","ping":121},{"user_id":133,"name":"Cookies and Bakies","steam_id":76561198017442928,"connected_time":2238000000000,"state":"active","ping":69},{"user_id":145,"name":"Serhat","steam_id":76561198171613551,"connected_time":1260000000000,"state":"active","ping":87},{"user_id":137,"name":"Peep","steam_id":76561198132508552,"connected_time":2138000000000,"state":"active","ping":45},{"user_id":146,"name":"Dolcelatte","steam_id":76561198038501770,"connected_time":1250000000000,"state":"active","ping":65},{"user_id":153,"name":"vani","steam_id":76561197991778291,"connected_time":191000000000,"state":"active","ping":78},{"user_id":103,"name":"BONVH","steam_id":76561199080666656,"connected_time":5135000000000,"state":"active","ping":134},{"user_id":123,"name":"Jagad","steam_id":76561199468174681,"connected_time":3078000000000,"state":"active","ping":86},{"user_id":151,"name":"ムGeRmAn |×UA×ム","steam_id":76561199044754898,"connected_time":660000000000,"state":"active","ping":74},{"user_id":152,"name":"fat cսnt","steam_id":76561198845550388,"connected_time":241000000000,"state":"active","ping":101},{"user_id":136,"name":"Barak93","steam_id":76561198044585705,"connected_time":2166000000000,"state":"active","ping":53},{"user_id":114,"name":"seigfried","steam_id":76561198047260133,"connected_time":4304000000000,"state":"active","ping":73}]},{"server_id":21,"name":"Uncletopia | London | 5 | All Maps","name_short":"lon-5","host":"lon-1.uk.uncletopia.com","port":27055,"enabled":true,"region":"eu","cc":"gb","latitude":51.509865,"longitude":-0.118092,"reserved":0,"last_update":"0001-01-01T00:00:00Z","name_a2s":"Uncletopia | London | 5 | All Maps","protocol":17,"map":"pl_borneo","folder":"tf","game":"Team Fortress","app_id":440,"player_count":0,"max_players":24,"Bots":0,"server_type":"Dedicated","server_os":"Linux","password":true,"vac":true,"version":"7932396","steam_id":85568392924742829,"keywords":["nocrits","nodmgspread","payload","uncletopia"],"game_id":440,"stv_port":27056,"stv_name":"Uncletopia | London | 5 | All Maps | STV","players":null},{"server_id":22,"name":"Uncletopia | London | 6 | All Maps","name_short":"lon-6","host":"lon-1.uk.uncletopia.com","port":27065,"enabled":true,"region":"eu","cc":"gb","latitude":51.509865,"longitude":-0.118092,"reserved":0,"last_update":"0001-01-01T00:00:00Z","name_a2s":"Uncletopia | London | 6 | All Maps","protocol":17,"map":"cp_mountainlab","folder":"tf","game":"Team Fortress","app_id":440,"player_count":0,"max_players":24,"Bots":0,"server_type":"Dedicated","server_os":"Linux","password":true,"vac":true,"version":"7932396","steam_id":85568392924742830,"keywords":["cp","nocrits","nodmgspread","uncletopia"],"game_id":440,"stv_port":27066,"stv_name":"Uncletopia | London | 6 | All Maps | STV","players":null},{"server_id":40,"name":"Uncletopia | London | 7 | No Payload","name_short":"lon-7","host":"lon-1.uk.uncletopia.com","port":27075,"enabled":true,"region":"eu","cc":"gb","latitude":51.509865,"longitude":-0.118092,"reserved":0,"last_update":"0001-01-01T00:00:00Z","name_a2s":"Uncletopia | London | 7 | No Payload","protocol":17,"map":"plr_pipeline","folder":"tf","game":"Team Fortress","app_id":440,"player_count":14,"max_players":24,"Bots":0,"server_type":"Dedicated","server_os":"Linux","password":true,"vac":true,"version":"7932396","steam_id":85568392924964314,"keywords":["nocrits","nodmgspread","payload","uncletopia"],"game_id":440,"stv_port":27076,"stv_name":"Uncletopia | London | 7 | No Payload | STV","players":[{"user_id":10,"name":"Wxcx","steam_id":76561199052688020,"connected_time":422000000000,"state":"active","ping":86},{"user_id":4,"name":"cock","steam_id":76561198307522022,"connected_time":1820000000000,"state":"active","ping":50},{"user_id":5,"name":"BluNight","steam_id":76561198037116567,"connected_time":1673000000000,"state":"active","ping":196},{"user_id":14,"name":"spxcy","steam_id":76561198080296853,"connected_time":204000000000,"state":"active","ping":81},{"user_id":11,"name":"вася забив","steam_id":76561198947517753,"connected_time":386000000000,"state":"active","ping":82},{"user_id":8,"name":"󠀡󠀡","steam_id":76561198399390201,"connected_time":830000000000,"state":"active","ping":90},{"user_id":9,"name":"The Hellgineer","steam_id":76561198349622940,"connected_time":663000000000,"state":"active","ping":56},{"user_id":15,"name":"presidentialAIDS","steam_id":76561199257284077,"connected_time":191000000000,"state":"active","ping":139},{"user_id":13,"name":"[ShS18] SV","steam_id":76561199025017950,"connected_time":229000000000,"state":"active","ping":121},{"user_id":16,"name":"TheHuman","steam_id":76561198967174014,"connected_time":172000000000,"state":"active","ping":169},{"user_id":17,"name":"Hu Jie","steam_id":76561199085472085,"connected_time":147000000000,"state":"active","ping":73},{"user_id":18,"name":"Lukas","steam_id":76561198009118452,"connected_time":146000000000,"state":"active","ping":56},{"user_id":19,"name":"Yesan200","steam_id":76561199483187730,"connected_time":104000000000,"state":"active","ping":231},{"user_id":20,"name":"nemelex","steam_id":76561198958005865,"connected_time":97000000000,"state":"active","ping":46}]},{"server_id":41,"name":"Uncletopia | London | 8 | Community","name_short":"lon-8","host":"lon-1.uk.uncletopia.com","port":27085,"enabled":true,"region":"eu","cc":"gb","latitude":51.509865,"longitude":-0.118092,"reserved":0,"last_update":"0001-01-01T00:00:00Z","name_a2s":"Uncletopia | London | 8 | Community","protocol":17,"map":"pl_barnblitz","folder":"tf","game":"Team Fortress","app_id":440,"player_count":0,"max_players":24,"Bots":0,"server_type":"Dedicated","server_os":"Linux","password":true,"vac":true,"version":"7932396","steam_id":85568392924964315,"keywords":["nocrits","nodmgspread","payload","uncletopia"],"game_id":440,"stv_port":27086,"stv_name":"Uncletopia | London | 8 | Community | STV","players":null},{"server_id":300,"name":"Uncletopia | Montréal | 1 | All Maps","name_short":"mtl-1","host":"mtl-1.ca.uncletopia.com","port":27015,"enabled":true,"region":"us-east","cc":"ca","latitude":45.50889,"longitude":-73.56167,"reserved":0,"last_update":"0001-01-01T00:00:00Z","name_a2s":"Uncletopia | Montréal | 1 | All Maps","protocol":17,"map":"koth_cascade","folder":"tf","game":"Team Fortress","app_id":440,"player_count":0,"max_players":24,"Bots":0,"server_type":"Dedicated","server_os":"Linux","password":true,"vac":true,"version":"7932396","steam_id":85568392924500087,"keywords":["cp","nocrits","nodmgspread","uncletopia"],"game_id":440,"stv_port":27016,"stv_name":"Uncletopia | Montréal | 1 | All Maps | STV","players":null},{"server_id":301,"name":"Uncletopia | Montréal | 2 | All Maps","name_short":"mtl-2","host":"mtl-1.ca.uncletopia.com","port":27025,"enabled":true,"region":"us-east","cc":"ca","latitude":45.50889,"longitude":-73.56167,"reserved":0,"last_update":"0001-01-01T00:00:00Z","name_a2s":"Uncletopia | Montréal | 2 | All Maps","protocol":17,"map":"cp_altitude","folder":"tf","game":"Team Fortress","app_id":440,"player_count":0,"max_players":24,"Bots":0,"server_type":"Dedicated","server_os":"Linux","password":true,"vac":true,"version":"7932396","steam_id":85568392924500088,"keywords":["cp","nocrits","nodmgspread","uncletopia"],"game_id":440,"stv_port":27026,"stv_name":"Uncletopia | Montréal | 2 | All Maps | STV","players":null},{"server_id":302,"name":"Uncletopia | Montréal | 3 | All Maps","name_short":"mtl-3","host":"mtl-1.ca.uncletopia.com","port":27035,"enabled":true,"region":"us-east","cc":"ca","latitude":45.50889,"longitude":-73.56167,"reserved":0,"last_update":"0001-01-01T00:00:00Z","name_a2s":"Uncletopia | Montréal | 3 | All Maps","protocol":17,"map":"pl_swiftwater_final1","folder":"tf","game":"Team Fortress","app_id":440,"player_count":0,"max_players":24,"Bots":0,"server_type":"Dedicated","server_os":"Linux","password":true,"vac":true,"version":"7932396","steam_id":85568392924500089,"keywords":["nocrits","nodmgspread","payload","uncletopia"],"game_id":440,"stv_port":27036,"stv_name":"Uncletopia | Montréal | 3 | All Maps | STV","players":null},{"server_id":303,"name":"Uncletopia | Montréal | 4 | No Payload","name_short":"mtl-4","host":"mtl-1.ca.uncletopia.com","port":27045,"enabled":true,"region":"us-east","cc":"ca","latitude":45.50889,"longitude":-73.56167,"reserved":0,"last_update":"0001-01-01T00:00:00Z","name_a2s":"Uncletopia | Montréal | 4 | No Payload","protocol":17,"map":"plr_nightfall_final","folder":"tf","game":"Team Fortress","app_id":440,"player_count":0,"max_players":24,"Bots":0,"server_type":"Dedicated","server_os":"Linux","password":true,"vac":true,"version":"7932396","steam_id":85568392924500090,"keywords":["nocrits","nodmgspread","payload","uncletopia"],"game_id":440,"stv_port":27046,"stv_name":"Uncletopia | Montréal | 4 | No Payload | STV","players":null},{"server_id":13,"name":"Uncletopia | New York City | 1 | All Maps","name_short":"nyc-1","host":"nyc-1.us.uncletopia.com","port":27015,"enabled":true,"region":"us-east","cc":"us","latitude":40.73061,"longitude":-73.93524,"reserved":0,"last_update":"0001-01-01T00:00:00Z","name_a2s":"Uncletopia | New York City | 1 | All Maps","protocol":17,"map":"cp_mountainlab","folder":"tf","game":"Team Fortress","app_id":440,"player_count":0,"max_players":24,"Bots":0,"server_type":"Dedicated","server_os":"Linux","password":true,"vac":true,"version":"7932396","steam_id":85568392924469993,"keywords":["cp","nocrits","nodmgspread","uncletopia"],"game_id":440,"stv_port":27016,"stv_name":"Uncletopia | New York City | 1 | All Maps | STV","players":null},{"server_id":14,"name":"Uncletopia | New York City | 2 | All Maps","name_short":"nyc-2","host":"nyc-1.us.uncletopia.com","port":27025,"enabled":true,"region":"us-east","cc":"us","latitude":40.73061,"longitude":-73.93524,"reserved":0,"last_update":"0001-01-01T00:00:00Z","name_a2s":"Uncletopia | New York City | 2 | All Maps","protocol":17,"map":"cp_dustbowl","folder":"tf","game":"Team Fortress","app_id":440,"player_count":0,"max_players":24,"Bots":0,"server_type":"Dedicated","server_os":"Linux","password":true,"vac":true,"version":"7932396","steam_id":85568392924469994,"keywords":["cp","nocrits","nodmgspread","uncletopia"],"game_id":440,"stv_port":27026,"stv_name":"Uncletopia | New York City | 2 | All Maps | STV","players":null},{"server_id":15,"name":"Uncletopia | New York City | 3 | Stopwatch Beta","name_short":"nyc-3","host":"nyc-1.us.uncletopia.com","port":27035,"enabled":true,"region":"us-east","cc":"us","latitude":40.73061,"longitude":-73.93524,"reserved":0,"last_update":"0001-01-01T00:00:00Z","name_a2s":"Uncletopia | New York City | 3 | Stopwatch Beta","protocol":17,"map":"workshop/koth_ashville_final.ugc2130459942","folder":"tf","game":"Team Fortress","app_id":440,"player_count":0,"max_players":24,"Bots":0,"server_type":"Dedicated","server_os":"Linux","password":true,"vac":true,"version":"7932396","steam_id":85568392924742820,"keywords":["cp","nocrits","nodmgspread","uncletopia"],"game_id":440,"stv_port":27036,"stv_name":"Uncletopia | New York City | 3 | Stopwatch Beta | STV","players":null},{"server_id":16,"name":"Uncletopia | New York City | 4 | Community","name_short":"nyc-4","host":"nyc-1.us.uncletopia.com","port":27045,"enabled":true,"region":"us-east","cc":"us","latitude":40.73061,"longitude":-73.93524,"reserved":0,"last_update":"0001-01-01T00:00:00Z","name_a2s":"Uncletopia | New York City | 4 | Community","protocol":17,"map":"workshop/cp_logjam_rc12.ugc454812035","folder":"tf","game":"Team Fortress","app_id":440,"player_count":0,"max_players":24,"Bots":0,"server_type":"Dedicated","server_os":"Linux","password":true,"vac":true,"version":"7932396","steam_id":85568392924742821,"keywords":["cp","nocrits","nodmgspread","uncletopia"],"game_id":440,"stv_port":27046,"stv_name":"Uncletopia | New York City | 4 | Community | STV","players":null},{"server_id":142,"name":"Uncletopia | São Paulo | 1 | All Maps","name_short":"sao-1","host":"sao-1.br.uncletopia.com","port":27015,"enabled":true,"region":"sa","cc":"br","latitude":-23.533773,"longitude":-46.62529,"reserved":0,"last_update":"0001-01-01T00:00:00Z","name_a2s":"Uncletopia | São Paulo | 1 | All Maps","protocol":17,"map":"cp_dustbowl","folder":"tf","game":"Team Fortress","app_id":440,"player_count":0,"max_players":24,"Bots":0,"server_type":"Dedicated","server_os":"Linux","password":true,"vac":true,"version":"7932396","steam_id":85568392924469996,"keywords":["cp","nocrits","nodmgspread","uncletopia"],"game_id":440,"stv_port":27016,"stv_name":"Uncletopia | São Paulo | 1 | All Maps | STV","players":null},{"server_id":143,"name":"Uncletopia | São Paulo | 2 | All Maps","name_short":"sao-2","host":"sao-2.br.uncletopia.com","port":27015,"enabled":true,"region":"sa","cc":"br","latitude":-23.533773,"longitude":-46.62529,"reserved":0,"last_update":"0001-01-01T00:00:00Z","name_a2s":"Uncletopia | São Paulo | 2 | All Maps","protocol":17,"map":"pl_badwater","folder":"tf","game":"Team Fortress","app_id":440,"player_count":0,"max_players":24,"Bots":0,"server_type":"Dedicated","server_os":"Linux","password":true,"vac":true,"version":"7932396","steam_id":85568392924485349,"keywords":["nocrits","nodmgspread","payload","uncletopia"],"game_id":440,"stv_port":27016,"stv_name":"Uncletopia | São Paulo | 2 | All Maps | STV","players":null},{"server_id":7,"name":"Uncletopia | Seattle | 1 | All Maps","name_short":"sea-1","host":"sea-1.us.uncletopia.com","port":27015,"enabled":true,"region":"us-west","cc":"us","latitude":47.608013,"longitude":-122.33517,"reserved":0,"last_update":"0001-01-01T00:00:00Z","name_a2s":"Uncletopia | Seattle | 1 | All Maps","protocol":17,"map":"koth_harvest_final","folder":"tf","game":"Team Fortress","app_id":440,"player_count":24,"max_players":24,"Bots":0,"server_type":"Dedicated","server_os":"Linux","password":true,"vac":true,"version":"7932396","steam_id":85568392924469997,"keywords":["cp","nocrits","nodmgspread","uncletopia"],"game_id":440,"stv_port":27016,"stv_name":"Uncletopia | Seattle | 1 | All Maps | STV","players":[{"user_id":885,"name":"reiidaya","steam_id":76561198325306660,"connected_time":3471000000000,"state":"active","ping":55},{"user_id":897,"name":"gorlab","steam_id":76561198025089694,"connected_time":3111000000000,"state":"active","ping":63},{"user_id":916,"name":"Fish Lambert","steam_id":76561198098279668,"connected_time":328000000000,"state":"active","ping":102},{"user_id":913,"name":"Niney","steam_id":76561198068236772,"connected_time":589000000000,"state":"active","ping":79},{"user_id":917,"name":"sillyjack","steam_id":76561198844273999,"connected_time":108000000000,"state":"active","ping":43},{"user_id":842,"name":"Arsonist Goose","steam_id":76561198147441830,"connected_time":6563000000000,"state":"active","ping":70},{"user_id":893,"name":"saber","steam_id":76561198059041027,"connected_time":3327000000000,"state":"active","ping":56},{"user_id":781,"name":"rat gets the cheese","steam_id":76561198031234032,"connected_time":14121000000000,"state":"active","ping":91},{"user_id":886,"name":"[TrC] Nosy","steam_id":76561197978859310,"connected_time":3471000000000,"state":"active","ping":55},{"user_id":907,"name":"lil boogie","steam_id":76561198064059721,"connected_time":1430000000000,"state":"active","ping":44},{"user_id":867,"name":"Florist","steam_id":76561198009121060,"connected_time":5227000000000,"state":"active","ping":45},{"user_id":914,"name":"June","steam_id":76561198141803658,"connected_time":559000000000,"state":"active","ping":73},{"user_id":869,"name":"NEBULA","steam_id":76561198086878595,"connected_time":5112000000000,"state":"active","ping":98},{"user_id":866,"name":"Finkly","steam_id":76561198049828110,"connected_time":5446000000000,"state":"active","ping":44},{"user_id":887,"name":"delight","steam_id":76561197980280272,"connected_time":3468000000000,"state":"active","ping":47},{"user_id":909,"name":"im mr ____hed look at me","steam_id":76561198051751133,"connected_time":1101000000000,"state":"active","ping":60},{"user_id":915,"name":"roryisveryoutofit","steam_id":76561198065825165,"connected_time":517000000000,"state":"active","ping":125},{"user_id":879,"name":"tetrapyrgos","steam_id":76561198169755734,"connected_time":3755000000000,"state":"active","ping":79},{"user_id":880,"name":"mike, 2.4 GPA","steam_id":76561198225411004,"connected_time":3674000000000,"state":"active","ping":73},{"user_id":882,"name":"[TrC] Dackstrus","steam_id":76561197973518509,"connected_time":3485000000000,"state":"active","ping":59},{"user_id":906,"name":"Kaiga","steam_id":76561198044052046,"connected_time":1678000000000,"state":"active","ping":121},{"user_id":903,"name":"jorts","steam_id":76561199041179985,"connected_time":3016000000000,"state":"active","ping":53},{"user_id":870,"name":"resh","steam_id":76561198239598834,"connected_time":5112000000000,"state":"active","ping":135},{"user_id":876,"name":"Yesmar","steam_id":76561198236328806,"connected_time":4048000000000,"state":"active","ping":119}]},{"server_id":119,"name":"Uncletopia | Seattle | 2 | All Maps","name_short":"sea-2","host":"sea-1.us.uncletopia.com","port":27025,"enabled":true,"region":"us-west","cc":"us","latitude":47.608013,"longitude":-122.33517,"reserved":0,"last_update":"0001-01-01T00:00:00Z","name_a2s":"Uncletopia | Seattle | 2 | All Maps","protocol":17,"map":"koth_viaduct","folder":"tf","game":"Team Fortress","app_id":440,"player_count":0,"max_players":24,"Bots":0,"server_type":"Dedicated","server_os":"Linux","password":true,"vac":true,"version":"7932396","steam_id":85568392924469998,"keywords":["cp","nocrits","nodmgspread","uncletopia"],"game_id":440,"stv_port":27026,"stv_name":"Uncletopia | Seattle | 2 | All Maps | STV","players":null},{"server_id":406,"name":"Uncletopia | Seattle | 3 | Stopwatch Beta","name_short":"sea-3","host":"sea-1.us.uncletopia.com","port":27035,"enabled":true,"region":"us-west","cc":"us","latitude":47.608013,"longitude":-122.33517,"reserved":0,"last_update":"0001-01-01T00:00:00Z","name_a2s":"Uncletopia | Seattle | 3 | Stopwatch Beta","protocol":17,"map":"pl_borneo","folder":"tf","game":"Team Fortress","app_id":440,"player_count":0,"max_players":24,"Bots":0,"server_type":"Dedicated","server_os":"Linux","password":true,"vac":true,"version":"7932396","steam_id":85568392924515217,"keywords":["nocrits","nodmgspread","payload","uncletopia"],"game_id":440,"stv_port":27036,"stv_name":"Uncletopia | Seattle | 3 | Stopwatch Beta | STV","players":null},{"server_id":17,"name":"Uncletopia | San Francisco | 1 | All Maps","name_short":"sfo-1","host":"sfo-1.us.uncletopia.com","port":27015,"enabled":true,"region":"us-west","cc":"us","latitude":37.77397,"longitude":-122.4313,"reserved":0,"last_update":"0001-01-01T00:00:00Z","name_a2s":"Uncletopia | San Francisco | 1 | All Maps","protocol":17,"map":"cp_process_final","folder":"tf","game":"Team Fortress","app_id":440,"player_count":0,"max_players":24,"Bots":0,"server_type":"Dedicated","server_os":"Linux","password":true,"vac":true,"version":"7932396","steam_id":85568392924469999,"keywords":["cp","nocrits","nodmgspread","uncletopia"],"game_id":440,"stv_port":27016,"stv_name":"Uncletopia | San Francisco | 1 | All Maps | STV","players":null},{"server_id":18,"name":"Uncletopia | San Francisco | 2 | All Maps","name_short":"sfo-2","host":"sfo-1.us.uncletopia.com","port":27025,"enabled":true,"region":"us-west","cc":"us","latitude":37.77397,"longitude":-122.4313,"reserved":0,"last_update":"0001-01-01T00:00:00Z","name_a2s":"Uncletopia | San Francisco | 2 | All Maps","protocol":17,"map":"cp_process_final","folder":"tf","game":"Team Fortress","app_id":440,"player_count":22,"max_players":24,"Bots":0,"server_type":"Dedicated","server_os":"Linux","password":true,"vac":true,"version":"7932396","steam_id":85568392924470000,"keywords":["cp","nocrits","nodmgspread","uncletopia"],"game_id":440,"stv_port":27026,"stv_name":"Uncletopia | San Francisco | 2 | All Maps | STV","players":[{"user_id":399,"name":"Thunderchief","steam_id":76561198022802780,"connected_time":561000000000,"state":"active","ping":69},{"user_id":394,"name":"fruit brute fiend","steam_id":76561198811500361,"connected_time":732000000000,"state":"active","ping":60},{"user_id":350,"name":"FI LO","steam_id":76561198976530881,"connected_time":3163000000000,"state":"active","ping":41},{"user_id":374,"name":"Tanner The Fish Man","steam_id":76561198372696640,"connected_time":2282000000000,"state":"active","ping":66},{"user_id":397,"name":"advent","steam_id":76561198136475311,"connected_time":691000000000,"state":"active","ping":101},{"user_id":402,"name":"Meatful Wonder","steam_id":76561198109238749,"connected_time":192000000000,"state":"active","ping":55},{"user_id":390,"name":"Oh No! It's Twister!","steam_id":76561198016791916,"connected_time":1017000000000,"state":"active","ping":90},{"user_id":385,"name":"Ewan","steam_id":76561198817585729,"connected_time":1491000000000,"state":"active","ping":98},{"user_id":377,"name":"Trips","steam_id":76561198054581597,"connected_time":1856000000000,"state":"active","ping":40},{"user_id":358,"name":"smeasly","steam_id":76561198028718812,"connected_time":2916000000000,"state":"active","ping":61},{"user_id":401,"name":"☂Bliffenstimmers☂","steam_id":76561198059984896,"connected_time":394000000000,"state":"active","ping":104},{"user_id":403,"name":"oil","steam_id":76561198099980149,"connected_time":80000000000,"state":"active","ping":50},{"user_id":360,"name":"Mozz","steam_id":76561198132892873,"connected_time":2832000000000,"state":"active","ping":71},{"user_id":404,"name":"himbomccree","steam_id":76561198373330850,"connected_time":17000000000,"state":"active","ping":61},{"user_id":382,"name":"The true 2fort prince","steam_id":76561198067153390,"connected_time":1711000000000,"state":"active","ping":113},{"user_id":375,"name":"Rumi_killer","steam_id":76561198077439866,"connected_time":2161000000000,"state":"active","ping":71},{"user_id":384,"name":"Space360","steam_id":76561198106743284,"connected_time":1590000000000,"state":"active","ping":72},{"user_id":332,"name":"rock gaming","steam_id":76561199402868311,"connected_time":4421000000000,"state":"active","ping":71},{"user_id":283,"name":"Defeat","steam_id":76561198065203818,"connected_time":7489000000000,"state":"active","ping":60},{"user_id":395,"name":"SneekiCheekiQbone","steam_id":76561198045077980,"connected_time":724000000000,"state":"active","ping":54},{"user_id":396,"name":"floofy","steam_id":76561198389769098,"connected_time":721000000000,"state":"active","ping":112},{"user_id":392,"name":"Jango","steam_id":76561198121922413,"connected_time":787000000000,"state":"active","ping":51}]},{"server_id":19,"name":"Uncletopia | San Francisco | 3 | Stopwatch Beta","name_short":"sfo-3","host":"sfo-1.us.uncletopia.com","port":27035,"enabled":true,"region":"us-west","cc":"us","latitude":37.77397,"longitude":-122.4313,"reserved":0,"last_update":"0001-01-01T00:00:00Z","name_a2s":"Uncletopia | San Francisco | 3 | Stopwatch Beta","protocol":17,"map":"workshop/koth_product_final.ugc454272353","folder":"tf","game":"Team Fortress","app_id":440,"player_count":0,"max_players":24,"Bots":0,"server_type":"Dedicated","server_os":"Linux","password":true,"vac":true,"version":"7932396","steam_id":85568392924742824,"keywords":["cp","nocrits","nodmgspread","uncletopia"],"game_id":440,"stv_port":27036,"stv_name":"Uncletopia | San Francisco | 3 | Stopwatch Beta | STV","players":null},{"server_id":20,"name":"Uncletopia | San Francisco | 4 | Community","name_short":"sfo-4","host":"sfo-1.us.uncletopia.com","port":27045,"enabled":true,"region":"us-west","cc":"us","latitude":37.77397,"longitude":-122.4313,"reserved":0,"last_update":"0001-01-01T00:00:00Z","name_a2s":"Uncletopia | San Francisco | 4 | Community","protocol":17,"map":"workshop/koth_kemptown_rc1.ugc767410655","folder":"tf","game":"Team Fortress","app_id":440,"player_count":0,"max_players":24,"Bots":0,"server_type":"Dedicated","server_os":"Linux","password":true,"vac":true,"version":"7932396","steam_id":85568392924742826,"keywords":["cp","nocrits","nodmgspread","uncletopia"],"game_id":440,"stv_port":27046,"stv_name":"Uncletopia | San Francisco | 4 | Community | STV","players":null},{"server_id":141,"name":"Uncletopia | Sydney | 1 | All Maps","name_short":"syd-1","host":"syd-1.au.uncletopia.com","port":27015,"enabled":true,"region":"au","cc":"au","latitude":-33.865143,"longitude":151.2099,"reserved":0,"last_update":"0001-01-01T00:00:00Z","name_a2s":"Uncletopia | Sydney | 1 | All Maps","protocol":17,"map":"pl_swiftwater_final1","folder":"tf","game":"Team Fortress","app_id":440,"player_count":24,"max_players":24,"Bots":0,"server_type":"Dedicated","server_os":"Linux","password":true,"vac":true,"version":"7932396","steam_id":85568392924470001,"keywords":["nocrits","nodmgspread","payload","uncletopia"],"game_id":440,"stv_port":27016,"stv_name":"Uncletopia | Sydney | 1 | All Maps | STV","players":[{"user_id":181,"name":"Jacob","steam_id":76561198059341907,"connected_time":1132000000000,"state":"active","ping":37},{"user_id":185,"name":"Chum_Sock","steam_id":76561198315285049,"connected_time":842000000000,"state":"active","ping":45},{"user_id":145,"name":"Rodan","steam_id":76561198038401873,"connected_time":4019000000000,"state":"active","ping":84},{"user_id":193,"name":"Dave","steam_id":76561197994203216,"connected_time":81000000000,"state":"active","ping":60},{"user_id":197,"name":"ibus","steam_id":76561199026701614,"connected_time":51000000000,"state":"active","ping":58},{"user_id":173,"name":"THE VERMINATOR","steam_id":76561198131507981,"connected_time":1392000000000,"state":"active","ping":97},{"user_id":192,"name":"colyboi123","steam_id":76561199182552486,"connected_time":83000000000,"state":"connecting","ping":77},{"user_id":182,"name":"Paul Hollywood","steam_id":76561198060024585,"connected_time":995000000000,"state":"active","ping":33},{"user_id":140,"name":"BigLadBoyga","steam_id":76561198985263763,"connected_time":4806000000000,"state":"active","ping":76},{"user_id":157,"name":"lynx","steam_id":76561198940833932,"connected_time":3072000000000,"state":"active","ping":88},{"user_id":198,"name":"42","steam_id":76561198184593855,"connected_time":49000000000,"state":"active","ping":46},{"user_id":175,"name":"Ash!","steam_id":76561198042067688,"connected_time":1376000000000,"state":"active","ping":101},{"user_id":199,"name":"green dot","steam_id":76561198254802111,"connected_time":49000000000,"state":"active","ping":57},{"user_id":188,"name":"Team Fartress Poo","steam_id":76561198139598106,"connected_time":549000000000,"state":"active","ping":59},{"user_id":195,"name":"Blazey 伊達 政宗","steam_id":76561197971082275,"connected_time":75000000000,"state":"active","ping":161},{"user_id":200,"name":"michael","steam_id":76561198052848358,"connected_time":26000000000,"state":"active","ping":71},{"user_id":120,"name":"horrid webbon ᘛ⁐̤ᕐᐷ","steam_id":76561198061998379,"connected_time":6726000000000,"state":"active","ping":43},{"user_id":196,"name":"SassnCheeky","steam_id":76561197993875592,"connected_time":75000000000,"state":"active","ping":60},{"user_id":162,"name":"Toaster Lad","steam_id":76561199070168033,"connected_time":2494000000000,"state":"active","ping":73},{"user_id":166,"name":"theory haver","steam_id":76561198133867907,"connected_time":2265000000000,"state":"active","ping":80},{"user_id":132,"name":"Fleetfoot","steam_id":76561198072845816,"connected_time":5196000000000,"state":"active","ping":58},{"user_id":189,"name":"zoom :)","steam_id":76561199162390876,"connected_time":495000000000,"state":"active","ping":162},{"user_id":180,"name":"payn.","steam_id":76561199277321828,"connected_time":1204000000000,"state":"active","ping":64},{"user_id":191,"name":"stroob","steam_id":76561198045320644,"connected_time":196000000000,"state":"active","ping":60}]},{"server_id":123,"name":"Uncletopia | Sydney | 2 | All Maps","name_short":"syd-2","host":"syd-1.au.uncletopia.com","port":27025,"enabled":true,"region":"au","cc":"au","latitude":-33.865143,"longitude":151.2099,"reserved":0,"last_update":"0001-01-01T00:00:00Z","name_a2s":"Uncletopia | Sydney | 2 | All Maps","protocol":17,"map":"koth_highpass","folder":"tf","game":"Team Fortress","app_id":440,"player_count":0,"max_players":24,"Bots":0,"server_type":"Dedicated","server_os":"Linux","password":true,"vac":true,"version":"7932396","steam_id":85568392924470002,"keywords":["cp","nocrits","nodmgspread","uncletopia"],"game_id":440,"stv_port":27026,"stv_name":"Uncletopia | Sydney | 2 | All Maps | STV","players":null},{"server_id":395,"name":"Uncletopia | Sydney | 3 | All Maps","name_short":"syd-3","host":"syd-1.au.uncletopia.com","port":27035,"enabled":true,"region":"au","cc":"au","latitude":-33.865143,"longitude":151.2099,"reserved":0,"last_update":"0001-01-01T00:00:00Z","name_a2s":"Uncletopia | Sydney | 3 | All Maps","protocol":17,"map":"cp_mountainlab","folder":"tf","game":"Team Fortress","app_id":440,"player_count":3,"max_players":24,"Bots":0,"server_type":"Dedicated","server_os":"Linux","password":true,"vac":true,"version":"7932396","steam_id":85568392925194467,"keywords":["cp","nocrits","nodmgspread","uncletopia"],"game_id":440,"stv_port":27036,"stv_name":"Uncletopia | Sydney | 3 | All Maps | STV","players":[{"user_id":31,"name":"Adiospotato","steam_id":76561198092176047,"connected_time":148000000000,"state":"active","ping":48},{"user_id":32,"name":"using a laptop","steam_id":76561199445302425,"connected_time":134000000000,"state":"active","ping":152},{"user_id":33,"name":"Synless","steam_id":76561198132782161,"connected_time":4000000000,"state":"spawning","ping":43}]},{"server_id":396,"name":"Uncletopia | Sydney | 4 | All Maps","name_short":"syd-4","host":"syd-1.au.uncletopia.com","port":27045,"enabled":true,"region":"au","cc":"au","latitude":-33.865143,"longitude":151.2099,"reserved":0,"last_update":"0001-01-01T00:00:00Z","name_a2s":"Uncletopia | Sydney | 4 | All Maps","protocol":17,"map":"pl_frontier_final","folder":"tf","game":"Team Fortress","app_id":440,"player_count":0,"max_players":24,"Bots":0,"server_type":"Dedicated","server_os":"Linux","password":true,"vac":true,"version":"7932396","steam_id":85568392925397958,"keywords":["nocrits","nodmgspread","payload","uncletopia"],"game_id":440,"stv_port":27046,"stv_name":"Uncletopia | Sydney | 4 | All Maps | STV","players":null},{"server_id":58,"name":"Uncletopia | Sydney | 5 | Stopwatch Beta","name_short":"syd-5","host":"syd-1.au.uncletopia.com","port":27055,"enabled":true,"region":"au","cc":"au","latitude":-33.865143,"longitude":151.2099,"reserved":0,"last_update":"0001-01-01T00:00:00Z","name_a2s":"Uncletopia | Sydney | 5 | Stopwatch Beta","protocol":17,"map":"pl_borneo","folder":"tf","game":"Team Fortress","app_id":440,"player_count":0,"max_players":24,"Bots":0,"server_type":"Dedicated","server_os":"Linux","password":true,"vac":true,"version":"7932396","steam_id":85568392925397959,"keywords":["nocrits","nodmgspread","payload","uncletopia"],"game_id":440,"stv_port":27056,"stv_name":"Uncletopia | Sydney | 5 | Stopwatch Beta | STV","players":null},{"server_id":59,"name":"Uncletopia | Sydney | 6 | Community","name_short":"syd-6","host":"syd-1.au.uncletopia.com","port":27065,"enabled":true,"region":"au","cc":"au","latitude":-33.865143,"longitude":151.2099,"reserved":0,"last_update":"0001-01-01T00:00:00Z","name_a2s":"Uncletopia | Sydney | 6 | Community","protocol":17,"map":"workshop/cp_glacier_rc6.ugc2905735376","folder":"tf","game":"Team Fortress","app_id":440,"player_count":0,"max_players":24,"Bots":0,"server_type":"Dedicated","server_os":"Linux","password":true,"vac":true,"version":"7932396","steam_id":85568392925397960,"keywords":["cp","nocrits","nodmgspread","uncletopia"],"game_id":440,"stv_port":27066,"stv_name":"Uncletopia | Sydney | 6 | Community | STV","players":null},{"server_id":49,"name":"Uncletopia | Warsaw | 1 | All Maps","name_short":"waw-1","host":"waw-1.pl.uncletopia.com","port":27015,"enabled":true,"region":"eu","cc":"pl","latitude":52.2297,"longitude":21.017532,"reserved":0,"last_update":"0001-01-01T00:00:00Z","name_a2s":"","protocol":0,"map":"","folder":"","game":"","app_id":0,"player_count":0,"max_players":0,"Bots":0,"server_type":"","server_os":"","password":false,"vac":false,"version":"","steam_id":0,"keywords":null,"game_id":0,"stv_port":0,"stv_name":"","players":null},{"server_id":50,"name":"Uncletopia | Warsaw | 2 | All Maps","name_short":"waw-2","host":"waw-1.pl.uncletopia.com","port":27025,"enabled":true,"region":"eu","cc":"pl","latitude":52.2297,"longitude":21.017532,"reserved":0,"last_update":"0001-01-01T00:00:00Z","name_a2s":"Uncletopia | Warsaw | 2 | All Maps","protocol":17,"map":"pl_badwater","folder":"tf","game":"Team Fortress","app_id":440,"player_count":0,"max_players":24,"Bots":0,"server_type":"Dedicated","server_os":"Linux","password":true,"vac":true,"version":"7932396","steam_id":85568392925397851,"keywords":["nocrits","nodmgspread","payload","uncletopia"],"game_id":440,"stv_port":27026,"stv_name":"Uncletopia | Warsaw | 2 | All Maps | STV","players":null},{"server_id":51,"name":"Uncletopia | Warsaw | 3 | All Maps","name_short":"waw-3","host":"waw-1.pl.uncletopia.com","port":27035,"enabled":true,"region":"eu","cc":"pl","latitude":52.2297,"longitude":21.017532,"reserved":0,"last_update":"0001-01-01T00:00:00Z","name_a2s":"Uncletopia | Warsaw | 3 | All Maps","protocol":17,"map":"koth_lakeside_final","folder":"tf","game":"Team Fortress","app_id":440,"player_count":0,"max_players":24,"Bots":0,"server_type":"Dedicated","server_os":"Linux","password":true,"vac":true,"version":"7932396","steam_id":85568392925397852,"keywords":["cp","nocrits","nodmgspread","uncletopia"],"game_id":440,"stv_port":27036,"stv_name":"Uncletopia | Warsaw | 3 | All Maps | STV","players":null},{"server_id":52,"name":"Uncletopia | Warsaw | 4 | All Maps","name_short":"waw-4","host":"waw-1.pl.uncletopia.com","port":27045,"enabled":true,"region":"eu","cc":"pl","latitude":52.2297,"longitude":21.017532,"reserved":0,"last_update":"0001-01-01T00:00:00Z","name_a2s":"Uncletopia | Warsaw | 4 | All Maps","protocol":17,"map":"pl_swiftwater_final1","folder":"tf","game":"Team Fortress","app_id":440,"player_count":0,"max_players":24,"Bots":0,"server_type":"Dedicated","server_os":"Linux","password":true,"vac":true,"version":"7932396","steam_id":85568392925397853,"keywords":["nocrits","nodmgspread","payload","uncletopia"],"game_id":440,"stv_port":27046,"stv_name":"Uncletopia | Warsaw | 4 | All Maps | STV","players":null},{"server_id":53,"name":"Uncletopia | Warsaw | 5 | Stopwatch Beta","name_short":"waw-5","host":"waw-1.pl.uncletopia.com","port":27055,"enabled":true,"region":"eu","cc":"pl","latitude":52.2297,"longitude":21.017532,"reserved":0,"last_update":"0001-01-01T00:00:00Z","name_a2s":"Uncletopia | Warsaw | 5 | Stopwatch Beta","protocol":17,"map":"koth_highpass","folder":"tf","game":"Team Fortress","app_id":440,"player_count":0,"max_players":24,"Bots":0,"server_type":"Dedicated","server_os":"Linux","password":true,"vac":true,"version":"7932396","steam_id":85568392925397854,"keywords":["cp","nocrits","nodmgspread","uncletopia"],"game_id":440,"stv_port":27056,"stv_name":"Uncletopia | Warsaw | 5 | Stopwatch Beta | STV","players":null},{"server_id":54,"name":"Uncletopia | Warsaw | 6 | Community","name_short":"waw-6","host":"waw-1.pl.uncletopia.com","port":27065,"enabled":true,"region":"eu","cc":"pl","latitude":52.2297,"longitude":21.017532,"reserved":0,"last_update":"0001-01-01T00:00:00Z","name_a2s":"Uncletopia | Warsaw | 6 | Community","protocol":17,"map":"pl_upward","folder":"tf","game":"Team Fortress","app_id":440,"player_count":0,"max_players":24,"Bots":0,"server_type":"Dedicated","server_os":"Linux","password":true,"vac":true,"version":"7932396","steam_id":85568392925397856,"keywords":["nocrits","nodmgspread","payload","uncletopia"],"game_id":440,"stv_port":27066,"stv_name":"Uncletopia | Warsaw | 6 | Community | STV","players":null}]}