{"status":true,"message":"","result":[{"server_id":9,"name":"Uncletopia | Atlanta | 1 | All Maps","name_short":"atl-1","host":"atl-1.us.uncletopia.com","port":27015,"enabled":true,"region":"us-east","cc":"us","latitude":33.753746,"longitude":-84.38633,"reserved":0,"last_update":"0001-01-01T00:00:00Z","name_a2s":"Uncletopia | Atlanta | 1 | All Maps","protocol":17,"map":"cp_dustbowl","folder":"tf","game":"Team Fortress","app_id":440,"player_count":0,"max_players":24,"Bots":0,"server_type":"Dedicated","server_os":"Linux","password":true,"vac":true,"version":"7757534","steam_id":85568392924469982,"keywords":["cp","nocrits","nodmgspread","uncletopia"],"game_id":440,"stv_port":27016,"stv_name":"Uncletopia | Atlanta | 1 | All Maps | STV","players":null},{"server_id":400,"name":"Uncletopia | Atlanta | 3 | Stopwatch Beta","name_short":"atl-3","host":"atl-1.us.uncletopia.com","port":27035,"enabled":true,"region":"us-east","cc":"us","latitude":33.753746,"longitude":-84.38633,"reserved":0,"last_update":"0001-01-01T00:00:00Z","name_a2s":"Uncletopia | Atlanta | 3 | Stopwatch Beta","protocol":17,"map":"pl_upward","folder":"tf","game":"Team Fortress","app_id":440,"player_count":0,"max_players":24,"Bots":0,"server_type":"Dedicated","server_os":"Linux","password":true,"vac":true,"version":"7757534","steam_id":85568392924515187,"keywords":["nocrits","nodmgspread","payload","uncletopia"],"game_id":440,"stv_port":27036,"stv_name":"Uncletopia | Atlanta | 3 | Stopwatch Beta | STV","players":null},{"server_id":401,"name":"Uncletopia | Atlanta | 4 | No Payload","name_short":"atl-4","host":"atl-1.us.uncletopia.com","port":27045,"enabled":true,"region":"us-east","cc":"us","latitude":33.753746,"longitude":-84.38633,"reserved":0,"last_update":"0001-01-01T00:00:00Z","name_a2s":"Uncletopia | Atlanta | 4 | No Payload","protocol":17,"map":"pl_pier","folder":"tf","game":"Team Fortress","app_id":440,"player_count":0,"max_players":24,"Bots":0,"server_type":"Dedicated","server_os":"Linux","password":true,"vac":true,"version":"7723704","steam_id":85568392924515188,"keywords":["nocrits","nodmgspread","payload","uncletopia"],"game_id":440,"stv_port":27046,"stv_name":"Uncletopia | Atlanta | 4 | No Payload | STV","players":null},{"server_id":2,"name":"Uncletopia | Chicago | 1 | All Maps","name_short":"chi-1","host":"chi-1.us.uncletopia.com","port":27015,"enabled":true,"region":"us-central","cc":"us","latitude":41.881832,"longitude":-87.62318,"reserved":0,"last_update":"0001-01-01T00:00:00Z","name_a2s":"Uncletopia | Chicago | 1 | All Maps","protocol":17,"map":"pl_upward","folder":"tf","game":"Team Fortress","app_id":440,"player_count":8,"max_players":24,"Bots":0,"server_type":"Dedicated","server_os":"Linux","password":true,"vac":true,"version":"7757534","steam_id":85568392924469984,"keywords":["nocrits","nodmgspread","payload","uncletopia"],"game_id":440,"stv_port":27016,"stv_name":"Uncletopia | Chicago | 1 | All Maps | STV","players":[{"user_id":1145,"name":"yoink","steam_id":76561198154003766,"connected_time":5198000000000,"state":"active","ping":82},{"user_id":1146,"name":"Nominal The Dingus","steam_id":76561198355194661,"connected_time":5040000000000,"state":"active","ping":112},{"user_id":1153,"name":"seggsgaymin","steam_id":76561199470392968,"connected_time":1273000000000,"state":"active","ping":77},{"user_id":1156,"name":"Huey","steam_id":76561198972816386,"connected_time":527000000000,"state":"active","ping":75},{"user_id":1151,"name":"The Silly Banana #SaveTF2","steam_id":76561199238728842,"connected_time":1353000000000,"state":"active","ping":60},{"user_id":1157,"name":"Sweetie","steam_id":76561198806688369,"connected_time":509000000000,"state":"active","ping":77},{"user_id":1158,"name":"BluDiamynt","steam_id":76561198894231340,"connected_time":314000000000,"state":"active","ping":155},{"user_id":1159,"name":"Landrow","steam_id":76561199156068210,"connected_time":304000000000,"state":"active","ping":107}]},{"server_id":106,"name":"Uncletopia | Chicago | 2 | All Maps","name_short":"chi-2","host":"chi-1.us.uncletopia.com","port":27025,"enabled":true,"region":"us-central","cc":"us","latitude":41.881832,"longitude":-87.62318,"reserved":0,"last_update":"0001-01-01T00:00:00Z","name_a2s":"Uncletopia | Chicago | 2 | All Maps","protocol":17,"map":"cp_yukon_final","folder":"tf","game":"Team Fortress","app_id":440,"player_count":0,"max_players":24,"Bots":0,"server_type":"Dedicated","server_os":"Linux","password":true,"vac":true,"version":"7757534","steam_id":85568392924469985,"keywords":["cp","nocrits","nodmgspread","uncletopia"],"game_id":440,"stv_port":27026,"stv_name":"Uncletopia | Chicago | 2 | All Maps | STV","players":null},{"server_id":402,"name":"Uncletopia | Chicago | 3 | All Maps","name_short":"chi-3","host":"chi-1.us.uncletopia.com","port":27035,"enabled":true,"region":"us-central","cc":"us","latitude":41.881832,"longitude":-87.62318,"reserved":0,"last_update":"0001-01-01T00:00:00Z","name_a2s":"Uncletopia | Chicago | 3 | All Maps","protocol":17,"map":"cp_snakewater_final1","folder":"tf","game":"Team Fortress","app_id":440,"player_count":0,"max_players":24,"Bots":0,"server_type":"Dedicated","server_os":"Linux","password":true,"vac":true,"version":"7757534","steam_id":85568392924515191,"keywords":["cp","nocrits","nodmgspread","uncletopia"],"game_id":440,"stv_port":27036,"stv_name":"Uncletopia | Chicago | 3 | All Maps | STV","players":null},{"server_id":403,"name":"Uncletopia | Chicago | 4 | All Maps","name_short":"chi-4","host":"chi-1.us.uncletopia.com","port":27045,"enabled":true,"region":"us-central","cc":"us","latitude":41.881832,"longitude":-87.62318,"reserved":0,"last_update":"0001-01-01T00:00:00Z","name_a2s":"Uncletopia | Chicago | 4 | All Maps","protocol":17,"map":"cp_powerhouse","folder":"tf","game":"Team Fortress","app_id":440,"player_count":23,"max_players":24,"Bots":0,"server_type":"Dedicated","server_os":"Linux","password":true,"vac":true,"version":"7757534","steam_id":85568392924515193,"keywords":["cp","nocrits","nodmgspread","uncletopia"],"game_id":440,"stv_port":27046,"stv_name":"Uncletopia | Chicago | 4 | All Maps | STV","players":[{"user_id":1002,"name":"Hifumi Togo","steam_id":76561198074930636,"connected_time":415000000000,"state":"active","ping":45},{"user_id":987,"name":"Arrythmia","steam_id":76561198093748123,"connected_time":834000000000,"state":"active","ping":107},{"user_id":999,"name":"puffy","steam_id":76561198411347037,"connected_time":489000000000,"state":"active","ping":73},{"user_id":989,"name":"seats","steam_id":76561197998756039,"connected_time":770000000000,"state":"active","ping":95},{"user_id":952,"name":"White Noiz","steam_id":76561198116408865,"connected_time":3170000000000,"state":"active","ping":68},{"user_id":946,"name":"Harold Chaplin","steam_id":76561198036730227,"connected_time":3688000000000,"state":"active","ping":78},{"user_id":979,"name":"Chamomile Tea","steam_id":76561198156746320,"connected_time":1528000000000,"state":"active","ping":43},{"user_id":963,"name":"aaaace","steam_id":76561198128093659,"connected_time":2702000000000,"state":"active","ping":96},{"user_id":984,"name":"Antknee","steam_id":76561198263793809,"connected_time":998000000000,"state":"active","ping":88},{"user_id":964,"name":"Tenori","steam_id":76561198046773795,"connected_time":2682000000000,"state":"active","ping":71},{"user_id":982,"name":"Stranger Danger","steam_id":76561198115242460,"connected_time":1009000000000,"state":"active","ping":91},{"user_id":916,"name":"Sirius","steam_id":76561198031295225,"connected_time":6229000000000,"state":"active","ping":46},{"user_id":994,"name":"exer","steam_id":76561197973093864,"connected_time":597000000000,"state":"active","ping":60},{"user_id":969,"name":"the meat man","steam_id":76561198037921140,"connected_time":2492000000000,"state":"active","ping":91},{"user_id":996,"name":"Zati","steam_id":76561198054192454,"connected_time":573000000000,"state":"active","ping":72},{"user_id":914,"name":"HTA","steam_id":76561198043879140,"connected_time":6279000000000,"state":"active","ping":47},{"user_id":954,"name":"badboy6996","steam_id":76561197969386201,"connected_time":3127000000000,"state":"active","ping":58},{"user_id":977,"name":"Red","steam_id":76561198051557567,"connected_time":1855000000000,"state":"active","ping":71},{"user_id":959,"name":"IKISSYOURWIFEWTONGUE #WEWRESTLE","steam_id":76561198144766439,"connected_time":3109000000000,"state":"active","ping":44},{"user_id":993,"name":"loser","steam_id":76561198132182386,"connected_time":646000000000,"state":"active","ping":122},{"user_id":958,"name":"yomommasabitch","steam_id":76561198323217150,"connected_time":3121000000000,"state":"active","ping":61},{"user_id":980,"name":"[NoMic]SUPERJARATEMONKEYDEATHCA","steam_id":76561197971492734,"connected_time":1424000000000,"state":"active","ping":66},{"user_id":905,"name":"Dwaggy","steam_id":76561198027369555,"connected_time":6521000000000,"state":"active","ping":71}]},{"server_id":36,"name":"Uncletopia | Chicago | 5 | All Maps","name_short":"chi-5","host":"chi-2.us.uncletopia.com","port":27015,"enabled":true,"region":"us-central","cc":"us","latitude":41.881832,"longitude":-87.62318,"reserved":0,"last_update":"0001-01-01T00:00:00Z","name_a2s":"Uncletopia | Chicago | 5 | All Maps","protocol":17,"map":"koth_viaduct","folder":"tf","game":"Team Fortress","app_id":440,"player_count":0,"max_players":24,"Bots":0,"server_type":"Dedicated","server_os":"Linux","password":true,"vac":true,"version":"7757534","steam_id":85568392924866362,"keywords":["cp","nocrits","nodmgspread","uncletopia"],"game_id":440,"stv_port":27016,"stv_name":"Uncletopia | Chicago | 5 | All Maps | STV","players":null},{"server_id":37,"name":"Uncletopia | Chicago | 6 | All Maps","name_short":"chi-6","host":"chi-2.us.uncletopia.com","port":27025,"enabled":true,"region":"us-central","cc":"us","latitude":41.881832,"longitude":-87.62318,"reserved":0,"last_update":"0001-01-01T00:00:00Z","name_a2s":"Uncletopia | Chicago | 6 | All Maps","protocol":17,"map":"koth_cascade","folder":"tf","game":"Team Fortress","app_id":440,"player_count":0,"max_players":24,"Bots":0,"server_type":"Dedicated","server_os":"Linux","password":true,"vac":true,"version":"7757534","steam_id":85568392924866363,"keywords":["cp","nocrits","nodmgspread","uncletopia"],"game_id":440,"stv_port":27026,"stv_name":"Uncletopia | Chicago | 6 | All Maps | STV","players":null},{"server_id":38,"name":"Uncletopia | Chicago | 7 | Stopwatch Beta","name_short":"chi-7","host":"chi-2.us.uncletopia.com","port":27035,"enabled":true,"region":"us-central","cc":"us","latitude":41.881832,"longitude":-87.62318,"reserved":0,"last_update":"0001-01-01T00:00:00Z","name_a2s":"Uncletopia | Chicago | 7 | Stopwatch Beta","protocol":17,"map":"workshop/koth_product_final.ugc454272353","folder":"tf","game":"Team Fortress","app_id":440,"player_count":0,"max_players":24,"Bots":0,"server_type":"Dedicated","server_os":"Linux","password":true,"vac":true,"version":"7757534","steam_id":85568392924866364,"keywords":["cp","nocrits","nodmgspread","uncletopia"],"game_id":440,"stv_port":27036,"stv_name":"Uncletopia | Chicago | 7 | Stopwatch Beta | STV","players":null},{"server_id":39,"name":"Uncletopia | Chicago | 8 | Community","name_short":"chi-8","host":"chi-2.us.uncletopia.com","port":27045,"enabled":true,"region":"us-central","cc":"us","latitude":41.881832,"longitude":-87.62318,"reserved":0,"last_update":"0001-01-01T00:00:00Z","name_a2s":"Uncletopia | Chicago | 8 | Community","protocol":17,"map":"workshop/koth_ramjam_rc1.ugc459778887","folder":"tf","game":"Team Fortress","app_id":440,"player_count":0,"max_players":24,"Bots":0,"server_type":"Dedicated","server_os":"Linux","password":true,"vac":true,"version":"7757534","steam_id":85568392924866365,"keywords":["cp","nocrits","nodmgspread","uncletopia"],"game_id":440,"stv_port":27046,"stv_name":"Uncletopia | Chicago | 8 | Community | STV","players":null},{"server_id":8,"name":"Uncletopia | Dallas | 1 | All Maps","name_short":"dal-1","host":"dal-1.us.uncletopia.com","port":27015,"enabled":true,"region":"us-central","cc":"us","latitude":32.779167,"longitude":-96.80889,"reserved":0,"last_update":"0001-01-01T00:00:00Z","name_a2s":"Uncletopia | Dallas | 1 | All Maps","protocol":17,"map":"pl_swiftwater_final1","folder":"tf","game":"Team Fortress","app_id":440,"player_count":1,"max_players":24,"Bots":0,"server_type":"Dedicated","server_os":"Linux","password":true,"vac":true,"version":"7757534","steam_id":85568392924469986,"keywords":["nocrits","nodmgspread","payload","uncletopia"],"game_id":440,"stv_port":27016,"stv_name":"Uncletopia | Dallas | 1 | All Maps | STV","players":[{"user_id":1025,"name":"SOULDOG","steam_id":76561199212057006,"connected_time":660000000000,"state":"active","ping":185}]},{"server_id":108,"name":"Uncletopia | Dallas | 2 | All Maps","name_short":"dal-2","host":"dal-1.us.uncletopia.com","port":27025,"enabled":true,"region":"us-central","cc":"us","latitude":32.779167,"longitude":-96.80889,"reserved":0,"last_update":"0001-01-01T00:00:00Z","name_a2s":"Uncletopia | Dallas | 2 | All Maps","protocol":17,"map":"koth_highpass","folder":"tf","game":"Team Fortress","app_id":440,"player_count":0,"max_players":24,"Bots":0,"server_type":"Dedicated","server_os":"Linux","password":true,"vac":true,"version":"7757534","steam_id":85568392924469988,"keywords":["cp","nocrits","nodmgspread","uncletopia"],"game_id":440,"stv_port":27026,"stv_name":"Uncletopia | Dallas | 2 | All Maps | STV","players":null},{"server_id":5,"name":"Uncletopia | Frankfurt | 1 | All Maps","name_short":"frk-1","host":"frk-1.de.uncletopia.com","port":27015,"enabled":true,"region":"eu","cc":"de","latitude":50.110924,"longitude":8.682127,"reserved":0,"last_update":"0001-01-01T00:00:00Z","name_a2s":"Uncletopia | Frankfurt | 1 | All Maps","protocol":17,"map":"pl_badwater","folder":"tf","game":"Team Fortress","app_id":440,"player_count":23,"max_players":24,"Bots":0,"server_type":"Dedicated","server_os":"Linux","password":true,"vac":true,"version":"7757534","steam_id":85568392924469989,"keywords":["nocrits","nodmgspread","payload","uncletopia"],"game_id":440,"stv_port":27016,"stv_name":"Uncletopia | Frankfurt | 1 | All Maps | STV","players":[{"user_id":6,"name":"TheShadowScribe","steam_id":76561199037525945,"connected_time":6126000000000,"state":"active","ping":94},{"user_id":49,"name":"walluu","steam_id":76561198121830870,"connected_time":2716000000000,"state":"active","ping":64},{"user_id":52,"name":"barry","steam_id":76561198324316160,"connected_time":2295000000000,"state":"active","ping":65},{"user_id":30,"name":"Kolanciasty ♥","steam_id":76561198020042179,"connected_time":4341000000000,"state":"active","ping":80},{"user_id":72,"name":"theo von","steam_id":76561198125381319,"connected_time":952000000000,"state":"active","ping":86},{"user_id":46,"name":"Gunto","steam_id":76561199046992205,"connected_time":2903000000000,"state":"active","ping":60},{"user_id":67,"name":"Sniperhood (ultra bob)","steam_id":76561198102001335,"connected_time":1205000000000,"state":"active","ping":63},{"user_id":14,"name":"Dolcelatte","steam_id":76561198038501770,"connected_time":4796000000000,"state":"active","ping":49},{"user_id":45,"name":"makin' piss","steam_id":76561198052136478,"connected_time":2961000000000,"state":"active","ping":62},{"user_id":81,"name":"KeNNy L.O.L","steam_id":76561198041918418,"connected_time":44000000000,"state":"active","ping":90},{"user_id":71,"name":"Bunny popper","steam_id":76561198884484783,"connected_time":1091000000000,"state":"active","ping":146},{"user_id":50,"name":"Competitive racist","steam_id":76561198110470565,"connected_time":2691000000000,"state":"active","ping":96},{"user_id":80,"name":"sergey476a","steam_id":76561199468609800,"connected_time":47000000000,"state":"active","ping":82},{"user_id":58,"name":"DeleteTrickster","steam_id":76561198397120242,"connected_time":1410000000000,"state":"active","ping":80},{"user_id":74,"name":"CosminSL","steam_id":76561198055827684,"connected_time":793000000000,"state":"active","ping":77},{"user_id":28,"name":"ballfondl#05","steam_id":76561199165355017,"connected_time":4363000000000,"state":"active","ping":106},{"user_id":61,"name":"VEH-DEH-VEH","steam_id":76561198010978989,"connected_time":1335000000000,"state":"active","ping":66},{"user_id":31,"name":"trocamust","steam_id":76561198128348941,"connected_time":4317000000000,"state":"active","ping":72},{"user_id":78,"name":"1couver","steam_id":76561198168553215,"connected_time":84000000000,"state":"active","ping":94},{"user_id":79,"name":"Redish_Colour","steam_id":76561199045242691,"connected_time":58000000000,"state":"active","ping":133},{"user_id":66,"name":"Fizzing Fool","steam_id":76561198425415033,"connected_time":1217000000000,"state":"active","ping":98},{"user_id":76,"name":"Carrot","steam_id":76561198119340863,"connected_time":491000000000,"state":"active","ping":49},{"user_id":41,"name":"テイルス","steam_id":76561198022403271,"connected_time":3640000000000,"state":"active","ping":45}]},{"server_id":110,"name":"Uncletopia | Frankfurt | 2 | All Maps","name_short":"frk-2","host":"frk-1.de.uncletopia.com","port":27025,"enabled":true,"region":"eu","cc":"de","latitude":50.110924,"longitude":8.682127,"reserved":0,"last_update":"0001-01-01T00:00:00Z","name_a2s":"Uncletopia | Frankfurt | 2 | All Maps","protocol":17,"map":"cp_mountainlab","folder":"tf","game":"Team Fortress","app_id":440,"player_count":0,"max_players":24,"Bots":0,"server_type":"Dedicated","server_os":"Linux","password":true,"vac":true,"version":"7757534","steam_id":85568392924469990,"keywords":["cp","nocrits","nodmgspread","uncletopia"],"game_id":440,"stv_port":27026,"stv_name":"Uncletopia | Frankfurt | 2 | All Maps | STV","players":null},{"server_id":308,"name":"Uncletopia | Frankfurt | 3 | All Maps","name_short":"frk-3","host":"frk-1.de.uncletopia.com","port":27035,"enabled":true,"region":"eu","cc":"de","latitude":50.110924,"longitude":8.682127,"reserved":0,"last_update":"0001-01-01T00:00:00Z","name_a2s":"Uncletopia | Frankfurt | 3 | All Maps","protocol":17,"map":"pl_barnblitz","folder":"tf","game":"Team Fortress","app_id":440,"player_count":24,"max_players":24,"Bots":0,"server_type":"Dedicated","server_os":"Linux","password":true,"vac":true,"version":"7757534","steam_id":85568392924504274,"keywords":["nocrits","nodmgspread","payload","uncletopia"],"game_id":440,"stv_port":27036,"stv_name":"Uncletopia | Frankfurt | 3 | All Maps | STV","players":[{"user_id":139,"name":"HeroldBaum","steam_id":76561198063420715,"connected_time":3476000000000,"state":"active","ping":45},{"user_id":165,"name":"john fortress","steam_id":76561198013237629,"connected_time":1856000000000,"state":"active","ping":96},{"user_id":131,"name":"dotdotdot","steam_id":76561198057628751,"connected_time":4056000000000,"state":"active","ping":60},{"user_id":130,"name":"Menty","steam_id":76561198036748212,"connected_time":4059000000000,"state":"active","ping":48},{"user_id":177,"name":"Dictatorial Karelian","steam_id":76561198196736457,"connected_time":170000000000,"state":"active","ping":76},{"user_id":147,"name":"tkpantol","steam_id":76561198069505723,"connected_time":2843000000000,"state":"active","ping":78},{"user_id":178,"name":"Na'vi Misato (by popular demand","steam_id":76561198130860698,"connected_time":156000000000,"state":"active","ping":68},{"user_id":179,"name":"Tramuntana","steam_id":76561198241843480,"connected_time":150000000000,"state":"active","ping":89},{"user_id":140,"name":"papa smurf","steam_id":76561198881752406,"connected_time":3317000000000,"state":"active","ping":50},{"user_id":180,"name":"toust","steam_id":76561199103417422,"connected_time":138000000000,"state":"active","ping":52},{"user_id":151,"name":"Ljubansky","steam_id":76561198012948059,"connected_time":2711000000000,"state":"active","ping":51},{"user_id":181,"name":"The 4th Doctor","steam_id":76561198191516706,"connected_time":119000000000,"state":"active","ping":59},{"user_id":182,"name":"live bait","steam_id":76561198324048855,"connected_time":119000000000,"state":"active","ping":63},{"user_id":135,"name":"иван","steam_id":76561198072730591,"connected_time":4039000000000,"state":"active","ping":62},{"user_id":175,"name":"Нікітрон","steam_id":76561198044401080,"connected_time":435000000000,"state":"active","ping":63},{"user_id":183,"name":"Ward","steam_id":76561198001500324,"connected_time":93000000000,"state":"active","ping":100},{"user_id":168,"name":"r0la","steam_id":76561198128315340,"connected_time":1091000000000,"state":"active","ping":88},{"user_id":173,"name":"BSantos57","steam_id":76561198000597094,"connected_time":467000000000,"state":"active","ping":87},{"user_id":171,"name":"Malok","steam_id":76561198371117880,"connected_time":519000000000,"state":"active","ping":59},{"user_id":166,"name":"SpeddyMeddy","steam_id":76561197999693825,"connected_time":1852000000000,"state":"active","ping":69},{"user_id":174,"name":"Uncle Henk","steam_id":76561198067863614,"connected_time":453000000000,"state":"active","ping":74},{"user_id":118,"name":"Umbro","steam_id":76561198087930438,"connected_time":5108000000000,"state":"active","ping":75},{"user_id":169,"name":"Vezage","steam_id":76561198064916164,"connected_time":814000000000,"state":"active","ping":75},{"user_id":162,"name":"bleak autumn night","steam_id":76561198142183478,"connected_time":2227000000000,"state":"active","ping":83}]},{"server_id":309,"name":"Uncletopia | Frankfurt | 4 | All Maps","name_short":"frk-4","host":"frk-1.de.uncletopia.com","port":27045,"enabled":true,"region":"eu","cc":"de","latitude":50.110924,"longitude":8.682127,"reserved":0,"last_update":"0001-01-01T00:00:00Z","name_a2s":"Uncletopia | Frankfurt | 4 | All Maps","protocol":17,"map":"koth_viaduct","folder":"tf","game":"Team Fortress","app_id":440,"player_count":12,"max_players":24,"Bots":0,"server_type":"Dedicated","server_os":"Linux","password":true,"vac":true,"version":"7757534","steam_id":85568392924504275,"keywords":["cp","nocrits","nodmgspread","uncletopia"],"game_id":440,"stv_port":27046,"stv_name":"Uncletopia | Frankfurt | 4 | All Maps | STV","players":[{"user_id":8,"name":"Mozzaza","steam_id":76561198156316111,"connected_time":844000000000,"state":"active","ping":140},{"user_id":11,"name":"gwhqБv}Ёdtfb·ЁwebХ","steam_id":76561198401523966,"connected_time":640000000000,"state":"active","ping":82},{"user_id":9,"name":"lvl. 50 honkler","steam_id":76561198061688660,"connected_time":818000000000,"state":"active","ping":94},{"user_id":19,"name":"ZeeZer0","steam_id":76561198043828441,"connected_time":88000000000,"state":"active","ping":32},{"user_id":13,"name":"lisivi","steam_id":76561198365503306,"connected_time":600000000000,"state":"active","ping":54},{"user_id":14,"name":"Silva_mlon","steam_id":76561199310242047,"connected_time":300000000000,"state":"active","ping":70},{"user_id":15,"name":"Mrakan","steam_id":76561199239780769,"connected_time":251000000000,"state":"active","ping":58},{"user_id":16,"name":"Pan Pan","steam_id":76561199074670515,"connected_time":235000000000,"state":"active","ping":88},{"user_id":17,"name":"T1 (ted1)","steam_id":76561199229022826,"connected_time":227000000000,"state":"active","ping":104},{"user_id":20,"name":"giankodinos","steam_id":76561199274213321,"connected_time":87000000000,"state":"active","ping":83},{"user_id":21,"name":"PABOOLo.gonzalez31@hotmail.com","steam_id":76561198123475157,"connected_time":50000000000,"state":"active","ping":72},{"user_id":22,"name":"Acucutl","steam_id":76561198133867096,"connected_time":5000000000,"state":"spawning","ping":100}]},{"server_id":310,"name":"Uncletopia | Frankfurt | 5 | All Maps","name_short":"frk-5","host":"frk-1.de.uncletopia.com","port":27055,"enabled":true,"region":"eu","cc":"de","latitude":50.110924,"longitude":8.682127,"reserved":0,"last_update":"0001-01-01T00:00:00Z","name_a2s":"Uncletopia | Frankfurt | 5 | All Maps","protocol":17,"map":"pl_frontier_final","folder":"tf","game":"Team Fortress","app_id":440,"player_count":0,"max_players":24,"Bots":0,"server_type":"Dedicated","server_os":"Linux","password":true,"vac":true,"version":"7757534","steam_id":85568392924504277,"keywords":["nocrits","nodmgspread","payload","uncletopia"],"game_id":440,"stv_port":27056,"stv_name":"Uncletopia | Frankfurt | 5 | All Maps | STV","players":null},{"server_id":311,"name":"Uncletopia | Frankfurt | 6 | All Maps","name_short":"frk-6","host":"frk-1.de.uncletopia.com","port":27065,"enabled":true,"region":"eu","cc":"de","latitude":50.110924,"longitude":8.682127,"reserved":0,"last_update":"0001-01-01T00:00:00Z","name_a2s":"Uncletopia | Frankfurt | 6 | All Maps","protocol":17,"map":"koth_highpass","folder":"tf","game":"Team Fortress","app_id":440,"player_count":0,"max_players":24,"Bots":0,"server_type":"Dedicated","server_os":"Linux","password":true,"vac":true,"version":"7757534","steam_id":85568392924504278,"keywords":["cp","nocrits","nodmgspread","uncletopia"],"game_id":440,"stv_port":27066,"stv_name":"Uncletopia | Frankfurt | 6 | All Maps | STV","players":null},{"server_id":23,"name":"Uncletopia | Frankfurt | 7 | Stopwatch Beta","name_short":"frk-7","host":"frk-1.de.uncletopia.com","port":27075,"enabled":true,"region":"eu","cc":"de","latitude":50.110924,"longitude":8.682127,"reserved":0,"last_update":"0001-01-01T00:00:00Z","name_a2s":"Uncletopia | Frankfurt | 7 | Stopwatch Beta","protocol":17,"map":"workshop/koth_ramjam_rc1.ugc459778887","folder":"tf","game":"Team Fortress","app_id":440,"player_count":0,"max_players":24,"Bots":0,"server_type":"Dedicated","server_os":"Linux","password":true,"vac":true,"version":"7757534","steam_id":85568392924742827,"keywords":["cp","nocrits","nodmgspread","uncletopia"],"game_id":440,"stv_port":27076,"stv_name":"Uncletopia | Frankfurt | 7 | Stopwatch Beta | STV","players":null},{"server_id":24,"name":"Uncletopia | Frankfurt | 8 | Community","name_short":"frk-8","host":"frk-1.de.uncletopia.com","port":27085,"enabled":true,"region":"eu","cc":"de","latitude":50.110924,"longitude":8.682127,"reserved":0,"last_update":"0001-01-01T00:00:00Z","name_a2s":"Uncletopia | Frankfurt | 8 | Community","protocol":17,"map":"workshop/koth_product_final.ugc454272353","folder":"tf","game":"Team Fortress","app_id":440,"player_count":24,"max_players":24,"Bots":0,"server_type":"Dedicated","server_os":"Linux","password":true,"vac":true,"version":"7757534","steam_id":85568392924742828,"keywords":["cp","nocrits","nodmgspread","uncletopia"],"game_id":440,"stv_port":27086,"stv_name":"Uncletopia | Frankfurt | 8 | Community | STV","players":[{"user_id":3,"name":"Tazerann","steam_id":76561198043743881,"connected_time":6872000000000,"state":"active","ping":38},{"user_id":40,"name":"engineer drip","steam_id":76561198991032570,"connected_time":2891000000000,"state":"active","ping":76},{"user_id":103,"name":"Maximus","steam_id":76561198032472655,"connected_time":20000000000,"state":"spawning","ping":124},{"user_id":74,"name":"ShiftingMind","steam_id":76561198448975127,"connected_time":1109000000000,"state":"active","ping":92},{"user_id":85,"name":"Prinz Eugen","steam_id":76561198129154766,"connected_time":921000000000,"state":"active","ping":67},{"user_id":66,"name":"Kick","steam_id":76561199203510604,"connected_time":1330000000000,"state":"active","ping":161},{"user_id":92,"name":"zaleek69","steam_id":76561198058877595,"connected_time":482000000000,"state":"active","ping":65},{"user_id":21,"name":"fried","steam_id":76561198307522022,"connected_time":3374000000000,"state":"active","ping":48},{"user_id":100,"name":"banana peel","steam_id":76561198129704959,"connected_time":263000000000,"state":"active","ping":123},{"user_id":80,"name":"mrgthemedic935","steam_id":76561199160156787,"connected_time":975000000000,"state":"active","ping":79},{"user_id":93,"name":"Reomk","steam_id":76561198309314129,"connected_time":474000000000,"state":"active","ping":71},{"user_id":23,"name":"silicon based life form","steam_id":76561199127121346,"connected_time":3348000000000,"state":"active","ping":68},{"user_id":30,"name":"Lengard","steam_id":76561198094189180,"connected_time":3120000000000,"state":"active","ping":94},{"user_id":94,"name":"niaerniopawrjnko","steam_id":76561198030408772,"connected_time":467000000000,"state":"active","ping":54},{"user_id":95,"name":"kotamine","steam_id":76561198068907991,"connected_time":443000000000,"state":"active","ping":62},{"user_id":101,"name":"hud_saytext_time 0","steam_id":76561198010327228,"connected_time":193000000000,"state":"active","ping":50},{"user_id":82,"name":"Strand","steam_id":76561198190078749,"connected_time":962000000000,"state":"active","ping":78},{"user_id":55,"name":"frey`","steam_id":76561197971548290,"connected_time":2209000000000,"state":"active","ping":74},{"user_id":90,"name":"yoppuś :3","steam_id":76561198983189584,"connected_time":595000000000,"state":"active","ping":89},{"user_id":97,"name":"dafydd","steam_id":76561198052200325,"connected_time":419000000000,"state":"active","ping":75},{"user_id":98,"name":"dumass","steam_id":76561198427311326,"connected_time":409000000000,"state":"active","ping":75},{"user_id":99,"name":"DOME","steam_id":76561198085155381,"connected_time":341000000000,"state":"active","ping":72},{"user_id":87,"name":"-[FF]- EnglishB0t2.9","steam_id":76561199013600280,"connected_time":759000000000,"state":"active","ping":72},{"user_id":46,"name":"CrabboStabbo","steam_id":76561198105660937,"connected_time":2751000000000,"state":"active","ping":70}]},{"server_id":202,"name":"Uncletopia | Hong Kong | 1 | All Maps","name_short":"hgk-1","host":"hgk-1.hk.uncletopia.com","port":27015,"enabled":true,"region":"asia","cc":"hk","latitude":22.302711,"longitude":114.177216,"reserved":0,"last_update":"0001-01-01T00:00:00Z","name_a2s":"Uncletopia | Hong Kong | 1 | All Maps","protocol":17,"map":"pl_upward","folder":"tf","game":"Team Fortress","app_id":440,"player_count":24,"max_players":24,"Bots":0,"server_type":"Dedicated","server_os":"Linux","password":true,"vac":true,"version":"7757534","steam_id":85568392924494504,"keywords":["nocrits","nodmgspread","payload","uncletopia"],"game_id":440,"stv_port":27016,"stv_name":"Uncletopia | Hong Kong | 1 | All Maps | STV","players":[{"user_id":428,"name":"screaming sniper","steam_id":76561199085568674,"connected_time":3978000000000,"state":"active","ping":72},{"user_id":504,"name":"shiko-","steam_id":76561198026340247,"connected_time":847000000000,"state":"active","ping":76},{"user_id":451,"name":"Tember","steam_id":76561198369809493,"connected_time":3270000000000,"state":"active","ping":109},{"user_id":446,"name":"Sedna","steam_id":76561198120797504,"connected_time":3318000000000,"state":"active","ping":80},{"user_id":499,"name":"Milk❤ (UT's Moaner)","steam_id":76561198163911560,"connected_time":1525000000000,"state":"active","ping":163},{"user_id":498,"name":"Boo","steam_id":76561198200955590,"connected_time":1603000000000,"state":"active","ping":78},{"user_id":513,"name":"Grind","steam_id":76561198129263849,"connected_time":613000000000,"state":"active","ping":84},{"user_id":507,"name":"Cipher(#savetf2)","steam_id":76561198796591492,"connected_time":673000000000,"state":"active","ping":107},{"user_id":512,"name":"Akash","steam_id":76561198066517317,"connected_time":644000000000,"state":"active","ping":126},{"user_id":463,"name":"Leroy","steam_id":76561199137927625,"connected_time":2556000000000,"state":"active","ping":95},{"user_id":516,"name":"Old Friend","steam_id":76561198203073201,"connected_time":371000000000,"state":"active","ping":75},{"user_id":517,"name":"timmy.1366","steam_id":76561199065433547,"connected_time":83000000000,"state":"active","ping":74},{"user_id":455,"name":"David Keithson","steam_id":76561199279393636,"connected_time":3107000000000,"state":"active","ping":73},{"user_id":438,"name":"o₭do.?","steam_id":76561199051874278,"connected_time":3565000000000,"state":"active","ping":96},{"user_id":444,"name":"熱Cocoa","steam_id":76561198972098557,"connected_time":3381000000000,"state":"active","ping":50},{"user_id":462,"name":"Mr.Fredrickson","steam_id":76561198321091424,"connected_time":2619000000000,"state":"active","ping":136},{"user_id":360,"name":"ilikefarts69#caberOP","steam_id":76561199262750178,"connected_time":8346000000000,"state":"active","ping":173},{"user_id":453,"name":"yw","steam_id":76561199382726488,"connected_time":3187000000000,"state":"active","ping":51},{"user_id":503,"name":"Lym0n","steam_id":76561199192420260,"connected_time":945000000000,"state":"active","ping":107},{"user_id":510,"name":"Bonjour","steam_id":76561198966418452,"connected_time":667000000000,"state":"active","ping":99},{"user_id":468,"name":"one of the players","steam_id":76561198442507642,"connected_time":2316000000000,"state":"active","ping":90},{"user_id":395,"name":"ObscuroLucem","steam_id":76561198875037943,"connected_time":6770000000000,"state":"active","ping":85},{"user_id":460,"name":"MR. T","steam_id":76561198847421088,"connected_time":2881000000000,"state":"active","ping":146},{"user_id":501,"name":"corpse_cadaver","steam_id":76561199225360457,"connected_time":1135000000000,"state":"active","ping":79}]},{"server_id":1,"name":"Uncletopia | Los Angeles | 1 | All Maps","name_short":"lax-1","host":"lax-1.us.uncletopia.com","port":27015,"enabled":true,"region":"us-west","cc":"us","latitude":33.94279,"longitude":-118.41004,"reserved":0,"last_update":"0001-01-01T00:00:00Z","name_a2s":"Uncletopia | Los Angeles | 1 | All Maps","protocol":17,"map":"koth_cascade","folder":"tf","game":"Team Fortress","app_id":440,"player_count":0,"max_players":24,"Bots":0,"server_type":"Dedicated","server_os":"Linux","password":true,"vac":true,"version":"7757534","steam_id":85568392924469991,"keywords":["cp","nocrits","nodmgspread","uncletopia"],"game_id":440,"stv_port":27016,"stv_name":"Uncletopia | Los Angeles | 1 | All Maps | STV","players":null},{"server_id":112,"name":"Uncletopia | Los Angeles | 2 | All Maps","name_short":"lax-2","host":"lax-1.us.uncletopia.com","port":27025,"enabled":true,"region":"us-west","cc":"us","latitude":33.94279,"longitude":-118.41004,"reserved":0,"last_update":"0001-01-01T00:00:00Z","name_a2s":"Uncletopia | Los Angeles | 2 | All Maps","protocol":17,"map":"koth_highpass","folder":"tf","game":"Team Fortress","app_id":440,"player_count":0,"max_players":24,"Bots":0,"server_type":"Dedicated","server_os":"Linux","password":true,"vac":true,"version":"7757534","steam_id":85568392924469992,"keywords":["cp","nocrits","nodmgspread","uncletopia"],"game_id":440,"stv_port":27026,"stv_name":"Uncletopia | Los Angeles | 2 | All Maps | STV","players":null},{"server_id":324,"name":"Uncletopia | Los Angeles | 3 | All Maps","name_short":"lax-3","host":"lax-1.us.uncletopia.com","port":27035,"enabled":true,"region":"us-west","cc":"us","latitude":33.94279,"longitude":-118.41004,"reserved":0,"last_update":"0001-01-01T00:00:00Z","name_a2s":"Uncletopia | Los Angeles | 3 | All Maps","protocol":17,"map":"cp_sunshine","folder":"tf","game":"Team Fortress","app_id":440,"player_count":0,"max_players":24,"Bots":0,"server_type":"Dedicated","server_os":"Linux","password":true,"vac":true,"version":"7757534","steam_id":85568392924510198,"keywords":["cp","nocrits","nodmgspread","uncletopia"],"game_id":440,"stv_port":27036,"stv_name":"Uncletopia | Los Angeles | 3 | All Maps | STV","players":null},{"server_id":25,"name":"Uncletopia | Los Angeles | 4 | Stopwatch Beta","name_short":"lax-4","host":"lax-1.us.uncletopia.com","port":27045,"enabled":true,"region":"us-west","cc":"us","latitude":33.94279,"longitude":-118.41004,"reserved":0,"last_update":"0001-01-01T00:00:00Z","name_a2s":"Uncletopia | Los Angeles | 4 | Stopwatch Beta","protocol":17,"map":"workshop/pl_barnblitz_pro7.ugc582280235","folder":"tf","game":"Team Fortress","app_id":440,"player_count":0,"max_players":24,"Bots":0,"server_type":"Dedicated","server_os":"Linux","password":true,"vac":true,"version":"7757534","steam_id":85568392924510199,"keywords":["nocrits","nodmgspread","payload","uncletopia"],"game_id":440,"stv_port":27046,"stv_name":"Uncletopia | Los Angeles | 4 | Stopwatch Beta | STV","players":null},{"server_id":11,"name":"Uncletopia | London | 1 | All Maps","name_short":"lon-1","host":"lon-1.uk.uncletopia.com","port":27015,"enabled":true,"region":"eu","cc":"gb","latitude":51.509865,"longitude":-0.118092,"reserved":0,"last_update":"0001-01-01T00:00:00Z","name_a2s":"Uncletopia | London | 1 | All Maps","protocol":17,"map":"koth_highpass","folder":"tf","game":"Team Fortress","app_id":440,"player_count":3,"max_players":24,"Bots":0,"server_type":"Dedicated","server_os":"Linux","password":true,"vac":true,"version":"7757534","steam_id":85568392924367362,"keywords":["cp","nocrits","nodmgspread","uncletopia"],"game_id":440,"stv_port":27016,"stv_name":"Uncletopia | London | 1 | All Maps | STV","players":[{"user_id":13,"name":"JOHN GAMING (based)","steam_id":76561199085822219,"connected_time":697000000000,"state":"active","ping":83},{"user_id":14,"name":"Fbafroguy","steam_id":76561199113010473,"connected_time":392000000000,"state":"active","ping":71},{"user_id":15,"name":"CouchPotato","steam_id":76561198849369915,"connected_time":178000000000,"state":"active","ping":54}]},{"server_id":114,"name":"Uncletopia | London | 2 | All Maps","name_short":"lon-2","host":"lon-1.uk.uncletopia.com","port":27025,"enabled":true,"region":"eu","cc":"gb","latitude":51.509865,"longitude":-0.118092,"reserved":0,"last_update":"0001-01-01T00:00:00Z","name_a2s":"Uncletopia | London | 2 | All Maps","protocol":17,"map":"pl_upward","folder":"tf","game":"Team Fortress","app_id":440,"player_count":24,"max_players":24,"Bots":0,"server_type":"Dedicated","server_os":"Linux","password":true,"vac":true,"version":"7757534","steam_id":85568392924470941,"keywords":["nocrits","nodmgspread","payload","uncletopia"],"game_id":440,"stv_port":27026,"stv_name":"Uncletopia | London | 2 | All Maps | STV","players":[{"user_id":174,"name":"gamerweed5","steam_id":76561198087651151,"connected_time":5319000000000,"state":"active","ping":39},{"user_id":232,"name":"Ze","steam_id":76561198314901652,"connected_time":67000000000,"state":"active","ping":67},{"user_id":197,"name":"r/sonofelicenellafece","steam_id":76561198262231733,"connected_time":2975000000000,"state":"active","ping":75},{"user_id":192,"name":":)","steam_id":76561199169459145,"connected_time":3382000000000,"state":"active","ping":95},{"user_id":216,"name":"contor","steam_id":76561198288536977,"connected_time":1880000000000,"state":"active","ping":60},{"user_id":191,"name":"ALARM","steam_id":76561198120686521,"connected_time":3402000000000,"state":"active","ping":66},{"user_id":164,"name":"Miczu555PL","steam_id":76561198058500895,"connected_time":6297000000000,"state":"active","ping":65},{"user_id":176,"name":"Pancakes","steam_id":76561198196259989,"connected_time":4953000000000,"state":"active","ping":44},{"user_id":236,"name":"patrlim","steam_id":76561198342454144,"connected_time":37000000000,"state":"active","ping":84},{"user_id":231,"name":"!x3","steam_id":76561198103285012,"connected_time":290000000000,"state":"active","ping":45},{"user_id":225,"name":"Videogamer","steam_id":76561198106012909,"connected_time":1209000000000,"state":"active","ping":72},{"user_id":219,"name":"cazzoneporcodio","steam_id":76561198337994909,"connected_time":1645000000000,"state":"active","ping":75},{"user_id":222,"name":"[GIB] Soap [tera.gg]","steam_id":76561198306534578,"connected_time":1418000000000,"state":"spawning","ping":86},{"user_id":230,"name":"player","steam_id":76561198054474684,"connected_time":504000000000,"state":"active","ping":84},{"user_id":228,"name":"woosh (poopy joe)","steam_id":76561198061127604,"connected_time":980000000000,"state":"active","ping":41},{"user_id":233,"name":"Mandele","steam_id":76561199183213205,"connected_time":62000000000,"state":"active","ping":95},{"user_id":234,"name":"Bread 0f Box","steam_id":76561198165594721,"connected_time":53000000000,"state":"active","ping":55},{"user_id":218,"name":"Orochi","steam_id":76561198265192382,"connected_time":1678000000000,"state":"active","ping":68},{"user_id":138,"name":"Pastoss","steam_id":76561198379098260,"connected_time":8064000000000,"state":"active","ping":61},{"user_id":194,"name":"Mad Cat Kivima","steam_id":76561198028959678,"connected_time":3323000000000,"state":"active","ping":92},{"user_id":229,"name":"BELADIT","steam_id":76561198011911501,"connected_time":839000000000,"state":"active","ping":75},{"user_id":221,"name":"desu!","steam_id":76561198052878585,"connected_time":1504000000000,"state":"active","ping":125},{"user_id":235,"name":"tenenbaum_2","steam_id":76561198075723636,"connected_time":52000000000,"state":"connecting","ping":44},{"user_id":224,"name":"naleksi","steam_id":76561198018391055,"connected_time":1260000000000,"state":"active","ping":99}]},{"server_id":320,"name":"Uncletopia | London | 3 | All Maps","name_short":"lon-3","host":"lon-1.uk.uncletopia.com","port":27035,"enabled":true,"region":"eu","cc":"gb","latitude":51.509865,"longitude":-0.118092,"reserved":0,"last_update":"0001-01-01T00:00:00Z","name_a2s":"Uncletopia | London | 3 | All Maps","protocol":17,"map":"cp_mountainlab","folder":"tf","game":"Team Fortress","app_id":440,"player_count":0,"max_players":24,"Bots":0,"server_type":"Dedicated","server_os":"Linux","password":true,"vac":true,"version":"7757534","steam_id":85568392924510192,"keywords":["cp","nocrits","nodmgspread","uncletopia"],"game_id":440,"stv_port":27036,"stv_name":"Uncletopia | London | 3 | All Maps | STV","players":null},{"server_id":321,"name":"Uncletopia | London | 4 | All Maps","name_short":"lon-4","host":"lon-1.uk.uncletopia.com","port":27045,"enabled":true,"region":"eu","cc":"gb","latitude":51.509865,"longitude":-0.118092,"reserved":0,"last_update":"0001-01-01T00:00:00Z","name_a2s":"Uncletopia | London | 4 | All Maps","protocol":17,"map":"koth_cascade","folder":"tf","game":"Team Fortress","app_id":440,"player_count":0,"max_players":24,"Bots":0,"server_type":"Dedicated","server_os":"Linux","password":true,"vac":true,"version":"7757534","steam_id":85568392924510193,"keywords":["cp","nocrits","nodmgspread","uncletopia"],"game_id":440,"stv_port":27046,"stv_name":"Uncletopia | London | 4 | All Maps | STV","players":null},{"server_id":21,"name":"Uncletopia | London | 5 | All Maps","name_short":"lon-5","host":"lon-1.uk.uncletopia.com","port":27055,"enabled":true,"region":"eu","cc":"gb","latitude":51.509865,"longitude":-0.118092,"reserved":0,"last_update":"0001-01-01T00:00:00Z","name_a2s":"Uncletopia | London | 5 | All Maps","protocol":17,"map":"pl_frontier_final","folder":"tf","game":"Team Fortress","app_id":440,"player_count":24,"max_players":24,"Bots":0,"server_type":"Dedicated","server_os":"Linux","password":true,"vac":true,"version":"7757534","steam_id":85568392924742829,"keywords":["nocrits","nodmgspread","payload","uncletopia"],"game_id":440,"stv_port":27056,"stv_name":"Uncletopia | London | 5 | All Maps | STV","players":[{"user_id":166,"name":"simon","steam_id":76561198880361394,"connected_time":2850000000000,"state":"active","ping":62},{"user_id":167,"name":"me strong","steam_id":76561199062586342,"connected_time":2521000000000,"state":"active","ping":69},{"user_id":187,"name":"erobrine2","steam_id":76561198173218318,"connected_time":1262000000000,"state":"active","ping":46},{"user_id":196,"name":"Kard","steam_id":76561198191894926,"connected_time":609000000000,"state":"active","ping":116},{"user_id":195,"name":"sondi","steam_id":76561198045466209,"connected_time":616000000000,"state":"active","ping":76},{"user_id":198,"name":"pant","steam_id":76561199360189459,"connected_time":488000000000,"state":"active","ping":71},{"user_id":193,"name":"Marioalexsan","steam_id":76561198125512367,"connected_time":643000000000,"state":"active","ping":80},{"user_id":170,"name":"Littleyoshifan","steam_id":76561198445491045,"connected_time":1759000000000,"state":"active","ping":45},{"user_id":145,"name":"static","steam_id":76561198836825741,"connected_time":4282000000000,"state":"active","ping":46},{"user_id":172,"name":"Wuffington","steam_id":76561198033762881,"connected_time":1683000000000,"state":"active","ping":45},{"user_id":177,"name":"Huncraft 12","steam_id":76561198304495095,"connected_time":1602000000000,"state":"active","ping":104},{"user_id":179,"name":"Joff-tchoff-tchoffo-tchoffo-tch","steam_id":76561198044167743,"connected_time":1561000000000,"state":"active","ping":82},{"user_id":180,"name":"No, Why?","steam_id":76561198888755969,"connected_time":1560000000000,"state":"active","ping":96},{"user_id":188,"name":"Sam Fisher","steam_id":76561198364121077,"connected_time":1188000000000,"state":"active","ping":101},{"user_id":171,"name":"Dexity","steam_id":76561198056130461,"connected_time":1711000000000,"state":"active","ping":56},{"user_id":181,"name":"Jørn","steam_id":76561199073257952,"connected_time":1544000000000,"state":"active","ping":73},{"user_id":47,"name":"ivanmixo","steam_id":76561198160213989,"connected_time":12599000000000,"state":"active","ping":75},{"user_id":88,"name":"Ewelinka Zniszczenia","steam_id":76561198307374456,"connected_time":9611000000000,"state":"active","ping":86},{"user_id":192,"name":"b_a1Ln","steam_id":76561198135213739,"connected_time":1113000000000,"state":"active","ping":100},{"user_id":159,"name":"Lyra","steam_id":76561198043601838,"connected_time":3284000000000,"state":"active","ping":67},{"user_id":161,"name":"hellbound","steam_id":76561198160562773,"connected_time":3265000000000,"state":"active","ping":88},{"user_id":197,"name":"Tort","steam_id":76561198329646769,"connected_time":508000000000,"state":"active","ping":55},{"user_id":168,"name":"kill john lennon","steam_id":76561198452111945,"connected_time":2303000000000,"state":"active","ping":43},{"user_id":162,"name":"GARbageTrash","steam_id":76561199101269633,"connected_time":3231000000000,"state":"active","ping":86}]},{"server_id":22,"name":"Uncletopia | London | 6 | All Maps","name_short":"lon-6","host":"lon-1.uk.uncletopia.com","port":27065,"enabled":true,"region":"eu","cc":"gb","latitude":51.509865,"longitude":-0.118092,"reserved":0,"last_update":"0001-01-01T00:00:00Z","name_a2s":"Uncletopia | London | 6 | All Maps","protocol":17,"map":"pl_snowycoast","folder":"tf","game":"Team Fortress","app_id":440,"player_count":0,"max_players":24,"Bots":0,"server_type":"Dedicated","server_os":"Linux","password":true,"vac":true,"version":"7757534","steam_id":85568392924742830,"keywords":["nocrits","nodmgspread","payload","uncletopia"],"game_id":440,"stv_port":27066,"stv_name":"Uncletopia | London | 6 | All Maps | STV","players":null},{"server_id":40,"name":"Uncletopia | London | 7 | No Payload","name_short":"lon-7","host":"lon-1.uk.uncletopia.com","port":27075,"enabled":true,"region":"eu","cc":"gb","latitude":51.509865,"longitude":-0.118092,"reserved":0,"last_update":"0001-01-01T00:00:00Z","name_a2s":"Uncletopia | London | 7 | No Payload","protocol":17,"map":"cp_dustbowl","folder":"tf","game":"Team Fortress","app_id":440,"player_count":24,"max_players":24,"Bots":0,"server_type":"Dedicated","server_os":"Linux","password":true,"vac":true,"version":"7757534","steam_id":85568392924964314,"keywords":["cp","nocrits","nodmgspread","uncletopia"],"game_id":440,"stv_port":27076,"stv_name":"Uncletopia | London | 7 | No Payload | STV","players":[{"user_id":54,"name":"Bostrash641","steam_id":76561199447225685,"connected_time":474000000000,"state":"active","ping":73},{"user_id":47,"name":"Arcweld","steam_id":76561198816060720,"connected_time":836000000000,"state":"active","ping":66},{"user_id":20,"name":"Linakas","steam_id":76561198299757435,"connected_time":2010000000000,"state":"active","ping":86},{"user_id":21,"name":"Frogs eater","steam_id":76561199082469459,"connected_time":1952000000000,"state":"active","ping":56},{"user_id":55,"name":"Royal","steam_id":76561198157621024,"connected_time":426000000000,"state":"active","ping":41},{"user_id":38,"name":"Blacksheep","steam_id":76561198019621063,"connected_time":1011000000000,"state":"active","ping":53},{"user_id":24,"name":"Allereinan","steam_id":76561198342239906,"connected_time":1784000000000,"state":"active","ping":102},{"user_id":59,"name":"Dispenser Gaming","steam_id":76561198855333841,"connected_time":164000000000,"state":"active","ping":75},{"user_id":26,"name":"LuGiO","steam_id":76561198404105206,"connected_time":1734000000000,"state":"active","ping":57},{"user_id":36,"name":"AwterSix","steam_id":76561198042561678,"connected_time":1122000000000,"state":"active","ping":59},{"user_id":35,"name":"Dude Time","steam_id":76561198092991160,"connected_time":1230000000000,"state":"active","ping":164},{"user_id":48,"name":"mge bro","steam_id":76561198796600155,"connected_time":817000000000,"state":"active","ping":89},{"user_id":39,"name":"Le Pepp","steam_id":76561198042427803,"connected_time":1010000000000,"state":"active","ping":50},{"user_id":40,"name":"zek","steam_id":76561198862763731,"connected_time":1007000000000,"state":"active","ping":62},{"user_id":41,"name":"Poopy_Joe","steam_id":76561198096839348,"connected_time":1006000000000,"state":"active","ping":61},{"user_id":42,"name":"trehövdad","steam_id":76561198443632133,"connected_time":960000000000,"state":"active","ping":115},{"user_id":43,"name":"sexo","steam_id":76561199088284199,"connected_time":950000000000,"state":"active","ping":70},{"user_id":44,"name":"lofimonkeyjazz","steam_id":76561198117059662,"connected_time":949000000000,"state":"active","ping":82},{"user_id":45,"name":"aGreedGryphon","steam_id":76561198245175308,"connected_time":934000000000,"state":"active","ping":50},{"user_id":56,"name":"chopsticks","steam_id":76561198045899345,"connected_time":414000000000,"state":"active","ping":116},{"user_id":49,"name":"sunny","steam_id":76561198145518089,"connected_time":746000000000,"state":"active","ping":77},{"user_id":50,"name":"fmdi","steam_id":76561199433879329,"connected_time":717000000000,"state":"active","ping":75},{"user_id":51,"name":"Cosmonaut Moon","steam_id":76561198831222952,"connected_time":700000000000,"state":"active","ping":44},{"user_id":52,"name":"bad at tf2 episode 2","steam_id":76561198002451113,"connected_time":699000000000,"state":"active","ping":95}]},{"server_id":41,"name":"Uncletopia | London | 8 | Community","name_short":"lon-8","host":"lon-1.uk.uncletopia.com","port":27085,"enabled":true,"region":"eu","cc":"gb","latitude":51.509865,"longitude":-0.118092,"reserved":0,"last_update":"0001-01-01T00:00:00Z","name_a2s":"Uncletopia | London | 8 | Community","protocol":17,"map":"workshop/pl_cactuscanyon_redux_rc4b.ugc2579644293","folder":"tf","game":"Team Fortress","app_id":440,"player_count":0,"max_players":24,"Bots":0,"server_type":"Dedicated","server_os":"Linux","password":true,"vac":true,"version":"7757534","steam_id":85568392924964315,"keywords":["nocrits","nodmgspread","payload","uncletopia"],"game_id":440,"stv_port":27086,"stv_name":"Uncletopia | London | 8 | Community | STV","players":null},{"server_id":300,"name":"Uncletopia | Montréal | 1 | All Maps","name_short":"mtl-1","host":"mtl-1.ca.uncletopia.com","port":27015,"enabled":true,"region":"us-east","cc":"ca","latitude":45.50889,"longitude":-73.56167,"reserved":0,"last_update":"0001-01-01T00:00:00Z","name_a2s":"Uncletopia | Montréal | 1 | All Maps","protocol":17,"map":"koth_cascade","folder":"tf","game":"Team Fortress","app_id":440,"player_count":0,"max_players":24,"Bots":0,"server_type":"Dedicated","server_os":"Linux","password":true,"vac":true,"version":"7757534","steam_id":85568392924500087,"keywords":["cp","nocrits","nodmgspread","uncletopia"],"game_id":440,"stv_port":27016,"stv_name":"Uncletopia | Montréal | 1 | All Maps | STV","players":null},{"server_id":301,"name":"Uncletopia | Montréal | 2 | All Maps","name_short":"mtl-2","host":"mtl-1.ca.uncletopia.com","port":27025,"enabled":true,"region":"us-east","cc":"ca","latitude":45.50889,"longitude":-73.56167,"reserved":0,"last_update":"0001-01-01T00:00:00Z","name_a2s":"Uncletopia | Montréal | 2 | All Maps","protocol":17,"map":"pl_borneo","folder":"tf","game":"Team Fortress","app_id":440,"player_count":0,"max_players":24,"Bots":0,"server_type":"Dedicated","server_os":"Linux","password":true,"vac":true,"version":"7757534","steam_id":85568392924500088,"keywords":["nocrits","nodmgspread","payload","uncletopia"],"game_id":440,"stv_port":27026,"stv_name":"Uncletopia | Montréal | 2 | All Maps | STV","players":null},{"server_id":302,"name":"Uncletopia | Montréal | 3 | All Maps","name_short":"mtl-3","host":"mtl-1.ca.uncletopia.com","port":27035,"enabled":true,"region":"us-east","cc":"ca","latitude":45.50889,"longitude":-73.56167,"reserved":0,"last_update":"0001-01-01T00:00:00Z","name_a2s":"Uncletopia | Montréal | 3 | All Maps","protocol":17,"map":"cp_sunshine","folder":"tf","game":"Team Fortress","app_id":440,"player_count":0,"max_players":24,"Bots":0,"server_type":"Dedicated","server_os":"Linux","password":true,"vac":true,"version":"7757534","steam_id":85568392924500089,"keywords":["cp","nocrits","nodmgspread","uncletopia"],"game_id":440,"stv_port":27036,"stv_name":"Uncletopia | Montréal | 3 | All Maps | STV","players":null},{"server_id":303,"name":"Uncletopia | Montréal | 4 | No Payload","name_short":"mtl-4","host":"mtl-1.ca.uncletopia.com","port":27045,"enabled":true,"region":"us-east","cc":"ca","latitude":45.50889,"longitude":-73.56167,"reserved":0,"last_update":"0001-01-01T00:00:00Z","name_a2s":"Uncletopia | Montréal | 4 | No Payload","protocol":17,"map":"koth_lakeside_final","folder":"tf","game":"Team Fortress","app_id":440,"player_count":0,"max_players":24,"Bots":0,"server_type":"Dedicated","server_os":"Linux","password":true,"vac":true,"version":"7757534","steam_id":85568392924500090,"keywords":["cp","nocrits","nodmgspread","uncletopia"],"game_id":440,"stv_port":27046,"stv_name":"Uncletopia | Montréal | 4 | No Payload | STV","players":null},{"server_id":13,"name":"Uncletopia | New York City | 1 | All Maps","name_short":"nyc-1","host":"nyc-1.us.uncletopia.com","port":27015,"enabled":true,"region":"us-east","cc":"us","latitude":40.73061,"longitude":-73.93524,"reserved":0,"last_update":"0001-01-01T00:00:00Z","name_a2s":"Uncletopia | New York City | 1 | All Maps","protocol":17,"map":"pl_borneo","folder":"tf","game":"Team Fortress","app_id":440,"player_count":0,"max_players":24,"Bots":0,"server_type":"Dedicated","server_os":"Linux","password":true,"vac":true,"version":"7757534","steam_id":85568392924469993,"keywords":["nocrits","nodmgspread","payload","uncletopia"],"game_id":440,"stv_port":27016,"stv_name":"Uncletopia | New York City | 1 | All Maps | STV","players":null},{"server_id":14,"name":"Uncletopia | New York City | 2 | All Maps","name_short":"nyc-2","host":"nyc-1.us.uncletopia.com","port":27025,"enabled":true,"region":"us-east","cc":"us","latitude":40.73061,"longitude":-73.93524,"reserved":0,"last_update":"0001-01-01T00:00:00Z","name_a2s":"Uncletopia | New York City | 2 | All Maps","protocol":17,"map":"pl_snowycoast","folder":"tf","game":"Team Fortress","app_id":440,"player_count":0,"max_players":24,"Bots":0,"server_type":"Dedicated","server_os":"Linux","password":true,"vac":true,"version":"7757534","steam_id":85568392924469994,"keywords":["nocrits","nodmgspread","payload","uncletopia"],"game_id":440,"stv_port":27026,"stv_name":"Uncletopia | New York City | 2 | All Maps | STV","players":null},{"server_id":15,"name":"Uncletopia | New York City | 3 | Stopwatch Beta","name_short":"nyc-3","host":"nyc-1.us.uncletopia.com","port":27035,"enabled":true,"region":"us-east","cc":"us","latitude":40.73061,"longitude":-73.93524,"reserved":0,"last_update":"0001-01-01T00:00:00Z","name_a2s":"Uncletopia | New York City | 3 | Stopwatch Beta","protocol":17,"map":"koth_lakeside_final","folder":"tf","game":"Team Fortress","app_id":440,"player_count":0,"max_players":24,"Bots":0,"server_type":"Dedicated","server_os":"Linux","password":true,"vac":true,"version":"7757534","steam_id":85568392924742820,"keywords":["cp","nocrits","nodmgspread","uncletopia"],"game_id":440,"stv_port":27036,"stv_name":"Uncletopia | New York City | 3 | Stopwatch Beta | STV","players":null},{"server_id":16,"name":"Uncletopia | New York City | 4 | Community","name_short":"nyc-4","host":"nyc-1.us.uncletopia.com","port":27045,"enabled":true,"region":"us-east","cc":"us","latitude":40.73061,"longitude":-73.93524,"reserved":0,"last_update":"0001-01-01T00:00:00Z","name_a2s":"Uncletopia | New York City | 4 | Community","protocol":17,"map":"pl_borneo","folder":"tf","game":"Team Fortress","app_id":440,"player_count":2,"max_players":24,"Bots":0,"server_type":"Dedicated","server_os":"Linux","password":true,"vac":true,"version":"7757534","steam_id":85568392924742821,"keywords":["nocrits","nodmgspread","payload","uncletopia"],"game_id":440,"stv_port":27046,"stv_name":"Uncletopia | New York City | 4 | Community | STV","players":[{"user_id":3,"name":"Sweetie Belle","steam_id":76561198085473845,"connected_time":1199000000000,"state":"active","ping":30},{"user_id":4,"name":"Theatrical Stalemate","steam_id":76561199067563293,"connected_time":1153000000000,"state":"active","ping":62}]},{"server_id":142,"name":"Uncletopia | São Paulo | 1 | All Maps","name_short":"sao-1","host":"sao-1.br.uncletopia.com","port":27015,"enabled":true,"region":"sa","cc":"br","latitude":-23.533773,"longitude":-46.62529,"reserved":0,"last_update":"0001-01-01T00:00:00Z","name_a2s":"Uncletopia | São Paulo | 1 | All Maps","protocol":17,"map":"pl_snowycoast","folder":"tf","game":"Team Fortress","app_id":440,"player_count":0,"max_players":24,"Bots":0,"server_type":"Dedicated","server_os":"Linux","password":true,"vac":true,"version":"7757534","steam_id":85568392924469996,"keywords":["nocrits","nodmgspread","payload","uncletopia"],"game_id":440,"stv_port":27016,"stv_name":"Uncletopia | São Paulo | 1 | All Maps | STV","players":null},{"server_id":143,"name":"Uncletopia | São Paulo | 2 | All Maps","name_short":"sao-2","host":"sao-2.br.uncletopia.com","port":27015,"enabled":true,"region":"sa","cc":"br","latitude":-23.533773,"longitude":-46.62529,"reserved":0,"last_update":"0001-01-01T00:00:00Z","name_a2s":"Uncletopia | São Paulo | 2 | All Maps","protocol":17,"map":"pl_barnblitz","folder":"tf","game":"Team Fortress","app_id":440,"player_count":0,"max_players":24,"Bots":0,"server_type":"Dedicated","server_os":"Linux","password":true,"vac":true,"version":"7757534","steam_id":85568392924485349,"keywords":["nocrits","nodmgspread","payload","uncletopia"],"game_id":440,"stv_port":27016,"stv_name":"Uncletopia | São Paulo | 2 | All Maps | STV","players":null},{"server_id":7,"name":"Uncletopia | Seattle | 1 | All Maps","name_short":"sea-1","host":"sea-1.us.uncletopia.com","port":27015,"enabled":true,"region":"us-west","cc":"us","latitude":47.608013,"longitude":-122.33517,"reserved":0,"last_update":"0001-01-01T00:00:00Z","name_a2s":"Uncletopia | Seattle | 1 | All Maps","protocol":17,"map":"koth_lakeside_final","folder":"tf","game":"Team Fortress","app_id":440,"player_count":6,"max_players":24,"Bots":0,"server_type":"Dedicated","server_os":"Linux","password":true,"vac":true,"version":"7757534","steam_id":85568392924469997,"keywords":["cp","nocrits","nodmgspread","uncletopia"],"game_id":440,"stv_port":27016,"stv_name":"Uncletopia | Seattle | 1 | All Maps | STV","players":[{"user_id":798,"name":"ChuChu","steam_id":76561199443647976,"connected_time":1949000000000,"state":"active","ping":99},{"user_id":784,"name":"smolpigeon","steam_id":76561198118747691,"connected_time":4751000000000,"state":"active","ping":107},{"user_id":799,"name":"Ediot","steam_id":76561199349494096,"connected_time":1933000000000,"state":"active","ping":130},{"user_id":801,"name":"Jeff Clevertion","steam_id":76561199441652861,"connected_time":326000000000,"state":"active","ping":260},{"user_id":777,"name":"Jeremy","steam_id":76561198966264438,"connected_time":5944000000000,"state":"active","ping":117},{"user_id":778,"name":"Investor Sarif","steam_id":76561198118644493,"connected_time":5899000000000,"state":"active","ping":107}]},{"server_id":119,"name":"Uncletopia | Seattle | 2 | All Maps","name_short":"sea-2","host":"sea-1.us.uncletopia.com","port":27025,"enabled":true,"region":"us-west","cc":"us","latitude":47.608013,"longitude":-122.33517,"reserved":0,"last_update":"0001-01-01T00:00:00Z","name_a2s":"Uncletopia | Seattle | 2 | All Maps","protocol":17,"map":"pl_snowycoast","folder":"tf","game":"Team Fortress","app_id":440,"player_count":23,"max_players":24,"Bots":0,"server_type":"Dedicated","server_os":"Linux","password":true,"vac":true,"version":"7757534","steam_id":85568392924469998,"keywords":["nocrits","nodmgspread","payload","uncletopia"],"game_id":440,"stv_port":27026,"stv_name":"Uncletopia | Seattle | 2 | All Maps | STV","players":[{"user_id":704,"name":"仙女头子于谦","steam_id":76561199031075505,"connected_time":379000000000,"state":"active","ping":156},{"user_id":696,"name":"Vem","steam_id":76561198117273112,"connected_time":978000000000,"state":"active","ping":121},{"user_id":706,"name":"stockhack","steam_id":76561198050220225,"connected_time":172000000000,"state":"active","ping":119},{"user_id":684,"name":"Fajita Master","steam_id":76561198329150962,"connected_time":1659000000000,"state":"active","ping":76},{"user_id":637,"name":"2.jump.studio","steam_id":76561199098290495,"connected_time":5724000000000,"state":"active","ping":65},{"user_id":705,"name":"Uncle Darnell","steam_id":76561198211473307,"connected_time":339000000000,"state":"active","ping":116},{"user_id":633,"name":"Hindmost","steam_id":76561199081837220,"connected_time":5873000000000,"state":"active","ping":111},{"user_id":685,"name":"Joseph \"Biden\" Stalin","steam_id":76561198213863907,"connected_time":1635000000000,"state":"active","ping":79},{"user_id":708,"name":"Dangerous Kliff","steam_id":76561198961326131,"connected_time":104000000000,"state":"active","ping":98},{"user_id":686,"name":"Nadir","steam_id":76561197994954005,"connected_time":1576000000000,"state":"active","ping":115},{"user_id":679,"name":"Many Bees' Chilling","steam_id":76561198079641282,"connected_time":2276000000000,"state":"active","ping":60},{"user_id":701,"name":"Saggle","steam_id":76561198056075147,"connected_time":611000000000,"state":"active","ping":191},{"user_id":694,"name":"Xylemon","steam_id":76561197965297420,"connected_time":1117000000000,"state":"active","ping":63},{"user_id":691,"name":"the big 'roni","steam_id":76561199032035374,"connected_time":1437000000000,"state":"active","ping":47},{"user_id":709,"name":"1Cream","steam_id":76561198059743498,"connected_time":86000000000,"state":"active","ping":99},{"user_id":656,"name":"Drake from State Farm","steam_id":76561199069029812,"connected_time":3954000000000,"state":"active","ping":70},{"user_id":670,"name":"god approaches","steam_id":76561198081617990,"connected_time":3263000000000,"state":"active","ping":120},{"user_id":673,"name":"fukfuk the friendly dinosaur","steam_id":76561198111878431,"connected_time":3169000000000,"state":"active","ping":67},{"user_id":680,"name":"DovahWolf","steam_id":76561198058547096,"connected_time":2191000000000,"state":"active","ping":66},{"user_id":703,"name":"Disc0","steam_id":76561198067337267,"connected_time":455000000000,"state":"active","ping":46},{"user_id":710,"name":"Cloot","steam_id":76561198210911119,"connected_time":43000000000,"state":"active","ping":128},{"user_id":625,"name":"SadFapping","steam_id":76561198076651049,"connected_time":6543000000000,"state":"active","ping":56},{"user_id":702,"name":"MelonLikeAFelon","steam_id":76561198060170336,"connected_time":574000000000,"state":"active","ping":74}]},{"server_id":406,"name":"Uncletopia | Seattle | 3 | Stopwatch Beta","name_short":"sea-3","host":"sea-1.us.uncletopia.com","port":27035,"enabled":true,"region":"us-west","cc":"us","latitude":47.608013,"longitude":-122.33517,"reserved":0,"last_update":"0001-01-01T00:00:00Z","name_a2s":"Uncletopia | Seattle | 3 | Stopwatch Beta","protocol":17,"map":"workshop/koth_bagel_rc5.ugc2514036946","folder":"tf","game":"Team Fortress","app_id":440,"player_count":0,"max_players":24,"Bots":0,"server_type":"Dedicated","server_os":"Linux","password":true,"vac":true,"version":"7757534","steam_id":85568392924515217,"keywords":["cp","nocrits","nodmgspread","uncletopia"],"game_id":440,"stv_port":27036,"stv_name":"Uncletopia | Seattle | 3 | Stopwatch Beta | STV","players":null},{"server_id":17,"name":"Uncletopia | San Francisco | 1 | All Maps","name_short":"sfo-1","host":"sfo-1.us.uncletopia.com","port":27015,"enabled":true,"region":"us-west","cc":"us","latitude":37.77397,"longitude":-122.4313,"reserved":0,"last_update":"0001-01-01T00:00:00Z","name_a2s":"Uncletopia | San Francisco | 1 | All Maps","protocol":17,"map":"pl_pier","folder":"tf","game":"Team Fortress","app_id":440,"player_count":0,"max_players":24,"Bots":0,"server_type":"Dedicated","server_os":"Linux","password":true,"vac":true,"version":"7757534","steam_id":85568392924469999,"keywords":["nocrits","nodmgspread","payload","uncletopia"],"game_id":440,"stv_port":27016,"stv_name":"Uncletopia | San Francisco | 1 | All Maps | STV","players":null},{"server_id":18,"name":"Uncletopia | San Francisco | 2 | All Maps","name_short":"sfo-2","host":"sfo-1.us.uncletopia.com","port":27025,"enabled":true,"region":"us-west","cc":"us","latitude":37.77397,"longitude":-122.4313,"reserved":0,"last_update":"0001-01-01T00:00:00Z","name_a2s":"Uncletopia | San Francisco | 2 | All Maps","protocol":17,"map":"cp_snakewater_final1","folder":"tf","game":"Team Fortress","app_id":440,"player_count":0,"max_players":24,"Bots":0,"server_type":"Dedicated","server_os":"Linux","password":true,"vac":true,"version":"7757534","steam_id":85568392924470000,"keywords":["cp","nocrits","nodmgspread","uncletopia"],"game_id":440,"stv_port":27026,"stv_name":"Uncletopia | San Francisco | 2 | All Maps | STV","players":null},{"server_id":19,"name":"Uncletopia | San Francisco | 3 | Stopwatch Beta","name_short":"sfo-3","host":"sfo-1.us.uncletopia.com","port":27035,"enabled":true,"region":"us-west","cc":"us","latitude":37.77397,"longitude":-122.4313,"reserved":0,"last_update":"0001-01-01T00:00:00Z","name_a2s":"Uncletopia | San Francisco | 3 | Stopwatch Beta","protocol":17,"map":"workshop/koth_clearcut_b15.ugc2107050255","folder":"tf","game":"Team Fortress","app_id":440,"player_count":0,"max_players":24,"Bots":0,"server_type":"Dedicated","server_os":"Linux","password":true,"vac":true,"version":"7757534","steam_id":85568392924742824,"keywords":["cp","nocrits","nodmgspread","uncletopia"],"game_id":440,"stv_port":27036,"stv_name":"Uncletopia | San Francisco | 3 | Stopwatch Beta | STV","players":null},{"server_id":20,"name":"Uncletopia | San Francisco | 4 | Community","name_short":"sfo-4","host":"sfo-1.us.uncletopia.com","port":27045,"enabled":true,"region":"us-west","cc":"us","latitude":37.77397,"longitude":-122.4313,"reserved":0,"last_update":"0001-01-01T00:00:00Z","name_a2s":"Uncletopia | San Francisco | 4 | Community","protocol":17,"map":"workshop/koth_product_final.ugc454272353","folder":"tf","game":"Team Fortress","app_id":440,"player_count":24,"max_players":24,"Bots":0,"server_type":"Dedicated","server_os":"Linux","password":true,"vac":true,"version":"7757534","steam_id":85568392924742826,"keywords":["cp","nocrits","nodmgspread","uncletopia"],"game_id":440,"stv_port":27046,"stv_name":"Uncletopia | San Francisco | 4 | Community | STV","players":[{"user_id":757,"name":"Sad Sapling","steam_id":76561198075612150,"connected_time":512000000000,"state":"active","ping":51},{"user_id":608,"name":"JJP","steam_id":76561198032914094,"connected_time":16193000000000,"state":"active","ping":47},{"user_id":748,"name":"NooBHatteR","steam_id":76561198077662703,"connected_time":1339000000000,"state":"active","ping":70},{"user_id":732,"name":"грустный","steam_id":76561198274550638,"connected_time":3850000000000,"state":"active","ping":77},{"user_id":762,"name":"goron","steam_id":76561198051089144,"connected_time":282000000000,"state":"active","ping":123},{"user_id":664,"name":"daemon","steam_id":76561198001541433,"connected_time":11216000000000,"state":"active","ping":104},{"user_id":631,"name":"p9 d4rkn355","steam_id":76561197980280272,"connected_time":14618000000000,"state":"active","ping":64},{"user_id":764,"name":"Totally","steam_id":76561198060107017,"connected_time":186000000000,"state":"active","ping":111},{"user_id":721,"name":"monji","steam_id":76561198239598834,"connected_time":5294000000000,"state":"active","ping":146},{"user_id":752,"name":"doobiebob","steam_id":76561198071963742,"connected_time":611000000000,"state":"active","ping":66},{"user_id":753,"name":"dakota","steam_id":76561198063159414,"connected_time":596000000000,"state":"active","ping":104},{"user_id":653,"name":"alaska","steam_id":76561198017030029,"connected_time":13211000000000,"state":"active","ping":52},{"user_id":754,"name":"Shinoki","steam_id":76561198160957929,"connected_time":571000000000,"state":"active","ping":71},{"user_id":755,"name":"jole","steam_id":76561198037292232,"connected_time":547000000000,"state":"active","ping":155},{"user_id":689,"name":"p9 1Igh+","steam_id":76561198065825165,"connected_time":8667000000000,"state":"active","ping":94},{"user_id":756,"name":"Woodstock","steam_id":76561198041442667,"connected_time":536000000000,"state":"active","ping":65},{"user_id":760,"name":"Felipe_Rinha_De_Cachorro","steam_id":76561198330891046,"connected_time":305000000000,"state":"active","ping":184},{"user_id":768,"name":"Team Fortress 2","steam_id":76561198334059206,"connected_time":157000000000,"state":"active","ping":50},{"user_id":766,"name":"Foop","steam_id":76561198042554605,"connected_time":169000000000,"state":"active","ping":68},{"user_id":747,"name":"DeluxeOil","steam_id":76561198841132993,"connected_time":1438000000000,"state":"active","ping":111},{"user_id":767,"name":"cryingbaby23","steam_id":76561198130413260,"connected_time":167000000000,"state":"active","ping":107},{"user_id":771,"name":"shakoiwa","steam_id":76561199059441773,"connected_time":41000000000,"state":"active","ping":103},{"user_id":772,"name":"Dekameter","steam_id":76561198000808543,"connected_time":38000000000,"state":"active","ping":76},{"user_id":677,"name":"p9 jorts","steam_id":76561199041179985,"connected_time":9956000000000,"state":"active","ping":83}]},{"server_id":141,"name":"Uncletopia | Sydney | 1 | All Maps","name_short":"syd-1","host":"syd-1.au.uncletopia.com","port":27015,"enabled":true,"region":"au","cc":"au","latitude":-33.865143,"longitude":151.2099,"reserved":0,"last_update":"0001-01-01T00:00:00Z","name_a2s":"Uncletopia | Sydney | 1 | All Maps","protocol":17,"map":"cp_dustbowl","folder":"tf","game":"Team Fortress","app_id":440,"player_count":14,"max_players":24,"Bots":0,"server_type":"Dedicated","server_os":"Linux","password":true,"vac":true,"version":"7757534","steam_id":85568392924470001,"keywords":["cp","nocrits","nodmgspread","uncletopia"],"game_id":440,"stv_port":27016,"stv_name":"Uncletopia | Sydney | 1 | All Maps | STV","players":[{"user_id":504,"name":"Jett","steam_id":76561198969434128,"connected_time":3107000000000,"state":"active","ping":78},{"user_id":550,"name":"terrablade_master","steam_id":76561198997249192,"connected_time":187000000000,"state":"active","ping":65},{"user_id":524,"name":"I KNOW WHAT YOU ARE","steam_id":76561198077820909,"connected_time":1655000000000,"state":"active","ping":91},{"user_id":543,"name":"masoncornwell","steam_id":76561198945851986,"connected_time":635000000000,"state":"active","ping":90},{"user_id":525,"name":"Floob","steam_id":76561198390600299,"connected_time":1653000000000,"state":"active","ping":51},{"user_id":526,"name":"Rizeo","steam_id":76561198147901488,"connected_time":1647000000000,"state":"active","ping":65},{"user_id":527,"name":"MrMuffin16","steam_id":76561198257303774,"connected_time":1629000000000,"state":"active","ping":58},{"user_id":535,"name":"Greenie Weenie","steam_id":76561198147970145,"connected_time":891000000000,"state":"active","ping":62},{"user_id":549,"name":"Jacob","steam_id":76561198059341907,"connected_time":322000000000,"state":"active","ping":36},{"user_id":546,"name":"Illya","steam_id":76561198158280651,"connected_time":459000000000,"state":"active","ping":81},{"user_id":452,"name":"MikkyD","steam_id":76561198043452962,"connected_time":6546000000000,"state":"active","ping":61},{"user_id":516,"name":"East","steam_id":76561197998179587,"connected_time":2438000000000,"state":"active","ping":101},{"user_id":498,"name":"tim88435","steam_id":76561198089653987,"connected_time":3456000000000,"state":"active","ping":105},{"user_id":544,"name":"Darth Hater","steam_id":76561198821697958,"connected_time":635000000000,"state":"active","ping":96}]},{"server_id":123,"name":"Uncletopia | Sydney | 2 | All Maps","name_short":"syd-2","host":"syd-1.au.uncletopia.com","port":27025,"enabled":true,"region":"au","cc":"au","latitude":-33.865143,"longitude":151.2099,"reserved":0,"last_update":"0001-01-01T00:00:00Z","name_a2s":"Uncletopia | Sydney | 2 | All Maps","protocol":17,"map":"cp_altitude","folder":"tf","game":"Team Fortress","app_id":440,"player_count":23,"max_players":24,"Bots":0,"server_type":"Dedicated","server_os":"Linux","password":true,"vac":true,"version":"7757534","steam_id":85568392924470002,"keywords":["cp","nocrits","nodmgspread","uncletopia"],"game_id":440,"stv_port":27026,"stv_name":"Uncletopia | Sydney | 2 | All Maps | STV","players":[{"user_id":344,"name":"DrTrig","steam_id":76561199217300731,"connected_time":2392000000000,"state":"active","ping":55},{"user_id":373,"name":"Jy","steam_id":76561198104427524,"connected_time":642000000000,"state":"active","ping":54},{"user_id":371,"name":"Raven","steam_id":76561198428025966,"connected_time":716000000000,"state":"active","ping":65},{"user_id":384,"name":"Soop","steam_id":76561198396967853,"connected_time":5000000000,"state":"spawning","ping":44},{"user_id":284,"name":"FyreFeat","steam_id":76561198068428930,"connected_time":8181000000000,"state":"active","ping":54},{"user_id":323,"name":"Clitosaurus Rex","steam_id":76561198038261903,"connected_time":4102000000000,"state":"active","ping":45},{"user_id":374,"name":"Bin","steam_id":76561199117653318,"connected_time":622000000000,"state":"active","ping":74},{"user_id":347,"name":"Oysenberry","steam_id":76561198125443335,"connected_time":2148000000000,"state":"active","ping":45},{"user_id":382,"name":"KiwiJiwi","steam_id":76561198262081410,"connected_time":110000000000,"state":"active","ping":68},{"user_id":330,"name":"crack","steam_id":76561198077370413,"connected_time":3423000000000,"state":"active","ping":60},{"user_id":352,"name":"Fuzz","steam_id":76561198063077180,"connected_time":1888000000000,"state":"active","ping":54},{"user_id":367,"name":"payn.","steam_id":76561199277321828,"connected_time":1177000000000,"state":"active","ping":54},{"user_id":375,"name":"MR Martian","steam_id":76561198157854561,"connected_time":603000000000,"state":"active","ping":90},{"user_id":381,"name":"Gasoline","steam_id":76561198879023728,"connected_time":308000000000,"state":"active","ping":83},{"user_id":341,"name":"Noble Chernobyl","steam_id":76561198011803825,"connected_time":2952000000000,"state":"active","ping":55},{"user_id":379,"name":"moflow081703","steam_id":76561198357274326,"connected_time":431000000000,"state":"active","ping":60},{"user_id":297,"name":"Consolidated Fart","steam_id":76561198924101909,"connected_time":6749000000000,"state":"active","ping":66},{"user_id":359,"name":"SWAG DRAGON","steam_id":76561197960279341,"connected_time":1528000000000,"state":"active","ping":86},{"user_id":355,"name":"Snowy","steam_id":76561198255720598,"connected_time":1691000000000,"state":"active","ping":46},{"user_id":360,"name":"SaltierThanYou","steam_id":76561198444395188,"connected_time":1415000000000,"state":"active","ping":81},{"user_id":337,"name":"Bobby Bigman","steam_id":76561198044679656,"connected_time":3235000000000,"state":"active","ping":60},{"user_id":380,"name":"Michael Bolton Bol","steam_id":76561197967240734,"connected_time":424000000000,"state":"active","ping":102},{"user_id":357,"name":"Greg","steam_id":76561198133966374,"connected_time":1574000000000,"state":"active","ping":79}]},{"server_id":395,"name":"Uncletopia | Sydney | 3 | All Maps","name_short":"syd-3","host":"syd-1.au.uncletopia.com","port":27035,"enabled":true,"region":"au","cc":"au","latitude":-33.865143,"longitude":151.2099,"reserved":0,"last_update":"0001-01-01T00:00:00Z","name_a2s":"Uncletopia | Sydney | 3 | All Maps","protocol":17,"map":"pl_badwater","folder":"tf","game":"Team Fortress","app_id":440,"player_count":0,"max_players":24,"Bots":0,"server_type":"Dedicated","server_os":"Linux","password":true,"vac":true,"version":"7757534","steam_id":85568392925194467,"keywords":["nocrits","nodmgspread","payload","uncletopia"],"game_id":440,"stv_port":27036,"stv_name":"Uncletopia | Sydney | 3 | All Maps | STV","players":null},{"server_id":396,"name":"Uncletopia | Sydney | 4 | All Maps","name_short":"syd-4","host":"syd-1.au.uncletopia.com","port":27045,"enabled":true,"region":"au","cc":"au","latitude":-33.865143,"longitude":151.2099,"reserved":0,"last_update":"0001-01-01T00:00:00Z","name_a2s":"Uncletopia | Sydney | 4 | All Maps","protocol":17,"map":"koth_highpass","folder":"tf","game":"Team Fortress","app_id":440,"player_count":3,"max_players":24,"Bots":0,"server_type":"Dedicated","server_os":"Linux","password":true,"vac":true,"version":"7757534","steam_id":85568392925397958,"keywords":["cp","nocrits","nodmgspread","uncletopia"],"game_id":440,"stv_port":27046,"stv_name":"Uncletopia | Sydney | 4 | All Maps | STV","players":[{"user_id":19,"name":"NastySauce","steam_id":76561198824978577,"connected_time":127000000000,"state":"active","ping":81},{"user_id":17,"name":"Branko","steam_id":76561199262196710,"connected_time":887000000000,"state":"active","ping":43},{"user_id":18,"name":"Y0shua3","steam_id":76561199381627916,"connected_time":781000000000,"state":"active","ping":86}]},{"server_id":58,"name":"Uncletopia | Sydney | 5 | Stopwatch Beta","name_short":"syd-5","host":"syd-1.au.uncletopia.com","port":27055,"enabled":true,"region":"au","cc":"au","latitude":-33.865143,"longitude":151.2099,"reserved":0,"last_update":"0001-01-01T00:00:00Z","name_a2s":"Uncletopia | Sydney | 5 | Stopwatch Beta","protocol":17,"map":"workshop/koth_ashville_final.ugc2130459942","folder":"tf","game":"Team Fortress","app_id":440,"player_count":0,"max_players":24,"Bots":0,"server_type":"Dedicated","server_os":"Linux","password":true,"vac":true,"version":"7757534","steam_id":85568392925397959,"keywords":["cp","nocrits","nodmgspread","uncletopia"],"game_id":440,"stv_port":27056,"stv_name":"Uncletopia | Sydney | 5 | Stopwatch Beta | STV","players":null},{"server_id":59,"name":"Uncletopia | Sydney | 6 | Community","name_short":"syd-6","host":"syd-1.au.uncletopia.com","port":27065,"enabled":true,"region":"au","cc":"au","latitude":-33.865143,"longitude":151.2099,"reserved":0,"last_update":"0001-01-01T00:00:00Z","name_a2s":"Uncletopia | Sydney | 6 | Community","protocol":17,"map":"workshop/koth_ashville_final.ugc2130459942","folder":"tf","game":"Team Fortress","app_id":440,"player_count":0,"max_players":24,"Bots":0,"server_type":"Dedicated","server_os":"Linux","password":true,"vac":true,"version":"7757534","steam_id":85568392925397960,"keywords":["cp","nocrits","nodmgspread","uncletopia"],"game_id":440,"stv_port":27066,"stv_name":"Uncletopia | Sydney | 6 | Community | STV","players":null},{"server_id":49,"name":"Uncletopia | Warsaw | 1 | All Maps","name_short":"waw-1","host":"waw-1.pl.uncletopia.com","port":27015,"enabled":true,"region":"eu","cc":"pl","latitude":52.2297,"longitude":21.017532,"reserved":0,"last_update":"0001-01-01T00:00:00Z","name_a2s":"","protocol":0,"map":"","folder":"","game":"","app_id":0,"player_count":0,"max_players":0,"Bots":0,"server_type":"","server_os":"","password":false,"vac":false,"version":"","steam_id":0,"keywords":null,"game_id":0,"stv_port":0,"stv_name":"","players":null},{"server_id":50,"name":"Uncletopia | Warsaw | 2 | All Maps","name_short":"waw-2","host":"waw-1.pl.uncletopia.com","port":27025,"enabled":true,"region":"eu","cc":"pl","latitude":52.2297,"longitude":21.017532,"reserved":0,"last_update":"0001-01-01T00:00:00Z","name_a2s":"Uncletopia | Warsaw | 2 | All Maps","protocol":17,"map":"cp_snakewater_final1","folder":"tf","game":"Team Fortress","app_id":440,"player_count":0,"max_players":24,"Bots":0,"server_type":"Dedicated","server_os":"Linux","password":true,"vac":true,"version":"7757534","steam_id":85568392925397851,"keywords":["cp","nocrits","nodmgspread","uncletopia"],"game_id":440,"stv_port":27026,"stv_name":"Uncletopia | Warsaw | 2 | All Maps | STV","players":null},{"server_id":51,"name":"Uncletopia | Warsaw | 3 | All Maps","name_short":"waw-3","host":"waw-1.pl.uncletopia.com","port":27035,"enabled":true,"region":"eu","cc":"pl","latitude":52.2297,"longitude":21.017532,"reserved":0,"last_update":"0001-01-01T00:00:00Z","name_a2s":"Uncletopia | Warsaw | 3 | All Maps","protocol":17,"map":"pl_swiftwater_final1","folder":"tf","game":"Team Fortress","app_id":440,"player_count":0,"max_players":24,"Bots":0,"server_type":"Dedicated","server_os":"Linux","password":true,"vac":true,"version":"7757534","steam_id":85568392925397852,"keywords":["nocrits","nodmgspread","payload","uncletopia"],"game_id":440,"stv_port":27036,"stv_name":"Uncletopia | Warsaw | 3 | All Maps | STV","players":null},{"server_id":52,"name":"Uncletopia | Warsaw | 4 | All Maps","name_short":"waw-4","host":"waw-1.pl.uncletopia.com","port":27045,"enabled":true,"region":"eu","cc":"pl","latitude":52.2297,"longitude":21.017532,"reserved":0,"last_update":"0001-01-01T00:00:00Z","name_a2s":"Uncletopia | Warsaw | 4 | All Maps","protocol":17,"map":"pl_borneo","folder":"tf","game":"Team Fortress","app_id":440,"player_count":0,"max_players":24,"Bots":0,"server_type":"Dedicated","server_os":"Linux","password":true,"vac":true,"version":"7757534","steam_id":85568392925397853,"keywords":["nocrits","nodmgspread","payload","uncletopia"],"game_id":440,"stv_port":27046,"stv_name":"Uncletopia | Warsaw | 4 | All Maps | STV","players":null},{"server_id":53,"name":"Uncletopia | Warsaw | 5 | Stopwatch Beta","name_short":"waw-5","host":"waw-1.pl.uncletopia.com","port":27055,"enabled":true,"region":"eu","cc":"pl","latitude":52.2297,"longitude":21.017532,"reserved":0,"last_update":"0001-01-01T00:00:00Z","name_a2s":"Uncletopia | Warsaw | 5 | Stopwatch Beta","protocol":17,"map":"pl_upward","folder":"tf","game":"Team Fortress","app_id":440,"player_count":0,"max_players":24,"Bots":0,"server_type":"Dedicated","server_os":"Linux","password":true,"vac":true,"version":"7757534","steam_id":85568392925397854,"keywords":["nocrits","nodmgspread","payload","uncletopia"],"game_id":440,"stv_port":27056,"stv_name":"Uncletopia | Warsaw | 5 | Stopwatch Beta | STV","players":null},{"server_id":54,"name":"Uncletopia | Warsaw | 6 | Community","name_short":"waw-6","host":"waw-1.pl.uncletopia.com","port":27065,"enabled":true,"region":"eu","cc":"pl","latitude":52.2297,"longitude":21.017532,"reserved":0,"last_update":"0001-01-01T00:00:00Z","name_a2s":"Uncletopia | Warsaw | 6 | Community","protocol":17,"map":"workshop/koth_bagel_rc5.ugc2514036946","folder":"tf","game":"Team Fortress","app_id":440,"player_count":0,"max_players":24,"Bots":0,"server_type":"Dedicated","server_os":"Linux","password":true,"vac":true,"version":"7757534","steam_id":85568392925397856,"keywords":["cp","nocrits","nodmgspread","uncletopia"],"game_id":440,"stv_port":27066,"stv_name":"Uncletopia | Warsaw | 6 | Community | STV","players":null}]}