{"status":true,"message":"","result":[{"server_id":9,"name":"Uncletopia | Atlanta | 1 | All Maps","name_short":"atl-1","host":"atl-1.us.uncletopia.com","port":27015,"enabled":true,"region":"us-east","cc":"us","latitude":33.753746,"longitude":-84.38633,"reserved":0,"last_update":"0001-01-01T00:00:00Z","name_a2s":"Uncletopia | Atlanta | 1 | All Maps","protocol":17,"map":"pl_snowycoast","folder":"tf","game":"Team Fortress","app_id":440,"player_count":24,"max_players":24,"Bots":0,"server_type":"Dedicated","server_os":"Linux","password":true,"vac":true,"version":"7882260","steam_id":85568392924469982,"keywords":["nocrits","nodmgspread","payload","uncletopia"],"game_id":440,"stv_port":27016,"stv_name":"Uncletopia | Atlanta | 1 | All Maps | STV","players":[{"user_id":223,"name":"doubleshare","steam_id":76561198024472046,"connected_time":4045000000000,"state":"active","ping":86},{"user_id":267,"name":"spoonful","steam_id":76561198927517471,"connected_time":670000000000,"state":"active","ping":54},{"user_id":160,"name":"Bag","steam_id":76561198012395490,"connected_time":8172000000000,"state":"active","ping":53},{"user_id":237,"name":"jimmyfnaf172198yay","steam_id":76561198311446636,"connected_time":2542000000000,"state":"active","ping":77},{"user_id":268,"name":"Onyx","steam_id":76561198275349640,"connected_time":653000000000,"state":"active","ping":78},{"user_id":238,"name":"joe","steam_id":76561198045781320,"connected_time":2539000000000,"state":"active","ping":66},{"user_id":239,"name":"Pios Chicken","steam_id":76561198167304707,"connected_time":2528000000000,"state":"active","ping":137},{"user_id":253,"name":"Boinker!","steam_id":76561198272961376,"connected_time":2054000000000,"state":"active","ping":90},{"user_id":269,"name":"minecraft","steam_id":76561198104345201,"connected_time":608000000000,"state":"active","ping":60},{"user_id":272,"name":"Chubzero","steam_id":76561199053727616,"connected_time":413000000000,"state":"active","ping":76},{"user_id":246,"name":"Deltaco","steam_id":76561198094572694,"connected_time":2268000000000,"state":"active","ping":102},{"user_id":221,"name":"Yoru","steam_id":76561198119698950,"connected_time":4131000000000,"state":"active","ping":108},{"user_id":254,"name":"Grandpa¬¥s Last Drop of Cum","steam_id":76561198079516696,"connected_time":1982000000000,"state":"active","ping":99},{"user_id":265,"name":"kite","steam_id":76561198346516392,"connected_time":922000000000,"state":"active","ping":82},{"user_id":260,"name":"(Parentheses)","steam_id":76561198069735882,"connected_time":1325000000000,"state":"active","ping":57},{"user_id":266,"name":"richarven","steam_id":76561198189429665,"connected_time":682000000000,"state":"active","ping":60},{"user_id":236,"name":"Uganda Knuckles lll","steam_id":76561199121276474,"connected_time":2564000000000,"state":"active","ping":82},{"user_id":273,"name":"Pizza time","steam_id":76561199088232974,"connected_time":150000000000,"state":"active","ping":105},{"user_id":270,"name":"God's Strongest Italian","steam_id":76561199161996764,"connected_time":595000000000,"state":"active","ping":165},{"user_id":263,"name":"Musica Universalis","steam_id":76561198184794174,"connected_time":1245000000000,"state":"active","ping":74},{"user_id":271,"name":"tuna","steam_id":76561198090531755,"connected_time":525000000000,"state":"active","ping":67},{"user_id":255,"name":"easiest airshotter","steam_id":76561198812385770,"connected_time":1609000000000,"state":"active","ping":60},{"user_id":225,"name":"paetho YT","steam_id":76561198152690003,"connected_time":3950000000000,"state":"active","ping":48},{"user_id":259,"name":"Skinny pete","steam_id":76561198801608576,"connected_time":1369000000000,"state":"active","ping":78}]},{"server_id":104,"name":"Uncletopia | Atlanta | 2 | All Maps","name_short":"atl-2","host":"atl-1.us.uncletopia.com","port":27025,"enabled":true,"region":"us-east","cc":"us","latitude":33.753746,"longitude":-84.38633,"reserved":0,"last_update":"0001-01-01T00:00:00Z","name_a2s":"Uncletopia | Atlanta | 2 | All Maps","protocol":17,"map":"pl_frontier_final","folder":"tf","game":"Team Fortress","app_id":440,"player_count":24,"max_players":24,"Bots":0,"server_type":"Dedicated","server_os":"Linux","password":true,"vac":true,"version":"7882260","steam_id":85568392924469983,"keywords":["nocrits","nodmgspread","payload","uncletopia"],"game_id":440,"stv_port":27026,"stv_name":"Uncletopia | Atlanta | 2 | All Maps | STV","players":[{"user_id":110,"name":"Ekuseebia","steam_id":76561198037504112,"connected_time":4241000000000,"state":"active","ping":82},{"user_id":152,"name":"J_Swizzleo","steam_id":76561198147307256,"connected_time":1719000000000,"state":"active","ping":72},{"user_id":158,"name":"local threat","steam_id":76561198067206464,"connected_time":819000000000,"state":"active","ping":94},{"user_id":175,"name":"Mobius","steam_id":76561199121973450,"connected_time":281000000000,"state":"active","ping":59},{"user_id":159,"name":"Herr M√ºller","steam_id":76561198064876829,"connected_time":805000000000,"state":"active","ping":78},{"user_id":149,"name":"TwoBit","steam_id":76561198062437559,"connected_time":1902000000000,"state":"active","ping":93},{"user_id":153,"name":"Wigl","steam_id":76561198019324464,"connected_time":1680000000000,"state":"active","ping":63},{"user_id":165,"name":"Notsocreative","steam_id":76561198236372202,"connected_time":784000000000,"state":"active","ping":78},{"user_id":134,"name":"asm_ghost","steam_id":76561199205363547,"connected_time":2708000000000,"state":"active","ping":122},{"user_id":171,"name":"Chhaam","steam_id":76561198058508132,"connected_time":543000000000,"state":"active","ping":54},{"user_id":161,"name":"sh0blz","steam_id":76561198374792921,"connected_time":801000000000,"state":"active","ping":70},{"user_id":124,"name":"Daddy","steam_id":76561198119535829,"connected_time":3298000000000,"state":"active","ping":54},{"user_id":170,"name":"DogComrade","steam_id":76561199056013933,"connected_time":610000000000,"state":"active","ping":127},{"user_id":151,"name":"Big Tonka","steam_id":76561198891584971,"connected_time":1800000000000,"state":"active","ping":67},{"user_id":172,"name":"Embryonicwolf","steam_id":76561199077862675,"connected_time":540000000000,"state":"active","ping":72},{"user_id":167,"name":"gabaghoulio","steam_id":76561198013650292,"connected_time":742000000000,"state":"active","ping":91},{"user_id":136,"name":"Wahooka","steam_id":76561197962240925,"connected_time":2666000000000,"state":"active","ping":56},{"user_id":139,"name":"RyInc","steam_id":76561198874261643,"connected_time":2625000000000,"state":"active","ping":63},{"user_id":176,"name":"Tan_Rat","steam_id":76561198313629344,"connected_time":29000000000,"state":"active","ping":99},{"user_id":174,"name":"Julius Caesar","steam_id":76561198360004673,"connected_time":411000000000,"state":"active","ping":93},{"user_id":157,"name":"FancyBones","steam_id":76561198180198885,"connected_time":869000000000,"state":"active","ping":72},{"user_id":168,"name":"Cayenne","steam_id":76561198004614086,"connected_time":683000000000,"state":"active","ping":75},{"user_id":127,"name":"Racoon.zip","steam_id":76561199023759321,"connected_time":2954000000000,"state":"active","ping":101},{"user_id":169,"name":"Icarus","steam_id":76561198189984828,"connected_time":655000000000,"state":"active","ping":50}]},{"server_id":400,"name":"Uncletopia | Atlanta | 3 | Community","name_short":"atl-3","host":"atl-1.us.uncletopia.com","port":27035,"enabled":true,"region":"us-east","cc":"us","latitude":33.753746,"longitude":-84.38633,"reserved":0,"last_update":"0001-01-01T00:00:00Z","name_a2s":"Uncletopia | Atlanta | 3 | Community","protocol":17,"map":"workshop/pl_vigil_rc9.ugc1266210012","folder":"tf","game":"Team Fortress","app_id":440,"player_count":0,"max_players":24,"Bots":0,"server_type":"Dedicated","server_os":"Linux","password":true,"vac":true,"version":"7882260","steam_id":85568392924515187,"keywords":["nocrits","nodmgspread","payload","uncletopia"],"game_id":440,"stv_port":27036,"stv_name":"Uncletopia | Atlanta | 3 | Community | STV","players":null},{"server_id":401,"name":"Uncletopia | Atlanta | 4 | No Payload","name_short":"atl-4","host":"atl-1.us.uncletopia.com","port":27045,"enabled":true,"region":"us-east","cc":"us","latitude":33.753746,"longitude":-84.38633,"reserved":0,"last_update":"0001-01-01T00:00:00Z","name_a2s":"","protocol":0,"map":"","folder":"","game":"","app_id":0,"player_count":0,"max_players":0,"Bots":0,"server_type":"","server_os":"","password":false,"vac":false,"version":"","steam_id":0,"keywords":null,"game_id":0,"stv_port":0,"stv_name":"","players":null},{"server_id":2,"name":"Uncletopia | Chicago | 1 | All Maps","name_short":"chi-1","host":"chi-1.us.uncletopia.com","port":27015,"enabled":true,"region":"us-central","cc":"us","latitude":41.881832,"longitude":-87.62318,"reserved":0,"last_update":"0001-01-01T00:00:00Z","name_a2s":"Uncletopia | Chicago | 1 | All Maps","protocol":17,"map":"pl_frontier_final","folder":"tf","game":"Team Fortress","app_id":440,"player_count":24,"max_players":24,"Bots":0,"server_type":"Dedicated","server_os":"Linux","password":true,"vac":true,"version":"7882260","steam_id":85568392924469984,"keywords":["nocrits","nodmgspread","payload","uncletopia"],"game_id":440,"stv_port":27016,"stv_name":"Uncletopia | Chicago | 1 | All Maps | STV","players":[{"user_id":512,"name":"punks troutsupply.net","steam_id":76561199140940650,"connected_time":280000000000,"state":"active","ping":57},{"user_id":421,"name":"Praise_to_the_Flashlight!","steam_id":76561199001728789,"connected_time":1661000000000,"state":"active","ping":54},{"user_id":378,"name":"Mastermind","steam_id":76561198127783432,"connected_time":3246000000000,"state":"active","ping":66},{"user_id":424,"name":"AkimboAoki","steam_id":76561198158323058,"connected_time":1625000000000,"state":"active","ping":93},{"user_id":513,"name":"FattSucc","steam_id":76561198009500503,"connected_time":274000000000,"state":"active","ping":92},{"user_id":507,"name":"doodlenoodles","steam_id":76561199345823430,"connected_time":337000000000,"state":"active","ping":68},{"user_id":518,"name":"Famelegion","steam_id":76561198958341424,"connected_time":54000000000,"state":"active","ping":85},{"user_id":394,"name":"Vi","steam_id":76561198110033420,"connected_time":2269000000000,"state":"active","ping":67},{"user_id":384,"name":"see you soon","steam_id":76561198140584050,"connected_time":3051000000000,"state":"active","ping":72},{"user_id":374,"name":"coodge","steam_id":76561198139080439,"connected_time":3313000000000,"state":"active","ping":83},{"user_id":399,"name":"Undertime Slopper","steam_id":76561198396789061,"connected_time":2222000000000,"state":"active","ping":85},{"user_id":511,"name":"blob","steam_id":76561198122375328,"connected_time":306000000000,"state":"active","ping":58},{"user_id":469,"name":"DNA","steam_id":76561198889418752,"connected_time":919000000000,"state":"active","ping":94},{"user_id":441,"name":"van","steam_id":76561199017754044,"connected_time":1303000000000,"state":"active","ping":64},{"user_id":515,"name":"Indigolake","steam_id":76561198202215807,"connected_time":233000000000,"state":"active","ping":86},{"user_id":404,"name":"IMM0RTAL","steam_id":76561198013747901,"connected_time":2032000000000,"state":"active","ping":75},{"user_id":508,"name":"Borat Voice My Wife","steam_id":76561198020474727,"connected_time":331000000000,"state":"active","ping":71},{"user_id":510,"name":"helikopter","steam_id":76561198881026292,"connected_time":316000000000,"state":"active","ping":72},{"user_id":516,"name":"Communist Zobomafoo","steam_id":76561198068173978,"connected_time":206000000000,"state":"active","ping":77},{"user_id":353,"name":"Ras","steam_id":76561198123546775,"connected_time":5550000000000,"state":"active","ping":74},{"user_id":390,"name":"Gorf","steam_id":76561199060557282,"connected_time":2585000000000,"state":"active","ping":68},{"user_id":358,"name":"Dusken","steam_id":76561198020696265,"connected_time":5247000000000,"state":"active","ping":63},{"user_id":400,"name":"ganchy","steam_id":76561198088384838,"connected_time":2153000000000,"state":"active","ping":69},{"user_id":506,"name":"Dr. Wario","steam_id":76561198901238861,"connected_time":381000000000,"state":"active","ping":102}]},{"server_id":106,"name":"Uncletopia | Chicago | 2 | All Maps","name_short":"chi-2","host":"chi-1.us.uncletopia.com","port":27025,"enabled":true,"region":"us-central","cc":"us","latitude":41.881832,"longitude":-87.62318,"reserved":0,"last_update":"0001-01-01T00:00:00Z","name_a2s":"Uncletopia | Chicago | 2 | All Maps","protocol":17,"map":"pl_thundermountain","folder":"tf","game":"Team Fortress","app_id":440,"player_count":24,"max_players":24,"Bots":0,"server_type":"Dedicated","server_os":"Linux","password":true,"vac":true,"version":"7882260","steam_id":85568392924469985,"keywords":["nocrits","nodmgspread","payload","uncletopia"],"game_id":440,"stv_port":27026,"stv_name":"Uncletopia | Chicago | 2 | All Maps | STV","players":[{"user_id":342,"name":"CyborgHexapus4","steam_id":76561198160335724,"connected_time":388000000000,"state":"active","ping":107},{"user_id":338,"name":"Argon","steam_id":76561198091133177,"connected_time":899000000000,"state":"active","ping":59},{"user_id":344,"name":"Gill-Man","steam_id":76561198072736830,"connected_time":214000000000,"state":"active","ping":74},{"user_id":327,"name":"hatchetax","steam_id":76561199013337543,"connected_time":1443000000000,"state":"active","ping":73},{"user_id":346,"name":"nefarious criminal","steam_id":76561198077506415,"connected_time":116000000000,"state":"active","ping":59},{"user_id":313,"name":"Yume","steam_id":76561198018060136,"connected_time":1824000000000,"state":"active","ping":93},{"user_id":333,"name":"astron","steam_id":76561198058546328,"connected_time":1138000000000,"state":"active","ping":74},{"user_id":345,"name":"tulpa","steam_id":76561198013253513,"connected_time":199000000000,"state":"active","ping":70},{"user_id":310,"name":"Yosh","steam_id":76561198027078899,"connected_time":2591000000000,"state":"active","ping":78},{"user_id":302,"name":"A Puppy","steam_id":76561198828184456,"connected_time":3249000000000,"state":"active","ping":62},{"user_id":309,"name":"Castroy","steam_id":76561198108160099,"connected_time":2776000000000,"state":"active","ping":60},{"user_id":297,"name":"Knight Minson","steam_id":76561198091567396,"connected_time":3809000000000,"state":"active","ping":58},{"user_id":317,"name":"Zenela","steam_id":76561199230129805,"connected_time":1750000000000,"state":"active","ping":70},{"user_id":325,"name":"sheep","steam_id":76561198172943006,"connected_time":1500000000000,"state":"active","ping":47},{"user_id":289,"name":"bones?!?!","steam_id":76561198084646266,"connected_time":4138000000000,"state":"active","ping":78},{"user_id":335,"name":"Trainboycjb","steam_id":76561198079489880,"connected_time":1058000000000,"state":"active","ping":68},{"user_id":331,"name":"ScumLord","steam_id":76561198079621608,"connected_time":1224000000000,"state":"active","ping":98},{"user_id":303,"name":"Grandma","steam_id":76561198192419939,"connected_time":3229000000000,"state":"active","ping":137},{"user_id":301,"name":"spooky","steam_id":76561198122964663,"connected_time":3574000000000,"state":"active","ping":70},{"user_id":326,"name":"neet","steam_id":76561197968115168,"connected_time":1454000000000,"state":"active","ping":59},{"user_id":347,"name":"Dabbledornk","steam_id":76561198065241300,"connected_time":25000000000,"state":"active","ping":60},{"user_id":343,"name":"Baen","steam_id":76561198154176702,"connected_time":321000000000,"state":"active","ping":70},{"user_id":336,"name":"Zoro01","steam_id":76561198407989540,"connected_time":1006000000000,"state":"active","ping":108},{"user_id":334,"name":"money getting 1 percenter","steam_id":76561198012796388,"connected_time":1131000000000,"state":"active","ping":60}]},{"server_id":402,"name":"Uncletopia | Chicago | 3 | All Maps","name_short":"chi-3","host":"chi-1.us.uncletopia.com","port":27035,"enabled":true,"region":"us-central","cc":"us","latitude":41.881832,"longitude":-87.62318,"reserved":0,"last_update":"0001-01-01T00:00:00Z","name_a2s":"Uncletopia | Chicago | 3 | All Maps","protocol":17,"map":"pl_swiftwater_final1","folder":"tf","game":"Team Fortress","app_id":440,"player_count":24,"max_players":24,"Bots":0,"server_type":"Dedicated","server_os":"Linux","password":true,"vac":true,"version":"7882260","steam_id":85568392924515191,"keywords":["nocrits","nodmgspread","payload","uncletopia"],"game_id":440,"stv_port":27036,"stv_name":"Uncletopia | Chicago | 3 | All Maps | STV","players":[{"user_id":469,"name":"bingabooga","steam_id":76561198101057741,"connected_time":173000000000,"state":"active","ping":75},{"user_id":473,"name":"noahjwarner09","steam_id":76561199444479988,"connected_time":106000000000,"state":"active","ping":64},{"user_id":440,"name":"Mr. Soupman","steam_id":76561198021649598,"connected_time":2062000000000,"state":"active","ping":53},{"user_id":458,"name":"Games Dean","steam_id":76561198870018009,"connected_time":510000000000,"state":"active","ping":66},{"user_id":459,"name":"Mediocre Gaming","steam_id":76561199230467980,"connected_time":506000000000,"state":"active","ping":62},{"user_id":463,"name":"josh","steam_id":76561198111565081,"connected_time":320000000000,"state":"active","ping":111},{"user_id":444,"name":"Yam Jazzy Jim","steam_id":76561198000788950,"connected_time":1240000000000,"state":"active","ping":65},{"user_id":438,"name":"Menacing Pile of Frogs","steam_id":76561198360134800,"connected_time":2138000000000,"state":"active","ping":74},{"user_id":456,"name":"LG_Fridge_User","steam_id":76561198977815014,"connected_time":692000000000,"state":"active","ping":76},{"user_id":470,"name":"shalankawanak","steam_id":76561198987719376,"connected_time":149000000000,"state":"active","ping":59},{"user_id":402,"name":"Eins","steam_id":76561199030343810,"connected_time":4142000000000,"state":"active","ping":53},{"user_id":466,"name":"Loxic","steam_id":76561198043617388,"connected_time":239000000000,"state":"active","ping":70},{"user_id":467,"name":"Awenova","steam_id":76561198322928940,"connected_time":235000000000,"state":"active","ping":61},{"user_id":368,"name":"freebigslappy","steam_id":76561198068538473,"connected_time":6127000000000,"state":"active","ping":80},{"user_id":445,"name":"Triples_","steam_id":76561198094249561,"connected_time":1235000000000,"state":"active","ping":59},{"user_id":436,"name":"Ohio Survivor","steam_id":76561198031675881,"connected_time":2243000000000,"state":"active","ping":44},{"user_id":454,"name":"JHLO","steam_id":76561198074359967,"connected_time":999000000000,"state":"active","ping":89},{"user_id":471,"name":"Some random dude","steam_id":76561199477705792,"connected_time":131000000000,"state":"active","ping":123},{"user_id":432,"name":"gaming elliptical","steam_id":76561198013456569,"connected_time":2537000000000,"state":"active","ping":46},{"user_id":341,"name":"Yukon Cornelius","steam_id":76561198261512781,"connected_time":7515000000000,"state":"active","ping":69},{"user_id":412,"name":"J.G. Klaus","steam_id":76561198001111196,"connected_time":3821000000000,"state":"active","ping":60},{"user_id":448,"name":"good soup guy","steam_id":76561199210237835,"connected_time":1211000000000,"state":"active","ping":73},{"user_id":472,"name":"Enron Hubbard","steam_id":76561198012951411,"connected_time":129000000000,"state":"active","ping":62},{"user_id":424,"name":"Jbomb","steam_id":76561199197866625,"connected_time":3333000000000,"state":"active","ping":68}]},{"server_id":403,"name":"Uncletopia | Chicago | 4 | All Maps","name_short":"chi-4","host":"chi-1.us.uncletopia.com","port":27045,"enabled":true,"region":"us-central","cc":"us","latitude":41.881832,"longitude":-87.62318,"reserved":0,"last_update":"0001-01-01T00:00:00Z","name_a2s":"Uncletopia | Chicago | 4 | All Maps","protocol":17,"map":"koth_viaduct","folder":"tf","game":"Team Fortress","app_id":440,"player_count":6,"max_players":24,"Bots":0,"server_type":"Dedicated","server_os":"Linux","password":true,"vac":true,"version":"7882260","steam_id":85568392924515193,"keywords":["cp","nocrits","nodmgspread","uncletopia"],"game_id":440,"stv_port":27046,"stv_name":"Uncletopia | Chicago | 4 | All Maps | STV","players":[{"user_id":12,"name":"violent monkey porn","steam_id":76561199285074344,"connected_time":942000000000,"state":"active","ping":57},{"user_id":13,"name":"GoofyGrimace","steam_id":76561198330423246,"connected_time":850000000000,"state":"active","ping":82},{"user_id":14,"name":"I'm trying my best","steam_id":76561198886157874,"connected_time":633000000000,"state":"active","ping":65},{"user_id":15,"name":"Cupidmeh","steam_id":76561198138669654,"connected_time":597000000000,"state":"active","ping":61},{"user_id":19,"name":"Areg (real)","steam_id":76561198035130968,"connected_time":471000000000,"state":"active","ping":54},{"user_id":22,"name":"pisslow peter","steam_id":76561198153669555,"connected_time":220000000000,"state":"active","ping":76}]},{"server_id":36,"name":"Uncletopia | Chicago | 5 | All Maps","name_short":"chi-5","host":"chi-2.us.uncletopia.com","port":27015,"enabled":true,"region":"us-central","cc":"us","latitude":41.881832,"longitude":-87.62318,"reserved":0,"last_update":"0001-01-01T00:00:00Z","name_a2s":"Uncletopia | Chicago | 5 | All Maps","protocol":17,"map":"cp_mountainlab","folder":"tf","game":"Team Fortress","app_id":440,"player_count":0,"max_players":24,"Bots":0,"server_type":"Dedicated","server_os":"Linux","password":true,"vac":true,"version":"7882260","steam_id":85568392924866362,"keywords":["cp","nocrits","nodmgspread","uncletopia"],"game_id":440,"stv_port":27016,"stv_name":"Uncletopia | Chicago | 5 | All Maps | STV","players":null},{"server_id":37,"name":"Uncletopia | Chicago | 6 | All Maps","name_short":"chi-6","host":"chi-2.us.uncletopia.com","port":27025,"enabled":true,"region":"us-central","cc":"us","latitude":41.881832,"longitude":-87.62318,"reserved":0,"last_update":"0001-01-01T00:00:00Z","name_a2s":"Uncletopia | Chicago | 6 | All Maps","protocol":17,"map":"pl_swiftwater_final1","folder":"tf","game":"Team Fortress","app_id":440,"player_count":24,"max_players":24,"Bots":0,"server_type":"Dedicated","server_os":"Linux","password":true,"vac":true,"version":"7882260","steam_id":85568392924866363,"keywords":["nocrits","nodmgspread","payload","uncletopia"],"game_id":440,"stv_port":27026,"stv_name":"Uncletopia | Chicago | 6 | All Maps | STV","players":[{"user_id":482,"name":"Kaluka","steam_id":76561198036861445,"connected_time":730000000000,"state":"active","ping":68},{"user_id":485,"name":"Antifa Alligator","steam_id":76561197988170816,"connected_time":593000000000,"state":"active","ping":56},{"user_id":489,"name":"DJ Giant [They/Them]","steam_id":76561198288059782,"connected_time":471000000000,"state":"active","ping":134},{"user_id":425,"name":"I Can't Read","steam_id":76561198023424263,"connected_time":5821000000000,"state":"active","ping":86},{"user_id":488,"name":"Quebec","steam_id":76561198865760503,"connected_time":494000000000,"state":"active","ping":72},{"user_id":486,"name":"2spooky","steam_id":76561198094747637,"connected_time":557000000000,"state":"active","ping":98},{"user_id":491,"name":"Polly Geist","steam_id":76561198271964253,"connected_time":90000000000,"state":"active","ping":74},{"user_id":467,"name":"Mr.Bady","steam_id":76561199094651706,"connected_time":1759000000000,"state":"active","ping":64},{"user_id":464,"name":"Nrub","steam_id":76561199486344810,"connected_time":1800000000000,"state":"active","ping":71},{"user_id":484,"name":"A Rhino with Coronavirus","steam_id":76561197999451366,"connected_time":658000000000,"state":"active","ping":70},{"user_id":487,"name":"HammaBro","steam_id":76561198027776872,"connected_time":538000000000,"state":"active","ping":65},{"user_id":471,"name":"dr peppah chug!","steam_id":76561198068835693,"connected_time":1252000000000,"state":"active","ping":92},{"user_id":451,"name":"stink","steam_id":76561198099318923,"connected_time":3510000000000,"state":"active","ping":59},{"user_id":462,"name":"Dr. Robotniks Mean Bean Machine","steam_id":76561198047980627,"connected_time":2598000000000,"state":"active","ping":48},{"user_id":490,"name":"LWebb","steam_id":76561199162936929,"connected_time":470000000000,"state":"active","ping":86},{"user_id":478,"name":"w","steam_id":76561198063099828,"connected_time":1072000000000,"state":"active","ping":48},{"user_id":419,"name":"jooby","steam_id":76561198131065492,"connected_time":6470000000000,"state":"active","ping":70},{"user_id":452,"name":"Potato Knishes","steam_id":76561198063539547,"connected_time":3476000000000,"state":"active","ping":112},{"user_id":456,"name":"elmo","steam_id":76561198179171574,"connected_time":3355000000000,"state":"active","ping":84},{"user_id":418,"name":"Uwu Micster","steam_id":76561198843890616,"connected_time":6509000000000,"state":"active","ping":82},{"user_id":481,"name":"turbo feeder","steam_id":76561198057017027,"connected_time":932000000000,"state":"active","ping":79},{"user_id":458,"name":"Kzjytsugn","steam_id":76561198130241974,"connected_time":2887000000000,"state":"active","ping":87},{"user_id":443,"name":"ZofoJackson","steam_id":76561197998366861,"connected_time":3888000000000,"state":"active","ping":58},{"user_id":441,"name":"ryghehn","steam_id":76561198195359229,"connected_time":4337000000000,"state":"active","ping":90}]},{"server_id":38,"name":"Uncletopia | Chicago | 7 | Stopwatch Beta","name_short":"chi-7","host":"chi-2.us.uncletopia.com","port":27035,"enabled":true,"region":"us-central","cc":"us","latitude":41.881832,"longitude":-87.62318,"reserved":0,"last_update":"0001-01-01T00:00:00Z","name_a2s":"Uncletopia | Chicago | 7 | Stopwatch Beta","protocol":17,"map":"cp_process_final","folder":"tf","game":"Team Fortress","app_id":440,"player_count":10,"max_players":24,"Bots":0,"server_type":"Dedicated","server_os":"Linux","password":true,"vac":true,"version":"7882260","steam_id":85568392924866364,"keywords":["cp","nocrits","nodmgspread","uncletopia"],"game_id":440,"stv_port":27036,"stv_name":"Uncletopia | Chicago | 7 | Stopwatch Beta | STV","players":[{"user_id":250,"name":"M336","steam_id":76561198060881884,"connected_time":234000000000,"state":"active","ping":55},{"user_id":231,"name":"Jeugh","steam_id":76561198073498865,"connected_time":1731000000000,"state":"active","ping":85},{"user_id":240,"name":"Solstrom","steam_id":76561198313364985,"connected_time":1196000000000,"state":"active","ping":69},{"user_id":187,"name":"pumpernickelpeter47","steam_id":76561198202016334,"connected_time":4736000000000,"state":"active","ping":60},{"user_id":251,"name":"i.luv.fuzzy.cats","steam_id":76561199403990768,"connected_time":150000000000,"state":"active","ping":47},{"user_id":172,"name":"A Trigger Happy Chipmunk","steam_id":76561198013608736,"connected_time":5295000000000,"state":"active","ping":52},{"user_id":245,"name":"HUNDAN_","steam_id":76561198075950333,"connected_time":1019000000000,"state":"active","ping":74},{"user_id":154,"name":"OOOOOOOOOOOOOOOOOOOOOOOOOOOOOOO","steam_id":76561198083276946,"connected_time":7234000000000,"state":"active","ping":67},{"user_id":215,"name":"GamingJuice42","steam_id":76561198110469437,"connected_time":3626000000000,"state":"active","ping":54},{"user_id":216,"name":"SecurityCamera","steam_id":76561198117266792,"connected_time":3582000000000,"state":"active","ping":143}]},{"server_id":39,"name":"Uncletopia | Chicago | 8 | Community","name_short":"chi-8","host":"chi-2.us.uncletopia.com","port":27045,"enabled":true,"region":"us-central","cc":"us","latitude":41.881832,"longitude":-87.62318,"reserved":0,"last_update":"0001-01-01T00:00:00Z","name_a2s":"Uncletopia | Chicago | 8 | Community","protocol":17,"map":"workshop/pl_fifthcurve_rc1.ugc648227046","folder":"tf","game":"Team Fortress","app_id":440,"player_count":0,"max_players":24,"Bots":0,"server_type":"Dedicated","server_os":"Linux","password":true,"vac":true,"version":"7882260","steam_id":85568392924866365,"keywords":["nocrits","nodmgspread","payload","uncletopia"],"game_id":440,"stv_port":27046,"stv_name":"Uncletopia | Chicago | 8 | Community | STV","players":null},{"server_id":8,"name":"Uncletopia | Dallas | 1 | All Maps","name_short":"dal-1","host":"dal-1.us.uncletopia.com","port":27015,"enabled":true,"region":"us-central","cc":"us","latitude":32.779167,"longitude":-96.80889,"reserved":0,"last_update":"0001-01-01T00:00:00Z","name_a2s":"Uncletopia | Dallas | 1 | All Maps","protocol":17,"map":"cp_egypt_final","folder":"tf","game":"Team Fortress","app_id":440,"player_count":24,"max_players":24,"Bots":0,"server_type":"Dedicated","server_os":"Linux","password":true,"vac":true,"version":"7882260","steam_id":85568392924469986,"keywords":["cp","nocrits","nodmgspread","uncletopia"],"game_id":440,"stv_port":27016,"stv_name":"Uncletopia | Dallas | 1 | All Maps | STV","players":[{"user_id":257,"name":"$5 biggie bag","steam_id":76561198298310744,"connected_time":2946000000000,"state":"active","ping":86},{"user_id":260,"name":"mae","steam_id":76561199263128928,"connected_time":2723000000000,"state":"active","ping":100},{"user_id":289,"name":"Fishandfish","steam_id":76561198298483804,"connected_time":574000000000,"state":"active","ping":91},{"user_id":262,"name":"FruitsBasket2004","steam_id":76561199483951635,"connected_time":2711000000000,"state":"active","ping":100},{"user_id":284,"name":"Meat Mans Meat","steam_id":76561198062149455,"connected_time":672000000000,"state":"active","ping":59},{"user_id":209,"name":"oph","steam_id":76561198130182991,"connected_time":7578000000000,"state":"active","ping":92},{"user_id":285,"name":"White_Wizard_Named_Corona","steam_id":76561198055652735,"connected_time":664000000000,"state":"active","ping":101},{"user_id":286,"name":"HAT-WEARING‚Ñ¢ Maggot Gamer Cat","steam_id":76561197973992705,"connected_time":656000000000,"state":"active","ping":94},{"user_id":297,"name":"Idk","steam_id":76561198971629959,"connected_time":149000000000,"state":"active","ping":134},{"user_id":270,"name":"trobin120","steam_id":76561199122420273,"connected_time":2295000000000,"state":"active","ping":85},{"user_id":291,"name":"Jovo","steam_id":76561197993265970,"connected_time":428000000000,"state":"active","ping":99},{"user_id":288,"name":"Garfelf","steam_id":76561198419850129,"connected_time":631000000000,"state":"active","ping":122},{"user_id":279,"name":"DeadMeme","steam_id":76561198269707793,"connected_time":1164000000000,"state":"active","ping":65},{"user_id":292,"name":"peedrinker","steam_id":76561198876275070,"connected_time":414000000000,"state":"active","ping":98},{"user_id":236,"name":"DMM","steam_id":76561198065426171,"connected_time":5008000000000,"state":"active","ping":48},{"user_id":204,"name":"waowaowao","steam_id":76561198068804538,"connected_time":7961000000000,"state":"active","ping":80},{"user_id":293,"name":"old_gus","steam_id":76561197964214993,"connected_time":349000000000,"state":"active","ping":77},{"user_id":294,"name":"MI6zombieguy92","steam_id":76561198008532694,"connected_time":337000000000,"state":"active","ping":68},{"user_id":298,"name":"Naffty","steam_id":76561198119734981,"connected_time":122000000000,"state":"active","ping":80},{"user_id":278,"name":"Penguinodle","steam_id":76561199082347306,"connected_time":1371000000000,"state":"active","ping":42},{"user_id":213,"name":"TheMrMan","steam_id":76561198072304288,"connected_time":6796000000000,"state":"active","ping":96},{"user_id":296,"name":"Luff","steam_id":76561198224848656,"connected_time":303000000000,"state":"active","ping":62},{"user_id":180,"name":"motherfucker 2.0","steam_id":76561198141189209,"connected_time":10310000000000,"state":"active","ping":42},{"user_id":256,"name":"Mellou","steam_id":76561198212048740,"connected_time":2983000000000,"state":"active","ping":34}]},{"server_id":108,"name":"Uncletopia | Dallas | 2 | All Maps","name_short":"dal-2","host":"dal-1.us.uncletopia.com","port":27025,"enabled":true,"region":"us-central","cc":"us","latitude":32.779167,"longitude":-96.80889,"reserved":0,"last_update":"0001-01-01T00:00:00Z","name_a2s":"Uncletopia | Dallas | 2 | All Maps","protocol":17,"map":"cp_snakewater_final1","folder":"tf","game":"Team Fortress","app_id":440,"player_count":24,"max_players":24,"Bots":0,"server_type":"Dedicated","server_os":"Linux","password":true,"vac":true,"version":"7882260","steam_id":85568392924469988,"keywords":["cp","nocrits","nodmgspread","uncletopia"],"game_id":440,"stv_port":27026,"stv_name":"Uncletopia | Dallas | 2 | All Maps | STV","players":[{"user_id":325,"name":"t.tv/lillieceon","steam_id":76561198062297621,"connected_time":3835000000000,"state":"active","ping":73},{"user_id":334,"name":"FaelisongTalim","steam_id":76561198061921771,"connected_time":3125000000000,"state":"active","ping":90},{"user_id":368,"name":"yitz","steam_id":76561198375575841,"connected_time":246000000000,"state":"active","ping":74},{"user_id":343,"name":"His buddy Eric","steam_id":76561198275362375,"connected_time":2803000000000,"state":"active","ping":89},{"user_id":316,"name":"Ferguson","steam_id":76561198121349387,"connected_time":4788000000000,"state":"active","ping":58},{"user_id":365,"name":"Sky Tree","steam_id":76561198027103242,"connected_time":474000000000,"state":"active","ping":75},{"user_id":335,"name":"Cave Dweller","steam_id":76561198374825685,"connected_time":3119000000000,"state":"active","ping":100},{"user_id":356,"name":"Burrbank","steam_id":76561198042888060,"connected_time":1271000000000,"state":"active","ping":105},{"user_id":302,"name":"troutsupply.net | shitass","steam_id":76561198210572481,"connected_time":5181000000000,"state":"active","ping":60},{"user_id":367,"name":"Kamin","steam_id":76561198255299559,"connected_time":361000000000,"state":"active","ping":65},{"user_id":366,"name":"joyboy","steam_id":76561198400381132,"connected_time":461000000000,"state":"active","ping":76},{"user_id":347,"name":"Addy \u003c3","steam_id":76561198045819723,"connected_time":2460000000000,"state":"active","ping":102},{"user_id":351,"name":"macroplastics","steam_id":76561198077272494,"connected_time":1642000000000,"state":"active","ping":75},{"user_id":363,"name":"Colonel Salt","steam_id":76561198207009563,"connected_time":872000000000,"state":"active","ping":69},{"user_id":358,"name":"HomerSims","steam_id":76561198329238301,"connected_time":1264000000000,"state":"active","ping":103},{"user_id":350,"name":"E. Gordbort","steam_id":76561198094231961,"connected_time":1685000000000,"state":"active","ping":64},{"user_id":353,"name":"Nibareaux","steam_id":76561198322044169,"connected_time":1302000000000,"state":"active","ping":61},{"user_id":359,"name":"Sariff","steam_id":76561198136446352,"connected_time":1254000000000,"state":"active","ping":76},{"user_id":352,"name":"Sup m8","steam_id":76561198081659121,"connected_time":1578000000000,"state":"active","ping":42},{"user_id":333,"name":"webaline","steam_id":76561199052450127,"connected_time":3177000000000,"state":"active","ping":82},{"user_id":364,"name":"Banned from Legoland(ate Legos)","steam_id":76561198109740916,"connected_time":697000000000,"state":"active","ping":87},{"user_id":361,"name":"Squiliam","steam_id":76561198025278006,"connected_time":1249000000000,"state":"active","ping":43},{"user_id":362,"name":"Alice in Rubberland","steam_id":76561198087328346,"connected_time":1241000000000,"state":"active","ping":61},{"user_id":319,"name":"Glaceon","steam_id":76561198177715869,"connected_time":4380000000000,"state":"active","ping":68}]},{"server_id":5,"name":"Uncletopia | Frankfurt | 1 | All Maps","name_short":"frk-1","host":"frk-1.de.uncletopia.com","port":27015,"enabled":true,"region":"eu","cc":"de","latitude":50.110924,"longitude":8.682127,"reserved":0,"last_update":"0001-01-01T00:00:00Z","name_a2s":"Uncletopia | Frankfurt | 1 | All Maps","protocol":17,"map":"pl_badwater","folder":"tf","game":"Team Fortress","app_id":440,"player_count":23,"max_players":24,"Bots":0,"server_type":"Dedicated","server_os":"Linux","password":true,"vac":true,"version":"7882260","steam_id":85568392924469989,"keywords":["nocrits","nodmgspread","payload","uncletopia"],"game_id":440,"stv_port":27016,"stv_name":"Uncletopia | Frankfurt | 1 | All Maps | STV","players":[{"user_id":654,"name":"–ë–∞—Ä—Ö–∞—Ç–Ω—ã–µ —Ç—è–≥–∏, –ö","steam_id":76561198214926087,"connected_time":560000000000,"state":"active","ping":84},{"user_id":670,"name":"Mr.O #deletesniper","steam_id":76561198039567498,"connected_time":140000000000,"state":"active","ping":55},{"user_id":661,"name":"Raving Classicist -1000","steam_id":76561198152733105,"connected_time":495000000000,"state":"active","ping":69},{"user_id":656,"name":"Ocelot9610","steam_id":76561199227216384,"connected_time":559000000000,"state":"active","ping":70},{"user_id":671,"name":"Konfy","steam_id":76561197985074663,"connected_time":134000000000,"state":"active","ping":49},{"user_id":601,"name":"Grease Huffer","steam_id":76561198982674420,"connected_time":4755000000000,"state":"active","ping":59},{"user_id":675,"name":"twice the quantity of donks","steam_id":76561198033695429,"connected_time":60000000000,"state":"active","ping":56},{"user_id":605,"name":"–ù–∞—á–∞–ª—å–Ω–∏–∫","steam_id":76561198422028453,"connected_time":4511000000000,"state":"active","ping":79},{"user_id":676,"name":"Yelowchy","steam_id":76561198199416121,"connected_time":42000000000,"state":"active","ping":60},{"user_id":657,"name":"KLAMA  ‚ù§","steam_id":76561198351549661,"connected_time":558000000000,"state":"active","ping":60},{"user_id":669,"name":"_Starlight_","steam_id":76561197993885738,"connected_time":186000000000,"state":"active","ping":78},{"user_id":673,"name":"rummy","steam_id":76561197997573379,"connected_time":126000000000,"state":"active","ping":64},{"user_id":672,"name":"Tob","steam_id":76561198108250545,"connected_time":130000000000,"state":"active","ping":47},{"user_id":625,"name":"hadeS","steam_id":76561199435854673,"connected_time":3891000000000,"state":"active","ping":90},{"user_id":663,"name":"rob","steam_id":76561198122211848,"connected_time":444000000000,"state":"active","ping":97},{"user_id":660,"name":"JƒÅnis Aizups | LV","steam_id":76561198129947877,"connected_time":532000000000,"state":"active","ping":87},{"user_id":677,"name":"liquid dog","steam_id":76561198158793828,"connected_time":32000000000,"state":"active","ping":77},{"user_id":664,"name":"Cosmetic brain","steam_id":76561198055936410,"connected_time":430000000000,"state":"active","ping":84},{"user_id":665,"name":"NeiroüëΩ·ó©YY ·í™·ó∞·ó©O","steam_id":76561198046743985,"connected_time":410000000000,"state":"active","ping":78},{"user_id":678,"name":"RIFT","steam_id":76561198991622379,"connected_time":2000000000,"state":"spawning","ping":43},{"user_id":666,"name":"Raulca25","steam_id":76561199068256964,"connected_time":401000000000,"state":"active","ping":89},{"user_id":679,"name":"B.I.G CHEDDAR (FEAT, Lil'Chili)","steam_id":76561198074722832,"connected_time":1000000000,"state":"spawning","ping":37},{"user_id":667,"name":"Cataleptic","steam_id":76561197997966949,"connected_time":396000000000,"state":"active","ping":97}]},{"server_id":110,"name":"Uncletopia | Frankfurt | 2 | All Maps","name_short":"frk-2","host":"frk-1.de.uncletopia.com","port":27025,"enabled":true,"region":"eu","cc":"de","latitude":50.110924,"longitude":8.682127,"reserved":0,"last_update":"0001-01-01T00:00:00Z","name_a2s":"Uncletopia | Frankfurt | 2 | All Maps","protocol":17,"map":"cp_dustbowl","folder":"tf","game":"Team Fortress","app_id":440,"player_count":19,"max_players":24,"Bots":0,"server_type":"Dedicated","server_os":"Linux","password":true,"vac":true,"version":"7882260","steam_id":85568392924469990,"keywords":["cp","nocrits","nodmgspread","uncletopia"],"game_id":440,"stv_port":27026,"stv_name":"Uncletopia | Frankfurt | 2 | All Maps | STV","players":[{"user_id":392,"name":"screenshot2020-25-09","steam_id":76561198255275650,"connected_time":1464000000000,"state":"active","ping":47},{"user_id":393,"name":"GuSkand","steam_id":76561198043775605,"connected_time":1434000000000,"state":"active","ping":80},{"user_id":395,"name":"ooz","steam_id":76561198062257357,"connected_time":1411000000000,"state":"active","ping":49},{"user_id":409,"name":"He's Back and He's Black","steam_id":76561198105443986,"connected_time":622000000000,"state":"active","ping":83},{"user_id":411,"name":"PrimeTarget","steam_id":76561198046409289,"connected_time":179000000000,"state":"active","ping":69},{"user_id":412,"name":"„Éï„Ç°„ÉÉ„Ç´„Éñ„É´„Éª„Éâ„É©„Ç¥","steam_id":76561198016649655,"connected_time":56000000000,"state":"active","ping":81},{"user_id":347,"name":"VampiuS","steam_id":76561197998827007,"connected_time":4082000000000,"state":"active","ping":46},{"user_id":413,"name":"Veritasket","steam_id":76561198090074093,"connected_time":41000000000,"state":"active","ping":65},{"user_id":396,"name":"midlpsyzl47","steam_id":76561199475972637,"connected_time":1410000000000,"state":"active","ping":68},{"user_id":406,"name":"8 Ball","steam_id":76561197960988736,"connected_time":756000000000,"state":"active","ping":60},{"user_id":408,"name":"Lind","steam_id":76561198258307584,"connected_time":648000000000,"state":"active","ping":123},{"user_id":410,"name":"Tusho","steam_id":76561198115447383,"connected_time":235000000000,"state":"active","ping":127},{"user_id":367,"name":"eggy","steam_id":76561198255623584,"connected_time":3274000000000,"state":"active","ping":62},{"user_id":405,"name":"Hivel","steam_id":76561198151390773,"connected_time":875000000000,"state":"active","ping":82},{"user_id":387,"name":"Striker25","steam_id":76561197975265634,"connected_time":1945000000000,"state":"active","ping":71},{"user_id":370,"name":"dansci","steam_id":76561198269530717,"connected_time":3191000000000,"state":"active","ping":150},{"user_id":400,"name":"rock","steam_id":76561198093488870,"connected_time":1323000000000,"state":"active","ping":75},{"user_id":331,"name":"madijo","steam_id":76561198012617400,"connected_time":5080000000000,"state":"active","ping":60},{"user_id":407,"name":"Steve aus der Buchhaltung","steam_id":76561198167986695,"connected_time":744000000000,"state":"active","ping":45}]},{"server_id":308,"name":"Uncletopia | Frankfurt | 3 | All Maps","name_short":"frk-3","host":"frk-1.de.uncletopia.com","port":27035,"enabled":true,"region":"eu","cc":"de","latitude":50.110924,"longitude":8.682127,"reserved":0,"last_update":"0001-01-01T00:00:00Z","name_a2s":"Uncletopia | Frankfurt | 3 | All Maps","protocol":17,"map":"koth_viaduct","folder":"tf","game":"Team Fortress","app_id":440,"player_count":0,"max_players":24,"Bots":0,"server_type":"Dedicated","server_os":"Linux","password":true,"vac":true,"version":"7882260","steam_id":85568392924504274,"keywords":["cp","nocrits","nodmgspread","uncletopia"],"game_id":440,"stv_port":27036,"stv_name":"Uncletopia | Frankfurt | 3 | All Maps | STV","players":null},{"server_id":309,"name":"Uncletopia | Frankfurt | 4 | All Maps","name_short":"frk-4","host":"frk-1.de.uncletopia.com","port":27045,"enabled":true,"region":"eu","cc":"de","latitude":50.110924,"longitude":8.682127,"reserved":0,"last_update":"0001-01-01T00:00:00Z","name_a2s":"Uncletopia | Frankfurt | 4 | All Maps","protocol":17,"map":"pl_badwater","folder":"tf","game":"Team Fortress","app_id":440,"player_count":11,"max_players":24,"Bots":0,"server_type":"Dedicated","server_os":"Linux","password":true,"vac":true,"version":"7882260","steam_id":85568392924504275,"keywords":["nocrits","nodmgspread","payload","uncletopia"],"game_id":440,"stv_port":27046,"stv_name":"Uncletopia | Frankfurt | 4 | All Maps | STV","players":[{"user_id":59,"name":"Rai","steam_id":76561199408923294,"connected_time":3883000000000,"state":"active","ping":70},{"user_id":73,"name":"cl","steam_id":76561199436640904,"connected_time":2602000000000,"state":"active","ping":75},{"user_id":88,"name":"Kakuszita","steam_id":76561199243924475,"connected_time":1917000000000,"state":"active","ping":75},{"user_id":105,"name":"spy","steam_id":76561198364943570,"connected_time":1207000000000,"state":"active","ping":135},{"user_id":96,"name":"Shovelhalfrusty","steam_id":76561198346447513,"connected_time":1719000000000,"state":"active","ping":71},{"user_id":107,"name":"Adopted?","steam_id":76561198118667043,"connected_time":589000000000,"state":"active","ping":56},{"user_id":99,"name":"Zerfesh","steam_id":76561198117534358,"connected_time":1666000000000,"state":"active","ping":86},{"user_id":27,"name":"bruh","steam_id":76561197993922244,"connected_time":6681000000000,"state":"active","ping":45},{"user_id":76,"name":"why rum gone","steam_id":76561198158484784,"connected_time":2530000000000,"state":"active","ping":59},{"user_id":92,"name":"Dr Ludwig","steam_id":76561198426522902,"connected_time":1793000000000,"state":"active","ping":63},{"user_id":102,"name":"bananen pizza","steam_id":76561199212990079,"connected_time":1528000000000,"state":"active","ping":55}]},{"server_id":310,"name":"Uncletopia | Frankfurt | 5 | All Maps","name_short":"frk-5","host":"frk-1.de.uncletopia.com","port":27055,"enabled":true,"region":"eu","cc":"de","latitude":50.110924,"longitude":8.682127,"reserved":0,"last_update":"0001-01-01T00:00:00Z","name_a2s":"Uncletopia | Frankfurt | 5 | All Maps","protocol":17,"map":"pl_borneo","folder":"tf","game":"Team Fortress","app_id":440,"player_count":0,"max_players":24,"Bots":0,"server_type":"Dedicated","server_os":"Linux","password":true,"vac":true,"version":"7882260","steam_id":85568392924504277,"keywords":["nocrits","nodmgspread","payload","uncletopia"],"game_id":440,"stv_port":27056,"stv_name":"Uncletopia | Frankfurt | 5 | All Maps | STV","players":null},{"server_id":311,"name":"Uncletopia | Frankfurt | 6 | All Maps","name_short":"frk-6","host":"frk-1.de.uncletopia.com","port":27065,"enabled":true,"region":"eu","cc":"de","latitude":50.110924,"longitude":8.682127,"reserved":0,"last_update":"0001-01-01T00:00:00Z","name_a2s":"Uncletopia | Frankfurt | 6 | All Maps","protocol":17,"map":"pl_barnblitz","folder":"tf","game":"Team Fortress","app_id":440,"player_count":16,"max_players":24,"Bots":0,"server_type":"Dedicated","server_os":"Linux","password":true,"vac":true,"version":"7882260","steam_id":85568392924504278,"keywords":["nocrits","nodmgspread","payload","uncletopia"],"game_id":440,"stv_port":27066,"stv_name":"Uncletopia | Frankfurt | 6 | All Maps | STV","players":[{"user_id":515,"name":"dakkafex","steam_id":76561198020254869,"connected_time":1218000000000,"state":"active","ping":49},{"user_id":509,"name":"Piteras","steam_id":76561198858532207,"connected_time":1359000000000,"state":"active","ping":74},{"user_id":533,"name":"Snowmotion","steam_id":76561198075022454,"connected_time":81000000000,"state":"active","ping":61},{"user_id":522,"name":"Tywhip","steam_id":76561199207545191,"connected_time":652000000000,"state":"active","ping":59},{"user_id":489,"name":"Okkster","steam_id":76561197971835090,"connected_time":3757000000000,"state":"active","ping":56},{"user_id":530,"name":"say gex","steam_id":76561198808819694,"connected_time":326000000000,"state":"active","ping":45},{"user_id":531,"name":"o==[]::::::::::\u003e","steam_id":76561198273666300,"connected_time":155000000000,"state":"active","ping":65},{"user_id":494,"name":"Droy","steam_id":76561198065854668,"connected_time":2529000000000,"state":"active","ping":55},{"user_id":527,"name":"Kleiner Engel","steam_id":76561198009922500,"connected_time":450000000000,"state":"active","ping":58},{"user_id":508,"name":"gagalak","steam_id":76561198089979108,"connected_time":1384000000000,"state":"active","ping":91},{"user_id":526,"name":"Tyranitar","steam_id":76561198094473194,"connected_time":528000000000,"state":"active","ping":57},{"user_id":524,"name":"oriano","steam_id":76561198099916327,"connected_time":638000000000,"state":"active","ping":62},{"user_id":528,"name":"the devil","steam_id":76561198905911729,"connected_time":420000000000,"state":"active","ping":69},{"user_id":512,"name":"tunamayo","steam_id":76561198127099299,"connected_time":1322000000000,"state":"active","ping":51},{"user_id":516,"name":"etc","steam_id":76561197998394797,"connected_time":989000000000,"state":"active","ping":54},{"user_id":514,"name":"Kekeke","steam_id":76561198063672270,"connected_time":1252000000000,"state":"active","ping":96}]},{"server_id":23,"name":"Uncletopia | Frankfurt | 7 | Stopwatch Beta","name_short":"frk-7","host":"frk-1.de.uncletopia.com","port":27075,"enabled":true,"region":"eu","cc":"de","latitude":50.110924,"longitude":8.682127,"reserved":0,"last_update":"0001-01-01T00:00:00Z","name_a2s":"Uncletopia | Frankfurt | 7 | Stopwatch Beta","protocol":17,"map":"workshop/koth_bagel_rc6.ugc2514036946","folder":"tf","game":"Team Fortress","app_id":440,"player_count":0,"max_players":24,"Bots":0,"server_type":"Dedicated","server_os":"Linux","password":true,"vac":true,"version":"7882260","steam_id":85568392924742827,"keywords":["cp","nocrits","nodmgspread","uncletopia"],"game_id":440,"stv_port":27076,"stv_name":"Uncletopia | Frankfurt | 7 | Stopwatch Beta | STV","players":null},{"server_id":24,"name":"Uncletopia | Frankfurt | 8 | Community","name_short":"frk-8","host":"frk-1.de.uncletopia.com","port":27085,"enabled":true,"region":"eu","cc":"de","latitude":50.110924,"longitude":8.682127,"reserved":0,"last_update":"0001-01-01T00:00:00Z","name_a2s":"Uncletopia | Frankfurt | 8 | Community","protocol":17,"map":"workshop/pl_corrode_rc2.ugc546577989","folder":"tf","game":"Team Fortress","app_id":440,"player_count":0,"max_players":24,"Bots":0,"server_type":"Dedicated","server_os":"Linux","password":true,"vac":true,"version":"7882260","steam_id":85568392924742828,"keywords":["nocrits","nodmgspread","payload","uncletopia"],"game_id":440,"stv_port":27086,"stv_name":"Uncletopia | Frankfurt | 8 | Community | STV","players":null},{"server_id":202,"name":"Uncletopia | Hong Kong | 1 | All Maps","name_short":"hgk-1","host":"hgk-1.hk.uncletopia.com","port":27015,"enabled":true,"region":"asia","cc":"hk","latitude":22.302711,"longitude":114.177216,"reserved":0,"last_update":"0001-01-01T00:00:00Z","name_a2s":"Uncletopia | Hong Kong | 1 | All Maps","protocol":17,"map":"koth_viaduct","folder":"tf","game":"Team Fortress","app_id":440,"player_count":0,"max_players":24,"Bots":0,"server_type":"Dedicated","server_os":"Linux","password":true,"vac":true,"version":"7882260","steam_id":85568392924494504,"keywords":["cp","nocrits","nodmgspread","uncletopia"],"game_id":440,"stv_port":27016,"stv_name":"Uncletopia | Hong Kong | 1 | All Maps | STV","players":null},{"server_id":1,"name":"Uncletopia | Los Angeles | 1 | All Maps","name_short":"lax-1","host":"lax-1.us.uncletopia.com","port":27015,"enabled":true,"region":"us-west","cc":"us","latitude":33.94279,"longitude":-118.41004,"reserved":0,"last_update":"0001-01-01T00:00:00Z","name_a2s":"Uncletopia | Los Angeles | 1 | All Maps","protocol":17,"map":"cp_dustbowl","folder":"tf","game":"Team Fortress","app_id":440,"player_count":24,"max_players":24,"Bots":0,"server_type":"Dedicated","server_os":"Linux","password":true,"vac":true,"version":"7882260","steam_id":85568392924469991,"keywords":["cp","nocrits","nodmgspread","uncletopia"],"game_id":440,"stv_port":27016,"stv_name":"Uncletopia | Los Angeles | 1 | All Maps | STV","players":[{"user_id":187,"name":"SolarusD","steam_id":76561198029279861,"connected_time":786000000000,"state":"active","ping":59},{"user_id":159,"name":"BurdBrain","steam_id":76561197962097737,"connected_time":2081000000000,"state":"active","ping":56},{"user_id":195,"name":"Stupid Monkey =3","steam_id":76561198024580166,"connected_time":181000000000,"state":"active","ping":75},{"user_id":193,"name":"stboncho","steam_id":76561198172275301,"connected_time":412000000000,"state":"active","ping":66},{"user_id":190,"name":"Wavelengths (they/it)","steam_id":76561197997621320,"connected_time":507000000000,"state":"active","ping":75},{"user_id":175,"name":"frog with knife","steam_id":76561198171203882,"connected_time":1192000000000,"state":"active","ping":103},{"user_id":185,"name":"KotaKotaKota","steam_id":76561198448745233,"connected_time":808000000000,"state":"active","ping":118},{"user_id":173,"name":"Mainlanders","steam_id":76561198329361992,"connected_time":1342000000000,"state":"active","ping":75},{"user_id":152,"name":"Voids","steam_id":76561198128386726,"connected_time":2809000000000,"state":"active","ping":109},{"user_id":192,"name":"comet sooicidy","steam_id":76561198025173479,"connected_time":483000000000,"state":"active","ping":121},{"user_id":154,"name":"Spies in disguise","steam_id":76561198432759867,"connected_time":2600000000000,"state":"active","ping":122},{"user_id":167,"name":"Mrs Moth\u003c3 (She/Her)","steam_id":76561198356567287,"connected_time":1891000000000,"state":"active","ping":106},{"user_id":179,"name":"judesro","steam_id":76561198352244888,"connected_time":1113000000000,"state":"active","ping":143},{"user_id":141,"name":"CadenLCheese","steam_id":76561199105517435,"connected_time":4099000000000,"state":"active","ping":84},{"user_id":180,"name":"A Glazed Donut","steam_id":76561198297536267,"connected_time":1097000000000,"state":"active","ping":55},{"user_id":181,"name":"AledyPoopPants","steam_id":76561198204994795,"connected_time":1042000000000,"state":"active","ping":121},{"user_id":186,"name":"Lots0","steam_id":76561198043143145,"connected_time":798000000000,"state":"active","ping":102},{"user_id":188,"name":"Shalom","steam_id":76561198410005222,"connected_time":782000000000,"state":"active","ping":78},{"user_id":172,"name":"El Portel","steam_id":76561198076108055,"connected_time":1518000000000,"state":"active","ping":73},{"user_id":189,"name":"Buswolley","steam_id":76561197995205571,"connected_time":770000000000,"state":"active","ping":58},{"user_id":169,"name":"shakoiwa","steam_id":76561199059441773,"connected_time":1685000000000,"state":"active","ping":61},{"user_id":191,"name":"Altruisticailuridae","steam_id":76561198335295596,"connected_time":502000000000,"state":"active","ping":52},{"user_id":129,"name":"Noahthecrazy1","steam_id":76561199152995909,"connected_time":4627000000000,"state":"active","ping":123},{"user_id":184,"name":"CiGGles","steam_id":76561198079447568,"connected_time":946000000000,"state":"active","ping":113}]},{"server_id":112,"name":"Uncletopia | Los Angeles | 2 | All Maps","name_short":"lax-2","host":"lax-1.us.uncletopia.com","port":27025,"enabled":true,"region":"us-west","cc":"us","latitude":33.94279,"longitude":-118.41004,"reserved":0,"last_update":"0001-01-01T00:00:00Z","name_a2s":"Uncletopia | Los Angeles | 2 | All Maps","protocol":17,"map":"koth_lakeside_final","folder":"tf","game":"Team Fortress","app_id":440,"player_count":0,"max_players":24,"Bots":0,"server_type":"Dedicated","server_os":"Linux","password":true,"vac":true,"version":"7882260","steam_id":85568392924469992,"keywords":["cp","nocrits","nodmgspread","uncletopia"],"game_id":440,"stv_port":27026,"stv_name":"Uncletopia | Los Angeles | 2 | All Maps | STV","players":null},{"server_id":324,"name":"Uncletopia | Los Angeles | 3 | All Maps","name_short":"lax-3","host":"lax-1.us.uncletopia.com","port":27035,"enabled":true,"region":"us-west","cc":"us","latitude":33.94279,"longitude":-118.41004,"reserved":0,"last_update":"0001-01-01T00:00:00Z","name_a2s":"Uncletopia | Los Angeles | 3 | All Maps","protocol":17,"map":"pl_barnblitz","folder":"tf","game":"Team Fortress","app_id":440,"player_count":0,"max_players":24,"Bots":0,"server_type":"Dedicated","server_os":"Linux","password":true,"vac":true,"version":"7882260","steam_id":85568392924510198,"keywords":["nocrits","nodmgspread","payload","uncletopia"],"game_id":440,"stv_port":27036,"stv_name":"Uncletopia | Los Angeles | 3 | All Maps | STV","players":null},{"server_id":25,"name":"Uncletopia | Los Angeles | 4 | Stopwatch Beta","name_short":"lax-4","host":"lax-1.us.uncletopia.com","port":27045,"enabled":true,"region":"us-west","cc":"us","latitude":33.94279,"longitude":-118.41004,"reserved":0,"last_update":"0001-01-01T00:00:00Z","name_a2s":"Uncletopia | Los Angeles | 4 | Stopwatch Beta","protocol":17,"map":"koth_viaduct","folder":"tf","game":"Team Fortress","app_id":440,"player_count":0,"max_players":24,"Bots":0,"server_type":"Dedicated","server_os":"Linux","password":true,"vac":true,"version":"7882260","steam_id":85568392924510199,"keywords":["cp","nocrits","nodmgspread","uncletopia"],"game_id":440,"stv_port":27046,"stv_name":"Uncletopia | Los Angeles | 4 | Stopwatch Beta | STV","players":null},{"server_id":11,"name":"Uncletopia | London | 1 | All Maps","name_short":"lon-1","host":"lon-1.uk.uncletopia.com","port":27015,"enabled":true,"region":"eu","cc":"gb","latitude":51.509865,"longitude":-0.118092,"reserved":0,"last_update":"0001-01-01T00:00:00Z","name_a2s":"Uncletopia | London | 1 | All Maps","protocol":17,"map":"pl_thundermountain","folder":"tf","game":"Team Fortress","app_id":440,"player_count":23,"max_players":24,"Bots":0,"server_type":"Dedicated","server_os":"Linux","password":true,"vac":true,"version":"7882260","steam_id":85568392924367362,"keywords":["nocrits","nodmgspread","payload","uncletopia"],"game_id":440,"stv_port":27016,"stv_name":"Uncletopia | London | 1 | All Maps | STV","players":[{"user_id":835,"name":"mrnickel59","steam_id":76561198108722399,"connected_time":3623000000000,"state":"active","ping":58},{"user_id":838,"name":"I am on the TF2 Scoreboard...","steam_id":76561198043850884,"connected_time":3052000000000,"state":"active","ping":54},{"user_id":836,"name":"dochris.2","steam_id":76561198026478625,"connected_time":3513000000000,"state":"active","ping":56},{"user_id":852,"name":"darkwater","steam_id":76561197986978738,"connected_time":2714000000000,"state":"active","ping":58},{"user_id":860,"name":"Meddler","steam_id":76561198033001402,"connected_time":1572000000000,"state":"active","ping":46},{"user_id":856,"name":"Kobrakiddmeow","steam_id":76561198080696266,"connected_time":2254000000000,"state":"active","ping":161},{"user_id":868,"name":"W","steam_id":76561198273623211,"connected_time":1165000000000,"state":"active","ping":87},{"user_id":869,"name":"ONI","steam_id":76561199038860035,"connected_time":1146000000000,"state":"active","ping":88},{"user_id":843,"name":"ZingyBot_","steam_id":76561198284732624,"connected_time":3028000000000,"state":"active","ping":59},{"user_id":872,"name":"L√°zaro","steam_id":76561199047081427,"connected_time":526000000000,"state":"active","ping":83},{"user_id":871,"name":"FATHERLESS WORM","steam_id":76561197988085026,"connected_time":755000000000,"state":"active","ping":74},{"user_id":818,"name":"(no monitor) ayylien","steam_id":76561198042127970,"connected_time":5148000000000,"state":"active","ping":139},{"user_id":819,"name":"NeverTalkToStrangers","steam_id":76561198265039021,"connected_time":5110000000000,"state":"active","ping":36},{"user_id":814,"name":"dec","steam_id":76561198009660168,"connected_time":5382000000000,"state":"active","ping":58},{"user_id":855,"name":"Charles Darwin","steam_id":76561197973496139,"connected_time":2585000000000,"state":"active","ping":60},{"user_id":864,"name":"Bonkie","steam_id":76561198205701441,"connected_time":1279000000000,"state":"active","ping":52},{"user_id":783,"name":"Minimi","steam_id":76561198873850443,"connected_time":8323000000000,"state":"active","ping":38},{"user_id":820,"name":"SPOOKY_","steam_id":76561198073395404,"connected_time":5094000000000,"state":"active","ping":78},{"user_id":866,"name":"poop","steam_id":76561199074961896,"connected_time":1226000000000,"state":"active","ping":52},{"user_id":876,"name":"Aaron","steam_id":76561197990046953,"connected_time":112000000000,"state":"active","ping":59},{"user_id":837,"name":"sareena","steam_id":76561198810194062,"connected_time":3191000000000,"state":"active","ping":74},{"user_id":834,"name":"Hoff","steam_id":76561198026537318,"connected_time":3678000000000,"state":"active","ping":43},{"user_id":874,"name":"REN","steam_id":76561198000596385,"connected_time":432000000000,"state":"active","ping":81}]},{"server_id":114,"name":"Uncletopia | London | 2 | All Maps","name_short":"lon-2","host":"lon-1.uk.uncletopia.com","port":27025,"enabled":true,"region":"eu","cc":"gb","latitude":51.509865,"longitude":-0.118092,"reserved":0,"last_update":"0001-01-01T00:00:00Z","name_a2s":"Uncletopia | London | 2 | All Maps","protocol":17,"map":"cp_dustbowl","folder":"tf","game":"Team Fortress","app_id":440,"player_count":24,"max_players":24,"Bots":0,"server_type":"Dedicated","server_os":"Linux","password":true,"vac":true,"version":"7882260","steam_id":85568392924470941,"keywords":["cp","nocrits","nodmgspread","uncletopia"],"game_id":440,"stv_port":27026,"stv_name":"Uncletopia | London | 2 | All Maps | STV","players":[{"user_id":375,"name":"Fizz","steam_id":76561197994814990,"connected_time":1899000000000,"state":"active","ping":69},{"user_id":402,"name":"lark","steam_id":76561198091724522,"connected_time":610000000000,"state":"active","ping":52},{"user_id":403,"name":"C.H.E.R.E.P.","steam_id":76561198026938595,"connected_time":609000000000,"state":"active","ping":75},{"user_id":404,"name":"‚ù§G a n K","steam_id":76561199125995565,"connected_time":582000000000,"state":"active","ping":64},{"user_id":391,"name":"jfurg50","steam_id":76561199485757114,"connected_time":839000000000,"state":"active","ping":44},{"user_id":341,"name":"Twiggu","steam_id":76561198070853128,"connected_time":3632000000000,"state":"active","ping":84},{"user_id":354,"name":"Uncletopia's Scariest Pootis","steam_id":76561197970114051,"connected_time":3137000000000,"state":"active","ping":42},{"user_id":396,"name":"Rooce","steam_id":76561199061011421,"connected_time":723000000000,"state":"active","ping":73},{"user_id":406,"name":"richie","steam_id":76561198124159344,"connected_time":549000000000,"state":"active","ping":47},{"user_id":210,"name":"silly little goober","steam_id":76561198066287297,"connected_time":12832000000000,"state":"active","ping":48},{"user_id":389,"name":"IDon'tNeedACoolName","steam_id":76561198013547503,"connected_time":1077000000000,"state":"active","ping":62},{"user_id":397,"name":"Stroz","steam_id":76561198146444213,"connected_time":721000000000,"state":"active","ping":74},{"user_id":400,"name":"The Power","steam_id":76561198060566884,"connected_time":657000000000,"state":"active","ping":33},{"user_id":370,"name":"vadr","steam_id":76561198334528186,"connected_time":1981000000000,"state":"active","ping":47},{"user_id":351,"name":"IndigoJones","steam_id":76561198050284262,"connected_time":3268000000000,"state":"active","ping":49},{"user_id":401,"name":"Evil Boss","steam_id":76561198096570937,"connected_time":634000000000,"state":"active","ping":66},{"user_id":390,"name":"Nathan Norris","steam_id":76561198301396536,"connected_time":881000000000,"state":"active","ping":54},{"user_id":355,"name":"The F-Word (Femboy)","steam_id":76561198072320671,"connected_time":3135000000000,"state":"active","ping":44},{"user_id":379,"name":"ghost","steam_id":76561199010199287,"connected_time":1664000000000,"state":"active","ping":52},{"user_id":407,"name":"Joker‚ë¶‚ë¶‚ë¶¬≥","steam_id":76561197992353350,"connected_time":523000000000,"state":"active","ping":83},{"user_id":373,"name":"ugly","steam_id":76561199050412617,"connected_time":1951000000000,"state":"active","ping":113},{"user_id":411,"name":"cropping","steam_id":76561198026586456,"connected_time":297000000000,"state":"active","ping":61},{"user_id":410,"name":"Saken","steam_id":76561198049075295,"connected_time":432000000000,"state":"active","ping":63},{"user_id":409,"name":"MrBigStu234","steam_id":76561198211599767,"connected_time":501000000000,"state":"active","ping":54}]},{"server_id":320,"name":"Uncletopia | London | 3 | All Maps","name_short":"lon-3","host":"lon-1.uk.uncletopia.com","port":27035,"enabled":true,"region":"eu","cc":"gb","latitude":51.509865,"longitude":-0.118092,"reserved":0,"last_update":"0001-01-01T00:00:00Z","name_a2s":"Uncletopia | London | 3 | All Maps","protocol":17,"map":"koth_lakeside_final","folder":"tf","game":"Team Fortress","app_id":440,"player_count":0,"max_players":24,"Bots":0,"server_type":"Dedicated","server_os":"Linux","password":true,"vac":true,"version":"7882260","steam_id":85568392924510192,"keywords":["cp","nocrits","nodmgspread","uncletopia"],"game_id":440,"stv_port":27036,"stv_name":"Uncletopia | London | 3 | All Maps | STV","players":null},{"server_id":321,"name":"Uncletopia | London | 4 | All Maps","name_short":"lon-4","host":"lon-1.uk.uncletopia.com","port":27045,"enabled":true,"region":"eu","cc":"gb","latitude":51.509865,"longitude":-0.118092,"reserved":0,"last_update":"0001-01-01T00:00:00Z","name_a2s":"Uncletopia | London | 4 | All Maps","protocol":17,"map":"pl_borneo","folder":"tf","game":"Team Fortress","app_id":440,"player_count":24,"max_players":24,"Bots":0,"server_type":"Dedicated","server_os":"Linux","password":true,"vac":true,"version":"7882260","steam_id":85568392924510193,"keywords":["nocrits","nodmgspread","payload","uncletopia"],"game_id":440,"stv_port":27046,"stv_name":"Uncletopia | London | 4 | All Maps | STV","players":[{"user_id":304,"name":"tone","steam_id":76561197975301462,"connected_time":1065000000000,"state":"active","ping":51},{"user_id":306,"name":"Micro","steam_id":76561198289540452,"connected_time":1051000000000,"state":"active","ping":30},{"user_id":305,"name":"harry hill","steam_id":76561199121717685,"connected_time":1058000000000,"state":"active","ping":61},{"user_id":298,"name":"Reymi Stereo","steam_id":76561198091214227,"connected_time":1484000000000,"state":"active","ping":48},{"user_id":270,"name":"LionKing","steam_id":76561198023399545,"connected_time":4277000000000,"state":"active","ping":61},{"user_id":277,"name":"Lucker","steam_id":76561198079469430,"connected_time":3867000000000,"state":"active","ping":61},{"user_id":295,"name":"Top 6 Goblin sightings (real)","steam_id":76561198082502910,"connected_time":1529000000000,"state":"active","ping":61},{"user_id":322,"name":"zepal","steam_id":76561197980984607,"connected_time":97000000000,"state":"active","ping":43},{"user_id":318,"name":"Klunkerino","steam_id":76561197971081655,"connected_time":506000000000,"state":"active","ping":76},{"user_id":314,"name":"svantezch","steam_id":76561198373831657,"connected_time":713000000000,"state":"active","ping":76},{"user_id":296,"name":"Nicholas Angel","steam_id":76561198434652604,"connected_time":1519000000000,"state":"active","ping":82},{"user_id":291,"name":"gibb (official)","steam_id":76561198074097655,"connected_time":2155000000000,"state":"active","ping":44},{"user_id":317,"name":"Jucatron","steam_id":76561198044259577,"connected_time":601000000000,"state":"active","ping":84},{"user_id":299,"name":"gerg","steam_id":76561198041663219,"connected_time":1483000000000,"state":"active","ping":60},{"user_id":320,"name":"generic alias","steam_id":76561198271607226,"connected_time":383000000000,"state":"active","ping":79},{"user_id":292,"name":"Sammy","steam_id":76561197977379410,"connected_time":2074000000000,"state":"active","ping":98},{"user_id":264,"name":"Trash","steam_id":76561198079081990,"connected_time":4643000000000,"state":"active","ping":60},{"user_id":197,"name":"JustNo.","steam_id":76561199025402885,"connected_time":8912000000000,"state":"active","ping":45},{"user_id":321,"name":"Suetolog","steam_id":76561199053090212,"connected_time":376000000000,"state":"active","ping":68},{"user_id":289,"name":"I Don't Know","steam_id":76561198841011430,"connected_time":2251000000000,"state":"active","ping":77},{"user_id":288,"name":"Max Power","steam_id":76561198019269089,"connected_time":2354000000000,"state":"active","ping":56},{"user_id":248,"name":"snipers ruin tf","steam_id":76561197980736364,"connected_time":5656000000000,"state":"active","ping":79},{"user_id":302,"name":"Flum","steam_id":76561198053394831,"connected_time":1100000000000,"state":"active","ping":60},{"user_id":294,"name":"Buddy","steam_id":76561198050185582,"connected_time":1787000000000,"state":"active","ping":55}]},{"server_id":21,"name":"Uncletopia | London | 5 | All Maps","name_short":"lon-5","host":"lon-1.uk.uncletopia.com","port":27055,"enabled":true,"region":"eu","cc":"gb","latitude":51.509865,"longitude":-0.118092,"reserved":0,"last_update":"0001-01-01T00:00:00Z","name_a2s":"Uncletopia | London | 5 | All Maps","protocol":17,"map":"cp_sunshine","folder":"tf","game":"Team Fortress","app_id":440,"player_count":3,"max_players":24,"Bots":0,"server_type":"Dedicated","server_os":"Linux","password":true,"vac":true,"version":"7882260","steam_id":85568392924742829,"keywords":["cp","nocrits","nodmgspread","uncletopia"],"game_id":440,"stv_port":27056,"stv_name":"Uncletopia | London | 5 | All Maps | STV","players":[{"user_id":596,"name":"TheFluffyCrano","steam_id":76561198058832960,"connected_time":1182000000000,"state":"active","ping":55},{"user_id":597,"name":"Lag","steam_id":76561198159360376,"connected_time":247000000000,"state":"active","ping":46},{"user_id":598,"name":"Timmy Fatnips","steam_id":76561198336730134,"connected_time":114000000000,"state":"active","ping":66}]},{"server_id":22,"name":"Uncletopia | London | 6 | All Maps","name_short":"lon-6","host":"lon-1.uk.uncletopia.com","port":27065,"enabled":true,"region":"eu","cc":"gb","latitude":51.509865,"longitude":-0.118092,"reserved":0,"last_update":"0001-01-01T00:00:00Z","name_a2s":"Uncletopia | London | 6 | All Maps","protocol":17,"map":"pl_barnblitz","folder":"tf","game":"Team Fortress","app_id":440,"player_count":24,"max_players":24,"Bots":0,"server_type":"Dedicated","server_os":"Linux","password":true,"vac":true,"version":"7882260","steam_id":85568392924742830,"keywords":["nocrits","nodmgspread","payload","uncletopia"],"game_id":440,"stv_port":27066,"stv_name":"Uncletopia | London | 6 | All Maps | STV","players":[{"user_id":476,"name":"Purplenoogie","steam_id":76561198081872160,"connected_time":355000000000,"state":"active","ping":44},{"user_id":455,"name":"irritable vowel syndrome","steam_id":76561198117033273,"connected_time":2398000000000,"state":"active","ping":52},{"user_id":459,"name":"FoOzTV","steam_id":76561197998636728,"connected_time":1961000000000,"state":"active","ping":68},{"user_id":371,"name":"DelaNo","steam_id":76561199125086655,"connected_time":6269000000000,"state":"active","ping":43},{"user_id":468,"name":"Cosmic Gamer","steam_id":76561198027357981,"connected_time":1290000000000,"state":"active","ping":100},{"user_id":364,"name":"player S12A22","steam_id":76561198931416464,"connected_time":6671000000000,"state":"active","ping":96},{"user_id":474,"name":"Benzo Fury","steam_id":76561198025259336,"connected_time":382000000000,"state":"active","ping":46},{"user_id":454,"name":"Chikapu_Xek","steam_id":76561198428023493,"connected_time":2542000000000,"state":"active","ping":68},{"user_id":461,"name":"BOB","steam_id":76561198797287684,"connected_time":1898000000000,"state":"active","ping":61},{"user_id":478,"name":"Louis Armstrong Gaming","steam_id":76561199142022395,"connected_time":343000000000,"state":"active","ping":81},{"user_id":296,"name":"Paladin","steam_id":76561198042593027,"connected_time":9646000000000,"state":"active","ping":95},{"user_id":479,"name":"Kyle","steam_id":76561198071181745,"connected_time":291000000000,"state":"active","ping":57},{"user_id":469,"name":"Mr_Pulse_","steam_id":76561198095001602,"connected_time":1265000000000,"state":"active","ping":103},{"user_id":462,"name":"MMR1K","steam_id":76561198328249053,"connected_time":1894000000000,"state":"active","ping":68},{"user_id":472,"name":"Regan","steam_id":76561198100631086,"connected_time":1094000000000,"state":"active","ping":56},{"user_id":463,"name":"pippis!","steam_id":76561198264553801,"connected_time":1719000000000,"state":"active","ping":102},{"user_id":481,"name":"‚ú¶Happy‚ú¶","steam_id":76561198063155307,"connected_time":87000000000,"state":"active","ping":46},{"user_id":464,"name":"I pocket u for 10 ref/hour","steam_id":76561198126179060,"connected_time":1709000000000,"state":"active","ping":78},{"user_id":477,"name":"Shourai","steam_id":76561198201192634,"connected_time":353000000000,"state":"active","ping":53},{"user_id":451,"name":"1 toke 4 mars bars","steam_id":76561198056460000,"connected_time":3241000000000,"state":"active","ping":49},{"user_id":465,"name":"I wish to be a Human Tank","steam_id":76561198079556005,"connected_time":1696000000000,"state":"active","ping":66},{"user_id":466,"name":"Saimaan_larppa","steam_id":76561198242221560,"connected_time":1683000000000,"state":"active","ping":102},{"user_id":471,"name":"Zina Tv","steam_id":76561198116530769,"connected_time":1204000000000,"state":"active","ping":94},{"user_id":467,"name":"Sillier-NA","steam_id":76561198112171949,"connected_time":1581000000000,"state":"active","ping":165}]},{"server_id":40,"name":"Uncletopia | London | 7 | No Payload","name_short":"lon-7","host":"lon-1.uk.uncletopia.com","port":27075,"enabled":true,"region":"eu","cc":"gb","latitude":51.509865,"longitude":-0.118092,"reserved":0,"last_update":"0001-01-01T00:00:00Z","name_a2s":"Uncletopia | London | 7 | No Payload","protocol":17,"map":"koth_viaduct","folder":"tf","game":"Team Fortress","app_id":440,"player_count":0,"max_players":24,"Bots":0,"server_type":"Dedicated","server_os":"Linux","password":true,"vac":true,"version":"7882260","steam_id":85568392924964314,"keywords":["cp","nocrits","nodmgspread","uncletopia"],"game_id":440,"stv_port":27076,"stv_name":"Uncletopia | London | 7 | No Payload | STV","players":null},{"server_id":41,"name":"Uncletopia | London | 8 | Community","name_short":"lon-8","host":"lon-1.uk.uncletopia.com","port":27085,"enabled":true,"region":"eu","cc":"gb","latitude":51.509865,"longitude":-0.118092,"reserved":0,"last_update":"0001-01-01T00:00:00Z","name_a2s":"Uncletopia | London | 8 | Community","protocol":17,"map":"workshop/koth_bagel_rc6.ugc2514036946","folder":"tf","game":"Team Fortress","app_id":440,"player_count":0,"max_players":24,"Bots":0,"server_type":"Dedicated","server_os":"Linux","password":true,"vac":true,"version":"7882260","steam_id":85568392924964315,"keywords":["cp","nocrits","nodmgspread","uncletopia"],"game_id":440,"stv_port":27086,"stv_name":"Uncletopia | London | 8 | Community | STV","players":null},{"server_id":300,"name":"Uncletopia | Montr√©al | 1 | All Maps","name_short":"mtl-1","host":"mtl-1.ca.uncletopia.com","port":27015,"enabled":true,"region":"us-east","cc":"ca","latitude":45.50889,"longitude":-73.56167,"reserved":0,"last_update":"0001-01-01T00:00:00Z","name_a2s":"Uncletopia | Montr√©al | 1 | All Maps","protocol":17,"map":"pl_borneo","folder":"tf","game":"Team Fortress","app_id":440,"player_count":6,"max_players":24,"Bots":0,"server_type":"Dedicated","server_os":"Linux","password":true,"vac":true,"version":"7882260","steam_id":85568392924500087,"keywords":["nocrits","nodmgspread","payload","uncletopia"],"game_id":440,"stv_port":27016,"stv_name":"Uncletopia | Montr√©al | 1 | All Maps | STV","players":[{"user_id":9,"name":"The worst scout","steam_id":76561199080082586,"connected_time":3759000000000,"state":"active","ping":41},{"user_id":10,"name":"raised right hand","steam_id":76561198216758440,"connected_time":3717000000000,"state":"active","ping":40},{"user_id":21,"name":"concrete_car","steam_id":76561198388207363,"connected_time":319000000000,"state":"active","ping":69},{"user_id":20,"name":"Goldoche","steam_id":76561197995065045,"connected_time":1517000000000,"state":"active","ping":76},{"user_id":23,"name":"Auto_Correct","steam_id":76561198254988078,"connected_time":127000000000,"state":"active","ping":66},{"user_id":15,"name":"Mecha","steam_id":76561198014927379,"connected_time":2314000000000,"state":"active","ping":85}]},{"server_id":301,"name":"Uncletopia | Montr√©al | 2 | All Maps","name_short":"mtl-2","host":"mtl-1.ca.uncletopia.com","port":27025,"enabled":true,"region":"us-east","cc":"ca","latitude":45.50889,"longitude":-73.56167,"reserved":0,"last_update":"0001-01-01T00:00:00Z","name_a2s":"Uncletopia | Montr√©al | 2 | All Maps","protocol":17,"map":"pl_snowycoast","folder":"tf","game":"Team Fortress","app_id":440,"player_count":0,"max_players":24,"Bots":0,"server_type":"Dedicated","server_os":"Linux","password":true,"vac":true,"version":"7882260","steam_id":85568392924500088,"keywords":["nocrits","nodmgspread","payload","uncletopia"],"game_id":440,"stv_port":27026,"stv_name":"Uncletopia | Montr√©al | 2 | All Maps | STV","players":null},{"server_id":302,"name":"Uncletopia | Montr√©al | 3 | All Maps","name_short":"mtl-3","host":"mtl-1.ca.uncletopia.com","port":27035,"enabled":true,"region":"us-east","cc":"ca","latitude":45.50889,"longitude":-73.56167,"reserved":0,"last_update":"0001-01-01T00:00:00Z","name_a2s":"Uncletopia | Montr√©al | 3 | All Maps","protocol":17,"map":"ctf_sawmill","folder":"tf","game":"Team Fortress","app_id":440,"player_count":0,"max_players":24,"Bots":0,"server_type":"Dedicated","server_os":"Linux","password":true,"vac":true,"version":"7882260","steam_id":85568392924500089,"keywords":["ctf","nocrits","nodmgspread","uncletopia"],"game_id":440,"stv_port":27036,"stv_name":"Uncletopia | Montr√©al | 3 | All Maps | STV","players":null},{"server_id":303,"name":"Uncletopia | Montr√©al | 4 | No Payload","name_short":"mtl-4","host":"mtl-1.ca.uncletopia.com","port":27045,"enabled":true,"region":"us-east","cc":"ca","latitude":45.50889,"longitude":-73.56167,"reserved":0,"last_update":"0001-01-01T00:00:00Z","name_a2s":"Uncletopia | Montr√©al | 4 | No Payload","protocol":17,"map":"koth_highpass","folder":"tf","game":"Team Fortress","app_id":440,"player_count":0,"max_players":24,"Bots":0,"server_type":"Dedicated","server_os":"Linux","password":true,"vac":true,"version":"7882260","steam_id":85568392924500090,"keywords":["cp","nocrits","nodmgspread","uncletopia"],"game_id":440,"stv_port":27046,"stv_name":"Uncletopia | Montr√©al | 4 | No Payload | STV","players":null},{"server_id":13,"name":"Uncletopia | New York City | 1 | All Maps","name_short":"nyc-1","host":"nyc-1.us.uncletopia.com","port":27015,"enabled":true,"region":"us-east","cc":"us","latitude":40.73061,"longitude":-73.93524,"reserved":0,"last_update":"0001-01-01T00:00:00Z","name_a2s":"Uncletopia | New York City | 1 | All Maps","protocol":17,"map":"pl_badwater","folder":"tf","game":"Team Fortress","app_id":440,"player_count":24,"max_players":24,"Bots":0,"server_type":"Dedicated","server_os":"Linux","password":true,"vac":true,"version":"7882260","steam_id":85568392924469993,"keywords":["nocrits","nodmgspread","payload","uncletopia"],"game_id":440,"stv_port":27016,"stv_name":"Uncletopia | New York City | 1 | All Maps | STV","players":[{"user_id":11,"name":"Mochi","steam_id":76561199151314140,"connected_time":10879000000000,"state":"active","ping":35},{"user_id":143,"name":"MellowBoy-2354","steam_id":76561199080630632,"connected_time":848000000000,"state":"active","ping":90},{"user_id":132,"name":"SoftballSteven44","steam_id":76561198065842276,"connected_time":1426000000000,"state":"active","ping":46},{"user_id":110,"name":"bean goblin","steam_id":76561199185148234,"connected_time":2211000000000,"state":"active","ping":101},{"user_id":116,"name":"Toast","steam_id":76561198401995265,"connected_time":2164000000000,"state":"active","ping":70},{"user_id":120,"name":"i main pyro this month","steam_id":76561199072907445,"connected_time":2116000000000,"state":"active","ping":119},{"user_id":144,"name":"marge","steam_id":76561198064823861,"connected_time":847000000000,"state":"active","ping":56},{"user_id":146,"name":"brain maggot","steam_id":76561198069979962,"connected_time":803000000000,"state":"active","ping":72},{"user_id":139,"name":"Johnny Testy westy","steam_id":76561198798616273,"connected_time":1010000000000,"state":"active","ping":101},{"user_id":107,"name":"scarecrow (malicious)","steam_id":76561198082979347,"connected_time":2578000000000,"state":"active","ping":58},{"user_id":145,"name":"Jimjonjoe","steam_id":76561199195695913,"connected_time":839000000000,"state":"active","ping":96},{"user_id":149,"name":"klyushonok","steam_id":76561199090177180,"connected_time":53000000000,"state":"active","ping":201},{"user_id":140,"name":"the relayer","steam_id":76561198089430717,"connected_time":935000000000,"state":"active","ping":88},{"user_id":99,"name":"Cookie","steam_id":76561198283317413,"connected_time":3436000000000,"state":"active","ping":72},{"user_id":59,"name":"Bigsumoslammer","steam_id":76561198044505076,"connected_time":7227000000000,"state":"active","ping":51},{"user_id":119,"name":"nhbiker","steam_id":76561198081277675,"connected_time":2151000000000,"state":"active","ping":47},{"user_id":109,"name":"homer","steam_id":76561198171491110,"connected_time":2516000000000,"state":"active","ping":57},{"user_id":133,"name":"Combatspok","steam_id":76561197971598115,"connected_time":1343000000000,"state":"active","ping":45},{"user_id":147,"name":"flange","steam_id":76561198040182692,"connected_time":788000000000,"state":"active","ping":114},{"user_id":130,"name":"caberknight tf2  (f2p-ish)","steam_id":76561199273882768,"connected_time":1452000000000,"state":"active","ping":62},{"user_id":136,"name":"Super Ghoul","steam_id":76561198088810276,"connected_time":1270000000000,"state":"active","ping":61},{"user_id":142,"name":"BANDCAMP DOT COM","steam_id":76561198236343140,"connected_time":924000000000,"state":"active","ping":73},{"user_id":106,"name":"BoxTrox Requiem","steam_id":76561199084781818,"connected_time":3117000000000,"state":"active","ping":66},{"user_id":127,"name":"B.","steam_id":76561198040445907,"connected_time":1842000000000,"state":"active","ping":81}]},{"server_id":14,"name":"Uncletopia | New York City | 2 | All Maps","name_short":"nyc-2","host":"nyc-1.us.uncletopia.com","port":27025,"enabled":true,"region":"us-east","cc":"us","latitude":40.73061,"longitude":-73.93524,"reserved":0,"last_update":"0001-01-01T00:00:00Z","name_a2s":"Uncletopia | New York City | 2 | All Maps","protocol":17,"map":"cp_steel","folder":"tf","game":"Team Fortress","app_id":440,"player_count":22,"max_players":24,"Bots":0,"server_type":"Dedicated","server_os":"Linux","password":true,"vac":true,"version":"7882260","steam_id":85568392924469994,"keywords":["cp","nocrits","nodmgspread","uncletopia"],"game_id":440,"stv_port":27026,"stv_name":"Uncletopia | New York City | 2 | All Maps | STV","players":[{"user_id":75,"name":"Purplesphere","steam_id":76561198202786833,"connected_time":3126000000000,"state":"active","ping":177},{"user_id":97,"name":"Fizzin_Pop","steam_id":76561198197503446,"connected_time":1963000000000,"state":"active","ping":53},{"user_id":108,"name":"moe","steam_id":76561198929586245,"connected_time":1294000000000,"state":"active","ping":114},{"user_id":114,"name":"Dreyfus the protogen :3","steam_id":76561198243365378,"connected_time":766000000000,"state":"active","ping":61},{"user_id":90,"name":"Oni","steam_id":76561198112066584,"connected_time":2173000000000,"state":"active","ping":75},{"user_id":36,"name":"bimbo blow up doll! \u003c3","steam_id":76561198959541006,"connected_time":4811000000000,"state":"active","ping":60},{"user_id":111,"name":"dnaak","steam_id":76561197960489193,"connected_time":1061000000000,"state":"active","ping":62},{"user_id":37,"name":"DoesZeMason","steam_id":76561198186303547,"connected_time":4810000000000,"state":"active","ping":75},{"user_id":110,"name":"ivan.","steam_id":76561198086587715,"connected_time":1151000000000,"state":"active","ping":73},{"user_id":112,"name":"Tony hawks pro skater 2 dlc","steam_id":76561198243387974,"connected_time":823000000000,"state":"active","ping":48},{"user_id":105,"name":"Bocchi the Cock","steam_id":76561198152455316,"connected_time":1510000000000,"state":"active","ping":153},{"user_id":79,"name":"Thespikedballofdoom","steam_id":76561198128793141,"connected_time":2787000000000,"state":"active","ping":56},{"user_id":47,"name":"10KO!","steam_id":76561199134895220,"connected_time":4476000000000,"state":"active","ping":58},{"user_id":119,"name":"Mossed Ball","steam_id":76561199031256509,"connected_time":141000000000,"state":"active","ping":75},{"user_id":80,"name":"a Salty Individual","steam_id":76561197979951077,"connected_time":2785000000000,"state":"active","ping":135},{"user_id":52,"name":"bobbymcbobington","steam_id":76561199089411172,"connected_time":4368000000000,"state":"active","ping":118},{"user_id":103,"name":"yellowcat","steam_id":76561198346054736,"connected_time":1569000000000,"state":"active","ping":65},{"user_id":74,"name":"Dankest Cat","steam_id":76561198152685045,"connected_time":3138000000000,"state":"active","ping":84},{"user_id":100,"name":"Kuai","steam_id":76561198321216513,"connected_time":1831000000000,"state":"active","ping":59},{"user_id":101,"name":"PizziaizziP !! !!!!!!1","steam_id":76561198060886742,"connected_time":1813000000000,"state":"active","ping":52}]},{"server_id":15,"name":"Uncletopia | New York City | 3 | Stopwatch Beta","name_short":"nyc-3","host":"nyc-1.us.uncletopia.com","port":27035,"enabled":true,"region":"us-east","cc":"us","latitude":40.73061,"longitude":-73.93524,"reserved":0,"last_update":"0001-01-01T00:00:00Z","name_a2s":"Uncletopia | New York City | 3 | Stopwatch Beta","protocol":17,"map":"pl_borneo","folder":"tf","game":"Team Fortress","app_id":440,"player_count":0,"max_players":24,"Bots":0,"server_type":"Dedicated","server_os":"Linux","password":true,"vac":true,"version":"7882260","steam_id":85568392924742820,"keywords":["nocrits","nodmgspread","payload","uncletopia"],"game_id":440,"stv_port":27036,"stv_name":"Uncletopia | New York City | 3 | Stopwatch Beta | STV","players":null},{"server_id":16,"name":"Uncletopia | New York City | 4 | Community","name_short":"nyc-4","host":"nyc-1.us.uncletopia.com","port":27045,"enabled":true,"region":"us-east","cc":"us","latitude":40.73061,"longitude":-73.93524,"reserved":0,"last_update":"0001-01-01T00:00:00Z","name_a2s":"Uncletopia | New York City | 4 | Community","protocol":17,"map":"workshop/cp_villa_b19.ugc2113052569","folder":"tf","game":"Team Fortress","app_id":440,"player_count":0,"max_players":24,"Bots":0,"server_type":"Dedicated","server_os":"Linux","password":true,"vac":true,"version":"7882260","steam_id":85568392924742821,"keywords":["cp","nocrits","nodmgspread","uncletopia"],"game_id":440,"stv_port":27046,"stv_name":"Uncletopia | New York City | 4 | Community | STV","players":null},{"server_id":142,"name":"Uncletopia | S√£o Paulo | 1 | All Maps","name_short":"sao-1","host":"sao-1.br.uncletopia.com","port":27015,"enabled":true,"region":"sa","cc":"br","latitude":-23.533773,"longitude":-46.62529,"reserved":0,"last_update":"0001-01-01T00:00:00Z","name_a2s":"Uncletopia | S√£o Paulo | 1 | All Maps","protocol":17,"map":"cp_altitude","folder":"tf","game":"Team Fortress","app_id":440,"player_count":0,"max_players":24,"Bots":0,"server_type":"Dedicated","server_os":"Linux","password":true,"vac":true,"version":"7882260","steam_id":85568392924469996,"keywords":["cp","nocrits","nodmgspread","uncletopia"],"game_id":440,"stv_port":27016,"stv_name":"Uncletopia | S√£o Paulo | 1 | All Maps | STV","players":null},{"server_id":143,"name":"Uncletopia | S√£o Paulo | 2 | All Maps","name_short":"sao-2","host":"sao-2.br.uncletopia.com","port":27015,"enabled":true,"region":"sa","cc":"br","latitude":-23.533773,"longitude":-46.62529,"reserved":0,"last_update":"0001-01-01T00:00:00Z","name_a2s":"Uncletopia | S√£o Paulo | 2 | All Maps","protocol":17,"map":"koth_cascade","folder":"tf","game":"Team Fortress","app_id":440,"player_count":0,"max_players":24,"Bots":0,"server_type":"Dedicated","server_os":"Linux","password":true,"vac":true,"version":"7882260","steam_id":85568392924485349,"keywords":["cp","nocrits","nodmgspread","uncletopia"],"game_id":440,"stv_port":27016,"stv_name":"Uncletopia | S√£o Paulo | 2 | All Maps | STV","players":null},{"server_id":7,"name":"Uncletopia | Seattle | 1 | All Maps","name_short":"sea-1","host":"sea-1.us.uncletopia.com","port":27015,"enabled":true,"region":"us-west","cc":"us","latitude":47.608013,"longitude":-122.33517,"reserved":0,"last_update":"0001-01-01T00:00:00Z","name_a2s":"Uncletopia | Seattle | 1 | All Maps","protocol":17,"map":"koth_harvest_final","folder":"tf","game":"Team Fortress","app_id":440,"player_count":24,"max_players":24,"Bots":0,"server_type":"Dedicated","server_os":"Linux","password":true,"vac":true,"version":"7882260","steam_id":85568392924469997,"keywords":["cp","nocrits","nodmgspread","uncletopia"],"game_id":440,"stv_port":27016,"stv_name":"Uncletopia | Seattle | 1 | All Maps | STV","players":[{"user_id":272,"name":"Bagoool","steam_id":76561198065368286,"connected_time":1437000000000,"state":"active","ping":74},{"user_id":281,"name":"That Fluoride Stare","steam_id":76561198047377080,"connected_time":470000000000,"state":"active","ping":123},{"user_id":275,"name":"Balls Insurance","steam_id":76561198005860388,"connected_time":763000000000,"state":"active","ping":76},{"user_id":249,"name":"HaphazardHazel","steam_id":76561198316812693,"connected_time":3282000000000,"state":"active","ping":170},{"user_id":288,"name":"||BassMan||","steam_id":76561198279865229,"connected_time":139000000000,"state":"active","ping":88},{"user_id":219,"name":"Themasterman75","steam_id":76561199385573293,"connected_time":6672000000000,"state":"active","ping":71},{"user_id":266,"name":"SibilantSerpent","steam_id":76561198154488754,"connected_time":2327000000000,"state":"active","ping":56},{"user_id":228,"name":"BolognaWithOlives","steam_id":76561198101262668,"connected_time":5779000000000,"state":"active","ping":86},{"user_id":285,"name":"shodleech","steam_id":76561198091544195,"connected_time":363000000000,"state":"active","ping":60},{"user_id":248,"name":"lynks disease no sound","steam_id":76561198043465434,"connected_time":3675000000000,"state":"active","ping":72},{"user_id":279,"name":"NovusOrdoDux","steam_id":76561198271936289,"connected_time":535000000000,"state":"active","ping":114},{"user_id":277,"name":"evilOlive","steam_id":76561198106222025,"connected_time":713000000000,"state":"active","ping":75},{"user_id":256,"name":"RapidXenophage","steam_id":76561198175149973,"connected_time":3044000000000,"state":"active","ping":54},{"user_id":267,"name":"don't play chess past bedtime","steam_id":76561198986534519,"connected_time":2299000000000,"state":"active","ping":57},{"user_id":257,"name":"whathashit69","steam_id":76561199013105760,"connected_time":3029000000000,"state":"active","ping":90},{"user_id":259,"name":"Orb of Macaroni","steam_id":76561198080851298,"connected_time":2991000000000,"state":"active","ping":60},{"user_id":284,"name":"Sissel","steam_id":76561198041286321,"connected_time":396000000000,"state":"active","ping":44},{"user_id":178,"name":"SnoDot","steam_id":76561198062209970,"connected_time":9551000000000,"state":"active","ping":39},{"user_id":177,"name":"toxicpeck @@yahoocum","steam_id":76561198213385439,"connected_time":9554000000000,"state":"active","ping":72},{"user_id":282,"name":"posting.","steam_id":76561198066619792,"connected_time":470000000000,"state":"active","ping":74},{"user_id":289,"name":"lukamine","steam_id":76561198166827208,"connected_time":46000000000,"state":"active","ping":51},{"user_id":225,"name":"biggie cheese","steam_id":76561198004916219,"connected_time":6318000000000,"state":"active","ping":86},{"user_id":235,"name":"Cute Baby Bird","steam_id":76561198271939793,"connected_time":5304000000000,"state":"active","ping":46},{"user_id":231,"name":"rat gets the cheese","steam_id":76561198031234032,"connected_time":5540000000000,"state":"active","ping":102}]},{"server_id":119,"name":"Uncletopia | Seattle | 2 | All Maps","name_short":"sea-2","host":"sea-1.us.uncletopia.com","port":27025,"enabled":true,"region":"us-west","cc":"us","latitude":47.608013,"longitude":-122.33517,"reserved":0,"last_update":"0001-01-01T00:00:00Z","name_a2s":"Uncletopia | Seattle | 2 | All Maps","protocol":17,"map":"pl_pier","folder":"tf","game":"Team Fortress","app_id":440,"player_count":24,"max_players":24,"Bots":0,"server_type":"Dedicated","server_os":"Linux","password":true,"vac":true,"version":"7882260","steam_id":85568392924469998,"keywords":["nocrits","nodmgspread","payload","uncletopia"],"game_id":440,"stv_port":27026,"stv_name":"Uncletopia | Seattle | 2 | All Maps | STV","players":[{"user_id":87,"name":"Just Ethan","steam_id":76561198076808450,"connected_time":1381000000000,"state":"active","ping":83},{"user_id":36,"name":"Spruce","steam_id":76561198081684676,"connected_time":3249000000000,"state":"active","ping":65},{"user_id":86,"name":"D.E.O","steam_id":76561198096992957,"connected_time":1411000000000,"state":"active","ping":173},{"user_id":21,"name":"Goose","steam_id":76561198036774894,"connected_time":3502000000000,"state":"active","ping":40},{"user_id":95,"name":"mdharsy","steam_id":76561198065831053,"connected_time":1054000000000,"state":"active","ping":123},{"user_id":104,"name":"JamesBlakeFan11","steam_id":76561198440539769,"connected_time":629000000000,"state":"active","ping":76},{"user_id":99,"name":"KingDoop","steam_id":76561198088568427,"connected_time":975000000000,"state":"active","ping":47},{"user_id":47,"name":"Yoshimelon","steam_id":76561198253054325,"connected_time":2929000000000,"state":"active","ping":93},{"user_id":109,"name":"T√ºCold","steam_id":76561198111278197,"connected_time":272000000000,"state":"active","ping":59},{"user_id":105,"name":"greens beans","steam_id":76561198153611491,"connected_time":580000000000,"state":"active","ping":44},{"user_id":76,"name":"Monty","steam_id":76561197993567253,"connected_time":1777000000000,"state":"active","ping":55},{"user_id":27,"name":"Grassman (Cc)","steam_id":76561198026488532,"connected_time":3358000000000,"state":"active","ping":65},{"user_id":107,"name":"Shark","steam_id":76561198219031981,"connected_time":540000000000,"state":"active","ping":123},{"user_id":110,"name":"sunny","steam_id":76561198069380992,"connected_time":193000000000,"state":"active","ping":103},{"user_id":111,"name":"BlueDiamond","steam_id":76561198282071749,"connected_time":192000000000,"state":"active","ping":98},{"user_id":106,"name":"BlazedBunny","steam_id":76561198243610560,"connected_time":565000000000,"state":"active","ping":76},{"user_id":78,"name":"Provocator","steam_id":76561197961830410,"connected_time":1758000000000,"state":"active","ping":136},{"user_id":88,"name":"nori_420","steam_id":76561199117134203,"connected_time":1370000000000,"state":"active","ping":87},{"user_id":60,"name":"delight","steam_id":76561197980280272,"connected_time":2799000000000,"state":"active","ping":47},{"user_id":80,"name":"Rocatex (HalloweenEnjoyer)","steam_id":76561199095053897,"connected_time":1686000000000,"state":"active","ping":102},{"user_id":70,"name":"robertJMP","steam_id":76561199066260919,"connected_time":2131000000000,"state":"active","ping":81},{"user_id":112,"name":"FiddyFoMike","steam_id":76561198057072581,"connected_time":181000000000,"state":"active","ping":73},{"user_id":71,"name":"Moss","steam_id":76561198338718491,"connected_time":2123000000000,"state":"active","ping":112},{"user_id":90,"name":"Finkly","steam_id":76561198049828110,"connected_time":1338000000000,"state":"active","ping":45}]},{"server_id":406,"name":"Uncletopia | Seattle | 3 | Stopwatch Beta","name_short":"sea-3","host":"sea-1.us.uncletopia.com","port":27035,"enabled":true,"region":"us-west","cc":"us","latitude":47.608013,"longitude":-122.33517,"reserved":0,"last_update":"0001-01-01T00:00:00Z","name_a2s":"Uncletopia | Seattle | 3 | Stopwatch Beta","protocol":17,"map":"koth_viaduct","folder":"tf","game":"Team Fortress","app_id":440,"player_count":0,"max_players":24,"Bots":0,"server_type":"Dedicated","server_os":"Linux","password":true,"vac":true,"version":"7882260","steam_id":85568392924515217,"keywords":["cp","nocrits","nodmgspread","uncletopia"],"game_id":440,"stv_port":27036,"stv_name":"Uncletopia | Seattle | 3 | Stopwatch Beta | STV","players":null},{"server_id":17,"name":"Uncletopia | San Francisco | 1 | All Maps","name_short":"sfo-1","host":"sfo-1.us.uncletopia.com","port":27015,"enabled":true,"region":"us-west","cc":"us","latitude":37.77397,"longitude":-122.4313,"reserved":0,"last_update":"0001-01-01T00:00:00Z","name_a2s":"Uncletopia | San Francisco | 1 | All Maps","protocol":17,"map":"pl_snowycoast","folder":"tf","game":"Team Fortress","app_id":440,"player_count":0,"max_players":24,"Bots":0,"server_type":"Dedicated","server_os":"Linux","password":true,"vac":true,"version":"7882260","steam_id":85568392924469999,"keywords":["nocrits","nodmgspread","payload","uncletopia"],"game_id":440,"stv_port":27016,"stv_name":"Uncletopia | San Francisco | 1 | All Maps | STV","players":null},{"server_id":18,"name":"Uncletopia | San Francisco | 2 | All Maps","name_short":"sfo-2","host":"sfo-1.us.uncletopia.com","port":27025,"enabled":true,"region":"us-west","cc":"us","latitude":37.77397,"longitude":-122.4313,"reserved":0,"last_update":"0001-01-01T00:00:00Z","name_a2s":"Uncletopia | San Francisco | 2 | All Maps","protocol":17,"map":"pl_swiftwater_final1","folder":"tf","game":"Team Fortress","app_id":440,"player_count":0,"max_players":24,"Bots":0,"server_type":"Dedicated","server_os":"Linux","password":true,"vac":true,"version":"7882260","steam_id":85568392924470000,"keywords":["nocrits","nodmgspread","payload","uncletopia"],"game_id":440,"stv_port":27026,"stv_name":"Uncletopia | San Francisco | 2 | All Maps | STV","players":null},{"server_id":19,"name":"Uncletopia | San Francisco | 3 | Stopwatch Beta","name_short":"sfo-3","host":"sfo-1.us.uncletopia.com","port":27035,"enabled":true,"region":"us-west","cc":"us","latitude":37.77397,"longitude":-122.4313,"reserved":0,"last_update":"0001-01-01T00:00:00Z","name_a2s":"Uncletopia | San Francisco | 3 | Stopwatch Beta","protocol":17,"map":"workshop/pl_barnblitz_pro7.ugc582280235","folder":"tf","game":"Team Fortress","app_id":440,"player_count":0,"max_players":24,"Bots":0,"server_type":"Dedicated","server_os":"Linux","password":true,"vac":true,"version":"7882260","steam_id":85568392924742824,"keywords":["nocrits","nodmgspread","payload","uncletopia"],"game_id":440,"stv_port":27036,"stv_name":"Uncletopia | San Francisco | 3 | Stopwatch Beta | STV","players":null},{"server_id":20,"name":"Uncletopia | San Francisco | 4 | Community","name_short":"sfo-4","host":"sfo-1.us.uncletopia.com","port":27045,"enabled":true,"region":"us-west","cc":"us","latitude":37.77397,"longitude":-122.4313,"reserved":0,"last_update":"0001-01-01T00:00:00Z","name_a2s":"Uncletopia | San Francisco | 4 | Community","protocol":17,"map":"pl_swiftwater_final1","folder":"tf","game":"Team Fortress","app_id":440,"player_count":0,"max_players":24,"Bots":0,"server_type":"Dedicated","server_os":"Linux","password":true,"vac":true,"version":"7882260","steam_id":85568392924742826,"keywords":["nocrits","nodmgspread","payload","uncletopia"],"game_id":440,"stv_port":27046,"stv_name":"Uncletopia | San Francisco | 4 | Community | STV","players":null},{"server_id":141,"name":"Uncletopia | Sydney | 1 | All Maps","name_short":"syd-1","host":"syd-1.au.uncletopia.com","port":27015,"enabled":true,"region":"au","cc":"au","latitude":-33.865143,"longitude":151.2099,"reserved":0,"last_update":"0001-01-01T00:00:00Z","name_a2s":"Uncletopia | Sydney | 1 | All Maps","protocol":17,"map":"cp_altitude","folder":"tf","game":"Team Fortress","app_id":440,"player_count":0,"max_players":24,"Bots":0,"server_type":"Dedicated","server_os":"Linux","password":true,"vac":true,"version":"7882260","steam_id":85568392924470001,"keywords":["cp","nocrits","nodmgspread","uncletopia"],"game_id":440,"stv_port":27016,"stv_name":"Uncletopia | Sydney | 1 | All Maps | STV","players":null},{"server_id":123,"name":"Uncletopia | Sydney | 2 | All Maps","name_short":"syd-2","host":"syd-1.au.uncletopia.com","port":27025,"enabled":true,"region":"au","cc":"au","latitude":-33.865143,"longitude":151.2099,"reserved":0,"last_update":"0001-01-01T00:00:00Z","name_a2s":"Uncletopia | Sydney | 2 | All Maps","protocol":17,"map":"cp_snakewater_final1","folder":"tf","game":"Team Fortress","app_id":440,"player_count":0,"max_players":24,"Bots":0,"server_type":"Dedicated","server_os":"Linux","password":true,"vac":true,"version":"7882260","steam_id":85568392924470002,"keywords":["cp","nocrits","nodmgspread","uncletopia"],"game_id":440,"stv_port":27026,"stv_name":"Uncletopia | Sydney | 2 | All Maps | STV","players":null},{"server_id":395,"name":"Uncletopia | Sydney | 3 | All Maps","name_short":"syd-3","host":"syd-1.au.uncletopia.com","port":27035,"enabled":true,"region":"au","cc":"au","latitude":-33.865143,"longitude":151.2099,"reserved":0,"last_update":"0001-01-01T00:00:00Z","name_a2s":"Uncletopia | Sydney | 3 | All Maps","protocol":17,"map":"pl_badwater","folder":"tf","game":"Team Fortress","app_id":440,"player_count":0,"max_players":24,"Bots":0,"server_type":"Dedicated","server_os":"Linux","password":true,"vac":true,"version":"7882260","steam_id":85568392925194467,"keywords":["nocrits","nodmgspread","payload","uncletopia"],"game_id":440,"stv_port":27036,"stv_name":"Uncletopia | Sydney | 3 | All Maps | STV","players":null},{"server_id":396,"name":"Uncletopia | Sydney | 4 | All Maps","name_short":"syd-4","host":"syd-1.au.uncletopia.com","port":27045,"enabled":true,"region":"au","cc":"au","latitude":-33.865143,"longitude":151.2099,"reserved":0,"last_update":"0001-01-01T00:00:00Z","name_a2s":"Uncletopia | Sydney | 4 | All Maps","protocol":17,"map":"cp_altitude","folder":"tf","game":"Team Fortress","app_id":440,"player_count":0,"max_players":24,"Bots":0,"server_type":"Dedicated","server_os":"Linux","password":true,"vac":true,"version":"7882260","steam_id":85568392925397958,"keywords":["cp","nocrits","nodmgspread","uncletopia"],"game_id":440,"stv_port":27046,"stv_name":"Uncletopia | Sydney | 4 | All Maps | STV","players":null},{"server_id":58,"name":"Uncletopia | Sydney | 5 | Stopwatch Beta","name_short":"syd-5","host":"syd-1.au.uncletopia.com","port":27055,"enabled":true,"region":"au","cc":"au","latitude":-33.865143,"longitude":151.2099,"reserved":0,"last_update":"0001-01-01T00:00:00Z","name_a2s":"Uncletopia | Sydney | 5 | Stopwatch Beta","protocol":17,"map":"koth_viaduct","folder":"tf","game":"Team Fortress","app_id":440,"player_count":0,"max_players":24,"Bots":0,"server_type":"Dedicated","server_os":"Linux","password":true,"vac":true,"version":"7882260","steam_id":85568392925397959,"keywords":["cp","nocrits","nodmgspread","uncletopia"],"game_id":440,"stv_port":27056,"stv_name":"Uncletopia | Sydney | 5 | Stopwatch Beta | STV","players":null},{"server_id":59,"name":"Uncletopia | Sydney | 6 | Community","name_short":"syd-6","host":"syd-1.au.uncletopia.com","port":27065,"enabled":true,"region":"au","cc":"au","latitude":-33.865143,"longitude":151.2099,"reserved":0,"last_update":"0001-01-01T00:00:00Z","name_a2s":"Uncletopia | Sydney | 6 | Community","protocol":17,"map":"pl_upward","folder":"tf","game":"Team Fortress","app_id":440,"player_count":0,"max_players":24,"Bots":0,"server_type":"Dedicated","server_os":"Linux","password":true,"vac":true,"version":"7882260","steam_id":85568392925397960,"keywords":["nocrits","nodmgspread","payload","uncletopia"],"game_id":440,"stv_port":27066,"stv_name":"Uncletopia | Sydney | 6 | Community | STV","players":null},{"server_id":49,"name":"Uncletopia | Warsaw | 1 | All Maps","name_short":"waw-1","host":"waw-1.pl.uncletopia.com","port":27015,"enabled":true,"region":"eu","cc":"pl","latitude":52.2297,"longitude":21.017532,"reserved":0,"last_update":"0001-01-01T00:00:00Z","name_a2s":"","protocol":0,"map":"","folder":"","game":"","app_id":0,"player_count":0,"max_players":0,"Bots":0,"server_type":"","server_os":"","password":false,"vac":false,"version":"","steam_id":0,"keywords":null,"game_id":0,"stv_port":0,"stv_name":"","players":null},{"server_id":50,"name":"Uncletopia | Warsaw | 2 | All Maps","name_short":"waw-2","host":"waw-1.pl.uncletopia.com","port":27025,"enabled":true,"region":"eu","cc":"pl","latitude":52.2297,"longitude":21.017532,"reserved":0,"last_update":"0001-01-01T00:00:00Z","name_a2s":"Uncletopia | Warsaw | 2 | All Maps","protocol":17,"map":"koth_lakeside_final","folder":"tf","game":"Team Fortress","app_id":440,"player_count":0,"max_players":24,"Bots":0,"server_type":"Dedicated","server_os":"Linux","password":true,"vac":true,"version":"7882260","steam_id":85568392925397851,"keywords":["cp","nocrits","nodmgspread","uncletopia"],"game_id":440,"stv_port":27026,"stv_name":"Uncletopia | Warsaw | 2 | All Maps | STV","players":null},{"server_id":51,"name":"Uncletopia | Warsaw | 3 | All Maps","name_short":"waw-3","host":"waw-1.pl.uncletopia.com","port":27035,"enabled":true,"region":"eu","cc":"pl","latitude":52.2297,"longitude":21.017532,"reserved":0,"last_update":"0001-01-01T00:00:00Z","name_a2s":"Uncletopia | Warsaw | 3 | All Maps","protocol":17,"map":"koth_lakeside_final","folder":"tf","game":"Team Fortress","app_id":440,"player_count":0,"max_players":24,"Bots":0,"server_type":"Dedicated","server_os":"Linux","password":true,"vac":true,"version":"7882260","steam_id":85568392925397852,"keywords":["cp","nocrits","nodmgspread","uncletopia"],"game_id":440,"stv_port":27036,"stv_name":"Uncletopia | Warsaw | 3 | All Maps | STV","players":null},{"server_id":52,"name":"Uncletopia | Warsaw | 4 | All Maps","name_short":"waw-4","host":"waw-1.pl.uncletopia.com","port":27045,"enabled":true,"region":"eu","cc":"pl","latitude":52.2297,"longitude":21.017532,"reserved":0,"last_update":"0001-01-01T00:00:00Z","name_a2s":"Uncletopia | Warsaw | 4 | All Maps","protocol":17,"map":"koth_cascade","folder":"tf","game":"Team Fortress","app_id":440,"player_count":0,"max_players":24,"Bots":0,"server_type":"Dedicated","server_os":"Linux","password":true,"vac":true,"version":"7882260","steam_id":85568392925397853,"keywords":["cp","nocrits","nodmgspread","uncletopia"],"game_id":440,"stv_port":27046,"stv_name":"Uncletopia | Warsaw | 4 | All Maps | STV","players":null},{"server_id":53,"name":"Uncletopia | Warsaw | 5 | Stopwatch Beta","name_short":"waw-5","host":"waw-1.pl.uncletopia.com","port":27055,"enabled":true,"region":"eu","cc":"pl","latitude":52.2297,"longitude":21.017532,"reserved":0,"last_update":"0001-01-01T00:00:00Z","name_a2s":"Uncletopia | Warsaw | 5 | Stopwatch Beta","protocol":17,"map":"koth_lakeside_final","folder":"tf","game":"Team Fortress","app_id":440,"player_count":0,"max_players":24,"Bots":0,"server_type":"Dedicated","server_os":"Linux","password":true,"vac":true,"version":"7882260","steam_id":85568392925397854,"keywords":["cp","nocrits","nodmgspread","uncletopia"],"game_id":440,"stv_port":27056,"stv_name":"Uncletopia | Warsaw | 5 | Stopwatch Beta | STV","players":null},{"server_id":54,"name":"Uncletopia | Warsaw | 6 | Community","name_short":"waw-6","host":"waw-1.pl.uncletopia.com","port":27065,"enabled":true,"region":"eu","cc":"pl","latitude":52.2297,"longitude":21.017532,"reserved":0,"last_update":"0001-01-01T00:00:00Z","name_a2s":"Uncletopia | Warsaw | 6 | Community","protocol":17,"map":"workshop/koth_ashville_final.ugc2130459942","folder":"tf","game":"Team Fortress","app_id":440,"player_count":0,"max_players":24,"Bots":0,"server_type":"Dedicated","server_os":"Linux","password":true,"vac":true,"version":"7882260","steam_id":85568392925397856,"keywords":["cp","nocrits","nodmgspread","uncletopia"],"game_id":440,"stv_port":27066,"stv_name":"Uncletopia | Warsaw | 6 | Community | STV","players":null}]}