{"status":true,"message":"","result":[{"server_id":9,"name":"Uncletopia | Atlanta | 1 | All Maps","name_short":"atl-1","host":"atl-1.us.uncletopia.com","port":27015,"enabled":true,"region":"us-east","cc":"us","latitude":33.753746,"longitude":-84.38633,"reserved":0,"last_update":"0001-01-01T00:00:00Z","name_a2s":"Uncletopia | Atlanta | 1 | All Maps","protocol":17,"map":"koth_cascade","folder":"tf","game":"Team Fortress","app_id":440,"player_count":24,"max_players":24,"Bots":0,"server_type":"Dedicated","server_os":"Linux","password":true,"vac":true,"version":"7961495","steam_id":85568392924469982,"keywords":["cp","nocrits","nodmgspread","uncletopia"],"game_id":440,"stv_port":27016,"stv_name":"Uncletopia | Atlanta | 1 | All Maps | STV","players":null},{"server_id":104,"name":"Uncletopia | Atlanta | 2 | All Maps","name_short":"atl-2","host":"atl-1.us.uncletopia.com","port":27025,"enabled":true,"region":"us-east","cc":"us","latitude":33.753746,"longitude":-84.38633,"reserved":0,"last_update":"0001-01-01T00:00:00Z","name_a2s":"Uncletopia | Atlanta | 2 | All Maps","protocol":17,"map":"pl_badwater","folder":"tf","game":"Team Fortress","app_id":440,"player_count":24,"max_players":24,"Bots":0,"server_type":"Dedicated","server_os":"Linux","password":true,"vac":true,"version":"7961495","steam_id":85568392924469983,"keywords":["nocrits","nodmgspread","payload","uncletopia"],"game_id":440,"stv_port":27026,"stv_name":"Uncletopia | Atlanta | 2 | All Maps | STV","players":null},{"server_id":400,"name":"Uncletopia | Atlanta | 3 | Stopwatch","name_short":"atl-3","host":"atl-1.us.uncletopia.com","port":27035,"enabled":true,"region":"us-east","cc":"us","latitude":33.753746,"longitude":-84.38633,"reserved":0,"last_update":"0001-01-01T00:00:00Z","name_a2s":"Uncletopia | Atlanta | 3 | Stopwatch","protocol":17,"map":"koth_clearcut_b15","folder":"tf","game":"Team Fortress","app_id":440,"player_count":2,"max_players":24,"Bots":0,"server_type":"Dedicated","server_os":"Linux","password":true,"vac":true,"version":"7961495","steam_id":85568392924515187,"keywords":["cp","nocrits","nodmgspread","uncletopia"],"game_id":440,"stv_port":27036,"stv_name":"Uncletopia | Atlanta | 3 | Stopwatch | STV","players":null},{"server_id":401,"name":"Uncletopia | Atlanta | 4 | Community","name_short":"atl-4","host":"atl-1.us.uncletopia.com","port":27045,"enabled":true,"region":"us-east","cc":"us","latitude":33.753746,"longitude":-84.38633,"reserved":0,"last_update":"0001-01-01T00:00:00Z","name_a2s":"Uncletopia | Atlanta | 4 | Community","protocol":17,"map":"cp_indulge","folder":"tf","game":"Team Fortress","app_id":440,"player_count":0,"max_players":24,"Bots":0,"server_type":"Dedicated","server_os":"Linux","password":true,"vac":true,"version":"7961495","steam_id":85568392924515188,"keywords":["cp","nocrits","nodmgspread","uncletopia"],"game_id":440,"stv_port":27046,"stv_name":"Uncletopia | Atlanta | 4 | Community | STV","players":null},{"server_id":2,"name":"Uncletopia | Chicago | 1 | All Maps","name_short":"chi-1","host":"chi-1.us.uncletopia.com","port":27015,"enabled":true,"region":"us-central","cc":"us","latitude":41.881832,"longitude":-87.62318,"reserved":0,"last_update":"0001-01-01T00:00:00Z","name_a2s":"Uncletopia | Chicago | 1 | All Maps","protocol":17,"map":"cp_snakewater_final1","folder":"tf","game":"Team Fortress","app_id":440,"player_count":24,"max_players":24,"Bots":0,"server_type":"Dedicated","server_os":"Linux","password":true,"vac":true,"version":"7961495","steam_id":85568392924469984,"keywords":["cp","nocrits","nodmgspread","uncletopia"],"game_id":440,"stv_port":27016,"stv_name":"Uncletopia | Chicago | 1 | All Maps | STV","players":[{"user_id":161,"name":".JIFF","steam_id":76561198045181760,"connected_time":578000000000,"state":"active","ping":58},{"user_id":168,"name":"Frontier Psychiatrist","steam_id":76561198038689088,"connected_time":442000000000,"state":"active","ping":86},{"user_id":157,"name":"Heavy Main","steam_id":76561198333746778,"connected_time":669000000000,"state":"active","ping":83},{"user_id":173,"name":"i \u003c3 worms","steam_id":76561199018321159,"connected_time":213000000000,"state":"active","ping":85},{"user_id":169,"name":"Brob Zombie","steam_id":76561198149795942,"connected_time":249000000000,"state":"active","ping":60},{"user_id":155,"name":"Hobo Ninja","steam_id":76561198029755261,"connected_time":898000000000,"state":"active","ping":54},{"user_id":174,"name":"An Electric Blue Lobster","steam_id":76561198303125229,"connected_time":160000000000,"state":"active","ping":50},{"user_id":132,"name":"TallBit","steam_id":76561199059748976,"connected_time":1995000000000,"state":"active","ping":54},{"user_id":166,"name":"M4 Sherman","steam_id":76561198126990820,"connected_time":486000000000,"state":"active","ping":91},{"user_id":170,"name":"Niv the Psychonaut","steam_id":76561198057464683,"connected_time":248000000000,"state":"active","ping":90},{"user_id":153,"name":"Sammich","steam_id":76561198010543087,"connected_time":908000000000,"state":"active","ping":64},{"user_id":150,"name":"Linguine Alfredo","steam_id":76561198022045816,"connected_time":1020000000000,"state":"active","ping":73},{"user_id":167,"name":"RANDALL","steam_id":76561198026734458,"connected_time":473000000000,"state":"active","ping":60},{"user_id":145,"name":"indyjacob","steam_id":76561198065158713,"connected_time":1127000000000,"state":"active","ping":121},{"user_id":171,"name":"Spy Gaming","steam_id":76561198453295613,"connected_time":233000000000,"state":"active","ping":116},{"user_id":175,"name":"James","steam_id":76561198081313916,"connected_time":146000000000,"state":"active","ping":71},{"user_id":151,"name":"IcyScrumpy","steam_id":76561198084605065,"connected_time":938000000000,"state":"active","ping":56},{"user_id":156,"name":"RatBastard","steam_id":76561198328829278,"connected_time":850000000000,"state":"active","ping":56},{"user_id":176,"name":"SirMibble","steam_id":76561198372366226,"connected_time":144000000000,"state":"active","ping":112},{"user_id":121,"name":"Epicgamer92","steam_id":76561198312448484,"connected_time":3507000000000,"state":"active","ping":47},{"user_id":152,"name":"↱yate↲","steam_id":76561198311004039,"connected_time":935000000000,"state":"active","ping":90},{"user_id":141,"name":"Raiden scout","steam_id":76561198125880704,"connected_time":1303000000000,"state":"active","ping":92},{"user_id":164,"name":"Murrdogg","steam_id":76561198210491188,"connected_time":553000000000,"state":"active","ping":61},{"user_id":177,"name":"Frank Horrigan","steam_id":76561198066504831,"connected_time":139000000000,"state":"active","ping":103}]},{"server_id":106,"name":"Uncletopia | Chicago | 2 | All Maps","name_short":"chi-2","host":"chi-1.us.uncletopia.com","port":27025,"enabled":true,"region":"us-central","cc":"us","latitude":41.881832,"longitude":-87.62318,"reserved":0,"last_update":"0001-01-01T00:00:00Z","name_a2s":"Uncletopia | Chicago | 2 | All Maps","protocol":17,"map":"cp_mountainlab","folder":"tf","game":"Team Fortress","app_id":440,"player_count":24,"max_players":24,"Bots":0,"server_type":"Dedicated","server_os":"Linux","password":true,"vac":true,"version":"7961495","steam_id":85568392924469985,"keywords":["cp","nocrits","nodmgspread","uncletopia"],"game_id":440,"stv_port":27026,"stv_name":"Uncletopia | Chicago | 2 | All Maps | STV","players":[{"user_id":435,"name":"ĐĪʀɘ","steam_id":76561199014715203,"connected_time":1998000000000,"state":"active","ping":109},{"user_id":448,"name":"Spyntry Gun","steam_id":76561199186496740,"connected_time":1643000000000,"state":"active","ping":86},{"user_id":426,"name":"Harrier \"Harry\" du Bois","steam_id":76561198435876131,"connected_time":2191000000000,"state":"active","ping":67},{"user_id":449,"name":"Universe Man","steam_id":76561197997710655,"connected_time":1615000000000,"state":"active","ping":87},{"user_id":425,"name":"gaming elliptical","steam_id":76561198013456569,"connected_time":2518000000000,"state":"active","ping":48},{"user_id":466,"name":"orphanslayer","steam_id":76561199476198856,"connected_time":508000000000,"state":"active","ping":84},{"user_id":471,"name":"Mr. Stick","steam_id":76561198963494602,"connected_time":84000000000,"state":"spawning","ping":55},{"user_id":475,"name":"Toygar","steam_id":76561198023679830,"connected_time":17000000000,"state":"active","ping":49},{"user_id":453,"name":"McNamJam","steam_id":76561198028128686,"connected_time":1379000000000,"state":"active","ping":99},{"user_id":455,"name":"subdromeda","steam_id":76561198884351860,"connected_time":1028000000000,"state":"active","ping":60},{"user_id":450,"name":"Plasmie{ylo}","steam_id":76561198083513154,"connected_time":1589000000000,"state":"active","ping":74},{"user_id":421,"name":"tasty","steam_id":76561198083839061,"connected_time":3159000000000,"state":"active","ping":58},{"user_id":467,"name":"Candy Sparkles","steam_id":76561198126871264,"connected_time":508000000000,"state":"active","ping":88},{"user_id":445,"name":"uniwu - BUFF THE SPEED","steam_id":76561198864421290,"connected_time":1787000000000,"state":"active","ping":71},{"user_id":454,"name":"plague be upon ye","steam_id":76561198838822605,"connected_time":1276000000000,"state":"active","ping":120},{"user_id":461,"name":"oppenheimer style","steam_id":76561198026664629,"connected_time":554000000000,"state":"active","ping":51},{"user_id":468,"name":"MrKokonut","steam_id":76561198879575825,"connected_time":505000000000,"state":"active","ping":67},{"user_id":430,"name":"leaving lunar orbit","steam_id":76561199085974120,"connected_time":2151000000000,"state":"active","ping":77},{"user_id":447,"name":"Bisque","steam_id":76561198327661850,"connected_time":1691000000000,"state":"active","ping":84},{"user_id":470,"name":"㋛ countblanc","steam_id":76561197993171771,"connected_time":462000000000,"state":"active","ping":55},{"user_id":446,"name":"Compton™","steam_id":76561198037844367,"connected_time":1768000000000,"state":"active","ping":69},{"user_id":464,"name":"DJFunnyBone","steam_id":76561198892528359,"connected_time":535000000000,"state":"active","ping":36},{"user_id":465,"name":"Ahhpple","steam_id":76561197993322448,"connected_time":527000000000,"state":"active","ping":70},{"user_id":469,"name":"Librinox / Irrith","steam_id":76561198008996805,"connected_time":496000000000,"state":"active","ping":97}]},{"server_id":402,"name":"Uncletopia | Chicago | 3 | All Maps","name_short":"chi-3","host":"chi-1.us.uncletopia.com","port":27035,"enabled":true,"region":"us-central","cc":"us","latitude":41.881832,"longitude":-87.62318,"reserved":0,"last_update":"0001-01-01T00:00:00Z","name_a2s":"Uncletopia | Chicago | 3 | All Maps","protocol":17,"map":"pl_hoodoo_final","folder":"tf","game":"Team Fortress","app_id":440,"player_count":24,"max_players":24,"Bots":0,"server_type":"Dedicated","server_os":"Linux","password":true,"vac":true,"version":"7961495","steam_id":85568392924515191,"keywords":["nocrits","nodmgspread","payload","uncletopia"],"game_id":440,"stv_port":27036,"stv_name":"Uncletopia | Chicago | 3 | All Maps | STV","players":[{"user_id":681,"name":"Craig Isonychia","steam_id":76561198272013678,"connected_time":998000000000,"state":"active","ping":75},{"user_id":689,"name":"get outta town","steam_id":76561198337692867,"connected_time":145000000000,"state":"active","ping":90},{"user_id":651,"name":"Els","steam_id":76561198354718934,"connected_time":3915000000000,"state":"active","ping":88},{"user_id":690,"name":"atmBomb","steam_id":76561198055557988,"connected_time":121000000000,"state":"active","ping":65},{"user_id":691,"name":"mountainkug","steam_id":76561199491802535,"connected_time":113000000000,"state":"active","ping":90},{"user_id":652,"name":"rum","steam_id":76561198465334150,"connected_time":3725000000000,"state":"active","ping":81},{"user_id":633,"name":"Smiles","steam_id":76561198107197973,"connected_time":5115000000000,"state":"active","ping":58},{"user_id":630,"name":"vuredel","steam_id":76561197999542711,"connected_time":5277000000000,"state":"active","ping":79},{"user_id":684,"name":"Critscare","steam_id":76561198087712508,"connected_time":813000000000,"state":"active","ping":41},{"user_id":669,"name":"Spright","steam_id":76561199144266247,"connected_time":1791000000000,"state":"active","ping":90},{"user_id":664,"name":"[㏈] Bumpercars","steam_id":76561198061591743,"connected_time":2684000000000,"state":"active","ping":59},{"user_id":688,"name":"Official Ton a'Pup","steam_id":76561198023110308,"connected_time":156000000000,"state":"active","ping":89},{"user_id":685,"name":"PolarStarCoffee","steam_id":76561198869313226,"connected_time":583000000000,"state":"active","ping":56},{"user_id":696,"name":"WaveSmash","steam_id":76561198208785485,"connected_time":85000000000,"state":"active","ping":83},{"user_id":686,"name":"E_leet","steam_id":76561198127675182,"connected_time":166000000000,"state":"active","ping":59},{"user_id":687,"name":"Glue Gulper","steam_id":76561198158014525,"connected_time":161000000000,"state":"active","ping":60},{"user_id":535,"name":"MakerRov","steam_id":76561198914108894,"connected_time":11742000000000,"state":"active","ping":110},{"user_id":693,"name":"Rhutebeer","steam_id":76561198018302761,"connected_time":111000000000,"state":"active","ping":107},{"user_id":672,"name":"CoziestGlobe","steam_id":76561198199237735,"connected_time":1634000000000,"state":"active","ping":82},{"user_id":665,"name":"[NAME-REDACTED]","steam_id":76561198035682975,"connected_time":2164000000000,"state":"active","ping":72},{"user_id":694,"name":"Travorski","steam_id":76561198072493142,"connected_time":96000000000,"state":"active","ping":94},{"user_id":695,"name":"Brocklee","steam_id":76561198189330642,"connected_time":94000000000,"state":"active","ping":104},{"user_id":619,"name":"Dr.StrangeGlove","steam_id":76561198286114229,"connected_time":6081000000000,"state":"active","ping":62},{"user_id":698,"name":"Wan Shi Tong","steam_id":76561198076441225,"connected_time":30000000000,"state":"active","ping":61}]},{"server_id":403,"name":"Uncletopia | Chicago | 4 | All Maps","name_short":"chi-4","host":"chi-1.us.uncletopia.com","port":27045,"enabled":true,"region":"us-central","cc":"us","latitude":41.881832,"longitude":-87.62318,"reserved":0,"last_update":"0001-01-01T00:00:00Z","name_a2s":"Uncletopia | Chicago | 4 | All Maps","protocol":17,"map":"pl_badwater","folder":"tf","game":"Team Fortress","app_id":440,"player_count":24,"max_players":24,"Bots":0,"server_type":"Dedicated","server_os":"Linux","password":true,"vac":true,"version":"7961495","steam_id":85568392924515193,"keywords":["nocrits","nodmgspread","payload","uncletopia"],"game_id":440,"stv_port":27046,"stv_name":"Uncletopia | Chicago | 4 | All Maps | STV","players":[{"user_id":380,"name":"Gigacheat","steam_id":76561198862843572,"connected_time":1376000000000,"state":"active","ping":59},{"user_id":381,"name":"mountain goat","steam_id":76561198326628884,"connected_time":1361000000000,"state":"active","ping":65},{"user_id":359,"name":"iStrava","steam_id":76561198088223717,"connected_time":2127000000000,"state":"active","ping":92},{"user_id":382,"name":"Uncle","steam_id":76561197988647705,"connected_time":1348000000000,"state":"active","ping":58},{"user_id":362,"name":"Dewey","steam_id":76561198117245213,"connected_time":2063000000000,"state":"active","ping":77},{"user_id":379,"name":"Warmerfall","steam_id":76561198812218923,"connected_time":1401000000000,"state":"active","ping":84},{"user_id":366,"name":"Renegade","steam_id":76561198066847055,"connected_time":1858000000000,"state":"active","ping":56},{"user_id":355,"name":"Lightish Red","steam_id":76561198060879701,"connected_time":2495000000000,"state":"active","ping":46},{"user_id":386,"name":"Baby gaming","steam_id":76561198867319323,"connected_time":889000000000,"state":"active","ping":60},{"user_id":393,"name":"neonblack","steam_id":76561198060316801,"connected_time":433000000000,"state":"active","ping":73},{"user_id":377,"name":"YourLocalArsonist","steam_id":76561199111922751,"connected_time":1619000000000,"state":"active","ping":76},{"user_id":353,"name":"b4rry","steam_id":76561198365887154,"connected_time":2591000000000,"state":"active","ping":67},{"user_id":365,"name":"Mr.ToasterOven","steam_id":76561199120586450,"connected_time":1892000000000,"state":"active","ping":57},{"user_id":367,"name":"Vimchi","steam_id":76561198151927029,"connected_time":1857000000000,"state":"active","ping":87},{"user_id":394,"name":"Burger","steam_id":76561198422412083,"connected_time":373000000000,"state":"active","ping":72},{"user_id":390,"name":"birbmanminty","steam_id":76561199159145275,"connected_time":564000000000,"state":"active","ping":102},{"user_id":389,"name":"I3lasteroid","steam_id":76561197985463901,"connected_time":632000000000,"state":"active","ping":77},{"user_id":391,"name":"Moss","steam_id":76561199122200727,"connected_time":488000000000,"state":"active","ping":68},{"user_id":383,"name":"Slob and Sup","steam_id":76561198123441203,"connected_time":1347000000000,"state":"active","ping":60},{"user_id":372,"name":"Shopkeeper","steam_id":76561198105888756,"connected_time":1766000000000,"state":"active","ping":103},{"user_id":395,"name":"yeetus meatus","steam_id":76561199204369282,"connected_time":147000000000,"state":"active","ping":92},{"user_id":352,"name":"7thelden","steam_id":76561198297428761,"connected_time":2620000000000,"state":"active","ping":63},{"user_id":373,"name":"The Blind People","steam_id":76561198008387855,"connected_time":1722000000000,"state":"active","ping":67},{"user_id":374,"name":"Darkmaen","steam_id":76561198060543390,"connected_time":1709000000000,"state":"active","ping":162}]},{"server_id":36,"name":"Uncletopia | Chicago | 5 | All Maps","name_short":"chi-5","host":"chi-2.us.uncletopia.com","port":27015,"enabled":true,"region":"us-central","cc":"us","latitude":41.881832,"longitude":-87.62318,"reserved":0,"last_update":"0001-01-01T00:00:00Z","name_a2s":"Uncletopia | Chicago | 5 | All Maps","protocol":17,"map":"koth_highpass","folder":"tf","game":"Team Fortress","app_id":440,"player_count":0,"max_players":24,"Bots":0,"server_type":"Dedicated","server_os":"Linux","password":true,"vac":true,"version":"7961495","steam_id":85568392924866362,"keywords":["cp","nocrits","nodmgspread","uncletopia"],"game_id":440,"stv_port":27016,"stv_name":"Uncletopia | Chicago | 5 | All Maps | STV","players":null},{"server_id":37,"name":"Uncletopia | Chicago | 6 | All Maps","name_short":"chi-6","host":"chi-2.us.uncletopia.com","port":27025,"enabled":true,"region":"us-central","cc":"us","latitude":41.881832,"longitude":-87.62318,"reserved":0,"last_update":"0001-01-01T00:00:00Z","name_a2s":"Uncletopia | Chicago | 6 | All Maps","protocol":17,"map":"cp_mercenarypark","folder":"tf","game":"Team Fortress","app_id":440,"player_count":24,"max_players":24,"Bots":0,"server_type":"Dedicated","server_os":"Linux","password":true,"vac":true,"version":"7961495","steam_id":85568392924866363,"keywords":["cp","nocrits","nodmgspread","uncletopia"],"game_id":440,"stv_port":27026,"stv_name":"Uncletopia | Chicago | 6 | All Maps | STV","players":[{"user_id":155,"name":"Toxic Ron","steam_id":76561198089302972,"connected_time":2206000000000,"state":"active","ping":68},{"user_id":170,"name":"[82DK] Ike","steam_id":76561198135256526,"connected_time":1032000000000,"state":"active","ping":72},{"user_id":138,"name":"FoxStrike","steam_id":76561198218232011,"connected_time":3318000000000,"state":"active","ping":79},{"user_id":183,"name":"floppy muppet","steam_id":76561198003076261,"connected_time":144000000000,"state":"active","ping":89},{"user_id":169,"name":"Owl Pacino","steam_id":76561197979970666,"connected_time":1181000000000,"state":"active","ping":57},{"user_id":178,"name":"Sturdy Primate","steam_id":76561198057954897,"connected_time":318000000000,"state":"active","ping":83},{"user_id":147,"name":"Mortal Flame","steam_id":76561198130698418,"connected_time":2788000000000,"state":"active","ping":75},{"user_id":173,"name":"Adam (Cursed Confetti Creature)","steam_id":76561198317690197,"connected_time":654000000000,"state":"active","ping":51},{"user_id":152,"name":"NUt","steam_id":76561198031007966,"connected_time":2696000000000,"state":"active","ping":73},{"user_id":179,"name":"Lionel Messi","steam_id":76561198143864870,"connected_time":307000000000,"state":"active","ping":110},{"user_id":180,"name":"DADDY ESCANOR","steam_id":76561198075102565,"connected_time":259000000000,"state":"active","ping":57},{"user_id":165,"name":"Artyom","steam_id":76561198132986712,"connected_time":1530000000000,"state":"active","ping":103},{"user_id":174,"name":"AYAYA!!!","steam_id":76561198992102180,"connected_time":593000000000,"state":"active","ping":52},{"user_id":182,"name":"the fortnite battle bucket","steam_id":76561199495859638,"connected_time":181000000000,"state":"active","ping":48},{"user_id":160,"name":"lexi","steam_id":76561198176299759,"connected_time":1843000000000,"state":"active","ping":86},{"user_id":181,"name":"Jerphf","steam_id":76561198328825964,"connected_time":254000000000,"state":"active","ping":61},{"user_id":149,"name":"Cerebral Malfunction","steam_id":76561198885651598,"connected_time":2784000000000,"state":"active","ping":71},{"user_id":161,"name":"Kirby","steam_id":76561199161858008,"connected_time":1788000000000,"state":"active","ping":73},{"user_id":131,"name":"CorgiYasu","steam_id":76561198082298201,"connected_time":3581000000000,"state":"active","ping":92},{"user_id":150,"name":"reymundo","steam_id":76561197989412830,"connected_time":2754000000000,"state":"active","ping":116},{"user_id":132,"name":"Meep","steam_id":76561198044645661,"connected_time":3574000000000,"state":"active","ping":81},{"user_id":135,"name":"Tinwelint","steam_id":76561198015017549,"connected_time":3467000000000,"state":"active","ping":101},{"user_id":184,"name":"magicmellen","steam_id":76561199210337711,"connected_time":138000000000,"state":"active","ping":115},{"user_id":136,"name":"Yoshika","steam_id":76561198036858169,"connected_time":3449000000000,"state":"active","ping":75}]},{"server_id":38,"name":"Uncletopia | Chicago | 7 | Stopwatch","name_short":"chi-7","host":"chi-2.us.uncletopia.com","port":27035,"enabled":true,"region":"us-central","cc":"us","latitude":41.881832,"longitude":-87.62318,"reserved":0,"last_update":"0001-01-01T00:00:00Z","name_a2s":"Uncletopia | Chicago | 7 | Stopwatch","protocol":17,"map":"koth_lakeside_final","folder":"tf","game":"Team Fortress","app_id":440,"player_count":24,"max_players":24,"Bots":0,"server_type":"Dedicated","server_os":"Linux","password":true,"vac":true,"version":"7961495","steam_id":85568392924866364,"keywords":["cp","nocrits","nodmgspread","uncletopia"],"game_id":440,"stv_port":27036,"stv_name":"Uncletopia | Chicago | 7 | Stopwatch | STV","players":[{"user_id":345,"name":"SUPREME CHAMPION","steam_id":76561198072112905,"connected_time":374000000000,"state":"active","ping":57},{"user_id":330,"name":"Duncan Idaho","steam_id":76561197988963861,"connected_time":1114000000000,"state":"active","ping":73},{"user_id":331,"name":"Garth","steam_id":76561198170173453,"connected_time":1106000000000,"state":"active","ping":79},{"user_id":306,"name":"LargeBigboy","steam_id":76561198089293265,"connected_time":2335000000000,"state":"active","ping":87},{"user_id":344,"name":"xLeoparrd","steam_id":76561198940657194,"connected_time":570000000000,"state":"active","ping":74},{"user_id":257,"name":"Hamz","steam_id":76561199287459211,"connected_time":4556000000000,"state":"active","ping":70},{"user_id":332,"name":"Farseer Ulwithy","steam_id":76561197965179245,"connected_time":1093000000000,"state":"active","ping":79},{"user_id":269,"name":"Pug_9492","steam_id":76561199078217640,"connected_time":3998000000000,"state":"active","ping":128},{"user_id":343,"name":"bibi weegy","steam_id":76561198196374619,"connected_time":694000000000,"state":"active","ping":101},{"user_id":342,"name":"Keyboard Cowpoke","steam_id":76561198197698367,"connected_time":752000000000,"state":"active","ping":70},{"user_id":349,"name":"DragonHaert","steam_id":76561198132516061,"connected_time":229000000000,"state":"active","ping":61},{"user_id":347,"name":"Spare(8)Ball","steam_id":76561197982432995,"connected_time":276000000000,"state":"active","ping":103},{"user_id":327,"name":"rtj111","steam_id":76561199122545114,"connected_time":1214000000000,"state":"active","ping":67},{"user_id":328,"name":"Supplelyarrow45","steam_id":76561199176809885,"connected_time":1184000000000,"state":"active","ping":63},{"user_id":334,"name":"carcin","steam_id":76561198042271448,"connected_time":957000000000,"state":"active","ping":60},{"user_id":335,"name":"Honesty","steam_id":76561198066094995,"connected_time":949000000000,"state":"active","ping":83},{"user_id":316,"name":"gCaclulator","steam_id":76561198838344187,"connected_time":1939000000000,"state":"active","ping":90},{"user_id":336,"name":"✪ dSaner -iwnl-","steam_id":76561198082291174,"connected_time":948000000000,"state":"active","ping":65},{"user_id":337,"name":"\u003c3","steam_id":76561198065872641,"connected_time":942000000000,"state":"active","ping":102},{"user_id":338,"name":"Elena Manetta","steam_id":76561197998344054,"connected_time":906000000000,"state":"active","ping":57},{"user_id":339,"name":"meemoze","steam_id":76561198401945631,"connected_time":893000000000,"state":"active","ping":70},{"user_id":312,"name":"Big Inch","steam_id":76561198052513500,"connected_time":2225000000000,"state":"active","ping":88},{"user_id":350,"name":"Nop F2","steam_id":76561198319688930,"connected_time":188000000000,"state":"active","ping":67},{"user_id":341,"name":"Tupac Shakur","steam_id":76561198247651486,"connected_time":878000000000,"state":"active","ping":59}]},{"server_id":39,"name":"Uncletopia | Chicago | 8 | Community","name_short":"chi-8","host":"chi-2.us.uncletopia.com","port":27045,"enabled":true,"region":"us-central","cc":"us","latitude":41.881832,"longitude":-87.62318,"reserved":0,"last_update":"0001-01-01T00:00:00Z","name_a2s":"Uncletopia | Chicago | 8 | Community","protocol":17,"map":"workshop/pl_barnblitz_pro7.ugc582280235","folder":"tf","game":"Team Fortress","app_id":440,"player_count":24,"max_players":24,"Bots":0,"server_type":"Dedicated","server_os":"Linux","password":true,"vac":true,"version":"7961495","steam_id":85568392924866365,"keywords":["nocrits","nodmgspread","payload","uncletopia"],"game_id":440,"stv_port":27046,"stv_name":"Uncletopia | Chicago | 8 | Community | STV","players":[{"user_id":135,"name":"hobojoemama","steam_id":76561198108345568,"connected_time":471000000000,"state":"active","ping":75},{"user_id":136,"name":"The Big Kahuna","steam_id":76561198079996973,"connected_time":113000000000,"state":"active","ping":75},{"user_id":128,"name":"kazoo2","steam_id":76561198260473504,"connected_time":655000000000,"state":"active","ping":89},{"user_id":69,"name":"☼Barracuda☼","steam_id":76561198013022083,"connected_time":4328000000000,"state":"active","ping":58},{"user_id":52,"name":"Vanillex","steam_id":76561199125632814,"connected_time":5441000000000,"state":"active","ping":74},{"user_id":118,"name":"Nordie","steam_id":76561198102297774,"connected_time":1151000000000,"state":"active","ping":59},{"user_id":93,"name":"ole_diggy","steam_id":76561198970212746,"connected_time":2757000000000,"state":"active","ping":68},{"user_id":126,"name":"K2f","steam_id":76561198049600563,"connected_time":725000000000,"state":"active","ping":105},{"user_id":134,"name":"Wife Enjoyer","steam_id":76561198044109761,"connected_time":551000000000,"state":"active","ping":69},{"user_id":112,"name":"Viciosa","steam_id":76561198115155449,"connected_time":1421000000000,"state":"active","ping":76},{"user_id":121,"name":"[TSG] Turner's Chocolate Milk","steam_id":76561198058963288,"connected_time":1002000000000,"state":"active","ping":70},{"user_id":133,"name":"filter in the backwoods","steam_id":76561198136146032,"connected_time":583000000000,"state":"active","ping":59},{"user_id":129,"name":"E4Estrogen","steam_id":76561198085813708,"connected_time":632000000000,"state":"active","ping":67},{"user_id":31,"name":"The Hose on Upward","steam_id":76561197965092192,"connected_time":6817000000000,"state":"active","ping":90},{"user_id":113,"name":"Mr. Mane T.S.H.A.","steam_id":76561198056728986,"connected_time":1385000000000,"state":"active","ping":72},{"user_id":130,"name":"Unwavering Flavor","steam_id":76561198053306065,"connected_time":628000000000,"state":"active","ping":80},{"user_id":117,"name":"menk3","steam_id":76561198120888597,"connected_time":1173000000000,"state":"active","ping":76},{"user_id":57,"name":"Shagbark","steam_id":76561198173447342,"connected_time":5252000000000,"state":"active","ping":82},{"user_id":120,"name":"George","steam_id":76561198047994501,"connected_time":1050000000000,"state":"active","ping":60},{"user_id":138,"name":"TheVikingTheRed","steam_id":76561199221731253,"connected_time":35000000000,"state":"active","ping":143},{"user_id":132,"name":"GlorifiedAshy","steam_id":76561198382684727,"connected_time":617000000000,"state":"active","ping":63},{"user_id":119,"name":"cam","steam_id":76561198371782893,"connected_time":1091000000000,"state":"active","ping":85},{"user_id":88,"name":"DededeMain | trade.tf","steam_id":76561198310951632,"connected_time":3015000000000,"state":"active","ping":73},{"user_id":108,"name":"TheGrassMan (He/Him)","steam_id":76561198118984048,"connected_time":1682000000000,"state":"active","ping":62}]},{"server_id":8,"name":"Uncletopia | Dallas | 1 | All Maps","name_short":"dal-1","host":"dal-1.us.uncletopia.com","port":27015,"enabled":true,"region":"us-central","cc":"us","latitude":32.779167,"longitude":-96.80889,"reserved":0,"last_update":"0001-01-01T00:00:00Z","name_a2s":"Uncletopia | Dallas | 1 | All Maps","protocol":17,"map":"pl_badwater","folder":"tf","game":"Team Fortress","app_id":440,"player_count":24,"max_players":24,"Bots":0,"server_type":"Dedicated","server_os":"Linux","password":true,"vac":true,"version":"7961495","steam_id":85568392924469986,"keywords":["nocrits","nodmgspread","payload","uncletopia"],"game_id":440,"stv_port":27016,"stv_name":"Uncletopia | Dallas | 1 | All Maps | STV","players":[{"user_id":427,"name":"Davey Doyle","steam_id":76561198268664311,"connected_time":1381000000000,"state":"active","ping":92},{"user_id":429,"name":"dirtman","steam_id":76561198355423005,"connected_time":1084000000000,"state":"active","ping":115},{"user_id":419,"name":"NERV","steam_id":76561198111023744,"connected_time":1720000000000,"state":"active","ping":91},{"user_id":414,"name":"barker bill","steam_id":76561198018451994,"connected_time":1988000000000,"state":"active","ping":59},{"user_id":376,"name":"Kenku","steam_id":76561199086762926,"connected_time":4731000000000,"state":"active","ping":69},{"user_id":406,"name":"Angry Ginger","steam_id":76561198256929349,"connected_time":2933000000000,"state":"active","ping":81},{"user_id":365,"name":"spot_the_cow","steam_id":76561198151135298,"connected_time":6118000000000,"state":"active","ping":64},{"user_id":436,"name":"schmuck","steam_id":76561198143789773,"connected_time":422000000000,"state":"active","ping":56},{"user_id":416,"name":"Call me the sleeps","steam_id":76561198121245586,"connected_time":1811000000000,"state":"active","ping":106},{"user_id":369,"name":"Snivy64","steam_id":76561198423445376,"connected_time":5188000000000,"state":"active","ping":71},{"user_id":435,"name":"McDonald","steam_id":76561199028533497,"connected_time":765000000000,"state":"active","ping":83},{"user_id":384,"name":"Ojen","steam_id":76561197998414482,"connected_time":4035000000000,"state":"active","ping":80},{"user_id":428,"name":"Johnson","steam_id":76561198051905342,"connected_time":1099000000000,"state":"active","ping":96},{"user_id":434,"name":"Tired","steam_id":76561198072620682,"connected_time":803000000000,"state":"active","ping":90},{"user_id":439,"name":"leesh","steam_id":76561198079603938,"connected_time":10000000000,"state":"spawning","ping":57},{"user_id":418,"name":"TheDapperTaco","steam_id":76561199103076602,"connected_time":1763000000000,"state":"active","ping":121},{"user_id":437,"name":"God's Drunkest Driver","steam_id":76561199174579733,"connected_time":256000000000,"state":"active","ping":95},{"user_id":393,"name":"I. C. Wiener","steam_id":76561198062777610,"connected_time":3643000000000,"state":"active","ping":72},{"user_id":423,"name":"a spy","steam_id":76561199365643094,"connected_time":1611000000000,"state":"active","ping":74},{"user_id":298,"name":"flippercurve","steam_id":76561199238295034,"connected_time":10279000000000,"state":"active","ping":57},{"user_id":413,"name":"OddSlaush","steam_id":76561198043898488,"connected_time":2344000000000,"state":"active","ping":78},{"user_id":424,"name":"intense radish","steam_id":76561199061038624,"connected_time":1608000000000,"state":"active","ping":67},{"user_id":415,"name":"qt pa 2t","steam_id":76561198066867150,"connected_time":1889000000000,"state":"active","ping":107},{"user_id":389,"name":"Blade Racer","steam_id":76561198155896703,"connected_time":3864000000000,"state":"active","ping":77}]},{"server_id":108,"name":"Uncletopia | Dallas | 2 | All Maps","name_short":"dal-2","host":"dal-1.us.uncletopia.com","port":27025,"enabled":true,"region":"us-central","cc":"us","latitude":32.779167,"longitude":-96.80889,"reserved":0,"last_update":"0001-01-01T00:00:00Z","name_a2s":"Uncletopia | Dallas | 2 | All Maps","protocol":17,"map":"pl_upward","folder":"tf","game":"Team Fortress","app_id":440,"player_count":24,"max_players":24,"Bots":0,"server_type":"Dedicated","server_os":"Linux","password":true,"vac":true,"version":"7961495","steam_id":85568392924469988,"keywords":["nocrits","nodmgspread","payload","uncletopia"],"game_id":440,"stv_port":27026,"stv_name":"Uncletopia | Dallas | 2 | All Maps | STV","players":[{"user_id":672,"name":"Rearranging furniture","steam_id":76561199054971009,"connected_time":127000000000,"state":"active","ping":52},{"user_id":655,"name":"MrMacMundy","steam_id":76561198835230572,"connected_time":1023000000000,"state":"active","ping":79},{"user_id":588,"name":"THRONGLER","steam_id":76561198198563466,"connected_time":6464000000000,"state":"active","ping":41},{"user_id":662,"name":"Stick","steam_id":76561198001509374,"connected_time":744000000000,"state":"active","ping":45},{"user_id":670,"name":"John CounterStrike","steam_id":76561198129346110,"connected_time":188000000000,"state":"active","ping":58},{"user_id":673,"name":"Novu","steam_id":76561198886997024,"connected_time":87000000000,"state":"active","ping":107},{"user_id":610,"name":"Cosmic Soup","steam_id":76561198448801117,"connected_time":4700000000000,"state":"active","ping":75},{"user_id":659,"name":"minecraft","steam_id":76561198104345201,"connected_time":769000000000,"state":"active","ping":67},{"user_id":669,"name":"2JZ_","steam_id":76561198064027289,"connected_time":206000000000,"state":"active","ping":74},{"user_id":674,"name":"celery","steam_id":76561199004451589,"connected_time":84000000000,"state":"active","ping":51},{"user_id":643,"name":"Strangelove","steam_id":76561198353773611,"connected_time":2226000000000,"state":"active","ping":104},{"user_id":675,"name":"Every villain Is Lemons","steam_id":76561198125947844,"connected_time":55000000000,"state":"active","ping":94},{"user_id":667,"name":"self sufficient kitten","steam_id":76561197960592612,"connected_time":448000000000,"state":"active","ping":91},{"user_id":656,"name":"RandomGavin?","steam_id":76561199102839784,"connected_time":968000000000,"state":"active","ping":90},{"user_id":660,"name":"Bleat","steam_id":76561198138678917,"connected_time":754000000000,"state":"active","ping":149},{"user_id":661,"name":"Riltreks","steam_id":76561198800482183,"connected_time":746000000000,"state":"active","ping":61},{"user_id":658,"name":"❤ Ashley ❤","steam_id":76561198056428303,"connected_time":785000000000,"state":"active","ping":75},{"user_id":633,"name":"CoralDawn","steam_id":76561198292292930,"connected_time":3606000000000,"state":"active","ping":71},{"user_id":663,"name":"Kondha","steam_id":76561198084588336,"connected_time":703000000000,"state":"active","ping":52},{"user_id":664,"name":"Jolyne","steam_id":76561198169960915,"connected_time":692000000000,"state":"active","ping":57},{"user_id":666,"name":"RayMext","steam_id":76561198158152966,"connected_time":531000000000,"state":"active","ping":189},{"user_id":665,"name":"The Horselords and Animal Gods","steam_id":76561197975094050,"connected_time":680000000000,"state":"active","ping":89},{"user_id":671,"name":"mn","steam_id":76561198042357436,"connected_time":187000000000,"state":"active","ping":93},{"user_id":668,"name":"Spaceman","steam_id":76561198098025074,"connected_time":341000000000,"state":"active","ping":74}]},{"server_id":404,"name":"Uncletopia | Dallas | 3 | All Maps","name_short":"dal-3","host":"dal-1.us.uncletopia.com","port":27035,"enabled":true,"region":"us-central","cc":"us","latitude":32.779167,"longitude":-96.80889,"reserved":0,"last_update":"0001-01-01T00:00:00Z","name_a2s":"Uncletopia | Dallas | 3 | All Maps","protocol":17,"map":"cp_mountainlab","folder":"tf","game":"Team Fortress","app_id":440,"player_count":24,"max_players":24,"Bots":0,"server_type":"Dedicated","server_os":"Linux","password":true,"vac":true,"version":"7961495","steam_id":85568392924515219,"keywords":["cp","nocrits","nodmgspread","uncletopia"],"game_id":440,"stv_port":27036,"stv_name":"Uncletopia | Dallas | 3 | All Maps | STV","players":[{"user_id":197,"name":"Bone Daddy","steam_id":76561197989953895,"connected_time":372000000000,"state":"active","ping":96},{"user_id":181,"name":"rxea","steam_id":76561198868168910,"connected_time":1985000000000,"state":"active","ping":83},{"user_id":168,"name":"gold","steam_id":76561199085827238,"connected_time":3081000000000,"state":"active","ping":103},{"user_id":175,"name":"Bucket of Chestnuts","steam_id":76561198115079427,"connected_time":2861000000000,"state":"active","ping":95},{"user_id":201,"name":"ArcangelxGT","steam_id":76561198167946091,"connected_time":77000000000,"state":"active","ping":72},{"user_id":139,"name":"Cad Freeman","steam_id":76561198150670175,"connected_time":4611000000000,"state":"active","ping":102},{"user_id":182,"name":"ManDrew53","steam_id":76561198860443143,"connected_time":1910000000000,"state":"active","ping":75},{"user_id":183,"name":"TrovusMango","steam_id":76561198207214560,"connected_time":1839000000000,"state":"active","ping":148},{"user_id":158,"name":"Sam","steam_id":76561198069948353,"connected_time":3854000000000,"state":"active","ping":62},{"user_id":164,"name":"Crack Addict","steam_id":76561198166681494,"connected_time":3230000000000,"state":"active","ping":57},{"user_id":184,"name":"BisKit","steam_id":76561198140624153,"connected_time":1829000000000,"state":"active","ping":100},{"user_id":180,"name":"Mint Jelly","steam_id":76561197991286751,"connected_time":2176000000000,"state":"active","ping":67},{"user_id":192,"name":"Kaiju","steam_id":76561198035703156,"connected_time":955000000000,"state":"active","ping":52},{"user_id":199,"name":"Walter Malone","steam_id":76561198078661356,"connected_time":250000000000,"state":"active","ping":89},{"user_id":177,"name":"Legit_Jaxer","steam_id":76561198172234053,"connected_time":2759000000000,"state":"active","ping":89},{"user_id":200,"name":"BlueGhost","steam_id":76561199173223772,"connected_time":249000000000,"state":"active","ping":272},{"user_id":185,"name":"Bingo","steam_id":76561198021841976,"connected_time":1827000000000,"state":"active","ping":80},{"user_id":124,"name":"Alkimia","steam_id":76561198385763137,"connected_time":5647000000000,"state":"active","ping":128},{"user_id":195,"name":"BakedBushido","steam_id":76561197976095068,"connected_time":861000000000,"state":"active","ping":85},{"user_id":191,"name":"Robzilla","steam_id":76561198035236155,"connected_time":982000000000,"state":"active","ping":72},{"user_id":187,"name":"Schpungus, Lord of The Fungus","steam_id":76561198883762078,"connected_time":1765000000000,"state":"active","ping":117},{"user_id":194,"name":"waffles con leche","steam_id":76561198246934872,"connected_time":902000000000,"state":"active","ping":100},{"user_id":188,"name":"MungJR","steam_id":76561198078316612,"connected_time":1763000000000,"state":"active","ping":111},{"user_id":160,"name":"galacticdragonlord","steam_id":76561198119755801,"connected_time":3765000000000,"state":"active","ping":101}]},{"server_id":405,"name":"Uncletopia | Dallas | 4 | Community","name_short":"dal-4","host":"dal-1.us.uncletopia.com","port":27045,"enabled":true,"region":"us-central","cc":"us","latitude":32.779167,"longitude":-96.80889,"reserved":0,"last_update":"0001-01-01T00:00:00Z","name_a2s":"Uncletopia | Dallas | 4 | Community","protocol":17,"map":"workshop/koth_trenchfoot_b1a.ugc731436616","folder":"tf","game":"Team Fortress","app_id":440,"player_count":2,"max_players":24,"Bots":0,"server_type":"Dedicated","server_os":"Linux","password":true,"vac":true,"version":"7961495","steam_id":85568392924515220,"keywords":["cp","nocrits","nodmgspread","uncletopia"],"game_id":440,"stv_port":27046,"stv_name":"Uncletopia | Dallas | 4 | Community | STV","players":[{"user_id":192,"name":"Kuyumiester","steam_id":76561198126835302,"connected_time":174000000000,"state":"active","ping":54},{"user_id":190,"name":"ᶦᶰᵈOSCARメ","steam_id":76561199070772072,"connected_time":214000000000,"state":"active","ping":61}]},{"server_id":5,"name":"Uncletopia | Frankfurt | 1 | All Maps","name_short":"frk-1","host":"frk-1.de.uncletopia.com","port":27015,"enabled":true,"region":"eu","cc":"de","latitude":50.110924,"longitude":8.682127,"reserved":0,"last_update":"0001-01-01T00:00:00Z","name_a2s":"Uncletopia | Frankfurt | 1 | All Maps","protocol":17,"map":"pl_upward","folder":"tf","game":"Team Fortress","app_id":440,"player_count":0,"max_players":24,"Bots":0,"server_type":"Dedicated","server_os":"Linux","password":true,"vac":true,"version":"7961495","steam_id":85568392924469989,"keywords":["nocrits","nodmgspread","payload","uncletopia"],"game_id":440,"stv_port":27016,"stv_name":"Uncletopia | Frankfurt | 1 | All Maps | STV","players":null},{"server_id":110,"name":"Uncletopia | Frankfurt | 2 | All Maps","name_short":"frk-2","host":"frk-1.de.uncletopia.com","port":27025,"enabled":true,"region":"eu","cc":"de","latitude":50.110924,"longitude":8.682127,"reserved":0,"last_update":"0001-01-01T00:00:00Z","name_a2s":"Uncletopia | Frankfurt | 2 | All Maps","protocol":17,"map":"koth_cascade","folder":"tf","game":"Team Fortress","app_id":440,"player_count":0,"max_players":24,"Bots":0,"server_type":"Dedicated","server_os":"Linux","password":true,"vac":true,"version":"7961495","steam_id":85568392924469990,"keywords":["cp","nocrits","nodmgspread","uncletopia"],"game_id":440,"stv_port":27026,"stv_name":"Uncletopia | Frankfurt | 2 | All Maps | STV","players":null},{"server_id":308,"name":"Uncletopia | Frankfurt | 3 | All Maps","name_short":"frk-3","host":"frk-1.de.uncletopia.com","port":27035,"enabled":true,"region":"eu","cc":"de","latitude":50.110924,"longitude":8.682127,"reserved":0,"last_update":"0001-01-01T00:00:00Z","name_a2s":"Uncletopia | Frankfurt | 3 | All Maps","protocol":17,"map":"cp_mountainlab","folder":"tf","game":"Team Fortress","app_id":440,"player_count":0,"max_players":24,"Bots":0,"server_type":"Dedicated","server_os":"Linux","password":true,"vac":true,"version":"7961495","steam_id":85568392924504274,"keywords":["cp","nocrits","nodmgspread","uncletopia"],"game_id":440,"stv_port":27036,"stv_name":"Uncletopia | Frankfurt | 3 | All Maps | STV","players":null},{"server_id":309,"name":"Uncletopia | Frankfurt | 4 | All Maps","name_short":"frk-4","host":"frk-1.de.uncletopia.com","port":27045,"enabled":true,"region":"eu","cc":"de","latitude":50.110924,"longitude":8.682127,"reserved":0,"last_update":"0001-01-01T00:00:00Z","name_a2s":"Uncletopia | Frankfurt | 4 | All Maps","protocol":17,"map":"pl_frontier_final","folder":"tf","game":"Team Fortress","app_id":440,"player_count":0,"max_players":24,"Bots":0,"server_type":"Dedicated","server_os":"Linux","password":true,"vac":true,"version":"7961495","steam_id":85568392924504275,"keywords":["nocrits","nodmgspread","payload","uncletopia"],"game_id":440,"stv_port":27046,"stv_name":"Uncletopia | Frankfurt | 4 | All Maps | STV","players":null},{"server_id":310,"name":"Uncletopia | Frankfurt | 5 | All Maps","name_short":"frk-5","host":"frk-1.de.uncletopia.com","port":27055,"enabled":true,"region":"eu","cc":"de","latitude":50.110924,"longitude":8.682127,"reserved":0,"last_update":"0001-01-01T00:00:00Z","name_a2s":"Uncletopia | Frankfurt | 5 | All Maps","protocol":17,"map":"koth_cascade","folder":"tf","game":"Team Fortress","app_id":440,"player_count":2,"max_players":24,"Bots":0,"server_type":"Dedicated","server_os":"Linux","password":true,"vac":true,"version":"7961495","steam_id":85568392924504277,"keywords":["cp","nocrits","nodmgspread","uncletopia"],"game_id":440,"stv_port":27056,"stv_name":"Uncletopia | Frankfurt | 5 | All Maps | STV","players":[{"user_id":161,"name":"As1an_M4n","steam_id":76561199173425102,"connected_time":568000000000,"state":"active","ping":144},{"user_id":162,"name":"B1scuitd0ughhandsman","steam_id":76561199195647314,"connected_time":454000000000,"state":"active","ping":137}]},{"server_id":311,"name":"Uncletopia | Frankfurt | 6 | All Maps","name_short":"frk-6","host":"frk-1.de.uncletopia.com","port":27065,"enabled":true,"region":"eu","cc":"de","latitude":50.110924,"longitude":8.682127,"reserved":0,"last_update":"0001-01-01T00:00:00Z","name_a2s":"Uncletopia | Frankfurt | 6 | All Maps","protocol":17,"map":"koth_highpass","folder":"tf","game":"Team Fortress","app_id":440,"player_count":0,"max_players":24,"Bots":0,"server_type":"Dedicated","server_os":"Linux","password":true,"vac":true,"version":"7961495","steam_id":85568392924504278,"keywords":["cp","nocrits","nodmgspread","uncletopia"],"game_id":440,"stv_port":27066,"stv_name":"Uncletopia | Frankfurt | 6 | All Maps | STV","players":null},{"server_id":23,"name":"Uncletopia | Frankfurt | 7 | Stopwatch","name_short":"frk-7","host":"frk-1.de.uncletopia.com","port":27075,"enabled":true,"region":"eu","cc":"de","latitude":50.110924,"longitude":8.682127,"reserved":0,"last_update":"0001-01-01T00:00:00Z","name_a2s":"Uncletopia | Frankfurt | 7 | Stopwatch","protocol":17,"map":"koth_lakeside_final","folder":"tf","game":"Team Fortress","app_id":440,"player_count":0,"max_players":24,"Bots":0,"server_type":"Dedicated","server_os":"Linux","password":true,"vac":true,"version":"7961495","steam_id":85568392924742827,"keywords":["cp","nocrits","nodmgspread","uncletopia"],"game_id":440,"stv_port":27076,"stv_name":"Uncletopia | Frankfurt | 7 | Stopwatch | STV","players":null},{"server_id":24,"name":"Uncletopia | Frankfurt | 8 | Community","name_short":"frk-8","host":"frk-1.de.uncletopia.com","port":27085,"enabled":true,"region":"eu","cc":"de","latitude":50.110924,"longitude":8.682127,"reserved":0,"last_update":"0001-01-01T00:00:00Z","name_a2s":"Uncletopia | Frankfurt | 8 | Community","protocol":17,"map":"workshop/koth_ramjam_rc1.ugc459778887","folder":"tf","game":"Team Fortress","app_id":440,"player_count":0,"max_players":24,"Bots":0,"server_type":"Dedicated","server_os":"Linux","password":true,"vac":true,"version":"7961495","steam_id":85568392924742828,"keywords":["cp","nocrits","nodmgspread","uncletopia"],"game_id":440,"stv_port":27086,"stv_name":"Uncletopia | Frankfurt | 8 | Community | STV","players":null},{"server_id":202,"name":"Uncletopia | Hong Kong | 1 | All Maps","name_short":"hgk-1","host":"hgk-1.hk.uncletopia.com","port":27015,"enabled":true,"region":"asia","cc":"hk","latitude":22.302711,"longitude":114.177216,"reserved":0,"last_update":"0001-01-01T00:00:00Z","name_a2s":"Uncletopia | Hong Kong | 1 | All Maps","protocol":17,"map":"pl_frontier_final","folder":"tf","game":"Team Fortress","app_id":440,"player_count":0,"max_players":24,"Bots":0,"server_type":"Dedicated","server_os":"Linux","password":true,"vac":true,"version":"7961495","steam_id":85568392924494504,"keywords":["nocrits","nodmgspread","payload","uncletopia"],"game_id":440,"stv_port":27016,"stv_name":"Uncletopia | Hong Kong | 1 | All Maps | STV","players":null},{"server_id":1,"name":"Uncletopia | Los Angeles | 1 | All Maps","name_short":"lax-1","host":"lax-1.us.uncletopia.com","port":27015,"enabled":true,"region":"us-west","cc":"us","latitude":33.94279,"longitude":-118.41004,"reserved":0,"last_update":"0001-01-01T00:00:00Z","name_a2s":"Uncletopia | Los Angeles | 1 | All Maps","protocol":17,"map":"pl_thundermountain","folder":"tf","game":"Team Fortress","app_id":440,"player_count":24,"max_players":24,"Bots":0,"server_type":"Dedicated","server_os":"Linux","password":true,"vac":true,"version":"7961495","steam_id":85568392924469991,"keywords":["nocrits","nodmgspread","payload","uncletopia"],"game_id":440,"stv_port":27016,"stv_name":"Uncletopia | Los Angeles | 1 | All Maps | STV","players":[{"user_id":280,"name":"The VVitchfinder General","steam_id":76561199059733640,"connected_time":2749000000000,"state":"active","ping":46},{"user_id":302,"name":"DesertFroggo","steam_id":76561198015607829,"connected_time":1495000000000,"state":"active","ping":114},{"user_id":249,"name":"Action-Flash","steam_id":76561198042438122,"connected_time":4392000000000,"state":"active","ping":124},{"user_id":275,"name":"NitoT97","steam_id":76561199074443643,"connected_time":3161000000000,"state":"active","ping":69},{"user_id":301,"name":"MNIJ","steam_id":76561199209509468,"connected_time":1532000000000,"state":"active","ping":86},{"user_id":250,"name":"GLXy","steam_id":76561198207551544,"connected_time":4191000000000,"state":"active","ping":72},{"user_id":317,"name":"Bobby Dazzler 魔鐘","steam_id":76561198007405067,"connected_time":300000000000,"state":"active","ping":78},{"user_id":312,"name":"||BassMan||","steam_id":76561198279865229,"connected_time":583000000000,"state":"active","ping":87},{"user_id":310,"name":"Willyboi!!","steam_id":76561198252156874,"connected_time":808000000000,"state":"active","ping":58},{"user_id":229,"name":"Gerbias","steam_id":76561198001002427,"connected_time":5721000000000,"state":"active","ping":61},{"user_id":227,"name":"Look at me Hector","steam_id":76561198089414077,"connected_time":5803000000000,"state":"active","ping":40},{"user_id":319,"name":"Lord","steam_id":76561198303081758,"connected_time":160000000000,"state":"active","ping":38},{"user_id":248,"name":"Meekz","steam_id":76561198012562373,"connected_time":4546000000000,"state":"active","ping":59},{"user_id":294,"name":"Pluto","steam_id":76561198012630802,"connected_time":2215000000000,"state":"active","ping":67},{"user_id":308,"name":"Loogus","steam_id":76561198811561721,"connected_time":853000000000,"state":"active","ping":48},{"user_id":279,"name":"CherryYeti","steam_id":76561199221441151,"connected_time":2907000000000,"state":"active","ping":61},{"user_id":268,"name":"Snoopy","steam_id":76561198273735974,"connected_time":3552000000000,"state":"active","ping":93},{"user_id":307,"name":"Karg","steam_id":76561198091387866,"connected_time":925000000000,"state":"active","ping":92},{"user_id":256,"name":"Hephesus","steam_id":76561198071196438,"connected_time":4091000000000,"state":"active","ping":134},{"user_id":311,"name":"Schnitz","steam_id":76561198265484253,"connected_time":626000000000,"state":"active","ping":57},{"user_id":316,"name":"fresh prince of citadel","steam_id":76561198420237035,"connected_time":379000000000,"state":"active","ping":71},{"user_id":277,"name":"HAT-WEARING™ Maggot Gamer Cat","steam_id":76561197973992705,"connected_time":3059000000000,"state":"active","ping":73},{"user_id":300,"name":"alex","steam_id":76561198334059206,"connected_time":1606000000000,"state":"active","ping":61},{"user_id":236,"name":"Korn Dawg","steam_id":76561198026941076,"connected_time":5466000000000,"state":"active","ping":46}]},{"server_id":112,"name":"Uncletopia | Los Angeles | 2 | All Maps","name_short":"lax-2","host":"lax-1.us.uncletopia.com","port":27025,"enabled":true,"region":"us-west","cc":"us","latitude":33.94279,"longitude":-118.41004,"reserved":0,"last_update":"0001-01-01T00:00:00Z","name_a2s":"Uncletopia | Los Angeles | 2 | All Maps","protocol":17,"map":"pl_barnblitz","folder":"tf","game":"Team Fortress","app_id":440,"player_count":0,"max_players":24,"Bots":0,"server_type":"Dedicated","server_os":"Linux","password":true,"vac":true,"version":"7961495","steam_id":85568392924469992,"keywords":["nocrits","nodmgspread","payload","uncletopia"],"game_id":440,"stv_port":27026,"stv_name":"Uncletopia | Los Angeles | 2 | All Maps | STV","players":null},{"server_id":324,"name":"Uncletopia | Los Angeles | 3 | All Maps","name_short":"lax-3","host":"lax-1.us.uncletopia.com","port":27035,"enabled":true,"region":"us-west","cc":"us","latitude":33.94279,"longitude":-118.41004,"reserved":0,"last_update":"0001-01-01T00:00:00Z","name_a2s":"Uncletopia | Los Angeles | 3 | All Maps","protocol":17,"map":"koth_highpass","folder":"tf","game":"Team Fortress","app_id":440,"player_count":0,"max_players":24,"Bots":0,"server_type":"Dedicated","server_os":"Linux","password":true,"vac":true,"version":"7961495","steam_id":85568392924510198,"keywords":["cp","nocrits","nodmgspread","uncletopia"],"game_id":440,"stv_port":27036,"stv_name":"Uncletopia | Los Angeles | 3 | All Maps | STV","players":null},{"server_id":25,"name":"Uncletopia | Los Angeles | 4 | Stopwatch","name_short":"lax-4","host":"lax-1.us.uncletopia.com","port":27045,"enabled":true,"region":"us-west","cc":"us","latitude":33.94279,"longitude":-118.41004,"reserved":0,"last_update":"0001-01-01T00:00:00Z","name_a2s":"Uncletopia | Los Angeles | 4 | Stopwatch","protocol":17,"map":"pl_barnblitz","folder":"tf","game":"Team Fortress","app_id":440,"player_count":0,"max_players":24,"Bots":0,"server_type":"Dedicated","server_os":"Linux","password":true,"vac":true,"version":"7961495","steam_id":85568392924510199,"keywords":["nocrits","nodmgspread","payload","uncletopia"],"game_id":440,"stv_port":27046,"stv_name":"Uncletopia | Los Angeles | 4 | Stopwatch | STV","players":null},{"server_id":11,"name":"Uncletopia | London | 1 | All Maps","name_short":"lon-1","host":"lon-1.uk.uncletopia.com","port":27015,"enabled":true,"region":"eu","cc":"gb","latitude":51.509865,"longitude":-0.118092,"reserved":0,"last_update":"0001-01-01T00:00:00Z","name_a2s":"Uncletopia | London | 1 | All Maps","protocol":17,"map":"cp_snakewater_final1","folder":"tf","game":"Team Fortress","app_id":440,"player_count":24,"max_players":24,"Bots":0,"server_type":"Dedicated","server_os":"Linux","password":true,"vac":true,"version":"7961495","steam_id":85568392924367362,"keywords":["cp","nocrits","nodmgspread","uncletopia"],"game_id":440,"stv_port":27016,"stv_name":"Uncletopia | London | 1 | All Maps | STV","players":[{"user_id":814,"name":"teddy","steam_id":76561198007436837,"connected_time":4587000000000,"state":"active","ping":30},{"user_id":841,"name":"Bert","steam_id":76561198070206096,"connected_time":1109000000000,"state":"active","ping":55},{"user_id":831,"name":"Cabbch","steam_id":76561198045955679,"connected_time":3569000000000,"state":"active","ping":45},{"user_id":853,"name":"emily","steam_id":76561198049051160,"connected_time":408000000000,"state":"active","ping":42},{"user_id":819,"name":"vi","steam_id":76561198303147966,"connected_time":4418000000000,"state":"active","ping":44},{"user_id":848,"name":"MensRightsActivist","steam_id":76561199482149729,"connected_time":691000000000,"state":"active","ping":120},{"user_id":830,"name":"Joe","steam_id":76561198145639903,"connected_time":4081000000000,"state":"active","ping":88},{"user_id":846,"name":"ACG_Dubsy","steam_id":76561198797308565,"connected_time":821000000000,"state":"active","ping":67},{"user_id":820,"name":"Steen","steam_id":76561198122992510,"connected_time":4411000000000,"state":"active","ping":45},{"user_id":854,"name":"decay of the vitriolic","steam_id":76561198017036329,"connected_time":351000000000,"state":"active","ping":70},{"user_id":855,"name":"cat","steam_id":76561198305304708,"connected_time":284000000000,"state":"active","ping":45},{"user_id":842,"name":"♂ Dungeon Master ♂","steam_id":76561198106441033,"connected_time":1057000000000,"state":"active","ping":97},{"user_id":801,"name":"Marquis de Hoto","steam_id":76561198080687708,"connected_time":6885000000000,"state":"active","ping":74},{"user_id":837,"name":"Lyncurion","steam_id":76561199260022725,"connected_time":2628000000000,"state":"active","ping":77},{"user_id":839,"name":"King Goomba","steam_id":76561198146467813,"connected_time":1606000000000,"state":"active","ping":70},{"user_id":856,"name":"rea","steam_id":76561198015118904,"connected_time":220000000000,"state":"active","ping":75},{"user_id":857,"name":"daxx","steam_id":76561197971296086,"connected_time":217000000000,"state":"active","ping":128},{"user_id":844,"name":"bilgobaggings","steam_id":76561198041520751,"connected_time":1028000000000,"state":"active","ping":56},{"user_id":858,"name":"lopyz","steam_id":76561198046396310,"connected_time":180000000000,"state":"active","ping":59},{"user_id":828,"name":"rez777ka","steam_id":76561198107605938,"connected_time":4193000000000,"state":"active","ping":96},{"user_id":746,"name":"sora","steam_id":76561198096547662,"connected_time":12918000000000,"state":"active","ping":50},{"user_id":804,"name":"Pantroglodytestherapy","steam_id":76561198236015392,"connected_time":6399000000000,"state":"active","ping":120},{"user_id":701,"name":"Minimi","steam_id":76561198873850443,"connected_time":15647000000000,"state":"active","ping":45},{"user_id":805,"name":"Purps","steam_id":76561198053886680,"connected_time":6398000000000,"state":"active","ping":46}]},{"server_id":114,"name":"Uncletopia | London | 2 | All Maps","name_short":"lon-2","host":"lon-1.uk.uncletopia.com","port":27025,"enabled":true,"region":"eu","cc":"gb","latitude":51.509865,"longitude":-0.118092,"reserved":0,"last_update":"0001-01-01T00:00:00Z","name_a2s":"Uncletopia | London | 2 | All Maps","protocol":17,"map":"pl_borneo","folder":"tf","game":"Team Fortress","app_id":440,"player_count":24,"max_players":24,"Bots":0,"server_type":"Dedicated","server_os":"Linux","password":true,"vac":true,"version":"7961495","steam_id":85568392924470941,"keywords":["nocrits","nodmgspread","payload","uncletopia"],"game_id":440,"stv_port":27026,"stv_name":"Uncletopia | London | 2 | All Maps | STV","players":[{"user_id":365,"name":"Cage, Nicolas","steam_id":76561198061714753,"connected_time":3207000000000,"state":"active","ping":84},{"user_id":401,"name":"76561198871723933","steam_id":76561198871723933,"connected_time":395000000000,"state":"active","ping":47},{"user_id":406,"name":"Luxotrics","steam_id":76561198053455161,"connected_time":45000000000,"state":"active","ping":96},{"user_id":398,"name":"yi","steam_id":76561198845837436,"connected_time":1104000000000,"state":"active","ping":61},{"user_id":386,"name":"zssz","steam_id":76561198148400154,"connected_time":1353000000000,"state":"active","ping":68},{"user_id":377,"name":"Urfangonultasadana","steam_id":76561199389286151,"connected_time":2667000000000,"state":"active","ping":106},{"user_id":404,"name":"xoxoxeno","steam_id":76561198019142095,"connected_time":152000000000,"state":"active","ping":74},{"user_id":253,"name":"ham","steam_id":76561198092186935,"connected_time":10284000000000,"state":"active","ping":46},{"user_id":391,"name":"Kallen","steam_id":76561198079693305,"connected_time":1307000000000,"state":"active","ping":59},{"user_id":397,"name":"munclesonkey","steam_id":76561198083505031,"connected_time":1148000000000,"state":"active","ping":46},{"user_id":362,"name":"remi, she wrote.","steam_id":76561198044045655,"connected_time":3877000000000,"state":"active","ping":80},{"user_id":383,"name":"etc","steam_id":76561197998394797,"connected_time":1370000000000,"state":"active","ping":56},{"user_id":405,"name":"Tipp (gonna kms!!)","steam_id":76561198184360615,"connected_time":151000000000,"state":"active","ping":103},{"user_id":400,"name":"zherny","steam_id":76561198027033926,"connected_time":595000000000,"state":"active","ping":55},{"user_id":385,"name":"jonbob","steam_id":76561197963506620,"connected_time":1354000000000,"state":"active","ping":58},{"user_id":387,"name":"Ran33","steam_id":76561197991474499,"connected_time":1347000000000,"state":"active","ping":84},{"user_id":380,"name":"lidl","steam_id":76561198895235231,"connected_time":2665000000000,"state":"active","ping":49},{"user_id":292,"name":"Neeeiks","steam_id":76561198009156801,"connected_time":7820000000000,"state":"active","ping":78},{"user_id":370,"name":"bozo","steam_id":76561198928909138,"connected_time":3115000000000,"state":"active","ping":59},{"user_id":372,"name":"Jug Johnson","steam_id":76561197970114051,"connected_time":3104000000000,"state":"active","ping":45},{"user_id":382,"name":"they banned me from profile pic","steam_id":76561198834897089,"connected_time":1641000000000,"state":"active","ping":69},{"user_id":394,"name":"CaveTones","steam_id":76561198257570910,"connected_time":1290000000000,"state":"active","ping":101},{"user_id":390,"name":"sigro","steam_id":76561198240368084,"connected_time":1339000000000,"state":"active","ping":59},{"user_id":381,"name":"Sholunan","steam_id":76561198062435739,"connected_time":1894000000000,"state":"active","ping":69}]},{"server_id":320,"name":"Uncletopia | London | 3 | All Maps","name_short":"lon-3","host":"lon-1.uk.uncletopia.com","port":27035,"enabled":true,"region":"eu","cc":"gb","latitude":51.509865,"longitude":-0.118092,"reserved":0,"last_update":"0001-01-01T00:00:00Z","name_a2s":"Uncletopia | London | 3 | All Maps","protocol":17,"map":"koth_sawmill","folder":"tf","game":"Team Fortress","app_id":440,"player_count":0,"max_players":24,"Bots":0,"server_type":"Dedicated","server_os":"Linux","password":true,"vac":true,"version":"7961495","steam_id":85568392924510192,"keywords":["cp","nocrits","nodmgspread","uncletopia"],"game_id":440,"stv_port":27036,"stv_name":"Uncletopia | London | 3 | All Maps | STV","players":null},{"server_id":321,"name":"Uncletopia | London | 4 | All Maps","name_short":"lon-4","host":"lon-1.uk.uncletopia.com","port":27045,"enabled":true,"region":"eu","cc":"gb","latitude":51.509865,"longitude":-0.118092,"reserved":0,"last_update":"0001-01-01T00:00:00Z","name_a2s":"Uncletopia | London | 4 | All Maps","protocol":17,"map":"koth_viaduct","folder":"tf","game":"Team Fortress","app_id":440,"player_count":0,"max_players":24,"Bots":0,"server_type":"Dedicated","server_os":"Linux","password":true,"vac":true,"version":"7961495","steam_id":85568392924510193,"keywords":["cp","nocrits","nodmgspread","uncletopia"],"game_id":440,"stv_port":27046,"stv_name":"Uncletopia | London | 4 | All Maps | STV","players":null},{"server_id":21,"name":"Uncletopia | London | 5 | All Maps","name_short":"lon-5","host":"lon-1.uk.uncletopia.com","port":27055,"enabled":true,"region":"eu","cc":"gb","latitude":51.509865,"longitude":-0.118092,"reserved":0,"last_update":"0001-01-01T00:00:00Z","name_a2s":"Uncletopia | London | 5 | All Maps","protocol":17,"map":"cp_sunshine","folder":"tf","game":"Team Fortress","app_id":440,"player_count":1,"max_players":24,"Bots":0,"server_type":"Dedicated","server_os":"Linux","password":true,"vac":true,"version":"7961495","steam_id":85568392924742829,"keywords":["cp","nocrits","nodmgspread","uncletopia"],"game_id":440,"stv_port":27056,"stv_name":"Uncletopia | London | 5 | All Maps | STV","players":[{"user_id":668,"name":"logan.dykins09","steam_id":76561199143456682,"connected_time":67000000000,"state":"active","ping":61}]},{"server_id":22,"name":"Uncletopia | London | 6 | All Maps","name_short":"lon-6","host":"lon-1.uk.uncletopia.com","port":27065,"enabled":true,"region":"eu","cc":"gb","latitude":51.509865,"longitude":-0.118092,"reserved":0,"last_update":"0001-01-01T00:00:00Z","name_a2s":"Uncletopia | London | 6 | All Maps","protocol":17,"map":"koth_lakeside_final","folder":"tf","game":"Team Fortress","app_id":440,"player_count":0,"max_players":24,"Bots":0,"server_type":"Dedicated","server_os":"Linux","password":true,"vac":true,"version":"7961495","steam_id":85568392924742830,"keywords":["cp","nocrits","nodmgspread","uncletopia"],"game_id":440,"stv_port":27066,"stv_name":"Uncletopia | London | 6 | All Maps | STV","players":null},{"server_id":40,"name":"Uncletopia | London | 7 | Stopwatch","name_short":"lon-7","host":"lon-1.uk.uncletopia.com","port":27075,"enabled":true,"region":"eu","cc":"gb","latitude":51.509865,"longitude":-0.118092,"reserved":0,"last_update":"0001-01-01T00:00:00Z","name_a2s":"Uncletopia | London | 7 | Stopwatch","protocol":17,"map":"workshop/koth_ramjam_rc1.ugc459778887","folder":"tf","game":"Team Fortress","app_id":440,"player_count":3,"max_players":24,"Bots":0,"server_type":"Dedicated","server_os":"Linux","password":true,"vac":true,"version":"7961495","steam_id":85568392924964314,"keywords":["cp","nocrits","nodmgspread","uncletopia"],"game_id":440,"stv_port":27076,"stv_name":"Uncletopia | London | 7 | Stopwatch | STV","players":[{"user_id":27,"name":"Sherif Birb","steam_id":76561198374140438,"connected_time":10253000000000,"state":"active","ping":60},{"user_id":42,"name":"bloodfallen","steam_id":76561199496093523,"connected_time":483000000000,"state":"active","ping":84},{"user_id":43,"name":"Tx_madmash","steam_id":76561198924656512,"connected_time":463000000000,"state":"active","ping":193}]},{"server_id":41,"name":"Uncletopia | London | 8 | Community","name_short":"lon-8","host":"lon-1.uk.uncletopia.com","port":27085,"enabled":true,"region":"eu","cc":"gb","latitude":51.509865,"longitude":-0.118092,"reserved":0,"last_update":"0001-01-01T00:00:00Z","name_a2s":"Uncletopia | London | 8 | Community","protocol":17,"map":"workshop/koth_kemptown_rc1.ugc767410655","folder":"tf","game":"Team Fortress","app_id":440,"player_count":0,"max_players":24,"Bots":0,"server_type":"Dedicated","server_os":"Linux","password":true,"vac":true,"version":"7961495","steam_id":85568392924964315,"keywords":["cp","nocrits","nodmgspread","uncletopia"],"game_id":440,"stv_port":27086,"stv_name":"Uncletopia | London | 8 | Community | STV","players":null},{"server_id":300,"name":"Uncletopia | Montréal | 1 | All Maps","name_short":"mtl-1","host":"mtl-1.ca.uncletopia.com","port":27015,"enabled":true,"region":"us-east","cc":"ca","latitude":45.50889,"longitude":-73.56167,"reserved":0,"last_update":"0001-01-01T00:00:00Z","name_a2s":"","protocol":0,"map":"","folder":"","game":"","app_id":0,"player_count":21,"max_players":0,"Bots":0,"server_type":"","server_os":"","password":false,"vac":false,"version":"","steam_id":0,"keywords":null,"game_id":0,"stv_port":0,"stv_name":"","players":[{"user_id":17,"name":"lolzfrdawin21","steam_id":76561199006665979,"connected_time":3894000000000,"state":"active","ping":80},{"user_id":18,"name":"cool beans","steam_id":76561198321591685,"connected_time":3859000000000,"state":"active","ping":95},{"user_id":50,"name":"BOB","steam_id":76561198000787196,"connected_time":1080000000000,"state":"active","ping":133},{"user_id":51,"name":"BIGGEST MAC","steam_id":76561198847517098,"connected_time":1074000000000,"state":"active","ping":80},{"user_id":52,"name":"Maron Tickles","steam_id":76561199125982967,"connected_time":1055000000000,"state":"active","ping":52},{"user_id":22,"name":"YesMargaret","steam_id":76561198127971751,"connected_time":2929000000000,"state":"active","ping":56},{"user_id":41,"name":"\u003cb\u003e man \u003c/b\u003e","steam_id":76561198816198106,"connected_time":1440000000000,"state":"active","ping":109},{"user_id":59,"name":"alex","steam_id":76561198095203229,"connected_time":771000000000,"state":"active","ping":58},{"user_id":32,"name":"d4efeb","steam_id":76561198148098761,"connected_time":1952000000000,"state":"active","ping":52},{"user_id":56,"name":"i want to die","steam_id":76561198178681366,"connected_time":960000000000,"state":"active","ping":33},{"user_id":71,"name":"♥ Pixel ♥","steam_id":76561198096221632,"connected_time":9000000000,"state":"active","ping":67},{"user_id":29,"name":"BrickDiggity","steam_id":76561198297548684,"connected_time":2328000000000,"state":"active","ping":92},{"user_id":60,"name":"3AM Toast","steam_id":76561199013415011,"connected_time":608000000000,"state":"active","ping":120},{"user_id":62,"name":"Flabbergonger Shwibbledangler","steam_id":76561198145957686,"connected_time":424000000000,"state":"active","ping":57},{"user_id":38,"name":"TTV Hunter","steam_id":76561198115812405,"connected_time":1671000000000,"state":"active","ping":53},{"user_id":63,"name":"BIG_BUSINESS","steam_id":76561197960435637,"connected_time":368000000000,"state":"active","ping":47},{"user_id":57,"name":"GoofyGoober","steam_id":76561199209004430,"connected_time":955000000000,"state":"active","ping":131},{"user_id":65,"name":"colin","steam_id":76561197998448643,"connected_time":327000000000,"state":"active","ping":83},{"user_id":48,"name":"Papy_rat","steam_id":76561198088207937,"connected_time":1224000000000,"state":"active","ping":77},{"user_id":58,"name":"Crealo","steam_id":76561198117070967,"connected_time":943000000000,"state":"active","ping":114},{"user_id":69,"name":"cDrive","steam_id":76561198179612321,"connected_time":62000000000,"state":"active","ping":66}]},{"server_id":301,"name":"Uncletopia | Montréal | 2 | All Maps","name_short":"mtl-2","host":"mtl-1.ca.uncletopia.com","port":27025,"enabled":true,"region":"us-east","cc":"ca","latitude":45.50889,"longitude":-73.56167,"reserved":0,"last_update":"0001-01-01T00:00:00Z","name_a2s":"","protocol":0,"map":"","folder":"","game":"","app_id":0,"player_count":0,"max_players":0,"Bots":0,"server_type":"","server_os":"","password":false,"vac":false,"version":"","steam_id":0,"keywords":null,"game_id":0,"stv_port":0,"stv_name":"","players":null},{"server_id":302,"name":"Uncletopia | Montréal | 3 | All Maps","name_short":"mtl-3","host":"mtl-1.ca.uncletopia.com","port":27035,"enabled":true,"region":"us-east","cc":"ca","latitude":45.50889,"longitude":-73.56167,"reserved":0,"last_update":"0001-01-01T00:00:00Z","name_a2s":"","protocol":0,"map":"","folder":"","game":"","app_id":0,"player_count":2,"max_players":0,"Bots":0,"server_type":"","server_os":"","password":false,"vac":false,"version":"","steam_id":0,"keywords":null,"game_id":0,"stv_port":0,"stv_name":"","players":[{"user_id":4,"name":"jakexsists","steam_id":76561199025696785,"connected_time":437000000000,"state":"active","ping":80},{"user_id":5,"name":"crazyfacedolives","steam_id":76561199466534135,"connected_time":348000000000,"state":"active","ping":86}]},{"server_id":303,"name":"Uncletopia | Montréal | 4 | No Payload","name_short":"mtl-4","host":"mtl-1.ca.uncletopia.com","port":27045,"enabled":true,"region":"us-east","cc":"ca","latitude":45.50889,"longitude":-73.56167,"reserved":0,"last_update":"0001-01-01T00:00:00Z","name_a2s":"","protocol":0,"map":"","folder":"","game":"","app_id":0,"player_count":0,"max_players":0,"Bots":0,"server_type":"","server_os":"","password":false,"vac":false,"version":"","steam_id":0,"keywords":null,"game_id":0,"stv_port":0,"stv_name":"","players":null},{"server_id":13,"name":"Uncletopia | New York City | 1 | All Maps","name_short":"nyc-1","host":"nyc-1.us.uncletopia.com","port":27015,"enabled":true,"region":"us-east","cc":"us","latitude":40.73061,"longitude":-73.93524,"reserved":0,"last_update":"0001-01-01T00:00:00Z","name_a2s":"Uncletopia | New York City | 1 | All Maps","protocol":17,"map":"koth_viaduct","folder":"tf","game":"Team Fortress","app_id":440,"player_count":22,"max_players":24,"Bots":0,"server_type":"Dedicated","server_os":"Linux","password":true,"vac":true,"version":"7961495","steam_id":85568392924469993,"keywords":["cp","nocrits","nodmgspread","uncletopia"],"game_id":440,"stv_port":27016,"stv_name":"Uncletopia | New York City | 1 | All Maps | STV","players":[{"user_id":350,"name":"Pop","steam_id":76561199012562851,"connected_time":69000000000,"state":"active","ping":86},{"user_id":348,"name":"Meowhunter⛧","steam_id":76561198319992602,"connected_time":216000000000,"state":"active","ping":85},{"user_id":321,"name":"✠CrustyCake✠","steam_id":76561198155062405,"connected_time":1415000000000,"state":"active","ping":97},{"user_id":301,"name":"gluechugger369","steam_id":76561198164037160,"connected_time":3067000000000,"state":"active","ping":45},{"user_id":254,"name":"A Puppy","steam_id":76561198828184456,"connected_time":5950000000000,"state":"active","ping":50},{"user_id":298,"name":"Remixer","steam_id":76561198014220611,"connected_time":3218000000000,"state":"active","ping":74},{"user_id":343,"name":"Doom Cart","steam_id":76561198158543955,"connected_time":336000000000,"state":"active","ping":43},{"user_id":330,"name":"/\\/Mr. Phoenix/\\/","steam_id":76561198258944941,"connected_time":752000000000,"state":"active","ping":78},{"user_id":293,"name":"GregSlayer","steam_id":76561199044769924,"connected_time":3883000000000,"state":"active","ping":69},{"user_id":340,"name":"Exhiet","steam_id":76561198218111020,"connected_time":572000000000,"state":"active","ping":54},{"user_id":280,"name":"MeKaso TropStar","steam_id":76561199109895840,"connected_time":4512000000000,"state":"active","ping":56},{"user_id":344,"name":"Mousefoot","steam_id":76561198406755893,"connected_time":314000000000,"state":"active","ping":100},{"user_id":331,"name":"Sergeant Joker #savetf2","steam_id":76561198854616604,"connected_time":734000000000,"state":"active","ping":61},{"user_id":312,"name":"Bewen","steam_id":76561198325334261,"connected_time":1936000000000,"state":"active","ping":44},{"user_id":335,"name":"Megmopep","steam_id":76561198258202958,"connected_time":625000000000,"state":"active","ping":63},{"user_id":332,"name":"Kevin the Minion","steam_id":76561198052380794,"connected_time":733000000000,"state":"active","ping":75},{"user_id":322,"name":"Top Quacker","steam_id":76561198261316128,"connected_time":1413000000000,"state":"active","ping":53},{"user_id":336,"name":"wfair","steam_id":76561198202139366,"connected_time":614000000000,"state":"active","ping":68},{"user_id":325,"name":"Grilled Jizo","steam_id":76561199250875340,"connected_time":1114000000000,"state":"active","ping":91},{"user_id":264,"name":"0","steam_id":76561198077882008,"connected_time":5281000000000,"state":"active","ping":56},{"user_id":334,"name":"Joseph","steam_id":76561198392871557,"connected_time":657000000000,"state":"active","ping":51},{"user_id":346,"name":"BNTF","steam_id":76561198062740087,"connected_time":308000000000,"state":"active","ping":75}]},{"server_id":14,"name":"Uncletopia | New York City | 2 | All Maps","name_short":"nyc-2","host":"nyc-1.us.uncletopia.com","port":27025,"enabled":true,"region":"us-east","cc":"us","latitude":40.73061,"longitude":-73.93524,"reserved":0,"last_update":"0001-01-01T00:00:00Z","name_a2s":"Uncletopia | New York City | 2 | All Maps","protocol":17,"map":"pl_badwater","folder":"tf","game":"Team Fortress","app_id":440,"player_count":24,"max_players":24,"Bots":0,"server_type":"Dedicated","server_os":"Linux","password":true,"vac":true,"version":"7961495","steam_id":85568392924469994,"keywords":["nocrits","nodmgspread","payload","uncletopia"],"game_id":440,"stv_port":27026,"stv_name":"Uncletopia | New York City | 2 | All Maps | STV","players":[{"user_id":552,"name":"uhooter","steam_id":76561198007829078,"connected_time":328000000000,"state":"active","ping":61},{"user_id":523,"name":"g00bur","steam_id":76561197993622520,"connected_time":2505000000000,"state":"active","ping":55},{"user_id":541,"name":"The Fiend","steam_id":76561199229771413,"connected_time":1536000000000,"state":"active","ping":72},{"user_id":452,"name":"De","steam_id":76561198206728044,"connected_time":8947000000000,"state":"active","ping":76},{"user_id":521,"name":"4jess20","steam_id":76561199488852383,"connected_time":2553000000000,"state":"active","ping":50},{"user_id":554,"name":"Bi Panic","steam_id":76561198426306122,"connected_time":280000000000,"state":"active","ping":63},{"user_id":529,"name":"eaglesfan609","steam_id":76561198151032242,"connected_time":2193000000000,"state":"active","ping":46},{"user_id":457,"name":"Okpar","steam_id":76561199221067945,"connected_time":8540000000000,"state":"active","ping":95},{"user_id":538,"name":"Thenormalplayer37","steam_id":76561198278614679,"connected_time":1683000000000,"state":"active","ping":147},{"user_id":551,"name":"Dum_Bass(Fish)","steam_id":76561197988105207,"connected_time":677000000000,"state":"active","ping":60},{"user_id":524,"name":"Mr. Durian","steam_id":76561198093813212,"connected_time":2503000000000,"state":"active","ping":50},{"user_id":560,"name":"Defragmented","steam_id":76561198854210081,"connected_time":192000000000,"state":"active","ping":73},{"user_id":548,"name":"my name jeff","steam_id":76561198179816898,"connected_time":741000000000,"state":"active","ping":87},{"user_id":512,"name":"DanFango","steam_id":76561198078300753,"connected_time":3450000000000,"state":"active","ping":78},{"user_id":517,"name":"oof aim small brain","steam_id":76561198079925551,"connected_time":3220000000000,"state":"active","ping":47},{"user_id":544,"name":"Stonks","steam_id":76561199490085068,"connected_time":982000000000,"state":"active","ping":64},{"user_id":451,"name":"googa","steam_id":76561198133130452,"connected_time":9140000000000,"state":"active","ping":46},{"user_id":558,"name":"Guil","steam_id":76561197993289176,"connected_time":263000000000,"state":"active","ping":64},{"user_id":479,"name":"Pinhead Larry","steam_id":76561199088542196,"connected_time":6623000000000,"state":"active","ping":51},{"user_id":556,"name":"banjo","steam_id":76561199263719064,"connected_time":272000000000,"state":"active","ping":66},{"user_id":549,"name":"remanedur","steam_id":76561198059459507,"connected_time":740000000000,"state":"active","ping":70},{"user_id":559,"name":"meme_lad21","steam_id":76561199229567068,"connected_time":224000000000,"state":"active","ping":92},{"user_id":553,"name":"Cyberpunk McDonald's Play Place","steam_id":76561198063512035,"connected_time":306000000000,"state":"active","ping":61},{"user_id":519,"name":"Connection","steam_id":76561199230740231,"connected_time":2566000000000,"state":"active","ping":57}]},{"server_id":15,"name":"Uncletopia | New York City | 3 | Stopwatch","name_short":"nyc-3","host":"nyc-1.us.uncletopia.com","port":27035,"enabled":true,"region":"us-east","cc":"us","latitude":40.73061,"longitude":-73.93524,"reserved":0,"last_update":"0001-01-01T00:00:00Z","name_a2s":"Uncletopia | New York City | 3 | Stopwatch","protocol":17,"map":"koth_highpass","folder":"tf","game":"Team Fortress","app_id":440,"player_count":0,"max_players":24,"Bots":0,"server_type":"Dedicated","server_os":"Linux","password":true,"vac":true,"version":"7961495","steam_id":85568392924742820,"keywords":["cp","nocrits","nodmgspread","uncletopia"],"game_id":440,"stv_port":27036,"stv_name":"Uncletopia | New York City | 3 | Stopwatch | STV","players":null},{"server_id":16,"name":"Uncletopia | New York City | 4 | Community","name_short":"nyc-4","host":"nyc-1.us.uncletopia.com","port":27045,"enabled":true,"region":"us-east","cc":"us","latitude":40.73061,"longitude":-73.93524,"reserved":0,"last_update":"0001-01-01T00:00:00Z","name_a2s":"Uncletopia | New York City | 4 | Community","protocol":17,"map":"workshop/pl_eruption_b9a.ugc2807898013","folder":"tf","game":"Team Fortress","app_id":440,"player_count":24,"max_players":24,"Bots":0,"server_type":"Dedicated","server_os":"Linux","password":true,"vac":true,"version":"7961495","steam_id":85568392924742821,"keywords":["nocrits","nodmgspread","payload","uncletopia"],"game_id":440,"stv_port":27046,"stv_name":"Uncletopia | New York City | 4 | Community | STV","players":[{"user_id":168,"name":"Sickmind33","steam_id":76561198036248611,"connected_time":512000000000,"state":"active","ping":63},{"user_id":165,"name":"SLEW OF DOGS","steam_id":76561197993237529,"connected_time":817000000000,"state":"active","ping":71},{"user_id":149,"name":"dave","steam_id":76561198135961731,"connected_time":1895000000000,"state":"active","ping":92},{"user_id":169,"name":"Solo","steam_id":76561198037769834,"connected_time":484000000000,"state":"active","ping":72},{"user_id":159,"name":"Horse","steam_id":76561198004583631,"connected_time":1072000000000,"state":"active","ping":83},{"user_id":160,"name":"Onetrooper101","steam_id":76561199231524616,"connected_time":1043000000000,"state":"active","ping":84},{"user_id":174,"name":"WhatIsThatMelody","steam_id":76561199244840569,"connected_time":274000000000,"state":"active","ping":53},{"user_id":170,"name":"Asanez3","steam_id":76561198037381436,"connected_time":470000000000,"state":"active","ping":66},{"user_id":161,"name":"Mango","steam_id":76561198156746320,"connected_time":1041000000000,"state":"active","ping":61},{"user_id":164,"name":"Neotron","steam_id":76561198135271566,"connected_time":852000000000,"state":"active","ping":43},{"user_id":153,"name":"NotaHomaphob","steam_id":76561198819431077,"connected_time":1464000000000,"state":"active","ping":46},{"user_id":166,"name":"Howdy","steam_id":76561198033925422,"connected_time":755000000000,"state":"active","ping":90},{"user_id":162,"name":"listerine","steam_id":76561198041104084,"connected_time":938000000000,"state":"active","ping":56},{"user_id":183,"name":"Lucyfer","steam_id":76561199041940389,"connected_time":62000000000,"state":"spawning","ping":252},{"user_id":163,"name":"Mallard","steam_id":76561198825786390,"connected_time":936000000000,"state":"active","ping":63},{"user_id":175,"name":"Fields","steam_id":76561197985545953,"connected_time":248000000000,"state":"active","ping":91},{"user_id":167,"name":"cell8miami","steam_id":76561198119724195,"connected_time":652000000000,"state":"active","ping":75},{"user_id":177,"name":"Mr. Bitches","steam_id":76561198011514727,"connected_time":227000000000,"state":"active","ping":78},{"user_id":178,"name":"Z2X","steam_id":76561198031916579,"connected_time":226000000000,"state":"active","ping":45},{"user_id":131,"name":"Doctor Glocktorpus [NGC]","steam_id":76561198049194645,"connected_time":3553000000000,"state":"active","ping":51},{"user_id":179,"name":"Mr. Aristotle","steam_id":76561198003506123,"connected_time":218000000000,"state":"active","ping":80},{"user_id":157,"name":"deimos","steam_id":76561198148357768,"connected_time":1151000000000,"state":"active","ping":59},{"user_id":180,"name":"DivineBanana","steam_id":76561198026529731,"connected_time":203000000000,"state":"active","ping":92},{"user_id":182,"name":"Spectra","steam_id":76561198205411124,"connected_time":154000000000,"state":"active","ping":103}]},{"server_id":142,"name":"Uncletopia | São Paulo | 1 | All Maps","name_short":"sao-1","host":"sao-1.br.uncletopia.com","port":27015,"enabled":true,"region":"sa","cc":"br","latitude":-23.533773,"longitude":-46.62529,"reserved":0,"last_update":"0001-01-01T00:00:00Z","name_a2s":"Uncletopia | São Paulo | 1 | All Maps","protocol":17,"map":"koth_highpass","folder":"tf","game":"Team Fortress","app_id":440,"player_count":0,"max_players":24,"Bots":0,"server_type":"Dedicated","server_os":"Linux","password":true,"vac":true,"version":"7961495","steam_id":85568392924469996,"keywords":["cp","nocrits","nodmgspread","uncletopia"],"game_id":440,"stv_port":27016,"stv_name":"Uncletopia | São Paulo | 1 | All Maps | STV","players":null},{"server_id":143,"name":"Uncletopia | São Paulo | 2 | Community","name_short":"sao-2","host":"sao-2.br.uncletopia.com","port":27015,"enabled":true,"region":"sa","cc":"br","latitude":-23.533773,"longitude":-46.62529,"reserved":0,"last_update":"0001-01-01T00:00:00Z","name_a2s":"Uncletopia | São Paulo | 2 | Community","protocol":17,"map":"workshop/cp_bruhstbowl_b6.ugc2878604990","folder":"tf","game":"Team Fortress","app_id":440,"player_count":0,"max_players":24,"Bots":0,"server_type":"Dedicated","server_os":"Linux","password":true,"vac":true,"version":"7961495","steam_id":85568392924485349,"keywords":["cp","nocrits","nodmgspread","uncletopia"],"game_id":440,"stv_port":27016,"stv_name":"Uncletopia | São Paulo | 2 | Community | STV","players":null},{"server_id":7,"name":"Uncletopia | Seattle | 1 | All Maps","name_short":"sea-1","host":"sea-1.us.uncletopia.com","port":27015,"enabled":true,"region":"us-west","cc":"us","latitude":47.608013,"longitude":-122.33517,"reserved":0,"last_update":"0001-01-01T00:00:00Z","name_a2s":"Uncletopia | Seattle | 1 | All Maps","protocol":17,"map":"cp_sunshine","folder":"tf","game":"Team Fortress","app_id":440,"player_count":24,"max_players":24,"Bots":0,"server_type":"Dedicated","server_os":"Linux","password":true,"vac":true,"version":"7961495","steam_id":85568392924469997,"keywords":["cp","nocrits","nodmgspread","uncletopia"],"game_id":440,"stv_port":27016,"stv_name":"Uncletopia | Seattle | 1 | All Maps | STV","players":[{"user_id":346,"name":"Ref Zay","steam_id":76561198196597242,"connected_time":346000000000,"state":"active","ping":84},{"user_id":256,"name":"slushy :))","steam_id":76561198135281802,"connected_time":7576000000000,"state":"active","ping":40},{"user_id":347,"name":"jailbreak","steam_id":76561198802085218,"connected_time":319000000000,"state":"active","ping":103},{"user_id":352,"name":"MayKaye","steam_id":76561199016092265,"connected_time":43000000000,"state":"active","ping":90},{"user_id":351,"name":"FlamingManiac","steam_id":76561198361996837,"connected_time":95000000000,"state":"active","ping":117},{"user_id":336,"name":"Horny Pirate","steam_id":76561198085174007,"connected_time":903000000000,"state":"active","ping":65},{"user_id":264,"name":"tr","steam_id":76561198046944222,"connected_time":6638000000000,"state":"active","ping":42},{"user_id":337,"name":"M@","steam_id":76561198053117503,"connected_time":894000000000,"state":"active","ping":60},{"user_id":308,"name":"mizurush","steam_id":76561198039595304,"connected_time":3327000000000,"state":"active","ping":126},{"user_id":332,"name":"Maurdakar","steam_id":76561197983420976,"connected_time":1440000000000,"state":"active","ping":110},{"user_id":338,"name":"JohnnyGitGud","steam_id":76561198401455467,"connected_time":855000000000,"state":"active","ping":80},{"user_id":339,"name":"weed boner","steam_id":76561198034131572,"connected_time":853000000000,"state":"active","ping":38},{"user_id":329,"name":"AttackCommander","steam_id":76561198111522679,"connected_time":1525000000000,"state":"active","ping":103},{"user_id":333,"name":"CampinCarl","steam_id":76561197997373624,"connected_time":970000000000,"state":"active","ping":68},{"user_id":340,"name":"Jams and Bread","steam_id":76561199240243522,"connected_time":831000000000,"state":"active","ping":84},{"user_id":313,"name":"Mr Mcguffin","steam_id":76561199059310006,"connected_time":2973000000000,"state":"active","ping":63},{"user_id":321,"name":"CoconutGun42069","steam_id":76561199116912878,"connected_time":1930000000000,"state":"active","ping":93},{"user_id":350,"name":"HeHedron","steam_id":76561199199667164,"connected_time":165000000000,"state":"active","ping":97},{"user_id":342,"name":"paypur -rng","steam_id":76561198214370515,"connected_time":823000000000,"state":"active","ping":99},{"user_id":327,"name":"ed","steam_id":76561198080475712,"connected_time":1638000000000,"state":"active","ping":73},{"user_id":323,"name":"› Noir","steam_id":76561197977418994,"connected_time":1881000000000,"state":"active","ping":73},{"user_id":344,"name":"Hank the Tank","steam_id":76561198424853684,"connected_time":816000000000,"state":"active","ping":146},{"user_id":324,"name":"Artgrendadier","steam_id":76561198063305359,"connected_time":1868000000000,"state":"active","ping":115}]},{"server_id":119,"name":"Uncletopia | Seattle | 2 | All Maps","name_short":"sea-2","host":"sea-1.us.uncletopia.com","port":27025,"enabled":true,"region":"us-west","cc":"us","latitude":47.608013,"longitude":-122.33517,"reserved":0,"last_update":"0001-01-01T00:00:00Z","name_a2s":"Uncletopia | Seattle | 2 | All Maps","protocol":17,"map":"pl_thundermountain","folder":"tf","game":"Team Fortress","app_id":440,"player_count":24,"max_players":24,"Bots":0,"server_type":"Dedicated","server_os":"Linux","password":true,"vac":true,"version":"7961495","steam_id":85568392924469998,"keywords":["nocrits","nodmgspread","payload","uncletopia"],"game_id":440,"stv_port":27026,"stv_name":"Uncletopia | Seattle | 2 | All Maps | STV","players":[{"user_id":31,"name":"Magic Sam","steam_id":76561198089426224,"connected_time":5116000000000,"state":"active","ping":60},{"user_id":78,"name":"radicalPolio","steam_id":76561197961561855,"connected_time":2501000000000,"state":"active","ping":96},{"user_id":79,"name":"Wiggee","steam_id":76561197972792989,"connected_time":2489000000000,"state":"active","ping":96},{"user_id":96,"name":"maximusbabaximus","steam_id":76561198419378913,"connected_time":1076000000000,"state":"active","ping":87},{"user_id":109,"name":"xavier (no PC for 3 weeks)","steam_id":76561198178305653,"connected_time":38000000000,"state":"active","ping":78},{"user_id":36,"name":"2 Point Tom","steam_id":76561198087617008,"connected_time":4461000000000,"state":"active","ping":54},{"user_id":86,"name":"RED Orbama","steam_id":76561198047002366,"connected_time":2068000000000,"state":"active","ping":48},{"user_id":38,"name":"Salty","steam_id":76561198044750949,"connected_time":4333000000000,"state":"active","ping":61},{"user_id":104,"name":"ronald","steam_id":76561197960691622,"connected_time":395000000000,"state":"active","ping":87},{"user_id":77,"name":"Vincent Van Bro","steam_id":76561197966919802,"connected_time":2611000000000,"state":"active","ping":57},{"user_id":105,"name":"LordKirby","steam_id":76561198006938286,"connected_time":216000000000,"state":"active","ping":102},{"user_id":107,"name":"Milk","steam_id":76561198796215640,"connected_time":171000000000,"state":"active","ping":45},{"user_id":102,"name":"Coowil","steam_id":76561198070985437,"connected_time":623000000000,"state":"active","ping":43},{"user_id":44,"name":"nøbu","steam_id":76561198100614981,"connected_time":4278000000000,"state":"active","ping":46},{"user_id":90,"name":"THUD","steam_id":76561198009630323,"connected_time":1465000000000,"state":"active","ping":46},{"user_id":81,"name":"silly jester","steam_id":76561198079609974,"connected_time":2440000000000,"state":"active","ping":91},{"user_id":108,"name":"Lili W.","steam_id":76561199391478575,"connected_time":149000000000,"state":"active","ping":64},{"user_id":103,"name":"kasper","steam_id":76561198263271697,"connected_time":448000000000,"state":"active","ping":83},{"user_id":66,"name":"Jackrifleman","steam_id":76561198067764004,"connected_time":3365000000000,"state":"active","ping":50},{"user_id":101,"name":"Jebby","steam_id":76561198300150276,"connected_time":638000000000,"state":"active","ping":68},{"user_id":100,"name":"Finkly","steam_id":76561198049828110,"connected_time":686000000000,"state":"active","ping":44},{"user_id":98,"name":"find lofi","steam_id":76561199134462656,"connected_time":966000000000,"state":"active","ping":72},{"user_id":92,"name":"Chris P. Wiener","steam_id":76561198168808551,"connected_time":1330000000000,"state":"active","ping":58},{"user_id":63,"name":"KinglyGhost","steam_id":76561198072254064,"connected_time":3626000000000,"state":"active","ping":57}]},{"server_id":406,"name":"Uncletopia | Seattle | 3 | Stopwatch","name_short":"sea-3","host":"sea-1.us.uncletopia.com","port":27035,"enabled":true,"region":"us-west","cc":"us","latitude":47.608013,"longitude":-122.33517,"reserved":0,"last_update":"0001-01-01T00:00:00Z","name_a2s":"Uncletopia | Seattle | 3 | Stopwatch","protocol":17,"map":"pl_swiftwater_final1","folder":"tf","game":"Team Fortress","app_id":440,"player_count":0,"max_players":24,"Bots":0,"server_type":"Dedicated","server_os":"Linux","password":true,"vac":true,"version":"7961495","steam_id":85568392924515217,"keywords":["nocrits","nodmgspread","payload","uncletopia"],"game_id":440,"stv_port":27036,"stv_name":"Uncletopia | Seattle | 3 | Stopwatch | STV","players":null},{"server_id":17,"name":"Uncletopia | San Francisco | 1 | All Maps","name_short":"sfo-1","host":"sfo-1.us.uncletopia.com","port":27015,"enabled":true,"region":"us-west","cc":"us","latitude":37.77397,"longitude":-122.4313,"reserved":0,"last_update":"0001-01-01T00:00:00Z","name_a2s":"Uncletopia | San Francisco | 1 | All Maps","protocol":17,"map":"koth_cascade","folder":"tf","game":"Team Fortress","app_id":440,"player_count":0,"max_players":24,"Bots":0,"server_type":"Dedicated","server_os":"Linux","password":true,"vac":true,"version":"7961495","steam_id":85568392924469999,"keywords":["cp","nocrits","nodmgspread","uncletopia"],"game_id":440,"stv_port":27016,"stv_name":"Uncletopia | San Francisco | 1 | All Maps | STV","players":null},{"server_id":18,"name":"Uncletopia | San Francisco | 2 | All Maps","name_short":"sfo-2","host":"sfo-1.us.uncletopia.com","port":27025,"enabled":true,"region":"us-west","cc":"us","latitude":37.77397,"longitude":-122.4313,"reserved":0,"last_update":"0001-01-01T00:00:00Z","name_a2s":"Uncletopia | San Francisco | 2 | All Maps","protocol":17,"map":"koth_viaduct","folder":"tf","game":"Team Fortress","app_id":440,"player_count":0,"max_players":24,"Bots":0,"server_type":"Dedicated","server_os":"Linux","password":true,"vac":true,"version":"7961495","steam_id":85568392924470000,"keywords":["cp","nocrits","nodmgspread","uncletopia"],"game_id":440,"stv_port":27026,"stv_name":"Uncletopia | San Francisco | 2 | All Maps | STV","players":null},{"server_id":19,"name":"Uncletopia | San Francisco | 3 | Stopwatch","name_short":"sfo-3","host":"sfo-1.us.uncletopia.com","port":27035,"enabled":true,"region":"us-west","cc":"us","latitude":37.77397,"longitude":-122.4313,"reserved":0,"last_update":"0001-01-01T00:00:00Z","name_a2s":"Uncletopia | San Francisco | 3 | Stopwatch","protocol":17,"map":"workshop/koth_clearcut_b15.ugc2107050255","folder":"tf","game":"Team Fortress","app_id":440,"player_count":0,"max_players":24,"Bots":0,"server_type":"Dedicated","server_os":"Linux","password":true,"vac":true,"version":"7961495","steam_id":85568392924742824,"keywords":["cp","nocrits","nodmgspread","uncletopia"],"game_id":440,"stv_port":27036,"stv_name":"Uncletopia | San Francisco | 3 | Stopwatch | STV","players":null},{"server_id":20,"name":"Uncletopia | San Francisco | 4 | Community","name_short":"sfo-4","host":"sfo-1.us.uncletopia.com","port":27045,"enabled":true,"region":"us-west","cc":"us","latitude":37.77397,"longitude":-122.4313,"reserved":0,"last_update":"0001-01-01T00:00:00Z","name_a2s":"Uncletopia | San Francisco | 4 | Community","protocol":17,"map":"workshop/koth_slaughter_rc1.ugc1712845210","folder":"tf","game":"Team Fortress","app_id":440,"player_count":0,"max_players":24,"Bots":0,"server_type":"Dedicated","server_os":"Linux","password":true,"vac":true,"version":"7961495","steam_id":85568392924742826,"keywords":["cp","nocrits","nodmgspread","uncletopia"],"game_id":440,"stv_port":27046,"stv_name":"Uncletopia | San Francisco | 4 | Community | STV","players":null},{"server_id":141,"name":"Uncletopia | Sydney | 1 | All Maps","name_short":"syd-1","host":"syd-1.au.uncletopia.com","port":27015,"enabled":true,"region":"au","cc":"au","latitude":-33.865143,"longitude":151.2099,"reserved":0,"last_update":"0001-01-01T00:00:00Z","name_a2s":"Uncletopia | Sydney | 1 | All Maps","protocol":17,"map":"pl_barnblitz","folder":"tf","game":"Team Fortress","app_id":440,"player_count":17,"max_players":24,"Bots":0,"server_type":"Dedicated","server_os":"Linux","password":true,"vac":true,"version":"7961495","steam_id":85568392924470001,"keywords":["nocrits","nodmgspread","payload","uncletopia"],"game_id":440,"stv_port":27016,"stv_name":"Uncletopia | Sydney | 1 | All Maps | STV","players":[{"user_id":48,"name":"Brunch","steam_id":76561198001229154,"connected_time":126000000000,"state":"active","ping":45},{"user_id":22,"name":"bub","steam_id":76561198446126519,"connected_time":1658000000000,"state":"active","ping":45},{"user_id":14,"name":"Tiblyat","steam_id":76561198093077688,"connected_time":2153000000000,"state":"active","ping":69},{"user_id":12,"name":"numi","steam_id":76561198241303512,"connected_time":2425000000000,"state":"active","ping":55},{"user_id":23,"name":"horblongmoid splorgoingus","steam_id":76561198063481761,"connected_time":1547000000000,"state":"active","ping":44},{"user_id":16,"name":"Nutri-Grain Scream Team","steam_id":76561198000568803,"connected_time":2093000000000,"state":"active","ping":44},{"user_id":30,"name":"jaylo❤","steam_id":76561198051468704,"connected_time":1007000000000,"state":"active","ping":86},{"user_id":26,"name":"michael","steam_id":76561198052848358,"connected_time":1269000000000,"state":"active","ping":66},{"user_id":31,"name":"DKC","steam_id":76561198313578155,"connected_time":911000000000,"state":"active","ping":43},{"user_id":40,"name":"Centrelink","steam_id":76561198988128327,"connected_time":488000000000,"state":"active","ping":45},{"user_id":45,"name":"Xd_Sm0k3y","steam_id":76561199202172587,"connected_time":212000000000,"state":"active","ping":221},{"user_id":41,"name":"Peteydog","steam_id":76561198376474981,"connected_time":439000000000,"state":"active","ping":42},{"user_id":47,"name":"rusilac","steam_id":76561198414268049,"connected_time":126000000000,"state":"active","ping":150},{"user_id":49,"name":"Sk8rrrr","steam_id":76561198334646675,"connected_time":88000000000,"state":"active","ping":44},{"user_id":43,"name":"Meerkat","steam_id":76561198298662979,"connected_time":351000000000,"state":"active","ping":26},{"user_id":37,"name":"lofty","steam_id":76561198380588357,"connected_time":757000000000,"state":"active","ping":59},{"user_id":44,"name":"Bluemmy","steam_id":76561198223299712,"connected_time":271000000000,"state":"active","ping":43}]},{"server_id":123,"name":"Uncletopia | Sydney | 2 | All Maps","name_short":"syd-2","host":"syd-1.au.uncletopia.com","port":27025,"enabled":true,"region":"au","cc":"au","latitude":-33.865143,"longitude":151.2099,"reserved":0,"last_update":"0001-01-01T00:00:00Z","name_a2s":"Uncletopia | Sydney | 2 | All Maps","protocol":17,"map":"koth_badlands","folder":"tf","game":"Team Fortress","app_id":440,"player_count":2,"max_players":24,"Bots":0,"server_type":"Dedicated","server_os":"Linux","password":true,"vac":true,"version":"7961495","steam_id":85568392924470002,"keywords":["cp","nocrits","nodmgspread","uncletopia"],"game_id":440,"stv_port":27026,"stv_name":"Uncletopia | Sydney | 2 | All Maps | STV","players":[{"user_id":7,"name":"Maxakai","steam_id":76561199089156154,"connected_time":1786000000000,"state":"active","ping":97},{"user_id":10,"name":"cuby","steam_id":76561199150309178,"connected_time":359000000000,"state":"active","ping":86}]},{"server_id":395,"name":"Uncletopia | Sydney | 3 | All Maps","name_short":"syd-3","host":"syd-1.au.uncletopia.com","port":27035,"enabled":true,"region":"au","cc":"au","latitude":-33.865143,"longitude":151.2099,"reserved":0,"last_update":"0001-01-01T00:00:00Z","name_a2s":"Uncletopia | Sydney | 3 | All Maps","protocol":17,"map":"pl_barnblitz","folder":"tf","game":"Team Fortress","app_id":440,"player_count":0,"max_players":24,"Bots":0,"server_type":"Dedicated","server_os":"Linux","password":true,"vac":true,"version":"7961495","steam_id":85568392925194467,"keywords":["nocrits","nodmgspread","payload","uncletopia"],"game_id":440,"stv_port":27036,"stv_name":"Uncletopia | Sydney | 3 | All Maps | STV","players":null},{"server_id":396,"name":"Uncletopia | Sydney | 4 | All Maps","name_short":"syd-4","host":"syd-1.au.uncletopia.com","port":27045,"enabled":true,"region":"au","cc":"au","latitude":-33.865143,"longitude":151.2099,"reserved":0,"last_update":"0001-01-01T00:00:00Z","name_a2s":"Uncletopia | Sydney | 4 | All Maps","protocol":17,"map":"cp_process_final","folder":"tf","game":"Team Fortress","app_id":440,"player_count":0,"max_players":24,"Bots":0,"server_type":"Dedicated","server_os":"Linux","password":true,"vac":true,"version":"7961495","steam_id":85568392925397958,"keywords":["cp","nocrits","nodmgspread","uncletopia"],"game_id":440,"stv_port":27046,"stv_name":"Uncletopia | Sydney | 4 | All Maps | STV","players":null},{"server_id":58,"name":"Uncletopia | Sydney | 5 | Stopwatch","name_short":"syd-5","host":"syd-1.au.uncletopia.com","port":27055,"enabled":true,"region":"au","cc":"au","latitude":-33.865143,"longitude":151.2099,"reserved":0,"last_update":"0001-01-01T00:00:00Z","name_a2s":"Uncletopia | Sydney | 5 | Stopwatch","protocol":17,"map":"workshop/cp_reckoner_rc6.ugc674719999","folder":"tf","game":"Team Fortress","app_id":440,"player_count":0,"max_players":24,"Bots":0,"server_type":"Dedicated","server_os":"Linux","password":true,"vac":true,"version":"7961495","steam_id":85568392925397959,"keywords":["cp","nocrits","nodmgspread","uncletopia"],"game_id":440,"stv_port":27056,"stv_name":"Uncletopia | Sydney | 5 | Stopwatch | STV","players":null},{"server_id":59,"name":"Uncletopia | Sydney | 6 | Community","name_short":"syd-6","host":"syd-1.au.uncletopia.com","port":27065,"enabled":true,"region":"au","cc":"au","latitude":-33.865143,"longitude":151.2099,"reserved":0,"last_update":"0001-01-01T00:00:00Z","name_a2s":"Uncletopia | Sydney | 6 | Community","protocol":17,"map":"cp_sunshine","folder":"tf","game":"Team Fortress","app_id":440,"player_count":0,"max_players":24,"Bots":0,"server_type":"Dedicated","server_os":"Linux","password":true,"vac":true,"version":"7961495","steam_id":85568392925397960,"keywords":["cp","nocrits","nodmgspread","uncletopia"],"game_id":440,"stv_port":27066,"stv_name":"Uncletopia | Sydney | 6 | Community | STV","players":null},{"server_id":49,"name":"Uncletopia | Warsaw | 1 | All Maps","name_short":"waw-1","host":"waw-1.pl.uncletopia.com","port":27015,"enabled":true,"region":"eu","cc":"pl","latitude":52.2297,"longitude":21.017532,"reserved":0,"last_update":"0001-01-01T00:00:00Z","name_a2s":"Uncletopia | Warsaw | 1 | All Maps","protocol":17,"map":"koth_lakeside_final","folder":"tf","game":"Team Fortress","app_id":440,"player_count":0,"max_players":24,"Bots":0,"server_type":"Dedicated","server_os":"Linux","password":true,"vac":true,"version":"7961495","steam_id":85568392925397850,"keywords":["cp","nocrits","nodmgspread","uncletopia"],"game_id":440,"stv_port":27016,"stv_name":"Uncletopia | Warsaw | 1 | All Maps | STV","players":null},{"server_id":50,"name":"Uncletopia | Warsaw | 2 | All Maps","name_short":"waw-2","host":"waw-1.pl.uncletopia.com","port":27025,"enabled":true,"region":"eu","cc":"pl","latitude":52.2297,"longitude":21.017532,"reserved":0,"last_update":"0001-01-01T00:00:00Z","name_a2s":"Uncletopia | Warsaw | 2 | All Maps","protocol":17,"map":"koth_lakeside_final","folder":"tf","game":"Team Fortress","app_id":440,"player_count":0,"max_players":24,"Bots":0,"server_type":"Dedicated","server_os":"Linux","password":true,"vac":true,"version":"7961495","steam_id":85568392925397851,"keywords":["cp","nocrits","nodmgspread","uncletopia"],"game_id":440,"stv_port":27026,"stv_name":"Uncletopia | Warsaw | 2 | All Maps | STV","players":null},{"server_id":51,"name":"Uncletopia | Warsaw | 3 | All Maps","name_short":"waw-3","host":"waw-1.pl.uncletopia.com","port":27035,"enabled":true,"region":"eu","cc":"pl","latitude":52.2297,"longitude":21.017532,"reserved":0,"last_update":"0001-01-01T00:00:00Z","name_a2s":"Uncletopia | Warsaw | 3 | All Maps","protocol":17,"map":"koth_viaduct","folder":"tf","game":"Team Fortress","app_id":440,"player_count":0,"max_players":24,"Bots":0,"server_type":"Dedicated","server_os":"Linux","password":true,"vac":true,"version":"7961495","steam_id":85568392925397852,"keywords":["cp","nocrits","nodmgspread","uncletopia"],"game_id":440,"stv_port":27036,"stv_name":"Uncletopia | Warsaw | 3 | All Maps | STV","players":null},{"server_id":52,"name":"Uncletopia | Warsaw | 4 | All Maps","name_short":"waw-4","host":"waw-1.pl.uncletopia.com","port":27045,"enabled":true,"region":"eu","cc":"pl","latitude":52.2297,"longitude":21.017532,"reserved":0,"last_update":"0001-01-01T00:00:00Z","name_a2s":"Uncletopia | Warsaw | 4 | All Maps","protocol":17,"map":"koth_viaduct","folder":"tf","game":"Team Fortress","app_id":440,"player_count":0,"max_players":24,"Bots":0,"server_type":"Dedicated","server_os":"Linux","password":true,"vac":true,"version":"7961495","steam_id":85568392925397853,"keywords":["cp","nocrits","nodmgspread","uncletopia"],"game_id":440,"stv_port":27046,"stv_name":"Uncletopia | Warsaw | 4 | All Maps | STV","players":null},{"server_id":53,"name":"Uncletopia | Warsaw | 5 | Stopwatch","name_short":"waw-5","host":"waw-1.pl.uncletopia.com","port":27055,"enabled":true,"region":"eu","cc":"pl","latitude":52.2297,"longitude":21.017532,"reserved":0,"last_update":"0001-01-01T00:00:00Z","name_a2s":"Uncletopia | Warsaw | 5 | Stopwatch","protocol":17,"map":"workshop/koth_product_final.ugc454272353","folder":"tf","game":"Team Fortress","app_id":440,"player_count":0,"max_players":24,"Bots":0,"server_type":"Dedicated","server_os":"Linux","password":true,"vac":true,"version":"7961495","steam_id":85568392925397854,"keywords":["cp","nocrits","nodmgspread","uncletopia"],"game_id":440,"stv_port":27056,"stv_name":"Uncletopia | Warsaw | 5 | Stopwatch | STV","players":null},{"server_id":54,"name":"Uncletopia | Warsaw | 6 | Community","name_short":"waw-6","host":"waw-1.pl.uncletopia.com","port":27065,"enabled":true,"region":"eu","cc":"pl","latitude":52.2297,"longitude":21.017532,"reserved":0,"last_update":"0001-01-01T00:00:00Z","name_a2s":"Uncletopia | Warsaw | 6 | Community","protocol":17,"map":"workshop/koth_ashville_final.ugc2130459942","folder":"tf","game":"Team Fortress","app_id":440,"player_count":0,"max_players":24,"Bots":0,"server_type":"Dedicated","server_os":"Linux","password":true,"vac":true,"version":"7961495","steam_id":85568392925397856,"keywords":["cp","nocrits","nodmgspread","uncletopia"],"game_id":440,"stv_port":27066,"stv_name":"Uncletopia | Warsaw | 6 | Community | STV","players":null}]}