{"status":true,"message":"","result":[{"server_id":9,"name":"Uncletopia | Atlanta | 1 | All Maps","name_short":"atl-1","host":"atl-1.us.uncletopia.com","port":27015,"enabled":true,"region":"us-east","cc":"us","latitude":33.753746,"longitude":-84.38633,"reserved":0,"last_update":"0001-01-01T00:00:00Z","name_a2s":"Uncletopia | Atlanta | 1 | All Maps","protocol":17,"map":"koth_viaduct","folder":"tf","game":"Team Fortress","app_id":440,"player_count":2,"max_players":24,"Bots":0,"server_type":"Dedicated","server_os":"Linux","password":true,"vac":true,"version":"7932396","steam_id":85568392924469982,"keywords":["cp","nocrits","nodmgspread","uncletopia"],"game_id":440,"stv_port":27016,"stv_name":"Uncletopia | Atlanta | 1 | All Maps | STV","players":[{"user_id":22,"name":"leboeufbn","steam_id":76561199228923100,"connected_time":97000000000,"state":"active","ping":79},{"user_id":23,"name":"not_pro_yet","steam_id":76561198262838300,"connected_time":0,"state":"spawning","ping":19}]},{"server_id":104,"name":"Uncletopia | Atlanta | 2 | All Maps","name_short":"atl-2","host":"atl-1.us.uncletopia.com","port":27025,"enabled":true,"region":"us-east","cc":"us","latitude":33.753746,"longitude":-84.38633,"reserved":0,"last_update":"0001-01-01T00:00:00Z","name_a2s":"Uncletopia | Atlanta | 2 | All Maps","protocol":17,"map":"koth_viaduct","folder":"tf","game":"Team Fortress","app_id":440,"player_count":0,"max_players":24,"Bots":0,"server_type":"Dedicated","server_os":"Linux","password":true,"vac":true,"version":"7932396","steam_id":85568392924469983,"keywords":["cp","nocrits","nodmgspread","uncletopia"],"game_id":440,"stv_port":27026,"stv_name":"Uncletopia | Atlanta | 2 | All Maps | STV","players":null},{"server_id":400,"name":"Uncletopia | Atlanta | 3 | Community","name_short":"atl-3","host":"atl-1.us.uncletopia.com","port":27035,"enabled":true,"region":"us-east","cc":"us","latitude":33.753746,"longitude":-84.38633,"reserved":0,"last_update":"0001-01-01T00:00:00Z","name_a2s":"Uncletopia | Atlanta | 3 | Community","protocol":17,"map":"workshop/pl_emerge_rc2.ugc888027758","folder":"tf","game":"Team Fortress","app_id":440,"player_count":0,"max_players":24,"Bots":0,"server_type":"Dedicated","server_os":"Linux","password":true,"vac":true,"version":"7932396","steam_id":85568392924515187,"keywords":["nocrits","nodmgspread","payload","uncletopia"],"game_id":440,"stv_port":27036,"stv_name":"Uncletopia | Atlanta | 3 | Community | STV","players":null},{"server_id":401,"name":"Uncletopia | Atlanta | 4 | No Payload","name_short":"atl-4","host":"atl-1.us.uncletopia.com","port":27045,"enabled":true,"region":"us-east","cc":"us","latitude":33.753746,"longitude":-84.38633,"reserved":0,"last_update":"0001-01-01T00:00:00Z","name_a2s":"","protocol":0,"map":"","folder":"","game":"","app_id":0,"player_count":0,"max_players":0,"Bots":0,"server_type":"","server_os":"","password":false,"vac":false,"version":"","steam_id":0,"keywords":null,"game_id":0,"stv_port":0,"stv_name":"","players":null},{"server_id":2,"name":"Uncletopia | Chicago | 1 | All Maps","name_short":"chi-1","host":"chi-1.us.uncletopia.com","port":27015,"enabled":true,"region":"us-central","cc":"us","latitude":41.881832,"longitude":-87.62318,"reserved":0,"last_update":"0001-01-01T00:00:00Z","name_a2s":"Uncletopia | Chicago | 1 | All Maps","protocol":17,"map":"pl_frontier_final","folder":"tf","game":"Team Fortress","app_id":440,"player_count":24,"max_players":24,"Bots":0,"server_type":"Dedicated","server_os":"Linux","password":true,"vac":true,"version":"7932396","steam_id":85568392924469984,"keywords":["nocrits","nodmgspread","payload","uncletopia"],"game_id":440,"stv_port":27016,"stv_name":"Uncletopia | Chicago | 1 | All Maps | STV","players":[{"user_id":242,"name":"AgentCitrus","steam_id":76561198153277184,"connected_time":730000000000,"state":"active","ping":53},{"user_id":200,"name":"Zoot","steam_id":76561198121944243,"connected_time":3310000000000,"state":"active","ping":71},{"user_id":244,"name":"BigChunkyKong","steam_id":76561198067446388,"connected_time":602000000000,"state":"active","ping":33},{"user_id":249,"name":"Corpse01","steam_id":76561198153671643,"connected_time":1000000000,"state":"spawning","ping":45},{"user_id":221,"name":"BlueMario10","steam_id":76561198284129717,"connected_time":1545000000000,"state":"active","ping":68},{"user_id":245,"name":"leumas","steam_id":76561198240408540,"connected_time":589000000000,"state":"active","ping":73},{"user_id":120,"name":"dirty tuna","steam_id":76561198021535785,"connected_time":9931000000000,"state":"active","ping":73},{"user_id":224,"name":"I shit my pants for 12 Ref","steam_id":76561198097847998,"connected_time":1417000000000,"state":"active","ping":60},{"user_id":222,"name":"Dracula, King of All Vampires","steam_id":76561198026930160,"connected_time":1533000000000,"state":"active","ping":74},{"user_id":194,"name":"Waddlehi","steam_id":76561198072553840,"connected_time":3504000000000,"state":"active","ping":62},{"user_id":211,"name":"Space","steam_id":76561198350489754,"connected_time":2298000000000,"state":"active","ping":52},{"user_id":226,"name":"Rusted Cake","steam_id":76561198209755931,"connected_time":1366000000000,"state":"active","ping":112},{"user_id":248,"name":"Astrocircuit","steam_id":76561198014437544,"connected_time":403000000000,"state":"active","ping":66},{"user_id":164,"name":"Classysaurus","steam_id":76561198065992731,"connected_time":5704000000000,"state":"active","ping":57},{"user_id":187,"name":"you keep smelling the syrup","steam_id":76561198142756572,"connected_time":3860000000000,"state":"active","ping":60},{"user_id":238,"name":"Stupid Sexy Flanders #Save tf2","steam_id":76561198136311983,"connected_time":1004000000000,"state":"active","ping":84},{"user_id":240,"name":"Someone","steam_id":76561199121969306,"connected_time":993000000000,"state":"active","ping":80},{"user_id":228,"name":"Malleo777","steam_id":76561198097995505,"connected_time":1359000000000,"state":"active","ping":81},{"user_id":230,"name":"darkerogamer","steam_id":76561198341101156,"connected_time":1329000000000,"state":"active","ping":117},{"user_id":247,"name":"PyroEagle","steam_id":76561198296434231,"connected_time":557000000000,"state":"active","ping":70},{"user_id":243,"name":"Somebodyp36","steam_id":76561198850961948,"connected_time":687000000000,"state":"active","ping":78},{"user_id":208,"name":"|AG| Level","steam_id":76561198063633592,"connected_time":3025000000000,"state":"active","ping":113},{"user_id":232,"name":"blob","steam_id":76561198122375328,"connected_time":1314000000000,"state":"active","ping":60},{"user_id":235,"name":"StonedGiant","steam_id":76561197984386932,"connected_time":1150000000000,"state":"active","ping":63}]},{"server_id":106,"name":"Uncletopia | Chicago | 2 | All Maps","name_short":"chi-2","host":"chi-1.us.uncletopia.com","port":27025,"enabled":true,"region":"us-central","cc":"us","latitude":41.881832,"longitude":-87.62318,"reserved":0,"last_update":"0001-01-01T00:00:00Z","name_a2s":"Uncletopia | Chicago | 2 | All Maps","protocol":17,"map":"pl_pier","folder":"tf","game":"Team Fortress","app_id":440,"player_count":24,"max_players":24,"Bots":0,"server_type":"Dedicated","server_os":"Linux","password":true,"vac":true,"version":"7932396","steam_id":85568392924469985,"keywords":["nocrits","nodmgspread","payload","uncletopia"],"game_id":440,"stv_port":27026,"stv_name":"Uncletopia | Chicago | 2 | All Maps | STV","players":[{"user_id":398,"name":"Gayne Wretzky","steam_id":76561198069816677,"connected_time":1758000000000,"state":"active","ping":81},{"user_id":411,"name":"thetroupegang","steam_id":76561198340510098,"connected_time":739000000000,"state":"active","ping":71},{"user_id":400,"name":"HanakoToast","steam_id":76561198045233131,"connected_time":1645000000000,"state":"active","ping":109},{"user_id":401,"name":"ya ya breathe","steam_id":76561198075858067,"connected_time":1636000000000,"state":"active","ping":60},{"user_id":392,"name":"The Noob Sire","steam_id":76561198119219754,"connected_time":2324000000000,"state":"active","ping":94},{"user_id":360,"name":"CinnamonBoy","steam_id":76561198882330338,"connected_time":3519000000000,"state":"active","ping":62},{"user_id":403,"name":"craxyt","steam_id":76561198050192689,"connected_time":1612000000000,"state":"active","ping":100},{"user_id":375,"name":"Zeroast","steam_id":76561198314750115,"connected_time":3158000000000,"state":"active","ping":66},{"user_id":390,"name":"Aiden939","steam_id":76561198860530097,"connected_time":2432000000000,"state":"active","ping":80},{"user_id":413,"name":"fernando","steam_id":76561198142586591,"connected_time":341000000000,"state":"active","ping":89},{"user_id":399,"name":"ZackPlayz","steam_id":76561198393823932,"connected_time":1724000000000,"state":"active","ping":96},{"user_id":372,"name":"ᓀ‸ᓂ","steam_id":76561198046055673,"connected_time":3187000000000,"state":"active","ping":74},{"user_id":332,"name":"Snoopy","steam_id":76561198273735974,"connected_time":6648000000000,"state":"active","ping":88},{"user_id":415,"name":"Daehypeels","steam_id":76561198268981599,"connected_time":130000000000,"state":"active","ping":64},{"user_id":347,"name":"The Dreamer","steam_id":76561198047638312,"connected_time":4958000000000,"state":"active","ping":61},{"user_id":410,"name":"Dark Lord","steam_id":76561198044199150,"connected_time":852000000000,"state":"active","ping":78},{"user_id":388,"name":"HarryjusttHarry","steam_id":76561198982810452,"connected_time":2494000000000,"state":"active","ping":82},{"user_id":397,"name":"♥ kiss me! ♥","steam_id":76561198014557455,"connected_time":1927000000000,"state":"active","ping":60},{"user_id":408,"name":"Baby gaming","steam_id":76561198867319323,"connected_time":1286000000000,"state":"active","ping":69},{"user_id":387,"name":"DarthEthanBoy","steam_id":76561198441643581,"connected_time":2603000000000,"state":"active","ping":67},{"user_id":416,"name":"Blazing Hyena","steam_id":76561199121852680,"connected_time":8000000000,"state":"spawning","ping":86},{"user_id":409,"name":"PaD_Ding","steam_id":76561198831202965,"connected_time":1273000000000,"state":"active","ping":164},{"user_id":407,"name":"GotYourNose","steam_id":76561198803527852,"connected_time":1427000000000,"state":"active","ping":63},{"user_id":405,"name":"ClammyToes","steam_id":76561198034549358,"connected_time":1561000000000,"state":"active","ping":53}]},{"server_id":402,"name":"Uncletopia | Chicago | 3 | All Maps","name_short":"chi-3","host":"chi-1.us.uncletopia.com","port":27035,"enabled":true,"region":"us-central","cc":"us","latitude":41.881832,"longitude":-87.62318,"reserved":0,"last_update":"0001-01-01T00:00:00Z","name_a2s":"Uncletopia | Chicago | 3 | All Maps","protocol":17,"map":"cp_snakewater_final1","folder":"tf","game":"Team Fortress","app_id":440,"player_count":24,"max_players":24,"Bots":0,"server_type":"Dedicated","server_os":"Linux","password":true,"vac":true,"version":"7932396","steam_id":85568392924515191,"keywords":["cp","nocrits","nodmgspread","uncletopia"],"game_id":440,"stv_port":27036,"stv_name":"Uncletopia | Chicago | 3 | All Maps | STV","players":[{"user_id":210,"name":"co)))))ne","steam_id":76561198053967778,"connected_time":1747000000000,"state":"active","ping":68},{"user_id":202,"name":"blood-thirsty pitbull","steam_id":76561198106690989,"connected_time":2867000000000,"state":"active","ping":66},{"user_id":213,"name":"Bombsgamer","steam_id":76561198350009050,"connected_time":1112000000000,"state":"active","ping":80},{"user_id":207,"name":"Hobo Ninja","steam_id":76561198029755261,"connected_time":2013000000000,"state":"active","ping":46},{"user_id":221,"name":"Macabre","steam_id":76561198153684075,"connected_time":137000000000,"state":"active","ping":75},{"user_id":219,"name":"Bone Daddy","steam_id":76561198037836736,"connected_time":265000000000,"state":"active","ping":87},{"user_id":215,"name":"DS8U","steam_id":76561198151554321,"connected_time":721000000000,"state":"active","ping":60},{"user_id":194,"name":"GreekGoat_Coffee","steam_id":76561198129331088,"connected_time":3112000000000,"state":"active","ping":46},{"user_id":208,"name":"Mario (sad demo arc)","steam_id":76561198123454475,"connected_time":1967000000000,"state":"active","ping":70},{"user_id":168,"name":"ShellBug","steam_id":76561198144187527,"connected_time":5401000000000,"state":"active","ping":68},{"user_id":225,"name":"RarestGuide","steam_id":76561198050338923,"connected_time":28000000000,"state":"spawning","ping":74},{"user_id":220,"name":"Mori","steam_id":76561198369446071,"connected_time":145000000000,"state":"active","ping":74},{"user_id":214,"name":"GUP SUPERFAN.!! ツ","steam_id":76561198196769297,"connected_time":1022000000000,"state":"active","ping":59},{"user_id":176,"name":"dansci","steam_id":76561198269530717,"connected_time":4817000000000,"state":"active","ping":68},{"user_id":222,"name":"Mailguy","steam_id":76561199066183834,"connected_time":132000000000,"state":"active","ping":65},{"user_id":224,"name":"Brisket","steam_id":76561199371070576,"connected_time":119000000000,"state":"active","ping":79},{"user_id":209,"name":"Wild_Rumpus","steam_id":76561198066393719,"connected_time":1901000000000,"state":"active","ping":45},{"user_id":216,"name":"y e e t o  b u r r i t o","steam_id":76561198963628161,"connected_time":621000000000,"state":"active","ping":74},{"user_id":205,"name":"bubby626","steam_id":76561198183438069,"connected_time":2039000000000,"state":"active","ping":65},{"user_id":185,"name":"msay","steam_id":76561198170888029,"connected_time":3797000000000,"state":"active","ping":86},{"user_id":189,"name":"so clear to me now","steam_id":76561198072179483,"connected_time":3603000000000,"state":"active","ping":91},{"user_id":201,"name":"Shoeshocker","steam_id":76561198174302467,"connected_time":2902000000000,"state":"active","ping":73},{"user_id":218,"name":"Bread Baker","steam_id":76561198185335103,"connected_time":345000000000,"state":"active","ping":52},{"user_id":178,"name":"Killroy NQP ❤","steam_id":76561198006983771,"connected_time":4798000000000,"state":"active","ping":75}]},{"server_id":403,"name":"Uncletopia | Chicago | 4 | All Maps","name_short":"chi-4","host":"chi-1.us.uncletopia.com","port":27045,"enabled":true,"region":"us-central","cc":"us","latitude":41.881832,"longitude":-87.62318,"reserved":0,"last_update":"0001-01-01T00:00:00Z","name_a2s":"Uncletopia | Chicago | 4 | All Maps","protocol":17,"map":"pl_frontier_final","folder":"tf","game":"Team Fortress","app_id":440,"player_count":24,"max_players":24,"Bots":0,"server_type":"Dedicated","server_os":"Linux","password":true,"vac":true,"version":"7932396","steam_id":85568392924515193,"keywords":["nocrits","nodmgspread","payload","uncletopia"],"game_id":440,"stv_port":27046,"stv_name":"Uncletopia | Chicago | 4 | All Maps | STV","players":[{"user_id":405,"name":"Pattar","steam_id":76561198146276146,"connected_time":234000000000,"state":"active","ping":60},{"user_id":408,"name":"Benrosim","steam_id":76561199258825333,"connected_time":101000000000,"state":"active","ping":155},{"user_id":372,"name":"Luca!","steam_id":76561198137880777,"connected_time":3433000000000,"state":"active","ping":83},{"user_id":407,"name":"Oliver_Berry","steam_id":76561199488138620,"connected_time":169000000000,"state":"active","ping":117},{"user_id":398,"name":"Mehman","steam_id":76561199020244051,"connected_time":336000000000,"state":"active","ping":91},{"user_id":394,"name":"tasty","steam_id":76561198083839061,"connected_time":1261000000000,"state":"active","ping":48},{"user_id":361,"name":"Idk","steam_id":76561198971629959,"connected_time":3960000000000,"state":"active","ping":136},{"user_id":362,"name":"hoovy spy","steam_id":76561198999843667,"connected_time":3958000000000,"state":"active","ping":77},{"user_id":402,"name":"Ceige (redemption arc)","steam_id":76561198068538473,"connected_time":312000000000,"state":"active","ping":75},{"user_id":381,"name":"SalTev","steam_id":76561198350069373,"connected_time":2530000000000,"state":"active","ping":92},{"user_id":409,"name":"Meownsterhunter","steam_id":76561198319992602,"connected_time":60000000000,"state":"active","ping":76},{"user_id":382,"name":"peniblor","steam_id":76561198307923786,"connected_time":2513000000000,"state":"active","ping":143},{"user_id":392,"name":"Pepsi Man","steam_id":76561198353520643,"connected_time":1482000000000,"state":"active","ping":76},{"user_id":403,"name":"vandeer","steam_id":76561198120124007,"connected_time":307000000000,"state":"active","ping":77},{"user_id":318,"name":"Bee_Pirate","steam_id":76561199000599111,"connected_time":6279000000000,"state":"active","ping":65},{"user_id":401,"name":"TJGSASQUATCH","steam_id":76561198077806921,"connected_time":316000000000,"state":"active","ping":78},{"user_id":404,"name":"Mr_Starman","steam_id":76561199083428007,"connected_time":306000000000,"state":"active","ping":63},{"user_id":387,"name":"alpha","steam_id":76561198250491640,"connected_time":2049000000000,"state":"active","ping":139},{"user_id":410,"name":"Mr. Sandman","steam_id":76561198065870487,"connected_time":52000000000,"state":"spawning","ping":44},{"user_id":294,"name":"Elias","steam_id":76561198106431732,"connected_time":8845000000000,"state":"active","ping":57},{"user_id":390,"name":"Boboblin:)","steam_id":76561199030131717,"connected_time":1635000000000,"state":"active","ping":93},{"user_id":386,"name":"marcus tillius","steam_id":76561197982832274,"connected_time":2333000000000,"state":"active","ping":51},{"user_id":293,"name":"Cloud","steam_id":76561198954987128,"connected_time":8971000000000,"state":"active","ping":74},{"user_id":397,"name":"Wengatang","steam_id":76561198021747059,"connected_time":737000000000,"state":"active","ping":49}]},{"server_id":36,"name":"Uncletopia | Chicago | 5 | All Maps","name_short":"chi-5","host":"chi-2.us.uncletopia.com","port":27015,"enabled":true,"region":"us-central","cc":"us","latitude":41.881832,"longitude":-87.62318,"reserved":0,"last_update":"0001-01-01T00:00:00Z","name_a2s":"Uncletopia | Chicago | 5 | All Maps","protocol":17,"map":"pl_badwater","folder":"tf","game":"Team Fortress","app_id":440,"player_count":24,"max_players":24,"Bots":0,"server_type":"Dedicated","server_os":"Linux","password":true,"vac":true,"version":"7932396","steam_id":85568392924866362,"keywords":["nocrits","nodmgspread","payload","uncletopia"],"game_id":440,"stv_port":27016,"stv_name":"Uncletopia | Chicago | 5 | All Maps | STV","players":[{"user_id":82,"name":"OttotheTomato","steam_id":76561198272610597,"connected_time":1301000000000,"state":"active","ping":70},{"user_id":95,"name":".5\" Penis","steam_id":76561198367063324,"connected_time":747000000000,"state":"active","ping":66},{"user_id":87,"name":"ceres","steam_id":76561198291976960,"connected_time":1023000000000,"state":"active","ping":104},{"user_id":86,"name":"Asanez3","steam_id":76561198037381436,"connected_time":1094000000000,"state":"active","ping":109},{"user_id":88,"name":"Bloxerbot","steam_id":76561198042594695,"connected_time":1021000000000,"state":"active","ping":176},{"user_id":89,"name":"gryeko","steam_id":76561198142243074,"connected_time":993000000000,"state":"active","ping":75},{"user_id":90,"name":"ShiverShock","steam_id":76561198994768522,"connected_time":966000000000,"state":"active","ping":87},{"user_id":91,"name":"euphoricfilth","steam_id":76561198100160865,"connected_time":955000000000,"state":"active","ping":62},{"user_id":31,"name":"mythics","steam_id":76561199179957944,"connected_time":4696000000000,"state":"active","ping":100},{"user_id":32,"name":"Shaby_Frost","steam_id":76561198401334563,"connected_time":4684000000000,"state":"active","ping":51},{"user_id":74,"name":"Van","steam_id":76561198073518712,"connected_time":1799000000000,"state":"active","ping":59},{"user_id":92,"name":"Slender-Doll","steam_id":76561198328548641,"connected_time":950000000000,"state":"active","ping":48},{"user_id":48,"name":"Goomby","steam_id":76561198079416561,"connected_time":4038000000000,"state":"active","ping":106},{"user_id":93,"name":"TheBestNightmare","steam_id":76561198145135759,"connected_time":949000000000,"state":"active","ping":69},{"user_id":71,"name":"BugsAreMyWorstEnemy","steam_id":76561199440395505,"connected_time":2082000000000,"state":"active","ping":79},{"user_id":68,"name":"Fk it we Ball","steam_id":76561198078421075,"connected_time":2157000000000,"state":"active","ping":63},{"user_id":39,"name":"BreakfastTacos","steam_id":76561198847620442,"connected_time":4399000000000,"state":"active","ping":100},{"user_id":40,"name":"Faraday","steam_id":76561198089928357,"connected_time":4393000000000,"state":"active","ping":77},{"user_id":97,"name":"he munch","steam_id":76561198339644583,"connected_time":470000000000,"state":"active","ping":64},{"user_id":42,"name":"touhou2010@gmail.com","steam_id":76561198045844070,"connected_time":4385000000000,"state":"active","ping":81},{"user_id":55,"name":"richarven","steam_id":76561198189429665,"connected_time":3168000000000,"state":"active","ping":72},{"user_id":77,"name":"5mech","steam_id":76561198979167520,"connected_time":1643000000000,"state":"active","ping":58},{"user_id":45,"name":"Chris P. Bacon","steam_id":76561198000851038,"connected_time":4314000000000,"state":"active","ping":70},{"user_id":62,"name":"the Light Beast","steam_id":76561198111975583,"connected_time":2956000000000,"state":"active","ping":76}]},{"server_id":37,"name":"Uncletopia | Chicago | 6 | All Maps","name_short":"chi-6","host":"chi-2.us.uncletopia.com","port":27025,"enabled":true,"region":"us-central","cc":"us","latitude":41.881832,"longitude":-87.62318,"reserved":0,"last_update":"0001-01-01T00:00:00Z","name_a2s":"Uncletopia | Chicago | 6 | All Maps","protocol":17,"map":"pl_swiftwater_final1","folder":"tf","game":"Team Fortress","app_id":440,"player_count":23,"max_players":24,"Bots":0,"server_type":"Dedicated","server_os":"Linux","password":true,"vac":true,"version":"7932396","steam_id":85568392924866363,"keywords":["nocrits","nodmgspread","payload","uncletopia"],"game_id":440,"stv_port":27026,"stv_name":"Uncletopia | Chicago | 6 | All Maps | STV","players":[{"user_id":39,"name":"Aware","steam_id":76561198013338167,"connected_time":1636000000000,"state":"active","ping":53},{"user_id":47,"name":"jon pickle water","steam_id":76561199036212135,"connected_time":1124000000000,"state":"active","ping":111},{"user_id":21,"name":"Joseph Ballin","steam_id":76561198799292014,"connected_time":3264000000000,"state":"active","ping":30},{"user_id":67,"name":"Benito Swagolini","steam_id":76561199110850934,"connected_time":78000000000,"state":"active","ping":67},{"user_id":25,"name":"goatmum113","steam_id":76561199126793099,"connected_time":2627000000000,"state":"active","ping":92},{"user_id":26,"name":"I'mTellingMom","steam_id":76561199013705323,"connected_time":2465000000000,"state":"active","ping":60},{"user_id":61,"name":"MayKaye","steam_id":76561199016092265,"connected_time":471000000000,"state":"active","ping":100},{"user_id":34,"name":"LucasIsNeverHere","steam_id":76561198995748555,"connected_time":1912000000000,"state":"active","ping":28},{"user_id":35,"name":"Wizard Lizard","steam_id":76561198940710906,"connected_time":1852000000000,"state":"active","ping":69},{"user_id":64,"name":"Gay Mushroom","steam_id":76561198151549658,"connected_time":287000000000,"state":"active","ping":86},{"user_id":37,"name":"Ghille","steam_id":76561198027234838,"connected_time":1673000000000,"state":"active","ping":57},{"user_id":48,"name":"kmi","steam_id":76561199067925855,"connected_time":1114000000000,"state":"active","ping":67},{"user_id":62,"name":"Spherigon","steam_id":76561198149867606,"connected_time":467000000000,"state":"active","ping":71},{"user_id":50,"name":"b4rry","steam_id":76561198365887154,"connected_time":1073000000000,"state":"active","ping":71},{"user_id":42,"name":"Winter the Witchie","steam_id":76561198151971178,"connected_time":1527000000000,"state":"active","ping":69},{"user_id":43,"name":"PileofPolygons","steam_id":76561199321343460,"connected_time":1486000000000,"state":"active","ping":69},{"user_id":58,"name":"Gilgamesh","steam_id":76561198317113179,"connected_time":565000000000,"state":"active","ping":60},{"user_id":46,"name":"bonk","steam_id":76561198922763623,"connected_time":1146000000000,"state":"active","ping":107},{"user_id":49,"name":"wavlog0124","steam_id":76561199079614516,"connected_time":1102000000000,"state":"active","ping":51},{"user_id":68,"name":"sleeperino","steam_id":76561198061504714,"connected_time":50000000000,"state":"active","ping":126},{"user_id":63,"name":"Viokik","steam_id":76561198408846602,"connected_time":413000000000,"state":"active","ping":64},{"user_id":66,"name":"sumo dumplings","steam_id":76561198115553314,"connected_time":150000000000,"state":"active","ping":62},{"user_id":54,"name":"Lichy","steam_id":76561198310682841,"connected_time":1039000000000,"state":"active","ping":55}]},{"server_id":38,"name":"Uncletopia | Chicago | 7 | Stopwatch Beta","name_short":"chi-7","host":"chi-2.us.uncletopia.com","port":27035,"enabled":true,"region":"us-central","cc":"us","latitude":41.881832,"longitude":-87.62318,"reserved":0,"last_update":"0001-01-01T00:00:00Z","name_a2s":"Uncletopia | Chicago | 7 | Stopwatch Beta","protocol":17,"map":"pl_borneo","folder":"tf","game":"Team Fortress","app_id":440,"player_count":0,"max_players":24,"Bots":0,"server_type":"Dedicated","server_os":"Linux","password":true,"vac":true,"version":"7932396","steam_id":85568392924866364,"keywords":["nocrits","nodmgspread","payload","uncletopia"],"game_id":440,"stv_port":27036,"stv_name":"Uncletopia | Chicago | 7 | Stopwatch Beta | STV","players":null},{"server_id":39,"name":"Uncletopia | Chicago | 8 | Community","name_short":"chi-8","host":"chi-2.us.uncletopia.com","port":27045,"enabled":true,"region":"us-central","cc":"us","latitude":41.881832,"longitude":-87.62318,"reserved":0,"last_update":"0001-01-01T00:00:00Z","name_a2s":"Uncletopia | Chicago | 8 | Community","protocol":17,"map":"koth_viaduct","folder":"tf","game":"Team Fortress","app_id":440,"player_count":2,"max_players":24,"Bots":0,"server_type":"Dedicated","server_os":"Linux","password":true,"vac":true,"version":"7932396","steam_id":85568392924866365,"keywords":["cp","nocrits","nodmgspread","uncletopia"],"game_id":440,"stv_port":27046,"stv_name":"Uncletopia | Chicago | 8 | Community | STV","players":[{"user_id":11,"name":"Dragoon","steam_id":76561198211973253,"connected_time":638000000000,"state":"active","ping":67},{"user_id":12,"name":"legopirate10","steam_id":76561198178827241,"connected_time":604000000000,"state":"active","ping":30}]},{"server_id":8,"name":"Uncletopia | Dallas | 1 | All Maps","name_short":"dal-1","host":"dal-1.us.uncletopia.com","port":27015,"enabled":true,"region":"us-central","cc":"us","latitude":32.779167,"longitude":-96.80889,"reserved":0,"last_update":"0001-01-01T00:00:00Z","name_a2s":"Uncletopia | Dallas | 1 | All Maps","protocol":17,"map":"cp_sunshine","folder":"tf","game":"Team Fortress","app_id":440,"player_count":24,"max_players":24,"Bots":0,"server_type":"Dedicated","server_os":"Linux","password":true,"vac":true,"version":"7932396","steam_id":85568392924469986,"keywords":["cp","nocrits","nodmgspread","uncletopia"],"game_id":440,"stv_port":27016,"stv_name":"Uncletopia | Dallas | 1 | All Maps | STV","players":[{"user_id":240,"name":"pl_deepthroatgulch_finalrc2","steam_id":76561198046802071,"connected_time":3178000000000,"state":"active","ping":52},{"user_id":295,"name":"goopgrabber","steam_id":76561199029951083,"connected_time":1137000000000,"state":"active","ping":89},{"user_id":248,"name":"⌞pizzaguy⌝","steam_id":76561197963710485,"connected_time":2600000000000,"state":"active","ping":102},{"user_id":302,"name":"Hobbes","steam_id":76561198087956236,"connected_time":995000000000,"state":"active","ping":75},{"user_id":262,"name":"Spazz","steam_id":76561198036167494,"connected_time":1988000000000,"state":"active","ping":52},{"user_id":297,"name":"chilis baby back ribs","steam_id":76561198813516435,"connected_time":1121000000000,"state":"active","ping":74},{"user_id":305,"name":"Quietsharp","steam_id":76561198277968438,"connected_time":329000000000,"state":"active","ping":78},{"user_id":261,"name":"CHIEF","steam_id":76561198011209422,"connected_time":1998000000000,"state":"active","ping":45},{"user_id":296,"name":"L + Ratio","steam_id":76561198263786953,"connected_time":1135000000000,"state":"active","ping":84},{"user_id":263,"name":"Proud Swift City Resident","steam_id":76561198036283992,"connected_time":1981000000000,"state":"active","ping":81},{"user_id":301,"name":"Riff III","steam_id":76561198066921423,"connected_time":1041000000000,"state":"active","ping":64},{"user_id":232,"name":"iUseDvorak","steam_id":76561198064439037,"connected_time":3406000000000,"state":"active","ping":72},{"user_id":212,"name":"Some Guy","steam_id":76561197968945822,"connected_time":4240000000000,"state":"active","ping":60},{"user_id":266,"name":"Borealis Frost","steam_id":76561199115807272,"connected_time":1856000000000,"state":"active","ping":90},{"user_id":267,"name":"xkatsuz","steam_id":76561199005104172,"connected_time":1851000000000,"state":"active","ping":68},{"user_id":256,"name":"orange rind (3 cent wifi)","steam_id":76561198130242461,"connected_time":2537000000000,"state":"active","ping":55},{"user_id":224,"name":"Kirby.exe","steam_id":76561198242714582,"connected_time":3905000000000,"state":"active","ping":54},{"user_id":251,"name":"leopardo123atl","steam_id":76561198872648238,"connected_time":2596000000000,"state":"active","ping":84},{"user_id":253,"name":"(Past Tense)","steam_id":76561197996279335,"connected_time":2579000000000,"state":"active","ping":74},{"user_id":304,"name":"Greg Boberton 2012","steam_id":76561198983566026,"connected_time":357000000000,"state":"active","ping":81},{"user_id":260,"name":"SKW14","steam_id":76561198215425735,"connected_time":2025000000000,"state":"active","ping":80},{"user_id":294,"name":"TheGFG","steam_id":76561198166150556,"connected_time":1146000000000,"state":"active","ping":70},{"user_id":259,"name":"Wolverine475","steam_id":76561198137136788,"connected_time":2283000000000,"state":"active","ping":96},{"user_id":269,"name":"♡ thedittofemboy ♡","steam_id":76561199013129784,"connected_time":1792000000000,"state":"active","ping":60}]},{"server_id":108,"name":"Uncletopia | Dallas | 2 | All Maps","name_short":"dal-2","host":"dal-1.us.uncletopia.com","port":27025,"enabled":true,"region":"us-central","cc":"us","latitude":32.779167,"longitude":-96.80889,"reserved":0,"last_update":"0001-01-01T00:00:00Z","name_a2s":"Uncletopia | Dallas | 2 | All Maps","protocol":17,"map":"cp_mountainlab","folder":"tf","game":"Team Fortress","app_id":440,"player_count":20,"max_players":24,"Bots":0,"server_type":"Dedicated","server_os":"Linux","password":true,"vac":true,"version":"7932396","steam_id":85568392924469988,"keywords":["cp","nocrits","nodmgspread","uncletopia"],"game_id":440,"stv_port":27026,"stv_name":"Uncletopia | Dallas | 2 | All Maps | STV","players":[{"user_id":272,"name":"minimalpair","steam_id":76561198071788709,"connected_time":1530000000000,"state":"active","ping":83},{"user_id":263,"name":"damiankiller1243","steam_id":76561198868885090,"connected_time":1727000000000,"state":"active","ping":64},{"user_id":292,"name":"Karcynagen","steam_id":76561198040589396,"connected_time":29000000000,"state":"active","ping":56},{"user_id":274,"name":"mkl","steam_id":76561197986401685,"connected_time":1377000000000,"state":"active","ping":38},{"user_id":291,"name":"ChicoTopic","steam_id":76561198327083342,"connected_time":57000000000,"state":"connecting","ping":57},{"user_id":283,"name":"Sullivate","steam_id":76561198247267324,"connected_time":783000000000,"state":"active","ping":104},{"user_id":289,"name":"chiswola","steam_id":76561198046920142,"connected_time":195000000000,"state":"active","ping":87},{"user_id":254,"name":"tunafish64","steam_id":76561199488561842,"connected_time":2072000000000,"state":"spawning","ping":66},{"user_id":280,"name":"aintnowaiyboi","steam_id":76561198301372369,"connected_time":856000000000,"state":"active","ping":37},{"user_id":293,"name":"Radiant Rubi","steam_id":76561198096292327,"connected_time":22000000000,"state":"active","ping":104},{"user_id":294,"name":"roboto(:","steam_id":76561198387312531,"connected_time":3000000000,"state":"spawning","ping":103},{"user_id":241,"name":"Kaptain Cannoli","steam_id":76561198062848738,"connected_time":2298000000000,"state":"active","ping":77},{"user_id":273,"name":"Smug","steam_id":76561198448205229,"connected_time":1492000000000,"state":"active","ping":68},{"user_id":270,"name":"cypherzero","steam_id":76561199182960322,"connected_time":1577000000000,"state":"active","ping":46},{"user_id":285,"name":"Lemonade Juice","steam_id":76561198402892608,"connected_time":740000000000,"state":"spawning","ping":82},{"user_id":281,"name":"CapnKris22","steam_id":76561198049010994,"connected_time":838000000000,"state":"active","ping":80},{"user_id":199,"name":"lil Klonex ❤","steam_id":76561198061550694,"connected_time":6324000000000,"state":"active","ping":65},{"user_id":271,"name":"Proudaazz","steam_id":76561199015525980,"connected_time":1577000000000,"state":"active","ping":64},{"user_id":288,"name":"mayhem","steam_id":76561199246637881,"connected_time":252000000000,"state":"active","ping":30},{"user_id":276,"name":"LiftN","steam_id":76561198167974713,"connected_time":1100000000000,"state":"active","ping":62}]},{"server_id":5,"name":"Uncletopia | Frankfurt | 1 | All Maps","name_short":"frk-1","host":"frk-1.de.uncletopia.com","port":27015,"enabled":true,"region":"eu","cc":"de","latitude":50.110924,"longitude":8.682127,"reserved":0,"last_update":"0001-01-01T00:00:00Z","name_a2s":"Uncletopia | Frankfurt | 1 | All Maps","protocol":17,"map":"pl_frontier_final","folder":"tf","game":"Team Fortress","app_id":440,"player_count":2,"max_players":24,"Bots":0,"server_type":"Dedicated","server_os":"Linux","password":true,"vac":true,"version":"7932396","steam_id":85568392924469989,"keywords":["nocrits","nodmgspread","payload","uncletopia"],"game_id":440,"stv_port":27016,"stv_name":"Uncletopia | Frankfurt | 1 | All Maps | STV","players":[{"user_id":422,"name":"Tortoise Guy","steam_id":76561199047825610,"connected_time":212000000000,"state":"active","ping":77},{"user_id":399,"name":"Monsteh","steam_id":76561198325898181,"connected_time":1352000000000,"state":"active","ping":68}]},{"server_id":110,"name":"Uncletopia | Frankfurt | 2 | All Maps","name_short":"frk-2","host":"frk-1.de.uncletopia.com","port":27025,"enabled":true,"region":"eu","cc":"de","latitude":50.110924,"longitude":8.682127,"reserved":0,"last_update":"0001-01-01T00:00:00Z","name_a2s":"Uncletopia | Frankfurt | 2 | All Maps","protocol":17,"map":"pl_badwater","folder":"tf","game":"Team Fortress","app_id":440,"player_count":0,"max_players":24,"Bots":0,"server_type":"Dedicated","server_os":"Linux","password":true,"vac":true,"version":"7932396","steam_id":85568392924469990,"keywords":["nocrits","nodmgspread","payload","uncletopia"],"game_id":440,"stv_port":27026,"stv_name":"Uncletopia | Frankfurt | 2 | All Maps | STV","players":null},{"server_id":308,"name":"Uncletopia | Frankfurt | 3 | All Maps","name_short":"frk-3","host":"frk-1.de.uncletopia.com","port":27035,"enabled":true,"region":"eu","cc":"de","latitude":50.110924,"longitude":8.682127,"reserved":0,"last_update":"0001-01-01T00:00:00Z","name_a2s":"Uncletopia | Frankfurt | 3 | All Maps","protocol":17,"map":"cp_dustbowl","folder":"tf","game":"Team Fortress","app_id":440,"player_count":0,"max_players":24,"Bots":0,"server_type":"Dedicated","server_os":"Linux","password":true,"vac":true,"version":"7932396","steam_id":85568392924504274,"keywords":["cp","nocrits","nodmgspread","uncletopia"],"game_id":440,"stv_port":27036,"stv_name":"Uncletopia | Frankfurt | 3 | All Maps | STV","players":null},{"server_id":309,"name":"Uncletopia | Frankfurt | 4 | All Maps","name_short":"frk-4","host":"frk-1.de.uncletopia.com","port":27045,"enabled":true,"region":"eu","cc":"de","latitude":50.110924,"longitude":8.682127,"reserved":0,"last_update":"0001-01-01T00:00:00Z","name_a2s":"Uncletopia | Frankfurt | 4 | All Maps","protocol":17,"map":"pl_badwater","folder":"tf","game":"Team Fortress","app_id":440,"player_count":19,"max_players":24,"Bots":0,"server_type":"Dedicated","server_os":"Linux","password":true,"vac":true,"version":"7932396","steam_id":85568392924504275,"keywords":["nocrits","nodmgspread","payload","uncletopia"],"game_id":440,"stv_port":27046,"stv_name":"Uncletopia | Frankfurt | 4 | All Maps | STV","players":[{"user_id":401,"name":"mauri88000/mod","steam_id":76561198306672262,"connected_time":597000000000,"state":"active","ping":58},{"user_id":403,"name":"Master Of Noob","steam_id":76561198217926783,"connected_time":527000000000,"state":"active","ping":74},{"user_id":435,"name":"Glenn Quagmire","steam_id":76561199348527880,"connected_time":25000000000,"state":"active","ping":94},{"user_id":413,"name":"zorze supreme.exe","steam_id":76561198996333022,"connected_time":328000000000,"state":"active","ping":74},{"user_id":426,"name":"tamz","steam_id":76561198146873972,"connected_time":217000000000,"state":"active","ping":45},{"user_id":436,"name":"zWerTy69","steam_id":76561197995660453,"connected_time":23000000000,"state":"active","ping":84},{"user_id":420,"name":"jkr","steam_id":76561198091135475,"connected_time":227000000000,"state":"active","ping":54},{"user_id":437,"name":"Bgm_","steam_id":76561198056452044,"connected_time":13000000000,"state":"spawning","ping":75},{"user_id":434,"name":"Numbe","steam_id":76561198269614930,"connected_time":43000000000,"state":"spawning","ping":76},{"user_id":438,"name":"Artificial.Ignorance","steam_id":76561198453090180,"connected_time":10000000000,"state":"active","ping":188},{"user_id":361,"name":"Biggus Dickus","steam_id":76561198018358868,"connected_time":2719000000000,"state":"active","ping":70},{"user_id":424,"name":"Franz Heinau","steam_id":76561198125010818,"connected_time":221000000000,"state":"active","ping":96},{"user_id":425,"name":"zek","steam_id":76561198862763731,"connected_time":220000000000,"state":"active","ping":59},{"user_id":427,"name":"Ratatatatatatouille","steam_id":76561198182267098,"connected_time":217000000000,"state":"active","ping":84},{"user_id":428,"name":"Your page is too weak.","steam_id":76561198104896547,"connected_time":213000000000,"state":"active","ping":74},{"user_id":381,"name":"Toasty5050","steam_id":76561198073540881,"connected_time":2018000000000,"state":"active","ping":46},{"user_id":429,"name":"hardy","steam_id":76561198029228735,"connected_time":184000000000,"state":"active","ping":62},{"user_id":431,"name":"Romultra","steam_id":76561198354105082,"connected_time":172000000000,"state":"active","ping":56},{"user_id":384,"name":"Rimx","steam_id":76561198053034840,"connected_time":1920000000000,"state":"active","ping":91}]},{"server_id":310,"name":"Uncletopia | Frankfurt | 5 | All Maps","name_short":"frk-5","host":"frk-1.de.uncletopia.com","port":27055,"enabled":true,"region":"eu","cc":"de","latitude":50.110924,"longitude":8.682127,"reserved":0,"last_update":"0001-01-01T00:00:00Z","name_a2s":"Uncletopia | Frankfurt | 5 | All Maps","protocol":17,"map":"cp_snakewater_final1","folder":"tf","game":"Team Fortress","app_id":440,"player_count":0,"max_players":24,"Bots":0,"server_type":"Dedicated","server_os":"Linux","password":true,"vac":true,"version":"7932396","steam_id":85568392924504277,"keywords":["cp","nocrits","nodmgspread","uncletopia"],"game_id":440,"stv_port":27056,"stv_name":"Uncletopia | Frankfurt | 5 | All Maps | STV","players":null},{"server_id":311,"name":"Uncletopia | Frankfurt | 6 | All Maps","name_short":"frk-6","host":"frk-1.de.uncletopia.com","port":27065,"enabled":true,"region":"eu","cc":"de","latitude":50.110924,"longitude":8.682127,"reserved":0,"last_update":"0001-01-01T00:00:00Z","name_a2s":"Uncletopia | Frankfurt | 6 | All Maps","protocol":17,"map":"pl_snowycoast","folder":"tf","game":"Team Fortress","app_id":440,"player_count":0,"max_players":24,"Bots":0,"server_type":"Dedicated","server_os":"Linux","password":true,"vac":true,"version":"7932396","steam_id":85568392924504278,"keywords":["nocrits","nodmgspread","payload","uncletopia"],"game_id":440,"stv_port":27066,"stv_name":"Uncletopia | Frankfurt | 6 | All Maps | STV","players":null},{"server_id":23,"name":"Uncletopia | Frankfurt | 7 | Stopwatch Beta","name_short":"frk-7","host":"frk-1.de.uncletopia.com","port":27075,"enabled":true,"region":"eu","cc":"de","latitude":50.110924,"longitude":8.682127,"reserved":0,"last_update":"0001-01-01T00:00:00Z","name_a2s":"Uncletopia | Frankfurt | 7 | Stopwatch Beta","protocol":17,"map":"pl_snowycoast","folder":"tf","game":"Team Fortress","app_id":440,"player_count":0,"max_players":24,"Bots":0,"server_type":"Dedicated","server_os":"Linux","password":true,"vac":true,"version":"7932396","steam_id":85568392924742827,"keywords":["nocrits","nodmgspread","payload","uncletopia"],"game_id":440,"stv_port":27076,"stv_name":"Uncletopia | Frankfurt | 7 | Stopwatch Beta | STV","players":null},{"server_id":24,"name":"Uncletopia | Frankfurt | 8 | Community","name_short":"frk-8","host":"frk-1.de.uncletopia.com","port":27085,"enabled":true,"region":"eu","cc":"de","latitude":50.110924,"longitude":8.682127,"reserved":0,"last_update":"0001-01-01T00:00:00Z","name_a2s":"Uncletopia | Frankfurt | 8 | Community","protocol":17,"map":"workshop/koth_kemptown_rc1.ugc767410655","folder":"tf","game":"Team Fortress","app_id":440,"player_count":3,"max_players":24,"Bots":0,"server_type":"Dedicated","server_os":"Linux","password":true,"vac":true,"version":"7932396","steam_id":85568392924742828,"keywords":["cp","nocrits","nodmgspread","uncletopia"],"game_id":440,"stv_port":27086,"stv_name":"Uncletopia | Frankfurt | 8 | Community | STV","players":[{"user_id":20,"name":"❤Cute Femboy❤","steam_id":76561199258890641,"connected_time":4559000000000,"state":"active","ping":74},{"user_id":28,"name":"Iron Maiden Eddie (Real)☆","steam_id":76561198115252607,"connected_time":164000000000,"state":"active","ping":245},{"user_id":26,"name":"Hampter","steam_id":76561198966522530,"connected_time":767000000000,"state":"active","ping":87}]},{"server_id":202,"name":"Uncletopia | Hong Kong | 1 | All Maps","name_short":"hgk-1","host":"hgk-1.hk.uncletopia.com","port":27015,"enabled":true,"region":"asia","cc":"hk","latitude":22.302711,"longitude":114.177216,"reserved":0,"last_update":"0001-01-01T00:00:00Z","name_a2s":"Uncletopia | Hong Kong | 1 | All Maps","protocol":17,"map":"cp_process_final","folder":"tf","game":"Team Fortress","app_id":440,"player_count":1,"max_players":24,"Bots":0,"server_type":"Dedicated","server_os":"Linux","password":true,"vac":true,"version":"7932396","steam_id":85568392924494504,"keywords":["cp","nocrits","nodmgspread","uncletopia"],"game_id":440,"stv_port":27016,"stv_name":"Uncletopia | Hong Kong | 1 | All Maps | STV","players":[{"user_id":869,"name":"MyyLIttleMIndd♥","steam_id":76561199481859937,"connected_time":340000000000,"state":"active","ping":106}]},{"server_id":1,"name":"Uncletopia | Los Angeles | 1 | All Maps","name_short":"lax-1","host":"lax-1.us.uncletopia.com","port":27015,"enabled":true,"region":"us-west","cc":"us","latitude":33.94279,"longitude":-118.41004,"reserved":0,"last_update":"0001-01-01T00:00:00Z","name_a2s":"Uncletopia | Los Angeles | 1 | All Maps","protocol":17,"map":"plr_pipeline","folder":"tf","game":"Team Fortress","app_id":440,"player_count":24,"max_players":24,"Bots":0,"server_type":"Dedicated","server_os":"Linux","password":true,"vac":true,"version":"7932396","steam_id":85568392924469991,"keywords":["nocrits","nodmgspread","payload","uncletopia"],"game_id":440,"stv_port":27016,"stv_name":"Uncletopia | Los Angeles | 1 | All Maps | STV","players":[{"user_id":221,"name":"TORN RETINAS","steam_id":76561198033822457,"connected_time":783000000000,"state":"active","ping":101},{"user_id":194,"name":"ena - d","steam_id":76561198072329335,"connected_time":2183000000000,"state":"active","ping":108},{"user_id":207,"name":"darkness.danny3481","steam_id":76561198132808002,"connected_time":1513000000000,"state":"active","ping":47},{"user_id":130,"name":"selvhat","steam_id":76561198114225509,"connected_time":7067000000000,"state":"active","ping":47},{"user_id":214,"name":"Scrux","steam_id":76561198129763115,"connected_time":922000000000,"state":"active","ping":51},{"user_id":212,"name":"Spaceman","steam_id":76561198349305249,"connected_time":1181000000000,"state":"active","ping":82},{"user_id":226,"name":"Reem0h","steam_id":76561198169848690,"connected_time":474000000000,"state":"active","ping":108},{"user_id":211,"name":"culture shock","steam_id":76561198212421513,"connected_time":1310000000000,"state":"active","ping":45},{"user_id":208,"name":"Coffee","steam_id":76561198154646418,"connected_time":1512000000000,"state":"active","ping":86},{"user_id":147,"name":"elephant thumb","steam_id":76561198118859752,"connected_time":5942000000000,"state":"active","ping":44},{"user_id":171,"name":"wib","steam_id":76561197993341557,"connected_time":3943000000000,"state":"active","ping":52},{"user_id":217,"name":"Tele Co","steam_id":76561198041909269,"connected_time":901000000000,"state":"active","ping":52},{"user_id":222,"name":"JadEDU","steam_id":76561198170648674,"connected_time":723000000000,"state":"active","ping":76},{"user_id":202,"name":"Ralph Kramden (Slim Charles)","steam_id":76561197981687895,"connected_time":1955000000000,"state":"active","ping":60},{"user_id":218,"name":"YourLocalArsonist","steam_id":76561199111922751,"connected_time":895000000000,"state":"active","ping":117},{"user_id":229,"name":"tr","steam_id":76561198046944222,"connected_time":16000000000,"state":"spawning","ping":74},{"user_id":196,"name":"Ockulus","steam_id":76561199069638460,"connected_time":2153000000000,"state":"active","ping":50},{"user_id":181,"name":"Kylar","steam_id":76561198196979431,"connected_time":3480000000000,"state":"active","ping":57},{"user_id":197,"name":"♡kitten♡","steam_id":76561198286383854,"connected_time":2147000000000,"state":"active","ping":57},{"user_id":216,"name":"Neophyte","steam_id":76561198027183394,"connected_time":909000000000,"state":"active","ping":91},{"user_id":187,"name":"Unwavering Flavor","steam_id":76561198053306065,"connected_time":2645000000000,"state":"active","ping":84},{"user_id":224,"name":"Bocchers From Bocchi The Rock","steam_id":76561198986388085,"connected_time":603000000000,"state":"active","ping":120},{"user_id":227,"name":"cup","steam_id":76561198121245586,"connected_time":235000000000,"state":"active","ping":84},{"user_id":164,"name":"HAT-WEARING™ Maggot Gamer Cat","steam_id":76561197973992705,"connected_time":4017000000000,"state":"active","ping":68}]},{"server_id":112,"name":"Uncletopia | Los Angeles | 2 | All Maps","name_short":"lax-2","host":"lax-1.us.uncletopia.com","port":27025,"enabled":true,"region":"us-west","cc":"us","latitude":33.94279,"longitude":-118.41004,"reserved":0,"last_update":"0001-01-01T00:00:00Z","name_a2s":"Uncletopia | Los Angeles | 2 | All Maps","protocol":17,"map":"cp_dustbowl","folder":"tf","game":"Team Fortress","app_id":440,"player_count":16,"max_players":24,"Bots":0,"server_type":"Dedicated","server_os":"Linux","password":true,"vac":true,"version":"7932396","steam_id":85568392924469992,"keywords":["cp","nocrits","nodmgspread","uncletopia"],"game_id":440,"stv_port":27026,"stv_name":"Uncletopia | Los Angeles | 2 | All Maps | STV","players":[{"user_id":6,"name":"mrzachab0i","steam_id":76561199444911765,"connected_time":1320000000000,"state":"active","ping":193},{"user_id":22,"name":"CLAYDUCK","steam_id":76561197995221829,"connected_time":58000000000,"state":"spawning","ping":309},{"user_id":8,"name":"hoOmIN","steam_id":76561198334947079,"connected_time":1077000000000,"state":"spawning","ping":41},{"user_id":9,"name":"johnman gooberguy","steam_id":76561199014859764,"connected_time":986000000000,"state":"spawning","ping":182},{"user_id":10,"name":"Person","steam_id":76561198073885832,"connected_time":933000000000,"state":"spawning","ping":221},{"user_id":11,"name":"Whoops!","steam_id":76561198151315898,"connected_time":914000000000,"state":"spawning","ping":84},{"user_id":12,"name":"the peepee man (real)","steam_id":76561199488432671,"connected_time":846000000000,"state":"spawning","ping":63},{"user_id":13,"name":"Alex Andolini","steam_id":76561198043957923,"connected_time":592000000000,"state":"spawning","ping":89},{"user_id":14,"name":"Forevermor","steam_id":76561198015326488,"connected_time":589000000000,"state":"spawning","ping":184},{"user_id":15,"name":"garbo","steam_id":76561198149280150,"connected_time":518000000000,"state":"spawning","ping":48},{"user_id":23,"name":"|-HyperCube-|","steam_id":76561198167133597,"connected_time":52000000000,"state":"spawning","ping":109},{"user_id":17,"name":"Nedia","steam_id":76561199483271655,"connected_time":451000000000,"state":"spawning","ping":80},{"user_id":18,"name":"Unknowname","steam_id":76561198132253342,"connected_time":344000000000,"state":"spawning","ping":45},{"user_id":19,"name":"Nuts","steam_id":76561199258535559,"connected_time":306000000000,"state":"spawning","ping":62},{"user_id":21,"name":"souuuljah","steam_id":76561198427653112,"connected_time":209000000000,"state":"spawning","ping":33},{"user_id":24,"name":"Drozz Misses Shots","steam_id":76561198072555204,"connected_time":35000000000,"state":"spawning","ping":85}]},{"server_id":324,"name":"Uncletopia | Los Angeles | 3 | All Maps","name_short":"lax-3","host":"lax-1.us.uncletopia.com","port":27035,"enabled":true,"region":"us-west","cc":"us","latitude":33.94279,"longitude":-118.41004,"reserved":0,"last_update":"0001-01-01T00:00:00Z","name_a2s":"Uncletopia | Los Angeles | 3 | All Maps","protocol":17,"map":"cp_altitude","folder":"tf","game":"Team Fortress","app_id":440,"player_count":0,"max_players":24,"Bots":0,"server_type":"Dedicated","server_os":"Linux","password":true,"vac":true,"version":"7932396","steam_id":85568392924510198,"keywords":["cp","nocrits","nodmgspread","uncletopia"],"game_id":440,"stv_port":27036,"stv_name":"Uncletopia | Los Angeles | 3 | All Maps | STV","players":null},{"server_id":25,"name":"Uncletopia | Los Angeles | 4 | Stopwatch Beta","name_short":"lax-4","host":"lax-1.us.uncletopia.com","port":27045,"enabled":true,"region":"us-west","cc":"us","latitude":33.94279,"longitude":-118.41004,"reserved":0,"last_update":"0001-01-01T00:00:00Z","name_a2s":"Uncletopia | Los Angeles | 4 | Stopwatch Beta","protocol":17,"map":"pl_swiftwater_final1","folder":"tf","game":"Team Fortress","app_id":440,"player_count":0,"max_players":24,"Bots":0,"server_type":"Dedicated","server_os":"Linux","password":true,"vac":true,"version":"7932396","steam_id":85568392924510199,"keywords":["nocrits","nodmgspread","payload","uncletopia"],"game_id":440,"stv_port":27046,"stv_name":"Uncletopia | Los Angeles | 4 | Stopwatch Beta | STV","players":null},{"server_id":11,"name":"Uncletopia | London | 1 | All Maps","name_short":"lon-1","host":"lon-1.uk.uncletopia.com","port":27015,"enabled":true,"region":"eu","cc":"gb","latitude":51.509865,"longitude":-0.118092,"reserved":0,"last_update":"0001-01-01T00:00:00Z","name_a2s":"Uncletopia | London | 1 | All Maps","protocol":17,"map":"pl_pier","folder":"tf","game":"Team Fortress","app_id":440,"player_count":24,"max_players":24,"Bots":0,"server_type":"Dedicated","server_os":"Linux","password":true,"vac":true,"version":"7932396","steam_id":85568392924367362,"keywords":["nocrits","nodmgspread","payload","uncletopia"],"game_id":440,"stv_port":27016,"stv_name":"Uncletopia | London | 1 | All Maps | STV","players":[{"user_id":680,"name":"Sarahtonin","steam_id":76561197992144115,"connected_time":62000000000,"state":"active","ping":62},{"user_id":651,"name":"Fwebbie","steam_id":76561199006875621,"connected_time":976000000000,"state":"active","ping":50},{"user_id":653,"name":"Remi","steam_id":76561198860304357,"connected_time":937000000000,"state":"active","ping":117},{"user_id":672,"name":"fregaropa","steam_id":76561198150806166,"connected_time":525000000000,"state":"active","ping":73},{"user_id":650,"name":"yuno appreciator","steam_id":76561198083286511,"connected_time":1060000000000,"state":"active","ping":105},{"user_id":645,"name":"Quniy, Son Of Quniy","steam_id":76561198872259430,"connected_time":1459000000000,"state":"active","ping":153},{"user_id":648,"name":"Secretti","steam_id":76561198151480179,"connected_time":1222000000000,"state":"active","ping":104},{"user_id":654,"name":"Dr. Cox","steam_id":76561198246629218,"connected_time":852000000000,"state":"active","ping":92},{"user_id":657,"name":"Mahitmal","steam_id":76561198254664484,"connected_time":807000000000,"state":"active","ping":55},{"user_id":658,"name":"Mirage","steam_id":76561199013190566,"connected_time":773000000000,"state":"active","ping":53},{"user_id":663,"name":"Ash crow","steam_id":76561198368339225,"connected_time":606000000000,"state":"active","ping":123},{"user_id":660,"name":"yumyumfan69","steam_id":76561198118695769,"connected_time":710000000000,"state":"active","ping":40},{"user_id":661,"name":"gneeda","steam_id":76561198147249160,"connected_time":664000000000,"state":"active","ping":112},{"user_id":682,"name":"Vital","steam_id":76561198062052388,"connected_time":13000000000,"state":"spawning","ping":73},{"user_id":664,"name":"Endi","steam_id":76561198914938199,"connected_time":584000000000,"state":"active","ping":105},{"user_id":666,"name":"Harribo","steam_id":76561197993650688,"connected_time":568000000000,"state":"active","ping":43},{"user_id":667,"name":"njits23","steam_id":76561198031194977,"connected_time":568000000000,"state":"active","ping":66},{"user_id":668,"name":"Bouns","steam_id":76561198290109148,"connected_time":549000000000,"state":"active","ping":71},{"user_id":670,"name":"the goon from 6th street","steam_id":76561198124304520,"connected_time":534000000000,"state":"active","ping":37},{"user_id":677,"name":"Oriuke","steam_id":76561197992166123,"connected_time":470000000000,"state":"active","ping":58},{"user_id":679,"name":"ax","steam_id":76561199201206556,"connected_time":195000000000,"state":"active","ping":82},{"user_id":674,"name":"Popop","steam_id":76561198004793795,"connected_time":498000000000,"state":"active","ping":50},{"user_id":675,"name":"veto vuyisio","steam_id":76561199101145470,"connected_time":498000000000,"state":"active","ping":70},{"user_id":676,"name":"Puss in Boots","steam_id":76561198211599767,"connected_time":496000000000,"state":"active","ping":49}]},{"server_id":114,"name":"Uncletopia | London | 2 | All Maps","name_short":"lon-2","host":"lon-1.uk.uncletopia.com","port":27025,"enabled":true,"region":"eu","cc":"gb","latitude":51.509865,"longitude":-0.118092,"reserved":0,"last_update":"0001-01-01T00:00:00Z","name_a2s":"Uncletopia | London | 2 | All Maps","protocol":17,"map":"cp_snakewater_final1","folder":"tf","game":"Team Fortress","app_id":440,"player_count":24,"max_players":24,"Bots":0,"server_type":"Dedicated","server_os":"Linux","password":true,"vac":true,"version":"7932396","steam_id":85568392924470941,"keywords":["cp","nocrits","nodmgspread","uncletopia"],"game_id":440,"stv_port":27026,"stv_name":"Uncletopia | London | 2 | All Maps | STV","players":[{"user_id":474,"name":"brain bleed","steam_id":76561198215788997,"connected_time":2508000000000,"state":"active","ping":62},{"user_id":425,"name":"Zerfesh","steam_id":76561198117534358,"connected_time":5655000000000,"state":"active","ping":107},{"user_id":512,"name":"Teathling.ttv","steam_id":76561198061580505,"connected_time":421000000000,"state":"active","ping":58},{"user_id":498,"name":"Plep","steam_id":76561198840259819,"connected_time":742000000000,"state":"active","ping":59},{"user_id":472,"name":"SONIC THE GOD","steam_id":76561199185147093,"connected_time":2642000000000,"state":"active","ping":92},{"user_id":513,"name":"E3 2000 bc","steam_id":76561198311044984,"connected_time":326000000000,"state":"active","ping":63},{"user_id":449,"name":"Penis Contortionist","steam_id":76561198073663784,"connected_time":3782000000000,"state":"active","ping":38},{"user_id":515,"name":"peppermint","steam_id":76561198163615254,"connected_time":276000000000,"state":"active","ping":60},{"user_id":493,"name":"Pierdu","steam_id":76561198028705770,"connected_time":784000000000,"state":"active","ping":45},{"user_id":506,"name":"cyanic","steam_id":76561198047828651,"connected_time":516000000000,"state":"active","ping":47},{"user_id":444,"name":"ldshwt","steam_id":76561198090364357,"connected_time":3945000000000,"state":"active","ping":60},{"user_id":504,"name":"Krat","steam_id":76561198171765813,"connected_time":558000000000,"state":"active","ping":80},{"user_id":440,"name":"sv_MrGibbs","steam_id":76561198114071972,"connected_time":4338000000000,"state":"active","ping":60},{"user_id":517,"name":"finbar","steam_id":76561198056812396,"connected_time":157000000000,"state":"active","ping":78},{"user_id":516,"name":"Salad's Warband","steam_id":76561198214089583,"connected_time":246000000000,"state":"active","ping":73},{"user_id":508,"name":"ArtaKir","steam_id":76561198291746440,"connected_time":479000000000,"state":"active","ping":87},{"user_id":490,"name":"LegoBoy","steam_id":76561197983095579,"connected_time":1334000000000,"state":"active","ping":86},{"user_id":360,"name":"john fortress","steam_id":76561198013237629,"connected_time":10202000000000,"state":"active","ping":94},{"user_id":408,"name":"Kabachok Aeronavt","steam_id":76561198123659806,"connected_time":7252000000000,"state":"active","ping":92},{"user_id":520,"name":"Peppino Spaghetti","steam_id":76561198334067811,"connected_time":2000000000,"state":"spawning","ping":73},{"user_id":255,"name":"JUST","steam_id":76561198069064885,"connected_time":18066000000000,"state":"active","ping":60},{"user_id":488,"name":"Tort","steam_id":76561198329646769,"connected_time":1413000000000,"state":"active","ping":63},{"user_id":510,"name":"BaCyka","steam_id":76561198029333533,"connected_time":452000000000,"state":"active","ping":52},{"user_id":511,"name":"Dmskootje","steam_id":76561198127600559,"connected_time":449000000000,"state":"active","ping":57}]},{"server_id":320,"name":"Uncletopia | London | 3 | All Maps","name_short":"lon-3","host":"lon-1.uk.uncletopia.com","port":27035,"enabled":true,"region":"eu","cc":"gb","latitude":51.509865,"longitude":-0.118092,"reserved":0,"last_update":"0001-01-01T00:00:00Z","name_a2s":"Uncletopia | London | 3 | All Maps","protocol":17,"map":"cp_process_final","folder":"tf","game":"Team Fortress","app_id":440,"player_count":24,"max_players":24,"Bots":0,"server_type":"Dedicated","server_os":"Linux","password":true,"vac":true,"version":"7932396","steam_id":85568392924510192,"keywords":["cp","nocrits","nodmgspread","uncletopia"],"game_id":440,"stv_port":27036,"stv_name":"Uncletopia | London | 3 | All Maps | STV","players":[{"user_id":427,"name":"Axord","steam_id":76561199289652176,"connected_time":181000000000,"state":"active","ping":65},{"user_id":392,"name":"kamu","steam_id":76561198367337443,"connected_time":1122000000000,"state":"active","ping":101},{"user_id":390,"name":"ROX","steam_id":76561198272289320,"connected_time":1208000000000,"state":"active","ping":59},{"user_id":397,"name":"Meryn","steam_id":76561197994118811,"connected_time":1044000000000,"state":"active","ping":68},{"user_id":319,"name":"dotdotdot","steam_id":76561198057628751,"connected_time":5403000000000,"state":"active","ping":67},{"user_id":386,"name":"fénix","steam_id":76561198083199151,"connected_time":1664000000000,"state":"active","ping":55},{"user_id":387,"name":"Koli","steam_id":76561197992428783,"connected_time":1409000000000,"state":"active","ping":60},{"user_id":429,"name":"nymph","steam_id":76561199249569889,"connected_time":104000000000,"state":"active","ping":59},{"user_id":425,"name":"глеб v3.1","steam_id":76561198291044793,"connected_time":332000000000,"state":"active","ping":95},{"user_id":378,"name":"Executor","steam_id":76561198195703822,"connected_time":2082000000000,"state":"active","ping":34},{"user_id":366,"name":"Everness","steam_id":76561197994803883,"connected_time":3208000000000,"state":"active","ping":83},{"user_id":384,"name":"KLAMA  ❤","steam_id":76561198351549661,"connected_time":1905000000000,"state":"active","ping":74},{"user_id":405,"name":"Gustavo_Fring_6969","steam_id":76561199373610279,"connected_time":556000000000,"state":"active","ping":94},{"user_id":379,"name":"MovingIsOverRated","steam_id":76561198385633292,"connected_time":2047000000000,"state":"active","ping":88},{"user_id":383,"name":"snowycaost","steam_id":76561198346638308,"connected_time":1916000000000,"state":"active","ping":50},{"user_id":394,"name":"mallmann","steam_id":76561199213157869,"connected_time":1104000000000,"state":"active","ping":87},{"user_id":430,"name":"Dozer","steam_id":76561197998742338,"connected_time":68000000000,"state":"active","ping":46},{"user_id":401,"name":"Jon","steam_id":76561197983349449,"connected_time":770000000000,"state":"active","ping":58},{"user_id":402,"name":"MIG","steam_id":76561198099245500,"connected_time":697000000000,"state":"active","ping":59},{"user_id":409,"name":"Rinmaru","steam_id":76561198256820097,"connected_time":490000000000,"state":"active","ping":103},{"user_id":398,"name":"Kinkster","steam_id":76561198021653328,"connected_time":1025000000000,"state":"active","ping":55},{"user_id":341,"name":"Kiha","steam_id":76561198031408608,"connected_time":4374000000000,"state":"active","ping":69},{"user_id":381,"name":"FarlenMatt","steam_id":76561198815849089,"connected_time":2009000000000,"state":"active","ping":85},{"user_id":400,"name":"Udinese Dion","steam_id":76561198067931573,"connected_time":985000000000,"state":"active","ping":64}]},{"server_id":321,"name":"Uncletopia | London | 4 | All Maps","name_short":"lon-4","host":"lon-1.uk.uncletopia.com","port":27045,"enabled":true,"region":"eu","cc":"gb","latitude":51.509865,"longitude":-0.118092,"reserved":0,"last_update":"0001-01-01T00:00:00Z","name_a2s":"Uncletopia | London | 4 | All Maps","protocol":17,"map":"pl_pier","folder":"tf","game":"Team Fortress","app_id":440,"player_count":24,"max_players":24,"Bots":0,"server_type":"Dedicated","server_os":"Linux","password":true,"vac":true,"version":"7932396","steam_id":85568392924510193,"keywords":["nocrits","nodmgspread","payload","uncletopia"],"game_id":440,"stv_port":27046,"stv_name":"Uncletopia | London | 4 | All Maps | STV","players":[{"user_id":133,"name":"❤G a n K","steam_id":76561199125995565,"connected_time":1765000000000,"state":"active","ping":63},{"user_id":121,"name":"Molly","steam_id":76561198327905969,"connected_time":2708000000000,"state":"active","ping":43},{"user_id":136,"name":"dunduu","steam_id":76561198875240717,"connected_time":1617000000000,"state":"active","ping":75},{"user_id":141,"name":"Ender az Endre Dragon","steam_id":76561198202235560,"connected_time":390000000000,"state":"active","ping":95},{"user_id":129,"name":"有毒的小丑 WildySpellKnigh","steam_id":76561198289217018,"connected_time":2375000000000,"state":"active","ping":107},{"user_id":123,"name":"SnEEp","steam_id":76561198296706207,"connected_time":2647000000000,"state":"active","ping":89},{"user_id":137,"name":"cazador","steam_id":76561198123096922,"connected_time":1508000000000,"state":"active","ping":106},{"user_id":124,"name":"Nag","steam_id":76561197970488206,"connected_time":2632000000000,"state":"active","ping":72},{"user_id":149,"name":"Thors","steam_id":76561197968739075,"connected_time":192000000000,"state":"active","ping":44},{"user_id":115,"name":"flr","steam_id":76561198249327786,"connected_time":3311000000000,"state":"active","ping":66},{"user_id":119,"name":"Rex Z'Beq","steam_id":76561199300590000,"connected_time":2783000000000,"state":"active","ping":84},{"user_id":84,"name":"Mr.kva","steam_id":76561199046540810,"connected_time":5149000000000,"state":"active","ping":69},{"user_id":143,"name":"mer5277","steam_id":76561198192171041,"connected_time":369000000000,"state":"active","ping":178},{"user_id":148,"name":"Lampinen","steam_id":76561198004936228,"connected_time":230000000000,"state":"active","ping":93},{"user_id":35,"name":"Bottle O' Scrumpy","steam_id":76561199244250562,"connected_time":8120000000000,"state":"active","ping":99},{"user_id":135,"name":"Dr.N3C","steam_id":76561198141325161,"connected_time":1731000000000,"state":"active","ping":66},{"user_id":142,"name":"jaime8D","steam_id":76561197980590671,"connected_time":380000000000,"state":"active","ping":90},{"user_id":126,"name":"Kazuki","steam_id":76561198304256700,"connected_time":2609000000000,"state":"active","ping":98},{"user_id":120,"name":"💝Midnight💝","steam_id":76561198112806540,"connected_time":2717000000000,"state":"active","ping":129},{"user_id":150,"name":"Wraith9028","steam_id":76561198214848887,"connected_time":52000000000,"state":"active","ping":72},{"user_id":127,"name":"EHAS1K","steam_id":76561198152192259,"connected_time":2608000000000,"state":"active","ping":97},{"user_id":105,"name":"TheBeardedM1G","steam_id":76561198040208946,"connected_time":4323000000000,"state":"active","ping":45},{"user_id":146,"name":"FishNachoz","steam_id":76561198026519426,"connected_time":358000000000,"state":"active","ping":54},{"user_id":147,"name":"panakid","steam_id":76561198364121077,"connected_time":358000000000,"state":"active","ping":100}]},{"server_id":21,"name":"Uncletopia | London | 5 | All Maps","name_short":"lon-5","host":"lon-1.uk.uncletopia.com","port":27055,"enabled":true,"region":"eu","cc":"gb","latitude":51.509865,"longitude":-0.118092,"reserved":0,"last_update":"0001-01-01T00:00:00Z","name_a2s":"Uncletopia | London | 5 | All Maps","protocol":17,"map":"cp_steel","folder":"tf","game":"Team Fortress","app_id":440,"player_count":24,"max_players":24,"Bots":0,"server_type":"Dedicated","server_os":"Linux","password":true,"vac":true,"version":"7932396","steam_id":85568392924742829,"keywords":["cp","nocrits","nodmgspread","uncletopia"],"game_id":440,"stv_port":27056,"stv_name":"Uncletopia | London | 5 | All Maps | STV","players":[{"user_id":455,"name":"TheButterPickle","steam_id":76561198354317787,"connected_time":2062000000000,"state":"active","ping":55},{"user_id":449,"name":"Dasimo","steam_id":76561198089221888,"connected_time":2219000000000,"state":"active","ping":60},{"user_id":394,"name":"Ryter","steam_id":76561198396279597,"connected_time":5996000000000,"state":"active","ping":91},{"user_id":424,"name":"LuckLuster","steam_id":76561198092986647,"connected_time":4039000000000,"state":"active","ping":109},{"user_id":489,"name":"don cheadle (real)","steam_id":76561199154934428,"connected_time":466000000000,"state":"active","ping":59},{"user_id":472,"name":"Riky95","steam_id":76561198095289436,"connected_time":1190000000000,"state":"active","ping":58},{"user_id":468,"name":"Klunkerino","steam_id":76561197971081655,"connected_time":1576000000000,"state":"active","ping":81},{"user_id":409,"name":"tigersonalex","steam_id":76561198197991235,"connected_time":5325000000000,"state":"active","ping":71},{"user_id":490,"name":"Anri Okita's Massive Milkers","steam_id":76561199186352720,"connected_time":324000000000,"state":"active","ping":59},{"user_id":473,"name":"TSx* Naxer","steam_id":76561198011986779,"connected_time":1190000000000,"state":"active","ping":75},{"user_id":453,"name":"Malekith","steam_id":76561198216412200,"connected_time":2091000000000,"state":"active","ping":54},{"user_id":348,"name":"magnos62564","steam_id":76561198356968225,"connected_time":9314000000000,"state":"active","ping":76},{"user_id":474,"name":"Shark","steam_id":76561198205226501,"connected_time":1177000000000,"state":"active","ping":171},{"user_id":471,"name":"DoctorTopLeL","steam_id":76561198088533595,"connected_time":1237000000000,"state":"active","ping":129},{"user_id":475,"name":"Bucket","steam_id":76561199165494885,"connected_time":1175000000000,"state":"active","ping":127},{"user_id":476,"name":"TSx* Osa__PL","steam_id":76561198027016799,"connected_time":1169000000000,"state":"active","ping":76},{"user_id":477,"name":"Falkor","steam_id":76561198219482371,"connected_time":1119000000000,"state":"active","ping":49},{"user_id":478,"name":"Fu Manchu","steam_id":76561197995224539,"connected_time":1103000000000,"state":"active","ping":64},{"user_id":454,"name":"oxidius","steam_id":76561198261730746,"connected_time":2084000000000,"state":"active","ping":56},{"user_id":462,"name":"joachym","steam_id":76561198428579761,"connected_time":1796000000000,"state":"active","ping":69},{"user_id":479,"name":"Creative","steam_id":76561198835034247,"connected_time":1077000000000,"state":"active","ping":85},{"user_id":488,"name":"Sharkteethgamer","steam_id":76561198811122376,"connected_time":508000000000,"state":"active","ping":75},{"user_id":483,"name":"toino_PT","steam_id":76561199008999046,"connected_time":924000000000,"state":"active","ping":84},{"user_id":481,"name":"TSx* {Demon-Angel}","steam_id":76561198151486463,"connected_time":1049000000000,"state":"active","ping":87}]},{"server_id":22,"name":"Uncletopia | London | 6 | All Maps","name_short":"lon-6","host":"lon-1.uk.uncletopia.com","port":27065,"enabled":true,"region":"eu","cc":"gb","latitude":51.509865,"longitude":-0.118092,"reserved":0,"last_update":"0001-01-01T00:00:00Z","name_a2s":"Uncletopia | London | 6 | All Maps","protocol":17,"map":"koth_viaduct","folder":"tf","game":"Team Fortress","app_id":440,"player_count":23,"max_players":24,"Bots":0,"server_type":"Dedicated","server_os":"Linux","password":true,"vac":true,"version":"7932396","steam_id":85568392924742830,"keywords":["cp","nocrits","nodmgspread","uncletopia"],"game_id":440,"stv_port":27066,"stv_name":"Uncletopia | London | 6 | All Maps | STV","players":[{"user_id":296,"name":"Tywhip","steam_id":76561199207545191,"connected_time":110000000000,"state":"active","ping":54},{"user_id":240,"name":"AFairFew","steam_id":76561198194484645,"connected_time":3626000000000,"state":"active","ping":54},{"user_id":279,"name":"Noob_with_source","steam_id":76561198870362103,"connected_time":869000000000,"state":"active","ping":58},{"user_id":298,"name":"Bird On Your Window","steam_id":76561198081933130,"connected_time":0,"state":"spawning","ping":0},{"user_id":257,"name":"Mrblimbo","steam_id":76561198160628200,"connected_time":1807000000000,"state":"active","ping":51},{"user_id":244,"name":"Doods","steam_id":76561199172809660,"connected_time":3011000000000,"state":"active","ping":103},{"user_id":286,"name":"Mr. Enjoy da money","steam_id":76561198152681460,"connected_time":544000000000,"state":"active","ping":77},{"user_id":292,"name":"vadr","steam_id":76561198334528186,"connected_time":337000000000,"state":"active","ping":47},{"user_id":293,"name":"Undefined Behaviour","steam_id":76561198069518492,"connected_time":316000000000,"state":"active","ping":88},{"user_id":288,"name":"Nornia","steam_id":76561198040509712,"connected_time":430000000000,"state":"active","ping":60},{"user_id":281,"name":"Kahvi","steam_id":76561198723244199,"connected_time":786000000000,"state":"active","ping":75},{"user_id":255,"name":"Minimi","steam_id":76561198873850443,"connected_time":1995000000000,"state":"active","ping":39},{"user_id":256,"name":"Pinkchup","steam_id":76561198106802803,"connected_time":1940000000000,"state":"active","ping":75},{"user_id":297,"name":"wtabs","steam_id":76561198831766743,"connected_time":88000000000,"state":"active","ping":76},{"user_id":264,"name":"png.png","steam_id":76561198444446521,"connected_time":1318000000000,"state":"active","ping":107},{"user_id":260,"name":"padillacampos","steam_id":76561198161923970,"connected_time":1614000000000,"state":"active","ping":80},{"user_id":273,"name":"name me pls","steam_id":76561199273576072,"connected_time":1099000000000,"state":"active","ping":55},{"user_id":271,"name":"Arkku","steam_id":76561198255441801,"connected_time":1156000000000,"state":"active","ping":97},{"user_id":278,"name":"RicardoChL","steam_id":76561198452299994,"connected_time":879000000000,"state":"active","ping":75},{"user_id":275,"name":"Kylute","steam_id":76561198447504417,"connected_time":970000000000,"state":"active","ping":39},{"user_id":269,"name":"BELADIT","steam_id":76561198011911501,"connected_time":1247000000000,"state":"active","ping":78},{"user_id":289,"name":"Toni Pepperoni","steam_id":76561198814211030,"connected_time":421000000000,"state":"active","ping":125},{"user_id":294,"name":"puur","steam_id":76561198082994683,"connected_time":315000000000,"state":"active","ping":49}]},{"server_id":40,"name":"Uncletopia | London | 7 | No Payload","name_short":"lon-7","host":"lon-1.uk.uncletopia.com","port":27075,"enabled":true,"region":"eu","cc":"gb","latitude":51.509865,"longitude":-0.118092,"reserved":0,"last_update":"0001-01-01T00:00:00Z","name_a2s":"Uncletopia | London | 7 | No Payload","protocol":17,"map":"koth_harvest_final","folder":"tf","game":"Team Fortress","app_id":440,"player_count":0,"max_players":24,"Bots":0,"server_type":"Dedicated","server_os":"Linux","password":true,"vac":true,"version":"7932396","steam_id":85568392924964314,"keywords":["cp","nocrits","nodmgspread","uncletopia"],"game_id":440,"stv_port":27076,"stv_name":"Uncletopia | London | 7 | No Payload | STV","players":null},{"server_id":41,"name":"Uncletopia | London | 8 | Community","name_short":"lon-8","host":"lon-1.uk.uncletopia.com","port":27085,"enabled":true,"region":"eu","cc":"gb","latitude":51.509865,"longitude":-0.118092,"reserved":0,"last_update":"0001-01-01T00:00:00Z","name_a2s":"Uncletopia | London | 8 | Community","protocol":17,"map":"workshop/koth_slaughter_rc1.ugc1712845210","folder":"tf","game":"Team Fortress","app_id":440,"player_count":0,"max_players":24,"Bots":0,"server_type":"Dedicated","server_os":"Linux","password":true,"vac":true,"version":"7932396","steam_id":85568392924964315,"keywords":["cp","nocrits","nodmgspread","uncletopia"],"game_id":440,"stv_port":27086,"stv_name":"Uncletopia | London | 8 | Community | STV","players":null},{"server_id":300,"name":"Uncletopia | Montréal | 1 | All Maps","name_short":"mtl-1","host":"mtl-1.ca.uncletopia.com","port":27015,"enabled":true,"region":"us-east","cc":"ca","latitude":45.50889,"longitude":-73.56167,"reserved":0,"last_update":"0001-01-01T00:00:00Z","name_a2s":"Uncletopia | Montréal | 1 | All Maps","protocol":17,"map":"koth_cascade","folder":"tf","game":"Team Fortress","app_id":440,"player_count":0,"max_players":24,"Bots":0,"server_type":"Dedicated","server_os":"Linux","password":true,"vac":true,"version":"7932396","steam_id":85568392924500087,"keywords":["cp","nocrits","nodmgspread","uncletopia"],"game_id":440,"stv_port":27016,"stv_name":"Uncletopia | Montréal | 1 | All Maps | STV","players":null},{"server_id":301,"name":"Uncletopia | Montréal | 2 | All Maps","name_short":"mtl-2","host":"mtl-1.ca.uncletopia.com","port":27025,"enabled":true,"region":"us-east","cc":"ca","latitude":45.50889,"longitude":-73.56167,"reserved":0,"last_update":"0001-01-01T00:00:00Z","name_a2s":"Uncletopia | Montréal | 2 | All Maps","protocol":17,"map":"koth_lakeside_final","folder":"tf","game":"Team Fortress","app_id":440,"player_count":0,"max_players":24,"Bots":0,"server_type":"Dedicated","server_os":"Linux","password":true,"vac":true,"version":"7932396","steam_id":85568392924500088,"keywords":["cp","nocrits","nodmgspread","uncletopia"],"game_id":440,"stv_port":27026,"stv_name":"Uncletopia | Montréal | 2 | All Maps | STV","players":null},{"server_id":302,"name":"Uncletopia | Montréal | 3 | All Maps","name_short":"mtl-3","host":"mtl-1.ca.uncletopia.com","port":27035,"enabled":true,"region":"us-east","cc":"ca","latitude":45.50889,"longitude":-73.56167,"reserved":0,"last_update":"0001-01-01T00:00:00Z","name_a2s":"Uncletopia | Montréal | 3 | All Maps","protocol":17,"map":"cp_process_final","folder":"tf","game":"Team Fortress","app_id":440,"player_count":0,"max_players":24,"Bots":0,"server_type":"Dedicated","server_os":"Linux","password":true,"vac":true,"version":"7932396","steam_id":85568392924500089,"keywords":["cp","nocrits","nodmgspread","uncletopia"],"game_id":440,"stv_port":27036,"stv_name":"Uncletopia | Montréal | 3 | All Maps | STV","players":null},{"server_id":303,"name":"Uncletopia | Montréal | 4 | No Payload","name_short":"mtl-4","host":"mtl-1.ca.uncletopia.com","port":27045,"enabled":true,"region":"us-east","cc":"ca","latitude":45.50889,"longitude":-73.56167,"reserved":0,"last_update":"0001-01-01T00:00:00Z","name_a2s":"Uncletopia | Montréal | 4 | No Payload","protocol":17,"map":"cp_snakewater_final1","folder":"tf","game":"Team Fortress","app_id":440,"player_count":0,"max_players":24,"Bots":0,"server_type":"Dedicated","server_os":"Linux","password":true,"vac":true,"version":"7932396","steam_id":85568392924500090,"keywords":["cp","nocrits","nodmgspread","uncletopia"],"game_id":440,"stv_port":27046,"stv_name":"Uncletopia | Montréal | 4 | No Payload | STV","players":null},{"server_id":13,"name":"Uncletopia | New York City | 1 | All Maps","name_short":"nyc-1","host":"nyc-1.us.uncletopia.com","port":27015,"enabled":true,"region":"us-east","cc":"us","latitude":40.73061,"longitude":-73.93524,"reserved":0,"last_update":"0001-01-01T00:00:00Z","name_a2s":"Uncletopia | New York City | 1 | All Maps","protocol":17,"map":"cp_egypt_final","folder":"tf","game":"Team Fortress","app_id":440,"player_count":23,"max_players":24,"Bots":0,"server_type":"Dedicated","server_os":"Linux","password":true,"vac":true,"version":"7932396","steam_id":85568392924469993,"keywords":["cp","nocrits","nodmgspread","uncletopia"],"game_id":440,"stv_port":27016,"stv_name":"Uncletopia | New York City | 1 | All Maps | STV","players":[{"user_id":152,"name":"Skiddy","steam_id":76561198125942665,"connected_time":1591000000000,"state":"active","ping":62},{"user_id":173,"name":"Gerald Jay Sussman","steam_id":76561198114515026,"connected_time":195000000000,"state":"active","ping":44},{"user_id":147,"name":"Voodo133","steam_id":76561198042670351,"connected_time":1641000000000,"state":"active","ping":77},{"user_id":148,"name":"yellowcat","steam_id":76561198346054736,"connected_time":1631000000000,"state":"active","ping":60},{"user_id":169,"name":"北 (Hoku)","steam_id":76561198156541138,"connected_time":409000000000,"state":"active","ping":39},{"user_id":162,"name":"Denzel McFlurry","steam_id":76561199231296521,"connected_time":1158000000000,"state":"active","ping":56},{"user_id":161,"name":"A Puppy","steam_id":76561198828184456,"connected_time":1200000000000,"state":"active","ping":52},{"user_id":170,"name":"Fraglin","steam_id":76561198124964000,"connected_time":377000000000,"state":"active","ping":74},{"user_id":142,"name":"SirCleric","steam_id":76561198353556457,"connected_time":1796000000000,"state":"active","ping":62},{"user_id":154,"name":"coolfalcon168","steam_id":76561198948665710,"connected_time":1544000000000,"state":"active","ping":65},{"user_id":158,"name":"Bheem","steam_id":76561198170453459,"connected_time":1483000000000,"state":"active","ping":112},{"user_id":171,"name":"Braamklauw","steam_id":76561198283287697,"connected_time":367000000000,"state":"active","ping":142},{"user_id":172,"name":"Sir Quacksalot","steam_id":76561198048942777,"connected_time":359000000000,"state":"active","ping":88},{"user_id":174,"name":"The Dragon of Upper Vermont","steam_id":76561199215695536,"connected_time":173000000000,"state":"active","ping":72},{"user_id":166,"name":"Eraserhead Baby","steam_id":76561198010968514,"connected_time":616000000000,"state":"active","ping":116},{"user_id":175,"name":"Macro","steam_id":76561199442846226,"connected_time":162000000000,"state":"active","ping":74},{"user_id":176,"name":"AwakenedLaser","steam_id":76561198881657823,"connected_time":140000000000,"state":"active","ping":143},{"user_id":178,"name":"Punished Kong","steam_id":76561198973620882,"connected_time":117000000000,"state":"active","ping":74},{"user_id":179,"name":"crashymicsplody","steam_id":76561198213916765,"connected_time":117000000000,"state":"active","ping":90},{"user_id":180,"name":"ThatGamingKiwi","steam_id":76561199170522237,"connected_time":83000000000,"state":"active","ping":80},{"user_id":165,"name":"Capn' Crunk","steam_id":76561198848399887,"connected_time":639000000000,"state":"active","ping":45},{"user_id":125,"name":"DamndDan","steam_id":76561198816539330,"connected_time":2776000000000,"state":"active","ping":41},{"user_id":145,"name":"MurdumVlad","steam_id":76561198280832120,"connected_time":1727000000000,"state":"active","ping":162}]},{"server_id":14,"name":"Uncletopia | New York City | 2 | All Maps","name_short":"nyc-2","host":"nyc-1.us.uncletopia.com","port":27025,"enabled":true,"region":"us-east","cc":"us","latitude":40.73061,"longitude":-73.93524,"reserved":0,"last_update":"0001-01-01T00:00:00Z","name_a2s":"Uncletopia | New York City | 2 | All Maps","protocol":17,"map":"koth_highpass","folder":"tf","game":"Team Fortress","app_id":440,"player_count":22,"max_players":24,"Bots":0,"server_type":"Dedicated","server_os":"Linux","password":true,"vac":true,"version":"7932396","steam_id":85568392924469994,"keywords":["cp","nocrits","nodmgspread","uncletopia"],"game_id":440,"stv_port":27026,"stv_name":"Uncletopia | New York City | 2 | All Maps | STV","players":[{"user_id":312,"name":"Guess I'm just popo","steam_id":76561197966419253,"connected_time":673000000000,"state":"active","ping":63},{"user_id":230,"name":"acid","steam_id":76561198055855408,"connected_time":5641000000000,"state":"active","ping":55},{"user_id":313,"name":"Friedriquesporte","steam_id":76561198271955092,"connected_time":586000000000,"state":"active","ping":47},{"user_id":301,"name":"Do you remember?","steam_id":76561197995620232,"connected_time":1672000000000,"state":"active","ping":35},{"user_id":307,"name":"swan","steam_id":76561198012569200,"connected_time":852000000000,"state":"active","ping":59},{"user_id":296,"name":"homer","steam_id":76561198171491110,"connected_time":1815000000000,"state":"active","ping":48},{"user_id":309,"name":"A_Malebolgia","steam_id":76561198097722818,"connected_time":811000000000,"state":"active","ping":78},{"user_id":292,"name":"Scrappy","steam_id":76561198093789113,"connected_time":2037000000000,"state":"active","ping":54},{"user_id":310,"name":"PISSF****T","steam_id":76561199062570438,"connected_time":792000000000,"state":"active","ping":61},{"user_id":315,"name":"Mr. Durian","steam_id":76561198093813212,"connected_time":507000000000,"state":"active","ping":61},{"user_id":275,"name":"Wigl","steam_id":76561198019324464,"connected_time":3264000000000,"state":"active","ping":45},{"user_id":279,"name":"marge","steam_id":76561198064823861,"connected_time":2741000000000,"state":"active","ping":52},{"user_id":254,"name":"RoboWarrior0410a","steam_id":76561199106531261,"connected_time":3729000000000,"state":"active","ping":72},{"user_id":308,"name":"vadim_kotler","steam_id":76561199016634369,"connected_time":846000000000,"state":"active","ping":179},{"user_id":318,"name":"primordialheath","steam_id":76561199386942638,"connected_time":328000000000,"state":"active","ping":70},{"user_id":319,"name":"engiqueer69","steam_id":76561199153261850,"connected_time":314000000000,"state":"active","ping":130},{"user_id":306,"name":"Chicken Nugget","steam_id":76561198082601232,"connected_time":956000000000,"state":"active","ping":60},{"user_id":205,"name":"The World's Softest Sandwich","steam_id":76561198015577707,"connected_time":8337000000000,"state":"active","ping":95},{"user_id":298,"name":"J21","steam_id":76561198066590783,"connected_time":1747000000000,"state":"active","ping":61},{"user_id":206,"name":"Fresh Lychee","steam_id":76561198045399559,"connected_time":8335000000000,"state":"active","ping":66},{"user_id":320,"name":"THE SEX UPDATE","steam_id":76561199091084794,"connected_time":276000000000,"state":"active","ping":187},{"user_id":303,"name":"TravelerFinis","steam_id":76561199181244690,"connected_time":1238000000000,"state":"active","ping":96}]},{"server_id":15,"name":"Uncletopia | New York City | 3 | Stopwatch Beta","name_short":"nyc-3","host":"nyc-1.us.uncletopia.com","port":27035,"enabled":true,"region":"us-east","cc":"us","latitude":40.73061,"longitude":-73.93524,"reserved":0,"last_update":"0001-01-01T00:00:00Z","name_a2s":"Uncletopia | New York City | 3 | Stopwatch Beta","protocol":17,"map":"cp_sunshine","folder":"tf","game":"Team Fortress","app_id":440,"player_count":0,"max_players":24,"Bots":0,"server_type":"Dedicated","server_os":"Linux","password":true,"vac":true,"version":"7932396","steam_id":85568392924742820,"keywords":["cp","nocrits","nodmgspread","uncletopia"],"game_id":440,"stv_port":27036,"stv_name":"Uncletopia | New York City | 3 | Stopwatch Beta | STV","players":null},{"server_id":16,"name":"Uncletopia | New York City | 4 | Community","name_short":"nyc-4","host":"nyc-1.us.uncletopia.com","port":27045,"enabled":true,"region":"us-east","cc":"us","latitude":40.73061,"longitude":-73.93524,"reserved":0,"last_update":"0001-01-01T00:00:00Z","name_a2s":"Uncletopia | New York City | 4 | Community","protocol":17,"map":"workshop/koth_product_final.ugc454272353","folder":"tf","game":"Team Fortress","app_id":440,"player_count":0,"max_players":24,"Bots":0,"server_type":"Dedicated","server_os":"Linux","password":true,"vac":true,"version":"7932396","steam_id":85568392924742821,"keywords":["cp","nocrits","nodmgspread","uncletopia"],"game_id":440,"stv_port":27046,"stv_name":"Uncletopia | New York City | 4 | Community | STV","players":null},{"server_id":142,"name":"Uncletopia | São Paulo | 1 | All Maps","name_short":"sao-1","host":"sao-1.br.uncletopia.com","port":27015,"enabled":true,"region":"sa","cc":"br","latitude":-23.533773,"longitude":-46.62529,"reserved":0,"last_update":"0001-01-01T00:00:00Z","name_a2s":"Uncletopia | São Paulo | 1 | All Maps","protocol":17,"map":"koth_viaduct","folder":"tf","game":"Team Fortress","app_id":440,"player_count":0,"max_players":24,"Bots":0,"server_type":"Dedicated","server_os":"Linux","password":true,"vac":true,"version":"7932396","steam_id":85568392924469996,"keywords":["cp","nocrits","nodmgspread","uncletopia"],"game_id":440,"stv_port":27016,"stv_name":"Uncletopia | São Paulo | 1 | All Maps | STV","players":null},{"server_id":143,"name":"Uncletopia | São Paulo | 2 | All Maps","name_short":"sao-2","host":"sao-2.br.uncletopia.com","port":27015,"enabled":true,"region":"sa","cc":"br","latitude":-23.533773,"longitude":-46.62529,"reserved":0,"last_update":"0001-01-01T00:00:00Z","name_a2s":"Uncletopia | São Paulo | 2 | All Maps","protocol":17,"map":"cp_dustbowl","folder":"tf","game":"Team Fortress","app_id":440,"player_count":0,"max_players":24,"Bots":0,"server_type":"Dedicated","server_os":"Linux","password":true,"vac":true,"version":"7932396","steam_id":85568392924485349,"keywords":["cp","nocrits","nodmgspread","uncletopia"],"game_id":440,"stv_port":27016,"stv_name":"Uncletopia | São Paulo | 2 | All Maps | STV","players":null},{"server_id":7,"name":"Uncletopia | Seattle | 1 | All Maps","name_short":"sea-1","host":"sea-1.us.uncletopia.com","port":27015,"enabled":true,"region":"us-west","cc":"us","latitude":47.608013,"longitude":-122.33517,"reserved":0,"last_update":"0001-01-01T00:00:00Z","name_a2s":"Uncletopia | Seattle | 1 | All Maps","protocol":17,"map":"koth_nucleus","folder":"tf","game":"Team Fortress","app_id":440,"player_count":24,"max_players":24,"Bots":0,"server_type":"Dedicated","server_os":"Linux","password":true,"vac":true,"version":"7932396","steam_id":85568392924469997,"keywords":["cp","nocrits","nodmgspread","uncletopia"],"game_id":440,"stv_port":27016,"stv_name":"Uncletopia | Seattle | 1 | All Maps | STV","players":[{"user_id":209,"name":"oo","steam_id":76561198119626492,"connected_time":1299000000000,"state":"active","ping":105},{"user_id":230,"name":"meo ♥","steam_id":76561197992719272,"connected_time":134000000000,"state":"active","ping":99},{"user_id":206,"name":"Johnson, Navin R.","steam_id":76561197961107982,"connected_time":1555000000000,"state":"active","ping":69},{"user_id":226,"name":"Wandows95","steam_id":76561198029042032,"connected_time":273000000000,"state":"active","ping":70},{"user_id":187,"name":"God's Goofiest Goober","steam_id":76561198418288939,"connected_time":2431000000000,"state":"active","ping":74},{"user_id":8,"name":"CoffeeZombee","steam_id":76561198172708053,"connected_time":18972000000000,"state":"active","ping":140},{"user_id":176,"name":"hemo goblin›","steam_id":76561198048007844,"connected_time":2745000000000,"state":"active","ping":74},{"user_id":213,"name":"YahYeeterson","steam_id":76561198120480906,"connected_time":1216000000000,"state":"active","ping":62},{"user_id":188,"name":"Muffin","steam_id":76561199156302434,"connected_time":2393000000000,"state":"active","ping":117},{"user_id":175,"name":"soup","steam_id":76561198043209046,"connected_time":2759000000000,"state":"active","ping":73},{"user_id":229,"name":"Thomo","steam_id":76561198168356650,"connected_time":142000000000,"state":"active","ping":55},{"user_id":218,"name":"Norriss","steam_id":76561198920296293,"connected_time":826000000000,"state":"active","ping":36},{"user_id":189,"name":"cool beans","steam_id":76561198321591685,"connected_time":2339000000000,"state":"active","ping":75},{"user_id":202,"name":"Jkbh1","steam_id":76561198093449670,"connected_time":1833000000000,"state":"active","ping":75},{"user_id":70,"name":"Sprit ♥","steam_id":76561198268780781,"connected_time":14689000000000,"state":"active","ping":99},{"user_id":216,"name":"Goldensliv","steam_id":76561198161673891,"connected_time":934000000000,"state":"active","ping":60},{"user_id":205,"name":"DrDan64","steam_id":76561199013363718,"connected_time":1585000000000,"state":"active","ping":128},{"user_id":219,"name":"D34dR4bbit","steam_id":76561198167411455,"connected_time":824000000000,"state":"active","ping":58},{"user_id":222,"name":"Spring Beans","steam_id":76561197978546259,"connected_time":682000000000,"state":"active","ping":96},{"user_id":224,"name":"BasedGod","steam_id":76561198061177973,"connected_time":519000000000,"state":"active","ping":60},{"user_id":220,"name":"summerlis","steam_id":76561198165324438,"connected_time":813000000000,"state":"active","ping":64},{"user_id":227,"name":"Wafflemuscle","steam_id":76561198868628982,"connected_time":265000000000,"state":"active","ping":53},{"user_id":154,"name":"Truly Cryo","steam_id":76561198347497484,"connected_time":5757000000000,"state":"active","ping":140},{"user_id":193,"name":"Your childhood","steam_id":76561198799385466,"connected_time":2315000000000,"state":"active","ping":104}]},{"server_id":119,"name":"Uncletopia | Seattle | 2 | All Maps","name_short":"sea-2","host":"sea-1.us.uncletopia.com","port":27025,"enabled":true,"region":"us-west","cc":"us","latitude":47.608013,"longitude":-122.33517,"reserved":0,"last_update":"0001-01-01T00:00:00Z","name_a2s":"Uncletopia | Seattle | 2 | All Maps","protocol":17,"map":"pl_barnblitz","folder":"tf","game":"Team Fortress","app_id":440,"player_count":24,"max_players":24,"Bots":0,"server_type":"Dedicated","server_os":"Linux","password":true,"vac":true,"version":"7932396","steam_id":85568392924469998,"keywords":["nocrits","nodmgspread","payload","uncletopia"],"game_id":440,"stv_port":27026,"stv_name":"Uncletopia | Seattle | 2 | All Maps | STV","players":[{"user_id":182,"name":"Phillip Jeffries","steam_id":76561198064052174,"connected_time":1093000000000,"state":"active","ping":109},{"user_id":191,"name":"Sharter","steam_id":76561198149560087,"connected_time":879000000000,"state":"active","ping":61},{"user_id":183,"name":"Flare Dance","steam_id":76561198260443137,"connected_time":1079000000000,"state":"active","ping":91},{"user_id":173,"name":"Bottle","steam_id":76561199208835578,"connected_time":1769000000000,"state":"active","ping":56},{"user_id":192,"name":"WillieMakit","steam_id":76561197985391684,"connected_time":877000000000,"state":"active","ping":95},{"user_id":82,"name":"Underscorn","steam_id":76561198374209415,"connected_time":8753000000000,"state":"active","ping":111},{"user_id":164,"name":"Bonk Co.","steam_id":76561198009355408,"connected_time":2797000000000,"state":"active","ping":72},{"user_id":199,"name":"SHADOW (he/him)","steam_id":76561198207768148,"connected_time":415000000000,"state":"active","ping":94},{"user_id":156,"name":"Obama","steam_id":76561198194065283,"connected_time":2870000000000,"state":"active","ping":76},{"user_id":175,"name":"Cronknut","steam_id":76561198336093587,"connected_time":1697000000000,"state":"active","ping":107},{"user_id":200,"name":"BlazedBunny","steam_id":76561198243610560,"connected_time":274000000000,"state":"active","ping":76},{"user_id":154,"name":"Aqua Tofana","steam_id":76561198351183381,"connected_time":3280000000000,"state":"active","ping":55},{"user_id":180,"name":"DrD","steam_id":76561198067266383,"connected_time":1208000000000,"state":"active","ping":34},{"user_id":176,"name":"it's peanut time","steam_id":76561198236028020,"connected_time":1663000000000,"state":"active","ping":143},{"user_id":186,"name":"ImaLilWeirdo","steam_id":76561198171653353,"connected_time":1042000000000,"state":"active","ping":64},{"user_id":168,"name":"ChimiChan","steam_id":76561198080094525,"connected_time":2727000000000,"state":"active","ping":104},{"user_id":145,"name":"Mico (Mico)","steam_id":76561198125462953,"connected_time":4092000000000,"state":"active","ping":45},{"user_id":201,"name":"Pseudotriangle","steam_id":76561198058247667,"connected_time":14000000000,"state":"spawning","ping":124},{"user_id":188,"name":"PluffyWuffy","steam_id":76561199386885244,"connected_time":1036000000000,"state":"active","ping":123},{"user_id":196,"name":"Theo Rex","steam_id":76561197968503627,"connected_time":517000000000,"state":"active","ping":115},{"user_id":193,"name":"Sky","steam_id":76561198097549374,"connected_time":875000000000,"state":"active","ping":59},{"user_id":198,"name":"neo :)","steam_id":76561199092954930,"connected_time":489000000000,"state":"active","ping":127},{"user_id":89,"name":"Vruk","steam_id":76561198116930332,"connected_time":8396000000000,"state":"active","ping":60},{"user_id":150,"name":"non_ai","steam_id":76561198270951938,"connected_time":3831000000000,"state":"active","ping":117}]},{"server_id":406,"name":"Uncletopia | Seattle | 3 | Stopwatch Beta","name_short":"sea-3","host":"sea-1.us.uncletopia.com","port":27035,"enabled":true,"region":"us-west","cc":"us","latitude":47.608013,"longitude":-122.33517,"reserved":0,"last_update":"0001-01-01T00:00:00Z","name_a2s":"Uncletopia | Seattle | 3 | Stopwatch Beta","protocol":17,"map":"pl_upward","folder":"tf","game":"Team Fortress","app_id":440,"player_count":0,"max_players":24,"Bots":0,"server_type":"Dedicated","server_os":"Linux","password":true,"vac":true,"version":"7932396","steam_id":85568392924515217,"keywords":["nocrits","nodmgspread","payload","uncletopia"],"game_id":440,"stv_port":27036,"stv_name":"Uncletopia | Seattle | 3 | Stopwatch Beta | STV","players":null},{"server_id":17,"name":"Uncletopia | San Francisco | 1 | All Maps","name_short":"sfo-1","host":"sfo-1.us.uncletopia.com","port":27015,"enabled":true,"region":"us-west","cc":"us","latitude":37.77397,"longitude":-122.4313,"reserved":0,"last_update":"0001-01-01T00:00:00Z","name_a2s":"Uncletopia | San Francisco | 1 | All Maps","protocol":17,"map":"cp_altitude","folder":"tf","game":"Team Fortress","app_id":440,"player_count":24,"max_players":24,"Bots":0,"server_type":"Dedicated","server_os":"Linux","password":true,"vac":true,"version":"7932396","steam_id":85568392924469999,"keywords":["cp","nocrits","nodmgspread","uncletopia"],"game_id":440,"stv_port":27016,"stv_name":"Uncletopia | San Francisco | 1 | All Maps | STV","players":[{"user_id":148,"name":"[Ћ] Pizza [FP]","steam_id":76561197970169451,"connected_time":862000000000,"state":"active","ping":177},{"user_id":150,"name":"Orion","steam_id":76561198000418837,"connected_time":838000000000,"state":"active","ping":99},{"user_id":151,"name":"SleepyCanary","steam_id":76561198071770434,"connected_time":737000000000,"state":"active","ping":75},{"user_id":106,"name":"Vlad","steam_id":76561198072334604,"connected_time":3127000000000,"state":"active","ping":70},{"user_id":147,"name":"Dr. Cool Guy","steam_id":76561198850898505,"connected_time":877000000000,"state":"active","ping":65},{"user_id":149,"name":"noceof","steam_id":76561198043656816,"connected_time":851000000000,"state":"active","ping":162},{"user_id":135,"name":"TwoScore","steam_id":76561198024412148,"connected_time":1606000000000,"state":"active","ping":78},{"user_id":145,"name":"SoldMyKidneyForCollege","steam_id":76561198096329559,"connected_time":1203000000000,"state":"active","ping":45},{"user_id":155,"name":"Thequirka","steam_id":76561198968058652,"connected_time":476000000000,"state":"active","ping":65},{"user_id":86,"name":"ForAPessimistImPrettyOptimistic","steam_id":76561198170128009,"connected_time":4626000000000,"state":"active","ping":56},{"user_id":142,"name":"Earl Acton","steam_id":76561198064273772,"connected_time":1549000000000,"state":"active","ping":112},{"user_id":156,"name":"TheXayol","steam_id":76561199177408516,"connected_time":449000000000,"state":"active","ping":107},{"user_id":157,"name":"Obi","steam_id":76561198435818617,"connected_time":426000000000,"state":"active","ping":82},{"user_id":95,"name":"worker","steam_id":76561198039608940,"connected_time":3786000000000,"state":"active","ping":79},{"user_id":144,"name":"Pah-Wraith Gul Dukat","steam_id":76561198033918106,"connected_time":1251000000000,"state":"active","ping":50},{"user_id":158,"name":"oil","steam_id":76561198099980149,"connected_time":418000000000,"state":"active","ping":60},{"user_id":153,"name":"Vorpas Jabwak","steam_id":76561198112186064,"connected_time":683000000000,"state":"active","ping":90},{"user_id":137,"name":"Kronk","steam_id":76561198063092125,"connected_time":1586000000000,"state":"active","ping":119},{"user_id":120,"name":"IanFishooks","steam_id":76561199403427527,"connected_time":2843000000000,"state":"active","ping":117},{"user_id":161,"name":"Imitation Caucasian","steam_id":76561198320536166,"connected_time":322000000000,"state":"active","ping":81},{"user_id":162,"name":"qiulongtao","steam_id":76561198977558717,"connected_time":98000000000,"state":"active","ping":144},{"user_id":160,"name":"Lots0","steam_id":76561198043143145,"connected_time":406000000000,"state":"active","ping":99},{"user_id":139,"name":"Testiclees Peesaschmidt","steam_id":76561198050582941,"connected_time":1573000000000,"state":"active","ping":106},{"user_id":140,"name":"DrWilloughby","steam_id":76561198095260357,"connected_time":1570000000000,"state":"active","ping":75}]},{"server_id":18,"name":"Uncletopia | San Francisco | 2 | All Maps","name_short":"sfo-2","host":"sfo-1.us.uncletopia.com","port":27025,"enabled":true,"region":"us-west","cc":"us","latitude":37.77397,"longitude":-122.4313,"reserved":0,"last_update":"0001-01-01T00:00:00Z","name_a2s":"Uncletopia | San Francisco | 2 | All Maps","protocol":17,"map":"cp_dustbowl","folder":"tf","game":"Team Fortress","app_id":440,"player_count":4,"max_players":24,"Bots":0,"server_type":"Dedicated","server_os":"Linux","password":true,"vac":true,"version":"7932396","steam_id":85568392924470000,"keywords":["cp","nocrits","nodmgspread","uncletopia"],"game_id":440,"stv_port":27026,"stv_name":"Uncletopia | San Francisco | 2 | All Maps | STV","players":[{"user_id":11,"name":"JC The Dumb","steam_id":76561199186185567,"connected_time":443000000000,"state":"active","ping":62},{"user_id":12,"name":"HawkBlaze","steam_id":76561199000152914,"connected_time":443000000000,"state":"active","ping":66},{"user_id":13,"name":"reymundo","steam_id":76561197989412830,"connected_time":280000000000,"state":"active","ping":67},{"user_id":14,"name":"LProduct","steam_id":76561199442139670,"connected_time":25000000000,"state":"active","ping":80}]},{"server_id":19,"name":"Uncletopia | San Francisco | 3 | Stopwatch Beta","name_short":"sfo-3","host":"sfo-1.us.uncletopia.com","port":27035,"enabled":true,"region":"us-west","cc":"us","latitude":37.77397,"longitude":-122.4313,"reserved":0,"last_update":"0001-01-01T00:00:00Z","name_a2s":"Uncletopia | San Francisco | 3 | Stopwatch Beta","protocol":17,"map":"cp_process_final","folder":"tf","game":"Team Fortress","app_id":440,"player_count":0,"max_players":24,"Bots":0,"server_type":"Dedicated","server_os":"Linux","password":true,"vac":true,"version":"7932396","steam_id":85568392924742824,"keywords":["cp","nocrits","nodmgspread","uncletopia"],"game_id":440,"stv_port":27036,"stv_name":"Uncletopia | San Francisco | 3 | Stopwatch Beta | STV","players":null},{"server_id":20,"name":"Uncletopia | San Francisco | 4 | Community","name_short":"sfo-4","host":"sfo-1.us.uncletopia.com","port":27045,"enabled":true,"region":"us-west","cc":"us","latitude":37.77397,"longitude":-122.4313,"reserved":0,"last_update":"0001-01-01T00:00:00Z","name_a2s":"Uncletopia | San Francisco | 4 | Community","protocol":17,"map":"workshop/cp_villa_b19.ugc2113052569","folder":"tf","game":"Team Fortress","app_id":440,"player_count":0,"max_players":24,"Bots":0,"server_type":"Dedicated","server_os":"Linux","password":true,"vac":true,"version":"7932396","steam_id":85568392924742826,"keywords":["cp","nocrits","nodmgspread","uncletopia"],"game_id":440,"stv_port":27046,"stv_name":"Uncletopia | San Francisco | 4 | Community | STV","players":null},{"server_id":141,"name":"Uncletopia | Sydney | 1 | All Maps","name_short":"syd-1","host":"syd-1.au.uncletopia.com","port":27015,"enabled":true,"region":"au","cc":"au","latitude":-33.865143,"longitude":151.2099,"reserved":0,"last_update":"0001-01-01T00:00:00Z","name_a2s":"Uncletopia | Sydney | 1 | All Maps","protocol":17,"map":"pl_pier","folder":"tf","game":"Team Fortress","app_id":440,"player_count":0,"max_players":24,"Bots":0,"server_type":"Dedicated","server_os":"Linux","password":true,"vac":true,"version":"7932396","steam_id":85568392924470001,"keywords":["nocrits","nodmgspread","payload","uncletopia"],"game_id":440,"stv_port":27016,"stv_name":"Uncletopia | Sydney | 1 | All Maps | STV","players":null},{"server_id":123,"name":"Uncletopia | Sydney | 2 | All Maps","name_short":"syd-2","host":"syd-1.au.uncletopia.com","port":27025,"enabled":true,"region":"au","cc":"au","latitude":-33.865143,"longitude":151.2099,"reserved":0,"last_update":"0001-01-01T00:00:00Z","name_a2s":"Uncletopia | Sydney | 2 | All Maps","protocol":17,"map":"koth_lakeside_final","folder":"tf","game":"Team Fortress","app_id":440,"player_count":0,"max_players":24,"Bots":0,"server_type":"Dedicated","server_os":"Linux","password":true,"vac":true,"version":"7932396","steam_id":85568392924470002,"keywords":["cp","nocrits","nodmgspread","uncletopia"],"game_id":440,"stv_port":27026,"stv_name":"Uncletopia | Sydney | 2 | All Maps | STV","players":null},{"server_id":395,"name":"Uncletopia | Sydney | 3 | All Maps","name_short":"syd-3","host":"syd-1.au.uncletopia.com","port":27035,"enabled":true,"region":"au","cc":"au","latitude":-33.865143,"longitude":151.2099,"reserved":0,"last_update":"0001-01-01T00:00:00Z","name_a2s":"Uncletopia | Sydney | 3 | All Maps","protocol":17,"map":"pl_barnblitz","folder":"tf","game":"Team Fortress","app_id":440,"player_count":2,"max_players":24,"Bots":0,"server_type":"Dedicated","server_os":"Linux","password":true,"vac":true,"version":"7932396","steam_id":85568392925194467,"keywords":["nocrits","nodmgspread","payload","uncletopia"],"game_id":440,"stv_port":27036,"stv_name":"Uncletopia | Sydney | 3 | All Maps | STV","players":[{"user_id":3,"name":"Toil Mill","steam_id":76561198192226758,"connected_time":1394000000000,"state":"active","ping":33},{"user_id":4,"name":"SwagDaddy69","steam_id":76561198821257744,"connected_time":1196000000000,"state":"active","ping":89}]},{"server_id":396,"name":"Uncletopia | Sydney | 4 | All Maps","name_short":"syd-4","host":"syd-1.au.uncletopia.com","port":27045,"enabled":true,"region":"au","cc":"au","latitude":-33.865143,"longitude":151.2099,"reserved":0,"last_update":"0001-01-01T00:00:00Z","name_a2s":"Uncletopia | Sydney | 4 | All Maps","protocol":17,"map":"pl_pier","folder":"tf","game":"Team Fortress","app_id":440,"player_count":0,"max_players":24,"Bots":0,"server_type":"Dedicated","server_os":"Linux","password":true,"vac":true,"version":"7932396","steam_id":85568392925397958,"keywords":["nocrits","nodmgspread","payload","uncletopia"],"game_id":440,"stv_port":27046,"stv_name":"Uncletopia | Sydney | 4 | All Maps | STV","players":null},{"server_id":58,"name":"Uncletopia | Sydney | 5 | Stopwatch Beta","name_short":"syd-5","host":"syd-1.au.uncletopia.com","port":27055,"enabled":true,"region":"au","cc":"au","latitude":-33.865143,"longitude":151.2099,"reserved":0,"last_update":"0001-01-01T00:00:00Z","name_a2s":"Uncletopia | Sydney | 5 | Stopwatch Beta","protocol":17,"map":"pl_borneo","folder":"tf","game":"Team Fortress","app_id":440,"player_count":0,"max_players":24,"Bots":0,"server_type":"Dedicated","server_os":"Linux","password":true,"vac":true,"version":"7932396","steam_id":85568392925397959,"keywords":["nocrits","nodmgspread","payload","uncletopia"],"game_id":440,"stv_port":27056,"stv_name":"Uncletopia | Sydney | 5 | Stopwatch Beta | STV","players":null},{"server_id":59,"name":"Uncletopia | Sydney | 6 | Community","name_short":"syd-6","host":"syd-1.au.uncletopia.com","port":27065,"enabled":true,"region":"au","cc":"au","latitude":-33.865143,"longitude":151.2099,"reserved":0,"last_update":"0001-01-01T00:00:00Z","name_a2s":"Uncletopia | Sydney | 6 | Community","protocol":17,"map":"pl_badwater","folder":"tf","game":"Team Fortress","app_id":440,"player_count":0,"max_players":24,"Bots":0,"server_type":"Dedicated","server_os":"Linux","password":true,"vac":true,"version":"7932396","steam_id":85568392925397960,"keywords":["nocrits","nodmgspread","payload","uncletopia"],"game_id":440,"stv_port":27066,"stv_name":"Uncletopia | Sydney | 6 | Community | STV","players":null},{"server_id":49,"name":"Uncletopia | Warsaw | 1 | All Maps","name_short":"waw-1","host":"waw-1.pl.uncletopia.com","port":27015,"enabled":true,"region":"eu","cc":"pl","latitude":52.2297,"longitude":21.017532,"reserved":0,"last_update":"0001-01-01T00:00:00Z","name_a2s":"","protocol":0,"map":"","folder":"","game":"","app_id":0,"player_count":0,"max_players":0,"Bots":0,"server_type":"","server_os":"","password":false,"vac":false,"version":"","steam_id":0,"keywords":null,"game_id":0,"stv_port":0,"stv_name":"","players":null},{"server_id":50,"name":"Uncletopia | Warsaw | 2 | All Maps","name_short":"waw-2","host":"waw-1.pl.uncletopia.com","port":27025,"enabled":true,"region":"eu","cc":"pl","latitude":52.2297,"longitude":21.017532,"reserved":0,"last_update":"0001-01-01T00:00:00Z","name_a2s":"Uncletopia | Warsaw | 2 | All Maps","protocol":17,"map":"pl_barnblitz","folder":"tf","game":"Team Fortress","app_id":440,"player_count":0,"max_players":24,"Bots":0,"server_type":"Dedicated","server_os":"Linux","password":true,"vac":true,"version":"7932396","steam_id":85568392925397851,"keywords":["nocrits","nodmgspread","payload","uncletopia"],"game_id":440,"stv_port":27026,"stv_name":"Uncletopia | Warsaw | 2 | All Maps | STV","players":null},{"server_id":51,"name":"Uncletopia | Warsaw | 3 | All Maps","name_short":"waw-3","host":"waw-1.pl.uncletopia.com","port":27035,"enabled":true,"region":"eu","cc":"pl","latitude":52.2297,"longitude":21.017532,"reserved":0,"last_update":"0001-01-01T00:00:00Z","name_a2s":"Uncletopia | Warsaw | 3 | All Maps","protocol":17,"map":"cp_mountainlab","folder":"tf","game":"Team Fortress","app_id":440,"player_count":17,"max_players":24,"Bots":0,"server_type":"Dedicated","server_os":"Linux","password":true,"vac":true,"version":"7932396","steam_id":85568392925397852,"keywords":["cp","nocrits","nodmgspread","uncletopia"],"game_id":440,"stv_port":27036,"stv_name":"Uncletopia | Warsaw | 3 | All Maps | STV","players":[{"user_id":29,"name":"Worker of the month","steam_id":76561198346169853,"connected_time":2392000000000,"state":"active","ping":104},{"user_id":30,"name":"Envy","steam_id":76561198132723219,"connected_time":2386000000000,"state":"active","ping":76},{"user_id":33,"name":"Wholesome","steam_id":76561198010329501,"connected_time":2204000000000,"state":"active","ping":82},{"user_id":34,"name":"Meakeel","steam_id":76561198121564724,"connected_time":2144000000000,"state":"active","ping":127},{"user_id":58,"name":"niandits","steam_id":76561198419798900,"connected_time":147000000000,"state":"connecting","ping":0},{"user_id":36,"name":"HaldunEymen","steam_id":76561198877464598,"connected_time":2090000000000,"state":"active","ping":89},{"user_id":59,"name":"the gamer","steam_id":76561198445810164,"connected_time":81000000000,"state":"active","ping":54},{"user_id":49,"name":"Z.","steam_id":76561198367362266,"connected_time":354000000000,"state":"active","ping":108},{"user_id":39,"name":"Mal","steam_id":76561198262337669,"connected_time":1021000000000,"state":"active","ping":45},{"user_id":40,"name":"S.Scary","steam_id":76561198248602386,"connected_time":944000000000,"state":"active","ping":46},{"user_id":41,"name":"tïger","steam_id":76561198260483157,"connected_time":908000000000,"state":"active","ping":50},{"user_id":50,"name":"L1RG0","steam_id":76561198329274068,"connected_time":313000000000,"state":"active","ping":47},{"user_id":51,"name":"alice","steam_id":76561198269200388,"connected_time":309000000000,"state":"active","ping":45},{"user_id":60,"name":"AftiksPL","steam_id":76561198875182686,"connected_time":54000000000,"state":"active","ping":64},{"user_id":53,"name":"Big They/Them is watching YOU","steam_id":76561198307598168,"connected_time":273000000000,"state":"active","ping":37},{"user_id":55,"name":"CuJIA_TPAHCJIuTA","steam_id":76561198149654361,"connected_time":247000000000,"state":"active","ping":66},{"user_id":56,"name":"smile","steam_id":76561198365841841,"connected_time":226000000000,"state":"active","ping":84}]},{"server_id":52,"name":"Uncletopia | Warsaw | 4 | All Maps","name_short":"waw-4","host":"waw-1.pl.uncletopia.com","port":27045,"enabled":true,"region":"eu","cc":"pl","latitude":52.2297,"longitude":21.017532,"reserved":0,"last_update":"0001-01-01T00:00:00Z","name_a2s":"Uncletopia | Warsaw | 4 | All Maps","protocol":17,"map":"pl_swiftwater_final1","folder":"tf","game":"Team Fortress","app_id":440,"player_count":0,"max_players":24,"Bots":0,"server_type":"Dedicated","server_os":"Linux","password":true,"vac":true,"version":"7932396","steam_id":85568392925397853,"keywords":["nocrits","nodmgspread","payload","uncletopia"],"game_id":440,"stv_port":27046,"stv_name":"Uncletopia | Warsaw | 4 | All Maps | STV","players":null},{"server_id":53,"name":"Uncletopia | Warsaw | 5 | Stopwatch Beta","name_short":"waw-5","host":"waw-1.pl.uncletopia.com","port":27055,"enabled":true,"region":"eu","cc":"pl","latitude":52.2297,"longitude":21.017532,"reserved":0,"last_update":"0001-01-01T00:00:00Z","name_a2s":"Uncletopia | Warsaw | 5 | Stopwatch Beta","protocol":17,"map":"koth_lakeside_final","folder":"tf","game":"Team Fortress","app_id":440,"player_count":0,"max_players":24,"Bots":0,"server_type":"Dedicated","server_os":"Linux","password":true,"vac":true,"version":"7932396","steam_id":85568392925397854,"keywords":["cp","nocrits","nodmgspread","uncletopia"],"game_id":440,"stv_port":27056,"stv_name":"Uncletopia | Warsaw | 5 | Stopwatch Beta | STV","players":null},{"server_id":54,"name":"Uncletopia | Warsaw | 6 | Community","name_short":"waw-6","host":"waw-1.pl.uncletopia.com","port":27065,"enabled":true,"region":"eu","cc":"pl","latitude":52.2297,"longitude":21.017532,"reserved":0,"last_update":"0001-01-01T00:00:00Z","name_a2s":"Uncletopia | Warsaw | 6 | Community","protocol":17,"map":"workshop/koth_ramjam_rc1.ugc459778887","folder":"tf","game":"Team Fortress","app_id":440,"player_count":0,"max_players":24,"Bots":0,"server_type":"Dedicated","server_os":"Linux","password":true,"vac":true,"version":"7932396","steam_id":85568392925397856,"keywords":["cp","nocrits","nodmgspread","uncletopia"],"game_id":440,"stv_port":27066,"stv_name":"Uncletopia | Warsaw | 6 | Community | STV","players":null}]}