{"status":true,"message":"","result":[{"server_id":9,"name":"Uncletopia | Atlanta | 1 | All Maps","name_short":"atl-1","host":"atl-1.us.uncletopia.com","port":27015,"enabled":true,"region":"us-east","cc":"us","latitude":33.753746,"longitude":-84.38633,"reserved":0,"last_update":"0001-01-01T00:00:00Z","name_a2s":"Uncletopia | Atlanta | 1 | All Maps","protocol":17,"map":"cp_dustbowl","folder":"tf","game":"Team Fortress","app_id":440,"player_count":24,"max_players":24,"Bots":0,"server_type":"Dedicated","server_os":"Linux","password":true,"vac":true,"version":"7757534","steam_id":85568392924469982,"keywords":["cp","nocrits","nodmgspread","uncletopia"],"game_id":440,"stv_port":27016,"stv_name":"Uncletopia | Atlanta | 1 | All Maps | STV","players":[{"user_id":426,"name":"Boop","steam_id":76561198376703875,"connected_time":3022000000000,"state":"active","ping":69},{"user_id":418,"name":"ATL1 | LuckyZero-_-","steam_id":76561198139891051,"connected_time":4404000000000,"state":"active","ping":64},{"user_id":437,"name":"lker","steam_id":76561197976975075,"connected_time":1879000000000,"state":"active","ping":42},{"user_id":444,"name":"Dragon of Dojima","steam_id":76561198171059033,"connected_time":932000000000,"state":"active","ping":120},{"user_id":443,"name":"RED1 | snoops","steam_id":76561197986760351,"connected_time":1050000000000,"state":"active","ping":75},{"user_id":451,"name":"Ashes!","steam_id":76561197998475441,"connected_time":520000000000,"state":"active","ping":92},{"user_id":367,"name":"BLU1 | cola","steam_id":76561198374390458,"connected_time":9501000000000,"state":"active","ping":53},{"user_id":445,"name":"Scut","steam_id":76561198973734291,"connected_time":922000000000,"state":"active","ping":104},{"user_id":427,"name":"blu rio\u003c3 | they/them","steam_id":76561198299175965,"connected_time":2987000000000,"state":"active","ping":57},{"user_id":428,"name":"BLU1 | ☙ Corrupt ❧","steam_id":76561197977631915,"connected_time":2920000000000,"state":"active","ping":65},{"user_id":442,"name":"years","steam_id":76561197994098627,"connected_time":1158000000000,"state":"active","ping":112},{"user_id":430,"name":"schizophrenic with a gun","steam_id":76561198016121536,"connected_time":2723000000000,"state":"active","ping":77},{"user_id":394,"name":"Karma","steam_id":76561198030565234,"connected_time":6539000000000,"state":"active","ping":76},{"user_id":438,"name":"shaderoses","steam_id":76561198070800500,"connected_time":1878000000000,"state":"active","ping":61},{"user_id":440,"name":"RED1 | Lylith!!!","steam_id":76561198386687546,"connected_time":1815000000000,"state":"active","ping":47},{"user_id":420,"name":"Spoonful","steam_id":76561198927517471,"connected_time":4355000000000,"state":"active","ping":58},{"user_id":449,"name":"BLU1 Save your wifi","steam_id":76561198286147372,"connected_time":708000000000,"state":"active","ping":59},{"user_id":452,"name":"OOOOOOOOOOOOOOOOOOOOOOOOOOOOOOO","steam_id":76561198300375056,"connected_time":506000000000,"state":"active","ping":77},{"user_id":384,"name":"lil hog","steam_id":76561199230929836,"connected_time":7690000000000,"state":"active","ping":80},{"user_id":375,"name":"BLU1 | Psionic Box","steam_id":76561198151019322,"connected_time":9306000000000,"state":"active","ping":81},{"user_id":435,"name":"RED1 | Le4n!!!","steam_id":76561198045522596,"connected_time":1893000000000,"state":"active","ping":74},{"user_id":448,"name":"antrobot","steam_id":76561198281039672,"connected_time":820000000000,"state":"active","ping":45},{"user_id":450,"name":"pipebombrater","steam_id":76561199029030831,"connected_time":675000000000,"state":"active","ping":73},{"user_id":348,"name":"ATLS1 | SparkStorm","steam_id":76561198095817025,"connected_time":10338000000000,"state":"active","ping":35}]},{"server_id":400,"name":"Uncletopia | Atlanta | 3 | Community","name_short":"atl-3","host":"atl-1.us.uncletopia.com","port":27035,"enabled":true,"region":"us-east","cc":"us","latitude":33.753746,"longitude":-84.38633,"reserved":0,"last_update":"0001-01-01T00:00:00Z","name_a2s":"Uncletopia | Atlanta | 3 | Community","protocol":17,"map":"workshop/cp_propaganda_b18.ugc1603743849","folder":"tf","game":"Team Fortress","app_id":440,"player_count":0,"max_players":24,"Bots":0,"server_type":"Dedicated","server_os":"Linux","password":true,"vac":true,"version":"7757534","steam_id":85568392924515187,"keywords":["cp","nocrits","nodmgspread","uncletopia"],"game_id":440,"stv_port":27036,"stv_name":"Uncletopia | Atlanta | 3 | Community | STV","players":null},{"server_id":401,"name":"Uncletopia | Atlanta | 4 | No Payload","name_short":"atl-4","host":"atl-1.us.uncletopia.com","port":27045,"enabled":true,"region":"us-east","cc":"us","latitude":33.753746,"longitude":-84.38633,"reserved":0,"last_update":"0001-01-01T00:00:00Z","name_a2s":"","protocol":0,"map":"","folder":"","game":"","app_id":0,"player_count":0,"max_players":0,"Bots":0,"server_type":"","server_os":"","password":false,"vac":false,"version":"","steam_id":0,"keywords":null,"game_id":0,"stv_port":0,"stv_name":"","players":null},{"server_id":2,"name":"Uncletopia | Chicago | 1 | All Maps","name_short":"chi-1","host":"chi-1.us.uncletopia.com","port":27015,"enabled":true,"region":"us-central","cc":"us","latitude":41.881832,"longitude":-87.62318,"reserved":0,"last_update":"0001-01-01T00:00:00Z","name_a2s":"Uncletopia | Chicago | 1 | All Maps","protocol":17,"map":"pl_upward","folder":"tf","game":"Team Fortress","app_id":440,"player_count":24,"max_players":24,"Bots":0,"server_type":"Dedicated","server_os":"Linux","password":true,"vac":true,"version":"7757534","steam_id":85568392924469984,"keywords":["nocrits","nodmgspread","payload","uncletopia"],"game_id":440,"stv_port":27016,"stv_name":"Uncletopia | Chicago | 1 | All Maps | STV","players":[{"user_id":834,"name":"super","steam_id":76561198800358844,"connected_time":1927000000000,"state":"active","ping":85},{"user_id":853,"name":"DODE","steam_id":76561198089528086,"connected_time":704000000000,"state":"active","ping":85},{"user_id":860,"name":"Cheetose Intolerant","steam_id":76561198013399809,"connected_time":656000000000,"state":"active","ping":84},{"user_id":849,"name":"Sarbanes-Oxley","steam_id":76561197975898479,"connected_time":1081000000000,"state":"active","ping":76},{"user_id":862,"name":"Astro Knight","steam_id":76561198062767484,"connected_time":459000000000,"state":"active","ping":83},{"user_id":831,"name":"[UHS] K24A4 2.4","steam_id":76561199072970627,"connected_time":2147000000000,"state":"active","ping":45},{"user_id":837,"name":"TheTruthOfTheCessationOfDukkha","steam_id":76561198214370515,"connected_time":1905000000000,"state":"active","ping":69},{"user_id":861,"name":"crayonnipple","steam_id":76561198070253331,"connected_time":641000000000,"state":"active","ping":60},{"user_id":845,"name":"Sweet Baby Zain","steam_id":76561198046392267,"connected_time":1806000000000,"state":"active","ping":85},{"user_id":848,"name":"pyrolover900","steam_id":76561198234138080,"connected_time":1335000000000,"state":"active","ping":59},{"user_id":841,"name":"Tummy Sunday","steam_id":76561198031336957,"connected_time":1881000000000,"state":"active","ping":147},{"user_id":830,"name":"Big Smoke","steam_id":76561198278375987,"connected_time":2370000000000,"state":"active","ping":129},{"user_id":828,"name":"OldRavensFan","steam_id":76561198043919562,"connected_time":2702000000000,"state":"active","ping":77},{"user_id":842,"name":"The Assistant Regional Manager","steam_id":76561199221484936,"connected_time":1855000000000,"state":"active","ping":112},{"user_id":847,"name":"CroMaLaka","steam_id":76561198380926090,"connected_time":1732000000000,"state":"active","ping":55},{"user_id":804,"name":"Pusieeeeeee!!!!!!!!!!!!!!!!!","steam_id":76561198083175190,"connected_time":4778000000000,"state":"active","ping":62},{"user_id":820,"name":"the deadliest pyroshark","steam_id":76561198374227766,"connected_time":3633000000000,"state":"active","ping":75},{"user_id":810,"name":"peggle fan","steam_id":76561198117181511,"connected_time":3844000000000,"state":"active","ping":69},{"user_id":851,"name":"agravar","steam_id":76561198105654330,"connected_time":748000000000,"state":"active","ping":130},{"user_id":858,"name":"Bread Dad","steam_id":76561198088284226,"connected_time":676000000000,"state":"active","ping":90},{"user_id":844,"name":"Kaluka","steam_id":76561198036861445,"connected_time":1851000000000,"state":"active","ping":71},{"user_id":859,"name":"G6 habib","steam_id":76561198053621664,"connected_time":676000000000,"state":"active","ping":45},{"user_id":852,"name":"None of that $9.99 bullshit","steam_id":76561198116169903,"connected_time":736000000000,"state":"active","ping":52},{"user_id":857,"name":"huh","steam_id":76561198272057200,"connected_time":684000000000,"state":"active","ping":106}]},{"server_id":106,"name":"Uncletopia | Chicago | 2 | All Maps","name_short":"chi-2","host":"chi-1.us.uncletopia.com","port":27025,"enabled":true,"region":"us-central","cc":"us","latitude":41.881832,"longitude":-87.62318,"reserved":0,"last_update":"0001-01-01T00:00:00Z","name_a2s":"Uncletopia | Chicago | 2 | All Maps","protocol":17,"map":"cp_altitude","folder":"tf","game":"Team Fortress","app_id":440,"player_count":24,"max_players":24,"Bots":0,"server_type":"Dedicated","server_os":"Linux","password":true,"vac":true,"version":"7757534","steam_id":85568392924469985,"keywords":["cp","nocrits","nodmgspread","uncletopia"],"game_id":440,"stv_port":27026,"stv_name":"Uncletopia | Chicago | 2 | All Maps | STV","players":[{"user_id":646,"name":"BeeMoe","steam_id":76561198002100697,"connected_time":1879000000000,"state":"active","ping":56},{"user_id":655,"name":"Fever Dreams","steam_id":76561198116614620,"connected_time":1072000000000,"state":"active","ping":68},{"user_id":656,"name":"Beary Adorable","steam_id":76561198023815802,"connected_time":1024000000000,"state":"active","ping":105},{"user_id":657,"name":"Baka!⑨⑨⑨⑨","steam_id":76561198152948254,"connected_time":1016000000000,"state":"active","ping":69},{"user_id":663,"name":"the","steam_id":76561198311446636,"connected_time":488000000000,"state":"active","ping":58},{"user_id":634,"name":"shadowjango","steam_id":76561198001475833,"connected_time":2166000000000,"state":"active","ping":62},{"user_id":653,"name":"Shlartblorf","steam_id":76561198884378616,"connected_time":1131000000000,"state":"active","ping":96},{"user_id":667,"name":"rkp!","steam_id":76561199053070819,"connected_time":357000000000,"state":"active","ping":51},{"user_id":666,"name":"WasabiWallop","steam_id":76561198140064181,"connected_time":387000000000,"state":"active","ping":84},{"user_id":669,"name":"dad's jar devils","steam_id":76561198136146032,"connected_time":269000000000,"state":"active","ping":59},{"user_id":649,"name":"Slippery","steam_id":76561199469441947,"connected_time":1754000000000,"state":"active","ping":56},{"user_id":658,"name":"Lore","steam_id":76561198098407538,"connected_time":995000000000,"state":"active","ping":45},{"user_id":625,"name":"Rukks","steam_id":76561197993918954,"connected_time":2835000000000,"state":"active","ping":102},{"user_id":659,"name":"viscodolante","steam_id":76561198013650292,"connected_time":993000000000,"state":"active","ping":114},{"user_id":630,"name":"tavorraX0","steam_id":76561198042465206,"connected_time":2481000000000,"state":"active","ping":145},{"user_id":617,"name":"SuperFresh","steam_id":76561198200723198,"connected_time":2915000000000,"state":"active","ping":37},{"user_id":670,"name":"pathulhu","steam_id":76561198323941614,"connected_time":252000000000,"state":"active","ping":74},{"user_id":662,"name":"human piss champion","steam_id":76561198122943559,"connected_time":882000000000,"state":"active","ping":55},{"user_id":671,"name":"Rootin Tootin Bull Winkle","steam_id":76561198093702112,"connected_time":16000000000,"state":"spawning","ping":64},{"user_id":650,"name":"Kiphus","steam_id":76561198025289407,"connected_time":1641000000000,"state":"active","ping":73},{"user_id":660,"name":"Rudy","steam_id":76561198013456828,"connected_time":989000000000,"state":"active","ping":63},{"user_id":665,"name":"FOOL","steam_id":76561198370866973,"connected_time":405000000000,"state":"active","ping":111},{"user_id":668,"name":"hamo456","steam_id":76561198111939938,"connected_time":336000000000,"state":"active","ping":109},{"user_id":654,"name":"VixianUwU","steam_id":76561198948815060,"connected_time":1131000000000,"state":"active","ping":82}]},{"server_id":402,"name":"Uncletopia | Chicago | 3 | All Maps","name_short":"chi-3","host":"chi-1.us.uncletopia.com","port":27035,"enabled":true,"region":"us-central","cc":"us","latitude":41.881832,"longitude":-87.62318,"reserved":0,"last_update":"0001-01-01T00:00:00Z","name_a2s":"Uncletopia | Chicago | 3 | All Maps","protocol":17,"map":"pl_barnblitz","folder":"tf","game":"Team Fortress","app_id":440,"player_count":18,"max_players":24,"Bots":0,"server_type":"Dedicated","server_os":"Linux","password":true,"vac":true,"version":"7757534","steam_id":85568392924515191,"keywords":["nocrits","nodmgspread","payload","uncletopia"],"game_id":440,"stv_port":27036,"stv_name":"Uncletopia | Chicago | 3 | All Maps | STV","players":[{"user_id":473,"name":"Riske","steam_id":76561198115840568,"connected_time":2848000000000,"state":"active","ping":64},{"user_id":497,"name":"motorized bar of soap","steam_id":76561198882404753,"connected_time":963000000000,"state":"active","ping":72},{"user_id":499,"name":"RokkitFrog","steam_id":76561198046465850,"connected_time":835000000000,"state":"active","ping":76},{"user_id":500,"name":"robert","steam_id":76561198001196512,"connected_time":821000000000,"state":"active","ping":51},{"user_id":501,"name":"soup","steam_id":76561198099977572,"connected_time":815000000000,"state":"active","ping":53},{"user_id":487,"name":"MissMatches_","steam_id":76561198048925904,"connected_time":1464000000000,"state":"active","ping":121},{"user_id":527,"name":"Papa Squat","steam_id":76561198045011208,"connected_time":38000000000,"state":"active","ping":64},{"user_id":502,"name":"brian eno enjoyer","steam_id":76561198056467179,"connected_time":795000000000,"state":"active","ping":74},{"user_id":482,"name":"$3.99 Shrimps","steam_id":76561198077272494,"connected_time":2193000000000,"state":"active","ping":45},{"user_id":503,"name":"man","steam_id":76561199365643094,"connected_time":719000000000,"state":"active","ping":95},{"user_id":504,"name":"Buswolley","steam_id":76561197995205571,"connected_time":676000000000,"state":"active","ping":98},{"user_id":505,"name":"TheDarkTitan","steam_id":76561198304794068,"connected_time":660000000000,"state":"active","ping":70},{"user_id":506,"name":"huh?","steam_id":76561199083093385,"connected_time":636000000000,"state":"active","ping":86},{"user_id":457,"name":"inventor1214","steam_id":76561198062317696,"connected_time":3621000000000,"state":"active","ping":120},{"user_id":507,"name":"the rizzler","steam_id":76561198151768815,"connected_time":590000000000,"state":"active","ping":165},{"user_id":508,"name":"HELLifornian","steam_id":76561198004962124,"connected_time":583000000000,"state":"active","ping":115},{"user_id":509,"name":"TÖZI","steam_id":76561198045268695,"connected_time":540000000000,"state":"active","ping":58},{"user_id":520,"name":"JPMockMan","steam_id":76561198071370876,"connected_time":143000000000,"state":"active","ping":85}]},{"server_id":403,"name":"Uncletopia | Chicago | 4 | All Maps","name_short":"chi-4","host":"chi-1.us.uncletopia.com","port":27045,"enabled":true,"region":"us-central","cc":"us","latitude":41.881832,"longitude":-87.62318,"reserved":0,"last_update":"0001-01-01T00:00:00Z","name_a2s":"Uncletopia | Chicago | 4 | All Maps","protocol":17,"map":"cp_process_final","folder":"tf","game":"Team Fortress","app_id":440,"player_count":24,"max_players":24,"Bots":0,"server_type":"Dedicated","server_os":"Linux","password":true,"vac":true,"version":"7757534","steam_id":85568392924515193,"keywords":["cp","nocrits","nodmgspread","uncletopia"],"game_id":440,"stv_port":27046,"stv_name":"Uncletopia | Chicago | 4 | All Maps | STV","players":[{"user_id":290,"name":"Locrian","steam_id":76561198356159602,"connected_time":408000000000,"state":"active","ping":96},{"user_id":278,"name":"Do Moose go Moo?","steam_id":76561198073550620,"connected_time":1080000000000,"state":"active","ping":45},{"user_id":276,"name":"Vulpes","steam_id":76561198038929334,"connected_time":1112000000000,"state":"active","ping":58},{"user_id":244,"name":"Groth","steam_id":76561198061888926,"connected_time":4330000000000,"state":"active","ping":89},{"user_id":279,"name":"codykurusu","steam_id":76561199468723267,"connected_time":1069000000000,"state":"active","ping":86},{"user_id":289,"name":"evilgod","steam_id":76561198890522517,"connected_time":582000000000,"state":"active","ping":89},{"user_id":282,"name":"Dispenser (Twan)","steam_id":76561197991064908,"connected_time":1002000000000,"state":"active","ping":60},{"user_id":268,"name":"Fantastic","steam_id":76561198079088978,"connected_time":2135000000000,"state":"active","ping":38},{"user_id":280,"name":"Lorelius Hogglefart","steam_id":76561198449527009,"connected_time":1065000000000,"state":"active","ping":48},{"user_id":256,"name":"EXPERIENCED INDIVIDUAL","steam_id":76561198140231083,"connected_time":3225000000000,"state":"active","ping":118},{"user_id":275,"name":"Toast","steam_id":76561198234616616,"connected_time":1616000000000,"state":"active","ping":68},{"user_id":273,"name":"real scammer","steam_id":76561198063619558,"connected_time":1763000000000,"state":"active","ping":66},{"user_id":176,"name":"Local Boy Kisser","steam_id":76561199063329349,"connected_time":9308000000000,"state":"active","ping":158},{"user_id":283,"name":"dansal","steam_id":76561197997042510,"connected_time":814000000000,"state":"active","ping":78},{"user_id":286,"name":"Bracey","steam_id":76561199092318246,"connected_time":687000000000,"state":"active","ping":86},{"user_id":287,"name":"threethree","steam_id":76561198177354155,"connected_time":639000000000,"state":"active","ping":49},{"user_id":245,"name":"LevelZ3R0","steam_id":76561199239710681,"connected_time":4324000000000,"state":"active","ping":95},{"user_id":259,"name":"Ranger Lugi","steam_id":76561198143611016,"connected_time":2886000000000,"state":"active","ping":98},{"user_id":257,"name":"Magikarp_Gamer","steam_id":76561198143910511,"connected_time":3222000000000,"state":"active","ping":91},{"user_id":281,"name":"All 24 Pokémon movies at once","steam_id":76561198164738311,"connected_time":1050000000000,"state":"active","ping":70},{"user_id":258,"name":"Crustiest_Bill","steam_id":76561198842722858,"connected_time":3220000000000,"state":"active","ping":93},{"user_id":267,"name":"Skillz","steam_id":76561198054746727,"connected_time":2162000000000,"state":"active","ping":53},{"user_id":270,"name":"Yeshie the Dragon Layer","steam_id":76561198080214214,"connected_time":2010000000000,"state":"active","ping":42},{"user_id":228,"name":"maArk","steam_id":76561198200380143,"connected_time":5021000000000,"state":"active","ping":149}]},{"server_id":36,"name":"Uncletopia | Chicago | 5 | All Maps","name_short":"chi-5","host":"chi-2.us.uncletopia.com","port":27015,"enabled":true,"region":"us-central","cc":"us","latitude":41.881832,"longitude":-87.62318,"reserved":0,"last_update":"0001-01-01T00:00:00Z","name_a2s":"Uncletopia | Chicago | 5 | All Maps","protocol":17,"map":"koth_highpass","folder":"tf","game":"Team Fortress","app_id":440,"player_count":0,"max_players":24,"Bots":0,"server_type":"Dedicated","server_os":"Linux","password":true,"vac":true,"version":"7757534","steam_id":85568392924866362,"keywords":["cp","nocrits","nodmgspread","uncletopia"],"game_id":440,"stv_port":27016,"stv_name":"Uncletopia | Chicago | 5 | All Maps | STV","players":null},{"server_id":37,"name":"Uncletopia | Chicago | 6 | All Maps","name_short":"chi-6","host":"chi-2.us.uncletopia.com","port":27025,"enabled":true,"region":"us-central","cc":"us","latitude":41.881832,"longitude":-87.62318,"reserved":0,"last_update":"0001-01-01T00:00:00Z","name_a2s":"Uncletopia | Chicago | 6 | All Maps","protocol":17,"map":"pl_pier","folder":"tf","game":"Team Fortress","app_id":440,"player_count":24,"max_players":24,"Bots":0,"server_type":"Dedicated","server_os":"Linux","password":true,"vac":true,"version":"7757534","steam_id":85568392924866363,"keywords":["nocrits","nodmgspread","payload","uncletopia"],"game_id":440,"stv_port":27026,"stv_name":"Uncletopia | Chicago | 6 | All Maps | STV","players":[{"user_id":238,"name":"[TKS] Popcorn","steam_id":76561198994241661,"connected_time":1611000000000,"state":"active","ping":81},{"user_id":233,"name":"Cricket Girl!","steam_id":76561198838054669,"connected_time":1972000000000,"state":"active","ping":67},{"user_id":203,"name":"last one of the tonight","steam_id":76561198099591549,"connected_time":4218000000000,"state":"active","ping":64},{"user_id":178,"name":"James","steam_id":76561198081313916,"connected_time":6084000000000,"state":"active","ping":74},{"user_id":250,"name":"Windex","steam_id":76561198105561395,"connected_time":687000000000,"state":"active","ping":76},{"user_id":232,"name":"toastman","steam_id":76561198207073088,"connected_time":2063000000000,"state":"active","ping":75},{"user_id":219,"name":"Room","steam_id":76561199174579733,"connected_time":3110000000000,"state":"active","ping":77},{"user_id":240,"name":"Six","steam_id":76561198052472822,"connected_time":1573000000000,"state":"active","ping":69},{"user_id":228,"name":"Garfield Fucker","steam_id":76561198202775853,"connected_time":2181000000000,"state":"active","ping":48},{"user_id":241,"name":"Greeble","steam_id":76561198000283892,"connected_time":1476000000000,"state":"active","ping":123},{"user_id":251,"name":"invb","steam_id":76561197998263914,"connected_time":680000000000,"state":"active","ping":50},{"user_id":252,"name":"Psychosis","steam_id":76561198078659070,"connected_time":597000000000,"state":"active","ping":77},{"user_id":249,"name":"Jack from Jack in The Box","steam_id":76561199083594971,"connected_time":802000000000,"state":"active","ping":89},{"user_id":243,"name":"Bastion","steam_id":76561199133903803,"connected_time":1450000000000,"state":"active","ping":99},{"user_id":202,"name":"ILOVEHOTMOMS","steam_id":76561198232617936,"connected_time":4300000000000,"state":"active","ping":46},{"user_id":226,"name":"Uhonlapjontetzika","steam_id":76561199431280503,"connected_time":2451000000000,"state":"active","ping":84},{"user_id":246,"name":"HammerHead","steam_id":76561197975668646,"connected_time":1268000000000,"state":"active","ping":79},{"user_id":247,"name":"[Saint] Zreb","steam_id":76561198041259154,"connected_time":1195000000000,"state":"active","ping":77},{"user_id":253,"name":"Nodin","steam_id":76561198135757376,"connected_time":524000000000,"state":"active","ping":53},{"user_id":245,"name":"MantisTobboggan","steam_id":76561197969447887,"connected_time":1328000000000,"state":"active","ping":144},{"user_id":212,"name":"smelly boy james(he stinkin)","steam_id":76561197997006216,"connected_time":3419000000000,"state":"active","ping":52},{"user_id":254,"name":"i am in missouri pls help","steam_id":76561198799420706,"connected_time":109000000000,"state":"active","ping":69},{"user_id":248,"name":"⛧","steam_id":76561198021308963,"connected_time":1170000000000,"state":"active","ping":83},{"user_id":194,"name":"Mitchacho74","steam_id":76561198087986935,"connected_time":4906000000000,"state":"active","ping":68}]},{"server_id":38,"name":"Uncletopia | Chicago | 7 | Stopwatch Beta","name_short":"chi-7","host":"chi-2.us.uncletopia.com","port":27035,"enabled":true,"region":"us-central","cc":"us","latitude":41.881832,"longitude":-87.62318,"reserved":0,"last_update":"0001-01-01T00:00:00Z","name_a2s":"Uncletopia | Chicago | 7 | Stopwatch Beta","protocol":17,"map":"workshop/koth_ramjam_rc1.ugc459778887","folder":"tf","game":"Team Fortress","app_id":440,"player_count":0,"max_players":24,"Bots":0,"server_type":"Dedicated","server_os":"Linux","password":true,"vac":true,"version":"7757534","steam_id":85568392924866364,"keywords":["cp","nocrits","nodmgspread","uncletopia"],"game_id":440,"stv_port":27036,"stv_name":"Uncletopia | Chicago | 7 | Stopwatch Beta | STV","players":null},{"server_id":39,"name":"Uncletopia | Chicago | 8 | Community","name_short":"chi-8","host":"chi-2.us.uncletopia.com","port":27045,"enabled":true,"region":"us-central","cc":"us","latitude":41.881832,"longitude":-87.62318,"reserved":0,"last_update":"0001-01-01T00:00:00Z","name_a2s":"Uncletopia | Chicago | 8 | Community","protocol":17,"map":"workshop/koth_kemptown_rc1.ugc767410655","folder":"tf","game":"Team Fortress","app_id":440,"player_count":0,"max_players":24,"Bots":0,"server_type":"Dedicated","server_os":"Linux","password":true,"vac":true,"version":"7757534","steam_id":85568392924866365,"keywords":["cp","nocrits","nodmgspread","uncletopia"],"game_id":440,"stv_port":27046,"stv_name":"Uncletopia | Chicago | 8 | Community | STV","players":null},{"server_id":8,"name":"Uncletopia | Dallas | 1 | All Maps","name_short":"dal-1","host":"dal-1.us.uncletopia.com","port":27015,"enabled":true,"region":"us-central","cc":"us","latitude":32.779167,"longitude":-96.80889,"reserved":0,"last_update":"0001-01-01T00:00:00Z","name_a2s":"Uncletopia | Dallas | 1 | All Maps","protocol":17,"map":"pl_borneo","folder":"tf","game":"Team Fortress","app_id":440,"player_count":24,"max_players":24,"Bots":0,"server_type":"Dedicated","server_os":"Linux","password":true,"vac":true,"version":"7757534","steam_id":85568392924469986,"keywords":["nocrits","nodmgspread","payload","uncletopia"],"game_id":440,"stv_port":27016,"stv_name":"Uncletopia | Dallas | 1 | All Maps | STV","players":[{"user_id":886,"name":"Kirbothebrony","steam_id":76561198971911330,"connected_time":236000000000,"state":"active","ping":68},{"user_id":887,"name":"wheresgeorge","steam_id":76561198986281248,"connected_time":223000000000,"state":"active","ping":88},{"user_id":897,"name":"[S]Mr. X [No Monitor]","steam_id":76561197963746035,"connected_time":109000000000,"state":"active","ping":118},{"user_id":873,"name":"Boomstick","steam_id":76561198170112090,"connected_time":1891000000000,"state":"active","ping":67},{"user_id":874,"name":"MEDIC!","steam_id":76561198149344029,"connected_time":1764000000000,"state":"active","ping":80},{"user_id":888,"name":"kiko","steam_id":76561198018564445,"connected_time":221000000000,"state":"active","ping":59},{"user_id":892,"name":"Jason Voorhees","steam_id":76561198358987380,"connected_time":204000000000,"state":"active","ping":92},{"user_id":794,"name":"M249 | Spectre","steam_id":76561198118334485,"connected_time":10420000000000,"state":"active","ping":98},{"user_id":893,"name":"Fargo","steam_id":76561198044703931,"connected_time":198000000000,"state":"active","ping":70},{"user_id":894,"name":"Dazed","steam_id":76561198167096734,"connected_time":176000000000,"state":"active","ping":69},{"user_id":895,"name":"deadpixel","steam_id":76561198150249843,"connected_time":173000000000,"state":"active","ping":70},{"user_id":882,"name":"Bamboo","steam_id":76561198043139553,"connected_time":1464000000000,"state":"active","ping":92},{"user_id":830,"name":"Phil Collins","steam_id":76561198068868644,"connected_time":6758000000000,"state":"active","ping":84},{"user_id":891,"name":"Anthony LFT","steam_id":76561198168966583,"connected_time":209000000000,"state":"active","ping":74},{"user_id":831,"name":"vvichael","steam_id":76561198238148528,"connected_time":6757000000000,"state":"active","ping":91},{"user_id":889,"name":"Black Mesa Scientist","steam_id":76561198064466577,"connected_time":219000000000,"state":"active","ping":74},{"user_id":866,"name":"GT500\u003eJZeeba ジェイシーバ","steam_id":76561197982569975,"connected_time":2631000000000,"state":"active","ping":100},{"user_id":890,"name":":)","steam_id":76561198009818412,"connected_time":214000000000,"state":"active","ping":67},{"user_id":828,"name":"M.L.JEW","steam_id":76561198997375055,"connected_time":6790000000000,"state":"active","ping":81},{"user_id":896,"name":"BUFF THE SCORCH SHOT","steam_id":76561198042899484,"connected_time":147000000000,"state":"active","ping":123},{"user_id":885,"name":"Krow","steam_id":76561198010392099,"connected_time":249000000000,"state":"active","ping":52},{"user_id":898,"name":"Appa","steam_id":76561198110449520,"connected_time":82000000000,"state":"active","ping":96},{"user_id":875,"name":"bash -lc ./asshat.sh","steam_id":76561198004584315,"connected_time":1744000000000,"state":"active","ping":89},{"user_id":884,"name":"purply-ghost","steam_id":76561199204779865,"connected_time":740000000000,"state":"active","ping":48}]},{"server_id":108,"name":"Uncletopia | Dallas | 2 | All Maps","name_short":"dal-2","host":"dal-1.us.uncletopia.com","port":27025,"enabled":true,"region":"us-central","cc":"us","latitude":32.779167,"longitude":-96.80889,"reserved":0,"last_update":"0001-01-01T00:00:00Z","name_a2s":"Uncletopia | Dallas | 2 | All Maps","protocol":17,"map":"pl_snowycoast","folder":"tf","game":"Team Fortress","app_id":440,"player_count":24,"max_players":24,"Bots":0,"server_type":"Dedicated","server_os":"Linux","password":true,"vac":true,"version":"7757534","steam_id":85568392924469988,"keywords":["nocrits","nodmgspread","payload","uncletopia"],"game_id":440,"stv_port":27026,"stv_name":"Uncletopia | Dallas | 2 | All Maps | STV","players":[{"user_id":685,"name":"another breloom","steam_id":76561198006938024,"connected_time":53000000000,"state":"active","ping":72},{"user_id":613,"name":"ill draw you for 30 refined","steam_id":76561199005805984,"connected_time":5628000000000,"state":"active","ping":41},{"user_id":683,"name":"tower defense","steam_id":76561198169755734,"connected_time":901000000000,"state":"active","ping":78},{"user_id":679,"name":"catrinaisahuman","steam_id":76561198281355729,"connected_time":962000000000,"state":"active","ping":61},{"user_id":661,"name":"Squid121","steam_id":76561198038832034,"connected_time":1685000000000,"state":"active","ping":96},{"user_id":667,"name":"smeasly","steam_id":76561198028718812,"connected_time":1403000000000,"state":"active","ping":90},{"user_id":684,"name":"Cam(era)","steam_id":76561198285054047,"connected_time":270000000000,"state":"active","ping":71},{"user_id":627,"name":"Emperor Dankatine","steam_id":76561198044741086,"connected_time":4731000000000,"state":"active","ping":86},{"user_id":668,"name":"ed","steam_id":76561198080475712,"connected_time":1396000000000,"state":"active","ping":98},{"user_id":669,"name":"I have a tapeworm","steam_id":76561198112705880,"connected_time":1376000000000,"state":"active","ping":80},{"user_id":645,"name":"Sprucelass","steam_id":76561197998391724,"connected_time":3526000000000,"state":"active","ping":75},{"user_id":680,"name":"captain red","steam_id":76561198191587983,"connected_time":933000000000,"state":"active","ping":67},{"user_id":648,"name":"brobtlcehc","steam_id":76561198043558709,"connected_time":3067000000000,"state":"active","ping":92},{"user_id":686,"name":"Harold","steam_id":76561198057317770,"connected_time":44000000000,"state":"active","ping":75},{"user_id":656,"name":"landon","steam_id":76561198854364921,"connected_time":2588000000000,"state":"active","ping":86},{"user_id":637,"name":"Bullwinkle J. Moose","steam_id":76561198075977196,"connected_time":3921000000000,"state":"active","ping":61},{"user_id":647,"name":"Junior_198X","steam_id":76561198158596794,"connected_time":3187000000000,"state":"active","ping":88},{"user_id":638,"name":"dog","steam_id":76561198263873491,"connected_time":3914000000000,"state":"active","ping":61},{"user_id":682,"name":"chanoc","steam_id":76561198026734746,"connected_time":927000000000,"state":"active","ping":92},{"user_id":640,"name":"Yonkerbonk","steam_id":76561198097628353,"connected_time":3906000000000,"state":"active","ping":46},{"user_id":662,"name":"DeckofDragons","steam_id":76561198057398213,"connected_time":1620000000000,"state":"active","ping":74},{"user_id":641,"name":"nerfington","steam_id":76561198062785419,"connected_time":3889000000000,"state":"active","ping":93},{"user_id":672,"name":"Poptart From Mars","steam_id":76561197979930960,"connected_time":1310000000000,"state":"active","ping":90},{"user_id":650,"name":"p9 jorts","steam_id":76561199041179985,"connected_time":2822000000000,"state":"active","ping":103}]},{"server_id":5,"name":"Uncletopia | Frankfurt | 1 | All Maps","name_short":"frk-1","host":"frk-1.de.uncletopia.com","port":27015,"enabled":true,"region":"eu","cc":"de","latitude":50.110924,"longitude":8.682127,"reserved":0,"last_update":"0001-01-01T00:00:00Z","name_a2s":"Uncletopia | Frankfurt | 1 | All Maps","protocol":17,"map":"pl_snowycoast","folder":"tf","game":"Team Fortress","app_id":440,"player_count":0,"max_players":24,"Bots":0,"server_type":"Dedicated","server_os":"Linux","password":true,"vac":true,"version":"7757534","steam_id":85568392924469989,"keywords":["nocrits","nodmgspread","payload","uncletopia"],"game_id":440,"stv_port":27016,"stv_name":"Uncletopia | Frankfurt | 1 | All Maps | STV","players":null},{"server_id":110,"name":"Uncletopia | Frankfurt | 2 | All Maps","name_short":"frk-2","host":"frk-1.de.uncletopia.com","port":27025,"enabled":true,"region":"eu","cc":"de","latitude":50.110924,"longitude":8.682127,"reserved":0,"last_update":"0001-01-01T00:00:00Z","name_a2s":"Uncletopia | Frankfurt | 2 | All Maps","protocol":17,"map":"pl_snowycoast","folder":"tf","game":"Team Fortress","app_id":440,"player_count":0,"max_players":24,"Bots":0,"server_type":"Dedicated","server_os":"Linux","password":true,"vac":true,"version":"7757534","steam_id":85568392924469990,"keywords":["nocrits","nodmgspread","payload","uncletopia"],"game_id":440,"stv_port":27026,"stv_name":"Uncletopia | Frankfurt | 2 | All Maps | STV","players":null},{"server_id":308,"name":"Uncletopia | Frankfurt | 3 | All Maps","name_short":"frk-3","host":"frk-1.de.uncletopia.com","port":27035,"enabled":true,"region":"eu","cc":"de","latitude":50.110924,"longitude":8.682127,"reserved":0,"last_update":"0001-01-01T00:00:00Z","name_a2s":"Uncletopia | Frankfurt | 3 | All Maps","protocol":17,"map":"cp_altitude","folder":"tf","game":"Team Fortress","app_id":440,"player_count":0,"max_players":24,"Bots":0,"server_type":"Dedicated","server_os":"Linux","password":true,"vac":true,"version":"7757534","steam_id":85568392924504274,"keywords":["cp","nocrits","nodmgspread","uncletopia"],"game_id":440,"stv_port":27036,"stv_name":"Uncletopia | Frankfurt | 3 | All Maps | STV","players":null},{"server_id":309,"name":"Uncletopia | Frankfurt | 4 | All Maps","name_short":"frk-4","host":"frk-1.de.uncletopia.com","port":27045,"enabled":true,"region":"eu","cc":"de","latitude":50.110924,"longitude":8.682127,"reserved":0,"last_update":"0001-01-01T00:00:00Z","name_a2s":"Uncletopia | Frankfurt | 4 | All Maps","protocol":17,"map":"cp_altitude","folder":"tf","game":"Team Fortress","app_id":440,"player_count":0,"max_players":24,"Bots":0,"server_type":"Dedicated","server_os":"Linux","password":true,"vac":true,"version":"7757534","steam_id":85568392924504275,"keywords":["cp","nocrits","nodmgspread","uncletopia"],"game_id":440,"stv_port":27046,"stv_name":"Uncletopia | Frankfurt | 4 | All Maps | STV","players":null},{"server_id":310,"name":"Uncletopia | Frankfurt | 5 | All Maps","name_short":"frk-5","host":"frk-1.de.uncletopia.com","port":27055,"enabled":true,"region":"eu","cc":"de","latitude":50.110924,"longitude":8.682127,"reserved":0,"last_update":"0001-01-01T00:00:00Z","name_a2s":"Uncletopia | Frankfurt | 5 | All Maps","protocol":17,"map":"cp_altitude","folder":"tf","game":"Team Fortress","app_id":440,"player_count":0,"max_players":24,"Bots":0,"server_type":"Dedicated","server_os":"Linux","password":true,"vac":true,"version":"7757534","steam_id":85568392924504277,"keywords":["cp","nocrits","nodmgspread","uncletopia"],"game_id":440,"stv_port":27056,"stv_name":"Uncletopia | Frankfurt | 5 | All Maps | STV","players":null},{"server_id":311,"name":"Uncletopia | Frankfurt | 6 | All Maps","name_short":"frk-6","host":"frk-1.de.uncletopia.com","port":27065,"enabled":true,"region":"eu","cc":"de","latitude":50.110924,"longitude":8.682127,"reserved":0,"last_update":"0001-01-01T00:00:00Z","name_a2s":"Uncletopia | Frankfurt | 6 | All Maps","protocol":17,"map":"koth_highpass","folder":"tf","game":"Team Fortress","app_id":440,"player_count":0,"max_players":24,"Bots":0,"server_type":"Dedicated","server_os":"Linux","password":true,"vac":true,"version":"7757534","steam_id":85568392924504278,"keywords":["cp","nocrits","nodmgspread","uncletopia"],"game_id":440,"stv_port":27066,"stv_name":"Uncletopia | Frankfurt | 6 | All Maps | STV","players":null},{"server_id":23,"name":"Uncletopia | Frankfurt | 7 | Stopwatch Beta","name_short":"frk-7","host":"frk-1.de.uncletopia.com","port":27075,"enabled":true,"region":"eu","cc":"de","latitude":50.110924,"longitude":8.682127,"reserved":0,"last_update":"0001-01-01T00:00:00Z","name_a2s":"Uncletopia | Frankfurt | 7 | Stopwatch Beta","protocol":17,"map":"pl_frontier_final","folder":"tf","game":"Team Fortress","app_id":440,"player_count":0,"max_players":24,"Bots":0,"server_type":"Dedicated","server_os":"Linux","password":true,"vac":true,"version":"7757534","steam_id":85568392924742827,"keywords":["nocrits","nodmgspread","payload","uncletopia"],"game_id":440,"stv_port":27076,"stv_name":"Uncletopia | Frankfurt | 7 | Stopwatch Beta | STV","players":null},{"server_id":24,"name":"Uncletopia | Frankfurt | 8 | Community","name_short":"frk-8","host":"frk-1.de.uncletopia.com","port":27085,"enabled":true,"region":"eu","cc":"de","latitude":50.110924,"longitude":8.682127,"reserved":0,"last_update":"0001-01-01T00:00:00Z","name_a2s":"Uncletopia | Frankfurt | 8 | Community","protocol":17,"map":"pl_badwater","folder":"tf","game":"Team Fortress","app_id":440,"player_count":0,"max_players":24,"Bots":0,"server_type":"Dedicated","server_os":"Linux","password":true,"vac":true,"version":"7757534","steam_id":85568392924742828,"keywords":["nocrits","nodmgspread","payload","uncletopia"],"game_id":440,"stv_port":27086,"stv_name":"Uncletopia | Frankfurt | 8 | Community | STV","players":null},{"server_id":202,"name":"Uncletopia | Hong Kong | 1 | All Maps","name_short":"hgk-1","host":"hgk-1.hk.uncletopia.com","port":27015,"enabled":true,"region":"asia","cc":"hk","latitude":22.302711,"longitude":114.177216,"reserved":0,"last_update":"0001-01-01T00:00:00Z","name_a2s":"Uncletopia | Hong Kong | 1 | All Maps","protocol":17,"map":"pl_frontier_final","folder":"tf","game":"Team Fortress","app_id":440,"player_count":3,"max_players":24,"Bots":0,"server_type":"Dedicated","server_os":"Linux","password":true,"vac":true,"version":"7757534","steam_id":85568392924494504,"keywords":["nocrits","nodmgspread","payload","uncletopia"],"game_id":440,"stv_port":27016,"stv_name":"Uncletopia | Hong Kong | 1 | All Maps | STV","players":[{"user_id":68,"name":"P","steam_id":76561198304514505,"connected_time":650000000000,"state":"active","ping":99},{"user_id":13,"name":"Ice Crack, Dude","steam_id":76561199445694770,"connected_time":7579000000000,"state":"active","ping":136},{"user_id":69,"name":"Waltuh (CEO of Chicanery)","steam_id":76561199257300024,"connected_time":263000000000,"state":"active","ping":93}]},{"server_id":1,"name":"Uncletopia | Los Angeles | 1 | All Maps","name_short":"lax-1","host":"lax-1.us.uncletopia.com","port":27015,"enabled":true,"region":"us-west","cc":"us","latitude":33.94279,"longitude":-118.41004,"reserved":0,"last_update":"0001-01-01T00:00:00Z","name_a2s":"Uncletopia | Los Angeles | 1 | All Maps","protocol":17,"map":"cp_dustbowl","folder":"tf","game":"Team Fortress","app_id":440,"player_count":24,"max_players":24,"Bots":0,"server_type":"Dedicated","server_os":"Linux","password":true,"vac":true,"version":"7757534","steam_id":85568392924469991,"keywords":["cp","nocrits","nodmgspread","uncletopia"],"game_id":440,"stv_port":27016,"stv_name":"Uncletopia | Los Angeles | 1 | All Maps | STV","players":[{"user_id":507,"name":"An00bis","steam_id":76561198044084508,"connected_time":946000000000,"state":"active","ping":54},{"user_id":472,"name":"intek","steam_id":76561198052705291,"connected_time":4229000000000,"state":"active","ping":85},{"user_id":433,"name":"srmoore 103","steam_id":76561198300291415,"connected_time":6554000000000,"state":"active","ping":77},{"user_id":506,"name":"MistakesWereMade","steam_id":76561199059220481,"connected_time":999000000000,"state":"active","ping":54},{"user_id":496,"name":"Nobody","steam_id":76561199352089107,"connected_time":2779000000000,"state":"active","ping":48},{"user_id":321,"name":"Adorable Cat","steam_id":76561198165453127,"connected_time":14340000000000,"state":"active","ping":117},{"user_id":498,"name":"adultfragfinder","steam_id":76561198314145058,"connected_time":2484000000000,"state":"active","ping":96},{"user_id":511,"name":"rose","steam_id":76561197995200743,"connected_time":894000000000,"state":"active","ping":30},{"user_id":516,"name":"TeCon","steam_id":76561198049127236,"connected_time":465000000000,"state":"active","ping":60},{"user_id":497,"name":"ChefMike","steam_id":76561198414034069,"connected_time":2581000000000,"state":"active","ping":118},{"user_id":514,"name":"Citizen Toxie","steam_id":76561197961107982,"connected_time":799000000000,"state":"active","ping":119},{"user_id":457,"name":"Akkawi","steam_id":76561198203159952,"connected_time":5310000000000,"state":"active","ping":62},{"user_id":503,"name":"Misterwipeout","steam_id":76561198068900320,"connected_time":2029000000000,"state":"active","ping":88},{"user_id":482,"name":"Jared","steam_id":76561198174468986,"connected_time":4003000000000,"state":"active","ping":59},{"user_id":474,"name":"L. F. Spirits","steam_id":76561198022265991,"connected_time":4152000000000,"state":"active","ping":104},{"user_id":490,"name":"Xiangote","steam_id":76561198067436825,"connected_time":3119000000000,"state":"active","ping":101},{"user_id":505,"name":"rock gaming","steam_id":76561199402868311,"connected_time":1085000000000,"state":"active","ping":60},{"user_id":517,"name":"Nugakku","steam_id":76561198082346219,"connected_time":229000000000,"state":"active","ping":58},{"user_id":467,"name":"YourWishes","steam_id":76561198154414336,"connected_time":4572000000000,"state":"active","ping":56},{"user_id":481,"name":"LazyDoll","steam_id":76561198053186338,"connected_time":4048000000000,"state":"active","ping":53},{"user_id":483,"name":"joe","steam_id":76561198149179519,"connected_time":3999000000000,"state":"active","ping":57},{"user_id":512,"name":"Joe Grumbo","steam_id":76561198048485190,"connected_time":864000000000,"state":"active","ping":117},{"user_id":513,"name":"Pheasant President","steam_id":76561198315295873,"connected_time":862000000000,"state":"active","ping":54},{"user_id":489,"name":"ScoutBox","steam_id":76561198111539895,"connected_time":3214000000000,"state":"active","ping":46}]},{"server_id":112,"name":"Uncletopia | Los Angeles | 2 | All Maps","name_short":"lax-2","host":"lax-1.us.uncletopia.com","port":27025,"enabled":true,"region":"us-west","cc":"us","latitude":33.94279,"longitude":-118.41004,"reserved":0,"last_update":"0001-01-01T00:00:00Z","name_a2s":"Uncletopia | Los Angeles | 2 | All Maps","protocol":17,"map":"koth_cascade","folder":"tf","game":"Team Fortress","app_id":440,"player_count":0,"max_players":24,"Bots":0,"server_type":"Dedicated","server_os":"Linux","password":true,"vac":true,"version":"7757534","steam_id":85568392924469992,"keywords":["cp","nocrits","nodmgspread","uncletopia"],"game_id":440,"stv_port":27026,"stv_name":"Uncletopia | Los Angeles | 2 | All Maps | STV","players":null},{"server_id":324,"name":"Uncletopia | Los Angeles | 3 | All Maps","name_short":"lax-3","host":"lax-1.us.uncletopia.com","port":27035,"enabled":true,"region":"us-west","cc":"us","latitude":33.94279,"longitude":-118.41004,"reserved":0,"last_update":"0001-01-01T00:00:00Z","name_a2s":"Uncletopia | Los Angeles | 3 | All Maps","protocol":17,"map":"pl_barnblitz","folder":"tf","game":"Team Fortress","app_id":440,"player_count":24,"max_players":24,"Bots":0,"server_type":"Dedicated","server_os":"Linux","password":true,"vac":true,"version":"7757534","steam_id":85568392924510198,"keywords":["nocrits","nodmgspread","payload","uncletopia"],"game_id":440,"stv_port":27036,"stv_name":"Uncletopia | Los Angeles | 3 | All Maps | STV","players":[{"user_id":74,"name":"StrikcZ 父","steam_id":76561198976507691,"connected_time":4050000000000,"state":"active","ping":113},{"user_id":104,"name":"FriskyDemon","steam_id":76561198043684646,"connected_time":1343000000000,"state":"active","ping":72},{"user_id":92,"name":"Eddie Murphy","steam_id":76561198271944041,"connected_time":2528000000000,"state":"active","ping":51},{"user_id":64,"name":"fulices","steam_id":76561198420163702,"connected_time":4331000000000,"state":"active","ping":35},{"user_id":115,"name":"EchoReplayz","steam_id":76561198229366892,"connected_time":1038000000000,"state":"active","ping":100},{"user_id":106,"name":"Underqualified Gunman","steam_id":76561198111061367,"connected_time":1338000000000,"state":"active","ping":67},{"user_id":109,"name":"Kilometer","steam_id":76561198093314891,"connected_time":1254000000000,"state":"active","ping":90},{"user_id":117,"name":"ChibiFerrari","steam_id":76561198825330201,"connected_time":384000000000,"state":"active","ping":72},{"user_id":107,"name":"Astra","steam_id":76561199080740503,"connected_time":1337000000000,"state":"active","ping":109},{"user_id":99,"name":"Dragons\u003eEverything","steam_id":76561199140784635,"connected_time":1766000000000,"state":"active","ping":67},{"user_id":111,"name":"Dennis Tight Pants (Hypertight)","steam_id":76561198023306720,"connected_time":1120000000000,"state":"active","ping":75},{"user_id":112,"name":"Tohubohu","steam_id":76561198077838448,"connected_time":1083000000000,"state":"active","ping":60},{"user_id":118,"name":"ATTENTION ALL BAJORAN WORKERS","steam_id":76561198033918106,"connected_time":81000000000,"state":"active","ping":32},{"user_id":94,"name":"ArVos_Crusader","steam_id":76561198224514564,"connected_time":2504000000000,"state":"active","ping":58},{"user_id":89,"name":"pooblygonzooly2012","steam_id":76561198982054880,"connected_time":2963000000000,"state":"active","ping":58},{"user_id":102,"name":"somewhat silly","steam_id":76561198010269150,"connected_time":1627000000000,"state":"active","ping":67},{"user_id":113,"name":"Ok then","steam_id":76561198891914787,"connected_time":1071000000000,"state":"active","ping":112},{"user_id":90,"name":"Owl_eyes","steam_id":76561198066199203,"connected_time":2597000000000,"state":"active","ping":56},{"user_id":116,"name":"Moth","steam_id":76561198170253694,"connected_time":748000000000,"state":"active","ping":92},{"user_id":48,"name":"Kevin McCarthy","steam_id":76561198843868609,"connected_time":5520000000000,"state":"active","ping":47},{"user_id":49,"name":"Hafez al-Assad","steam_id":76561198340989889,"connected_time":5516000000000,"state":"active","ping":39},{"user_id":114,"name":"Oggabogs","steam_id":76561199114645664,"connected_time":1061000000000,"state":"active","ping":69},{"user_id":84,"name":"sos (as seen on ytp)","steam_id":76561198070136627,"connected_time":3649000000000,"state":"active","ping":48},{"user_id":98,"name":"voidpuppy","steam_id":76561198799922000,"connected_time":1812000000000,"state":"active","ping":48}]},{"server_id":25,"name":"Uncletopia | Los Angeles | 4 | Stopwatch Beta","name_short":"lax-4","host":"lax-1.us.uncletopia.com","port":27045,"enabled":true,"region":"us-west","cc":"us","latitude":33.94279,"longitude":-118.41004,"reserved":0,"last_update":"0001-01-01T00:00:00Z","name_a2s":"Uncletopia | Los Angeles | 4 | Stopwatch Beta","protocol":17,"map":"workshop/koth_ashville_final.ugc2130459942","folder":"tf","game":"Team Fortress","app_id":440,"player_count":0,"max_players":24,"Bots":0,"server_type":"Dedicated","server_os":"Linux","password":true,"vac":true,"version":"7757534","steam_id":85568392924510199,"keywords":["cp","nocrits","nodmgspread","uncletopia"],"game_id":440,"stv_port":27046,"stv_name":"Uncletopia | Los Angeles | 4 | Stopwatch Beta | STV","players":null},{"server_id":11,"name":"Uncletopia | London | 1 | All Maps","name_short":"lon-1","host":"lon-1.uk.uncletopia.com","port":27015,"enabled":true,"region":"eu","cc":"gb","latitude":51.509865,"longitude":-0.118092,"reserved":0,"last_update":"0001-01-01T00:00:00Z","name_a2s":"Uncletopia | London | 1 | All Maps","protocol":17,"map":"koth_lakeside_final","folder":"tf","game":"Team Fortress","app_id":440,"player_count":0,"max_players":24,"Bots":0,"server_type":"Dedicated","server_os":"Linux","password":true,"vac":true,"version":"7757534","steam_id":85568392924367362,"keywords":["cp","nocrits","nodmgspread","uncletopia"],"game_id":440,"stv_port":27016,"stv_name":"Uncletopia | London | 1 | All Maps | STV","players":null},{"server_id":114,"name":"Uncletopia | London | 2 | All Maps","name_short":"lon-2","host":"lon-1.uk.uncletopia.com","port":27025,"enabled":true,"region":"eu","cc":"gb","latitude":51.509865,"longitude":-0.118092,"reserved":0,"last_update":"0001-01-01T00:00:00Z","name_a2s":"Uncletopia | London | 2 | All Maps","protocol":17,"map":"koth_viaduct","folder":"tf","game":"Team Fortress","app_id":440,"player_count":0,"max_players":24,"Bots":0,"server_type":"Dedicated","server_os":"Linux","password":true,"vac":true,"version":"7757534","steam_id":85568392924470941,"keywords":["cp","nocrits","nodmgspread","uncletopia"],"game_id":440,"stv_port":27026,"stv_name":"Uncletopia | London | 2 | All Maps | STV","players":null},{"server_id":320,"name":"Uncletopia | London | 3 | All Maps","name_short":"lon-3","host":"lon-1.uk.uncletopia.com","port":27035,"enabled":true,"region":"eu","cc":"gb","latitude":51.509865,"longitude":-0.118092,"reserved":0,"last_update":"0001-01-01T00:00:00Z","name_a2s":"Uncletopia | London | 3 | All Maps","protocol":17,"map":"koth_cascade","folder":"tf","game":"Team Fortress","app_id":440,"player_count":0,"max_players":24,"Bots":0,"server_type":"Dedicated","server_os":"Linux","password":true,"vac":true,"version":"7757534","steam_id":85568392924510192,"keywords":["cp","nocrits","nodmgspread","uncletopia"],"game_id":440,"stv_port":27036,"stv_name":"Uncletopia | London | 3 | All Maps | STV","players":null},{"server_id":321,"name":"Uncletopia | London | 4 | All Maps","name_short":"lon-4","host":"lon-1.uk.uncletopia.com","port":27045,"enabled":true,"region":"eu","cc":"gb","latitude":51.509865,"longitude":-0.118092,"reserved":0,"last_update":"0001-01-01T00:00:00Z","name_a2s":"Uncletopia | London | 4 | All Maps","protocol":17,"map":"cp_process_final","folder":"tf","game":"Team Fortress","app_id":440,"player_count":0,"max_players":24,"Bots":0,"server_type":"Dedicated","server_os":"Linux","password":true,"vac":true,"version":"7757534","steam_id":85568392924510193,"keywords":["cp","nocrits","nodmgspread","uncletopia"],"game_id":440,"stv_port":27046,"stv_name":"Uncletopia | London | 4 | All Maps | STV","players":null},{"server_id":21,"name":"Uncletopia | London | 5 | All Maps","name_short":"lon-5","host":"lon-1.uk.uncletopia.com","port":27055,"enabled":true,"region":"eu","cc":"gb","latitude":51.509865,"longitude":-0.118092,"reserved":0,"last_update":"0001-01-01T00:00:00Z","name_a2s":"Uncletopia | London | 5 | All Maps","protocol":17,"map":"koth_king","folder":"tf","game":"Team Fortress","app_id":440,"player_count":0,"max_players":24,"Bots":0,"server_type":"Dedicated","server_os":"Linux","password":true,"vac":true,"version":"7757534","steam_id":85568392924742829,"keywords":["cp","nocrits","nodmgspread","uncletopia"],"game_id":440,"stv_port":27056,"stv_name":"Uncletopia | London | 5 | All Maps | STV","players":null},{"server_id":22,"name":"Uncletopia | London | 6 | All Maps","name_short":"lon-6","host":"lon-1.uk.uncletopia.com","port":27065,"enabled":true,"region":"eu","cc":"gb","latitude":51.509865,"longitude":-0.118092,"reserved":0,"last_update":"0001-01-01T00:00:00Z","name_a2s":"Uncletopia | London | 6 | All Maps","protocol":17,"map":"pl_barnblitz","folder":"tf","game":"Team Fortress","app_id":440,"player_count":0,"max_players":24,"Bots":0,"server_type":"Dedicated","server_os":"Linux","password":true,"vac":true,"version":"7757534","steam_id":85568392924742830,"keywords":["nocrits","nodmgspread","payload","uncletopia"],"game_id":440,"stv_port":27066,"stv_name":"Uncletopia | London | 6 | All Maps | STV","players":null},{"server_id":40,"name":"Uncletopia | London | 7 | No Payload","name_short":"lon-7","host":"lon-1.uk.uncletopia.com","port":27075,"enabled":true,"region":"eu","cc":"gb","latitude":51.509865,"longitude":-0.118092,"reserved":0,"last_update":"0001-01-01T00:00:00Z","name_a2s":"Uncletopia | London | 7 | No Payload","protocol":17,"map":"koth_badlands","folder":"tf","game":"Team Fortress","app_id":440,"player_count":0,"max_players":24,"Bots":0,"server_type":"Dedicated","server_os":"Linux","password":true,"vac":true,"version":"7757534","steam_id":85568392924964314,"keywords":["cp","nocrits","nodmgspread","uncletopia"],"game_id":440,"stv_port":27076,"stv_name":"Uncletopia | London | 7 | No Payload | STV","players":null},{"server_id":41,"name":"Uncletopia | London | 8 | Community","name_short":"lon-8","host":"lon-1.uk.uncletopia.com","port":27085,"enabled":true,"region":"eu","cc":"gb","latitude":51.509865,"longitude":-0.118092,"reserved":0,"last_update":"0001-01-01T00:00:00Z","name_a2s":"Uncletopia | London | 8 | Community","protocol":17,"map":"workshop/cp_hazyfort_rc6.ugc1365963729","folder":"tf","game":"Team Fortress","app_id":440,"player_count":0,"max_players":24,"Bots":0,"server_type":"Dedicated","server_os":"Linux","password":true,"vac":true,"version":"7757534","steam_id":85568392924964315,"keywords":["cp","nocrits","nodmgspread","uncletopia"],"game_id":440,"stv_port":27086,"stv_name":"Uncletopia | London | 8 | Community | STV","players":null},{"server_id":300,"name":"Uncletopia | Montréal | 1 | All Maps","name_short":"mtl-1","host":"mtl-1.ca.uncletopia.com","port":27015,"enabled":true,"region":"us-east","cc":"ca","latitude":45.50889,"longitude":-73.56167,"reserved":0,"last_update":"0001-01-01T00:00:00Z","name_a2s":"Uncletopia | Montréal | 1 | All Maps","protocol":17,"map":"pl_upward","folder":"tf","game":"Team Fortress","app_id":440,"player_count":12,"max_players":24,"Bots":0,"server_type":"Dedicated","server_os":"Linux","password":true,"vac":true,"version":"7757534","steam_id":85568392924500087,"keywords":["nocrits","nodmgspread","payload","uncletopia"],"game_id":440,"stv_port":27016,"stv_name":"Uncletopia | Montréal | 1 | All Maps | STV","players":[{"user_id":249,"name":"Warkeidan","steam_id":76561198118805546,"connected_time":882000000000,"state":"active","ping":49},{"user_id":219,"name":"The Breaker of Skies","steam_id":76561198029478821,"connected_time":2862000000000,"state":"active","ping":50},{"user_id":256,"name":"pou123321","steam_id":76561198069211237,"connected_time":271000000000,"state":"active","ping":58},{"user_id":209,"name":"It's a me Malario","steam_id":76561198176546013,"connected_time":4013000000000,"state":"active","ping":130},{"user_id":252,"name":"xd Clover","steam_id":76561198038905361,"connected_time":572000000000,"state":"active","ping":58},{"user_id":217,"name":"ZekeN0Tech","steam_id":76561198042151365,"connected_time":2925000000000,"state":"active","ping":70},{"user_id":257,"name":"Otis from Back at the Barnyard","steam_id":76561198051059704,"connected_time":168000000000,"state":"active","ping":67},{"user_id":255,"name":"layabout","steam_id":76561198130892117,"connected_time":432000000000,"state":"active","ping":60},{"user_id":258,"name":"Gutter Grime","steam_id":76561198100619417,"connected_time":148000000000,"state":"active","ping":84},{"user_id":246,"name":"MontellWilliams","steam_id":76561198172143015,"connected_time":1296000000000,"state":"active","ping":52},{"user_id":116,"name":"Piyono","steam_id":76561197962188504,"connected_time":12630000000000,"state":"active","ping":63},{"user_id":244,"name":"Tough Puffin","steam_id":76561198024011010,"connected_time":1517000000000,"state":"active","ping":69}]},{"server_id":301,"name":"Uncletopia | Montréal | 2 | All Maps","name_short":"mtl-2","host":"mtl-1.ca.uncletopia.com","port":27025,"enabled":true,"region":"us-east","cc":"ca","latitude":45.50889,"longitude":-73.56167,"reserved":0,"last_update":"0001-01-01T00:00:00Z","name_a2s":"Uncletopia | Montréal | 2 | All Maps","protocol":17,"map":"koth_viaduct","folder":"tf","game":"Team Fortress","app_id":440,"player_count":0,"max_players":24,"Bots":0,"server_type":"Dedicated","server_os":"Linux","password":true,"vac":true,"version":"7757534","steam_id":85568392924500088,"keywords":["cp","nocrits","nodmgspread","uncletopia"],"game_id":440,"stv_port":27026,"stv_name":"Uncletopia | Montréal | 2 | All Maps | STV","players":null},{"server_id":302,"name":"Uncletopia | Montréal | 3 | All Maps","name_short":"mtl-3","host":"mtl-1.ca.uncletopia.com","port":27035,"enabled":true,"region":"us-east","cc":"ca","latitude":45.50889,"longitude":-73.56167,"reserved":0,"last_update":"0001-01-01T00:00:00Z","name_a2s":"Uncletopia | Montréal | 3 | All Maps","protocol":17,"map":"pl_frontier_final","folder":"tf","game":"Team Fortress","app_id":440,"player_count":0,"max_players":24,"Bots":0,"server_type":"Dedicated","server_os":"Linux","password":true,"vac":true,"version":"7757534","steam_id":85568392924500089,"keywords":["nocrits","nodmgspread","payload","uncletopia"],"game_id":440,"stv_port":27036,"stv_name":"Uncletopia | Montréal | 3 | All Maps | STV","players":null},{"server_id":303,"name":"Uncletopia | Montréal | 4 | No Payload","name_short":"mtl-4","host":"mtl-1.ca.uncletopia.com","port":27045,"enabled":true,"region":"us-east","cc":"ca","latitude":45.50889,"longitude":-73.56167,"reserved":0,"last_update":"0001-01-01T00:00:00Z","name_a2s":"Uncletopia | Montréal | 4 | No Payload","protocol":17,"map":"pl_borneo","folder":"tf","game":"Team Fortress","app_id":440,"player_count":0,"max_players":24,"Bots":0,"server_type":"Dedicated","server_os":"Linux","password":true,"vac":true,"version":"7757534","steam_id":85568392924500090,"keywords":["nocrits","nodmgspread","payload","uncletopia"],"game_id":440,"stv_port":27046,"stv_name":"Uncletopia | Montréal | 4 | No Payload | STV","players":null},{"server_id":13,"name":"Uncletopia | New York City | 1 | All Maps","name_short":"nyc-1","host":"nyc-1.us.uncletopia.com","port":27015,"enabled":true,"region":"us-east","cc":"us","latitude":40.73061,"longitude":-73.93524,"reserved":0,"last_update":"0001-01-01T00:00:00Z","name_a2s":"Uncletopia | New York City | 1 | All Maps","protocol":17,"map":"pl_badwater","folder":"tf","game":"Team Fortress","app_id":440,"player_count":22,"max_players":24,"Bots":0,"server_type":"Dedicated","server_os":"Linux","password":true,"vac":true,"version":"7757534","steam_id":85568392924469993,"keywords":["nocrits","nodmgspread","payload","uncletopia"],"game_id":440,"stv_port":27016,"stv_name":"Uncletopia | New York City | 1 | All Maps | STV","players":[{"user_id":504,"name":"ʕ•ᴥ•ʔ the bear","steam_id":76561197989591976,"connected_time":57000000000,"state":"active","ping":59},{"user_id":503,"name":"fice","steam_id":76561198860361610,"connected_time":90000000000,"state":"active","ping":52},{"user_id":481,"name":"Tito","steam_id":76561198041702529,"connected_time":3361000000000,"state":"active","ping":65},{"user_id":498,"name":"dookie 4hunnid","steam_id":76561198097034115,"connected_time":1201000000000,"state":"active","ping":55},{"user_id":505,"name":"Volkan, Pervert Extraordinaire","steam_id":76561198004569575,"connected_time":55000000000,"state":"active","ping":55},{"user_id":426,"name":"bladee","steam_id":76561198209795841,"connected_time":7373000000000,"state":"active","ping":63},{"user_id":506,"name":"Vince Offer","steam_id":76561198991008825,"connected_time":48000000000,"state":"active","ping":66},{"user_id":495,"name":"Araaksa","steam_id":76561198931153864,"connected_time":2015000000000,"state":"active","ping":71},{"user_id":502,"name":"shawcrow","steam_id":76561198998720161,"connected_time":112000000000,"state":"active","ping":69},{"user_id":501,"name":"Raspberry1111","steam_id":76561199013708869,"connected_time":1019000000000,"state":"active","ping":59},{"user_id":507,"name":"AzuriousAlex","steam_id":76561198158026405,"connected_time":22000000000,"state":"active","ping":97},{"user_id":371,"name":"Silvercoat's Stargazer","steam_id":76561198399525329,"connected_time":11544000000000,"state":"active","ping":60},{"user_id":490,"name":"Architect","steam_id":76561198015242016,"connected_time":2268000000000,"state":"active","ping":62},{"user_id":458,"name":"averagesoldiermain","steam_id":76561198158447466,"connected_time":4924000000000,"state":"active","ping":87},{"user_id":430,"name":"Fridge","steam_id":76561198158336035,"connected_time":6966000000000,"state":"active","ping":61},{"user_id":470,"name":"NovaSc6ut","steam_id":76561198277163301,"connected_time":3657000000000,"state":"active","ping":81},{"user_id":483,"name":"Kero","steam_id":76561198343231436,"connected_time":2702000000000,"state":"active","ping":76},{"user_id":497,"name":"CivilWarMike","steam_id":76561198141188839,"connected_time":1480000000000,"state":"active","ping":85},{"user_id":508,"name":"Gay Cake","steam_id":76561198004388831,"connected_time":19000000000,"state":"spawning","ping":67},{"user_id":425,"name":"Glad","steam_id":76561199388372220,"connected_time":7379000000000,"state":"active","ping":46},{"user_id":492,"name":"HE’S IN THE GODDAMN WALLS","steam_id":76561198363267009,"connected_time":2247000000000,"state":"active","ping":87},{"user_id":428,"name":"SpinetinglingToast","steam_id":76561198099470670,"connected_time":7351000000000,"state":"active","ping":54}]},{"server_id":14,"name":"Uncletopia | New York City | 2 | All Maps","name_short":"nyc-2","host":"nyc-1.us.uncletopia.com","port":27025,"enabled":true,"region":"us-east","cc":"us","latitude":40.73061,"longitude":-73.93524,"reserved":0,"last_update":"0001-01-01T00:00:00Z","name_a2s":"Uncletopia | New York City | 2 | All Maps","protocol":17,"map":"koth_cascade","folder":"tf","game":"Team Fortress","app_id":440,"player_count":0,"max_players":24,"Bots":0,"server_type":"Dedicated","server_os":"Linux","password":true,"vac":true,"version":"7757534","steam_id":85568392924469994,"keywords":["cp","nocrits","nodmgspread","uncletopia"],"game_id":440,"stv_port":27026,"stv_name":"Uncletopia | New York City | 2 | All Maps | STV","players":null},{"server_id":15,"name":"Uncletopia | New York City | 3 | Stopwatch Beta","name_short":"nyc-3","host":"nyc-1.us.uncletopia.com","port":27035,"enabled":true,"region":"us-east","cc":"us","latitude":40.73061,"longitude":-73.93524,"reserved":0,"last_update":"0001-01-01T00:00:00Z","name_a2s":"Uncletopia | New York City | 3 | Stopwatch Beta","protocol":17,"map":"pl_swiftwater_final1","folder":"tf","game":"Team Fortress","app_id":440,"player_count":0,"max_players":24,"Bots":0,"server_type":"Dedicated","server_os":"Linux","password":true,"vac":true,"version":"7757534","steam_id":85568392924742820,"keywords":["nocrits","nodmgspread","payload","uncletopia"],"game_id":440,"stv_port":27036,"stv_name":"Uncletopia | New York City | 3 | Stopwatch Beta | STV","players":null},{"server_id":16,"name":"Uncletopia | New York City | 4 | Community","name_short":"nyc-4","host":"nyc-1.us.uncletopia.com","port":27045,"enabled":true,"region":"us-east","cc":"us","latitude":40.73061,"longitude":-73.93524,"reserved":0,"last_update":"0001-01-01T00:00:00Z","name_a2s":"Uncletopia | New York City | 4 | Community","protocol":17,"map":"workshop/pl_cashworks_final1.ugc2904065412","folder":"tf","game":"Team Fortress","app_id":440,"player_count":0,"max_players":24,"Bots":0,"server_type":"Dedicated","server_os":"Linux","password":true,"vac":true,"version":"7757534","steam_id":85568392924742821,"keywords":["nocrits","nodmgspread","payload","uncletopia"],"game_id":440,"stv_port":27046,"stv_name":"Uncletopia | New York City | 4 | Community | STV","players":null},{"server_id":142,"name":"Uncletopia | São Paulo | 1 | All Maps","name_short":"sao-1","host":"sao-1.br.uncletopia.com","port":27015,"enabled":true,"region":"sa","cc":"br","latitude":-23.533773,"longitude":-46.62529,"reserved":0,"last_update":"0001-01-01T00:00:00Z","name_a2s":"Uncletopia | São Paulo | 1 | All Maps","protocol":17,"map":"pl_barnblitz","folder":"tf","game":"Team Fortress","app_id":440,"player_count":0,"max_players":24,"Bots":0,"server_type":"Dedicated","server_os":"Linux","password":true,"vac":true,"version":"7757534","steam_id":85568392924469996,"keywords":["nocrits","nodmgspread","payload","uncletopia"],"game_id":440,"stv_port":27016,"stv_name":"Uncletopia | São Paulo | 1 | All Maps | STV","players":null},{"server_id":143,"name":"Uncletopia | São Paulo | 2 | All Maps","name_short":"sao-2","host":"sao-2.br.uncletopia.com","port":27015,"enabled":true,"region":"sa","cc":"br","latitude":-23.533773,"longitude":-46.62529,"reserved":0,"last_update":"0001-01-01T00:00:00Z","name_a2s":"Uncletopia | São Paulo | 2 | All Maps","protocol":17,"map":"koth_viaduct","folder":"tf","game":"Team Fortress","app_id":440,"player_count":0,"max_players":24,"Bots":0,"server_type":"Dedicated","server_os":"Linux","password":true,"vac":true,"version":"7757534","steam_id":85568392924485349,"keywords":["cp","nocrits","nodmgspread","uncletopia"],"game_id":440,"stv_port":27016,"stv_name":"Uncletopia | São Paulo | 2 | All Maps | STV","players":null},{"server_id":7,"name":"Uncletopia | Seattle | 1 | All Maps","name_short":"sea-1","host":"sea-1.us.uncletopia.com","port":27015,"enabled":true,"region":"us-west","cc":"us","latitude":47.608013,"longitude":-122.33517,"reserved":0,"last_update":"0001-01-01T00:00:00Z","name_a2s":"Uncletopia | Seattle | 1 | All Maps","protocol":17,"map":"ctf_2fort","folder":"tf","game":"Team Fortress","app_id":440,"player_count":24,"max_players":24,"Bots":0,"server_type":"Dedicated","server_os":"Linux","password":true,"vac":true,"version":"7757534","steam_id":85568392924469997,"keywords":["ctf","nocrits","nodmgspread","uncletopia"],"game_id":440,"stv_port":27016,"stv_name":"Uncletopia | Seattle | 1 | All Maps | STV","players":[{"user_id":328,"name":"Markz","steam_id":76561197996278159,"connected_time":316000000000,"state":"active","ping":96},{"user_id":319,"name":"EvenNine","steam_id":76561198207745293,"connected_time":563000000000,"state":"active","ping":114},{"user_id":329,"name":"marcus smart","steam_id":76561198178912403,"connected_time":313000000000,"state":"active","ping":109},{"user_id":292,"name":"Level 99 Mudcrab","steam_id":76561198077452771,"connected_time":3042000000000,"state":"active","ping":60},{"user_id":309,"name":"the bandit","steam_id":76561199158540950,"connected_time":1269000000000,"state":"active","ping":67},{"user_id":301,"name":"Strikerbolt","steam_id":76561199095622897,"connected_time":1590000000000,"state":"active","ping":89},{"user_id":257,"name":"HaphazardHazel","steam_id":76561198316812693,"connected_time":5798000000000,"state":"active","ping":135},{"user_id":294,"name":"ShredMaan","steam_id":76561198429982138,"connected_time":2692000000000,"state":"active","ping":86},{"user_id":304,"name":"Cpt. Dingle","steam_id":76561198025720199,"connected_time":1577000000000,"state":"active","ping":76},{"user_id":315,"name":"Iron Argus","steam_id":76561198181088245,"connected_time":618000000000,"state":"active","ping":125},{"user_id":316,"name":"TheSpyAssassin","steam_id":76561198098007833,"connected_time":612000000000,"state":"active","ping":86},{"user_id":320,"name":"bird","steam_id":76561199144340440,"connected_time":504000000000,"state":"active","ping":63},{"user_id":318,"name":"LazerCannon","steam_id":76561198256696159,"connected_time":610000000000,"state":"active","ping":87},{"user_id":300,"name":"Elbis Premsly","steam_id":76561198067717795,"connected_time":1590000000000,"state":"active","ping":75},{"user_id":322,"name":"Common","steam_id":76561198041083863,"connected_time":442000000000,"state":"active","ping":53},{"user_id":331,"name":"doozy","steam_id":76561198033106776,"connected_time":93000000000,"state":"active","ping":83},{"user_id":310,"name":"Samiho","steam_id":76561198984374561,"connected_time":981000000000,"state":"active","ping":63},{"user_id":312,"name":"Clemont007","steam_id":76561198030935625,"connected_time":863000000000,"state":"active","ping":78},{"user_id":330,"name":"Truffles","steam_id":76561198095868800,"connected_time":159000000000,"state":"active","ping":113},{"user_id":324,"name":"shoe","steam_id":76561198451476220,"connected_time":414000000000,"state":"active","ping":59},{"user_id":243,"name":"lavender","steam_id":76561199069518286,"connected_time":7126000000000,"state":"active","ping":74},{"user_id":325,"name":"Escher","steam_id":76561198045058061,"connected_time":402000000000,"state":"active","ping":36},{"user_id":326,"name":"DusterDan35","steam_id":76561198309129093,"connected_time":398000000000,"state":"active","ping":76},{"user_id":299,"name":"Lonestar827","steam_id":76561198035533639,"connected_time":1613000000000,"state":"active","ping":53}]},{"server_id":119,"name":"Uncletopia | Seattle | 2 | All Maps","name_short":"sea-2","host":"sea-1.us.uncletopia.com","port":27025,"enabled":true,"region":"us-west","cc":"us","latitude":47.608013,"longitude":-122.33517,"reserved":0,"last_update":"0001-01-01T00:00:00Z","name_a2s":"Uncletopia | Seattle | 2 | All Maps","protocol":17,"map":"pl_goldrush","folder":"tf","game":"Team Fortress","app_id":440,"player_count":24,"max_players":24,"Bots":0,"server_type":"Dedicated","server_os":"Linux","password":true,"vac":true,"version":"7757534","steam_id":85568392924469998,"keywords":["nocrits","nodmgspread","payload","uncletopia"],"game_id":440,"stv_port":27026,"stv_name":"Uncletopia | Seattle | 2 | All Maps | STV","players":[{"user_id":691,"name":"brhm","steam_id":76561198199604767,"connected_time":1092000000000,"state":"active","ping":55},{"user_id":680,"name":"👁 sumixodic","steam_id":76561198090770710,"connected_time":1845000000000,"state":"active","ping":56},{"user_id":518,"name":"pizzaguy4","steam_id":76561198058821622,"connected_time":14018000000000,"state":"active","ping":95},{"user_id":630,"name":"ProtogenJake","steam_id":76561198177771255,"connected_time":6897000000000,"state":"active","ping":69},{"user_id":702,"name":"CheesyPoofs","steam_id":76561197998650617,"connected_time":289000000000,"state":"active","ping":54},{"user_id":675,"name":"Thezest","steam_id":76561198043895839,"connected_time":2366000000000,"state":"active","ping":39},{"user_id":692,"name":"MyMonkeyBaby","steam_id":76561198046896670,"connected_time":1066000000000,"state":"active","ping":59},{"user_id":652,"name":"oo","steam_id":76561198119626492,"connected_time":3886000000000,"state":"active","ping":68},{"user_id":699,"name":"fragadelphia","steam_id":76561198066116363,"connected_time":334000000000,"state":"active","ping":54},{"user_id":689,"name":"Tom Skirrett","steam_id":76561198014600788,"connected_time":1264000000000,"state":"active","ping":70},{"user_id":687,"name":"shiftshock01","steam_id":76561199049488870,"connected_time":1383000000000,"state":"active","ping":70},{"user_id":696,"name":"R5-D4","steam_id":76561198025196439,"connected_time":650000000000,"state":"active","ping":56},{"user_id":669,"name":"Mom","steam_id":76561198207936000,"connected_time":2582000000000,"state":"active","ping":62},{"user_id":679,"name":"Santicules","steam_id":76561198209373536,"connected_time":1990000000000,"state":"active","ping":105},{"user_id":682,"name":"BIGWELDFROMROBOTS","steam_id":76561199275349806,"connected_time":1824000000000,"state":"active","ping":88},{"user_id":670,"name":"TROY","steam_id":76561197983852176,"connected_time":2581000000000,"state":"active","ping":75},{"user_id":688,"name":"CrimsonBlue","steam_id":76561198837742649,"connected_time":1304000000000,"state":"active","ping":75},{"user_id":701,"name":"mooney","steam_id":76561199110622484,"connected_time":333000000000,"state":"active","ping":75},{"user_id":694,"name":"J U K I E","steam_id":76561197962841151,"connected_time":1036000000000,"state":"active","ping":46},{"user_id":647,"name":"Underscore","steam_id":76561198374209415,"connected_time":4921000000000,"state":"active","ping":107},{"user_id":663,"name":"SN0W","steam_id":76561198153665468,"connected_time":3523000000000,"state":"active","ping":91},{"user_id":664,"name":"the stallion","steam_id":76561198212242403,"connected_time":3518000000000,"state":"active","ping":79},{"user_id":668,"name":"SomeGuyWhoLikesPotatoes","steam_id":76561198110276797,"connected_time":2590000000000,"state":"active","ping":59},{"user_id":672,"name":"Sivinus","steam_id":76561198025589541,"connected_time":2565000000000,"state":"active","ping":96}]},{"server_id":406,"name":"Uncletopia | Seattle | 3 | Stopwatch Beta","name_short":"sea-3","host":"sea-1.us.uncletopia.com","port":27035,"enabled":true,"region":"us-west","cc":"us","latitude":47.608013,"longitude":-122.33517,"reserved":0,"last_update":"0001-01-01T00:00:00Z","name_a2s":"Uncletopia | Seattle | 3 | Stopwatch Beta","protocol":17,"map":"workshop/pl_vigil_rc9.ugc1266210012","folder":"tf","game":"Team Fortress","app_id":440,"player_count":0,"max_players":24,"Bots":0,"server_type":"Dedicated","server_os":"Linux","password":true,"vac":true,"version":"7757534","steam_id":85568392924515217,"keywords":["nocrits","nodmgspread","payload","uncletopia"],"game_id":440,"stv_port":27036,"stv_name":"Uncletopia | Seattle | 3 | Stopwatch Beta | STV","players":null},{"server_id":17,"name":"Uncletopia | San Francisco | 1 | All Maps","name_short":"sfo-1","host":"sfo-1.us.uncletopia.com","port":27015,"enabled":true,"region":"us-west","cc":"us","latitude":37.77397,"longitude":-122.4313,"reserved":0,"last_update":"0001-01-01T00:00:00Z","name_a2s":"Uncletopia | San Francisco | 1 | All Maps","protocol":17,"map":"cp_dustbowl","folder":"tf","game":"Team Fortress","app_id":440,"player_count":0,"max_players":24,"Bots":0,"server_type":"Dedicated","server_os":"Linux","password":true,"vac":true,"version":"7757534","steam_id":85568392924469999,"keywords":["cp","nocrits","nodmgspread","uncletopia"],"game_id":440,"stv_port":27016,"stv_name":"Uncletopia | San Francisco | 1 | All Maps | STV","players":null},{"server_id":18,"name":"Uncletopia | San Francisco | 2 | All Maps","name_short":"sfo-2","host":"sfo-1.us.uncletopia.com","port":27025,"enabled":true,"region":"us-west","cc":"us","latitude":37.77397,"longitude":-122.4313,"reserved":0,"last_update":"0001-01-01T00:00:00Z","name_a2s":"Uncletopia | San Francisco | 2 | All Maps","protocol":17,"map":"pl_upward","folder":"tf","game":"Team Fortress","app_id":440,"player_count":24,"max_players":24,"Bots":0,"server_type":"Dedicated","server_os":"Linux","password":true,"vac":true,"version":"7757534","steam_id":85568392924470000,"keywords":["nocrits","nodmgspread","payload","uncletopia"],"game_id":440,"stv_port":27026,"stv_name":"Uncletopia | San Francisco | 2 | All Maps | STV","players":[{"user_id":289,"name":"shadow wizard money gang","steam_id":76561198150406851,"connected_time":1627000000000,"state":"active","ping":51},{"user_id":293,"name":"Fresh","steam_id":76561198068565728,"connected_time":1406000000000,"state":"active","ping":43},{"user_id":292,"name":"EatSomeBEES","steam_id":76561198047334307,"connected_time":1483000000000,"state":"active","ping":75},{"user_id":267,"name":"Antzen","steam_id":76561198041343470,"connected_time":3485000000000,"state":"active","ping":51},{"user_id":299,"name":"oil","steam_id":76561198099980149,"connected_time":234000000000,"state":"active","ping":61},{"user_id":288,"name":"HOG RIDER","steam_id":76561198298589502,"connected_time":1819000000000,"state":"active","ping":62},{"user_id":283,"name":"Quon Grene for Vice Prez","steam_id":76561198127545817,"connected_time":2120000000000,"state":"active","ping":62},{"user_id":298,"name":"Swag5","steam_id":76561198065311356,"connected_time":235000000000,"state":"active","ping":49},{"user_id":265,"name":"Feel the bern","steam_id":76561198078824519,"connected_time":3509000000000,"state":"active","ping":55},{"user_id":180,"name":"tweet","steam_id":76561198166515735,"connected_time":9824000000000,"state":"active","ping":45},{"user_id":249,"name":"Igrium","steam_id":76561198119549811,"connected_time":4087000000000,"state":"active","ping":57},{"user_id":291,"name":"yolginmo","steam_id":76561198157985901,"connected_time":1601000000000,"state":"active","ping":81},{"user_id":294,"name":"QueeQuee","steam_id":76561198070804012,"connected_time":1400000000000,"state":"active","ping":78},{"user_id":208,"name":"Dosario","steam_id":76561198298095535,"connected_time":7434000000000,"state":"active","ping":64},{"user_id":295,"name":"AilurosMajor88","steam_id":76561198350900640,"connected_time":1367000000000,"state":"active","ping":73},{"user_id":297,"name":"Swag6","steam_id":76561198064110837,"connected_time":454000000000,"state":"active","ping":46},{"user_id":253,"name":"Danzuniverse","steam_id":76561198179817943,"connected_time":3913000000000,"state":"active","ping":73},{"user_id":228,"name":"dave strider","steam_id":76561198065112186,"connected_time":6449000000000,"state":"active","ping":71},{"user_id":282,"name":"TheFakeApple","steam_id":76561199090113472,"connected_time":2442000000000,"state":"active","ping":71},{"user_id":280,"name":"SvicidalBug","steam_id":76561198221390504,"connected_time":2503000000000,"state":"active","ping":87},{"user_id":286,"name":"MR.meeseeks","steam_id":76561198294943420,"connected_time":1993000000000,"state":"active","ping":83},{"user_id":279,"name":"3.dlc","steam_id":76561198234377776,"connected_time":2630000000000,"state":"active","ping":61},{"user_id":287,"name":"Iskcal75","steam_id":76561199446407203,"connected_time":1991000000000,"state":"active","ping":97},{"user_id":201,"name":"Anthid","steam_id":76561198074493797,"connected_time":7863000000000,"state":"active","ping":73}]},{"server_id":19,"name":"Uncletopia | San Francisco | 3 | Stopwatch Beta","name_short":"sfo-3","host":"sfo-1.us.uncletopia.com","port":27035,"enabled":true,"region":"us-west","cc":"us","latitude":37.77397,"longitude":-122.4313,"reserved":0,"last_update":"0001-01-01T00:00:00Z","name_a2s":"Uncletopia | San Francisco | 3 | Stopwatch Beta","protocol":17,"map":"workshop/koth_ramjam_rc1.ugc459778887","folder":"tf","game":"Team Fortress","app_id":440,"player_count":0,"max_players":24,"Bots":0,"server_type":"Dedicated","server_os":"Linux","password":true,"vac":true,"version":"7757534","steam_id":85568392924742824,"keywords":["cp","nocrits","nodmgspread","uncletopia"],"game_id":440,"stv_port":27036,"stv_name":"Uncletopia | San Francisco | 3 | Stopwatch Beta | STV","players":null},{"server_id":20,"name":"Uncletopia | San Francisco | 4 | Community","name_short":"sfo-4","host":"sfo-1.us.uncletopia.com","port":27045,"enabled":true,"region":"us-west","cc":"us","latitude":37.77397,"longitude":-122.4313,"reserved":0,"last_update":"0001-01-01T00:00:00Z","name_a2s":"Uncletopia | San Francisco | 4 | Community","protocol":17,"map":"workshop/pl_corrode_rc2.ugc546577989","folder":"tf","game":"Team Fortress","app_id":440,"player_count":0,"max_players":24,"Bots":0,"server_type":"Dedicated","server_os":"Linux","password":true,"vac":true,"version":"7757534","steam_id":85568392924742826,"keywords":["nocrits","nodmgspread","payload","uncletopia"],"game_id":440,"stv_port":27046,"stv_name":"Uncletopia | San Francisco | 4 | Community | STV","players":null},{"server_id":141,"name":"Uncletopia | Sydney | 1 | All Maps","name_short":"syd-1","host":"syd-1.au.uncletopia.com","port":27015,"enabled":true,"region":"au","cc":"au","latitude":-33.865143,"longitude":151.2099,"reserved":0,"last_update":"0001-01-01T00:00:00Z","name_a2s":"Uncletopia | Sydney | 1 | All Maps","protocol":17,"map":"pl_frontier_final","folder":"tf","game":"Team Fortress","app_id":440,"player_count":0,"max_players":24,"Bots":0,"server_type":"Dedicated","server_os":"Linux","password":true,"vac":true,"version":"7757534","steam_id":85568392924470001,"keywords":["nocrits","nodmgspread","payload","uncletopia"],"game_id":440,"stv_port":27016,"stv_name":"Uncletopia | Sydney | 1 | All Maps | STV","players":null},{"server_id":123,"name":"Uncletopia | Sydney | 2 | All Maps","name_short":"syd-2","host":"syd-1.au.uncletopia.com","port":27025,"enabled":true,"region":"au","cc":"au","latitude":-33.865143,"longitude":151.2099,"reserved":0,"last_update":"0001-01-01T00:00:00Z","name_a2s":"Uncletopia | Sydney | 2 | All Maps","protocol":17,"map":"pl_snowycoast","folder":"tf","game":"Team Fortress","app_id":440,"player_count":11,"max_players":24,"Bots":0,"server_type":"Dedicated","server_os":"Linux","password":true,"vac":true,"version":"7757534","steam_id":85568392924470002,"keywords":["nocrits","nodmgspread","payload","uncletopia"],"game_id":440,"stv_port":27026,"stv_name":"Uncletopia | Sydney | 2 | All Maps | STV","players":[{"user_id":63,"name":"FatScout","steam_id":76561198013870201,"connected_time":230000000000,"state":"active","ping":57},{"user_id":43,"name":"Catto","steam_id":76561197999111589,"connected_time":1104000000000,"state":"active","ping":30},{"user_id":44,"name":"Bowl","steam_id":76561198345777684,"connected_time":982000000000,"state":"active","ping":75},{"user_id":45,"name":"RBY","steam_id":76561198279663555,"connected_time":955000000000,"state":"active","ping":55},{"user_id":48,"name":"FartSlayer849","steam_id":76561198824949475,"connected_time":827000000000,"state":"active","ping":65},{"user_id":46,"name":"Consolidated Fart","steam_id":76561198924101909,"connected_time":953000000000,"state":"active","ping":64},{"user_id":49,"name":"pos!t!ve","steam_id":76561199087124672,"connected_time":772000000000,"state":"active","ping":45},{"user_id":50,"name":"Demoman TF2","steam_id":76561199385951535,"connected_time":753000000000,"state":"active","ping":63},{"user_id":61,"name":"syl","steam_id":76561198049270541,"connected_time":318000000000,"state":"active","ping":30},{"user_id":52,"name":"Drakeo","steam_id":76561198268859184,"connected_time":693000000000,"state":"active","ping":89},{"user_id":55,"name":"Splooge Fellow","steam_id":76561198067993108,"connected_time":615000000000,"state":"active","ping":43}]},{"server_id":395,"name":"Uncletopia | Sydney | 3 | All Maps","name_short":"syd-3","host":"syd-1.au.uncletopia.com","port":27035,"enabled":true,"region":"au","cc":"au","latitude":-33.865143,"longitude":151.2099,"reserved":0,"last_update":"0001-01-01T00:00:00Z","name_a2s":"Uncletopia | Sydney | 3 | All Maps","protocol":17,"map":"pl_frontier_final","folder":"tf","game":"Team Fortress","app_id":440,"player_count":0,"max_players":24,"Bots":0,"server_type":"Dedicated","server_os":"Linux","password":true,"vac":true,"version":"7757534","steam_id":85568392925194467,"keywords":["nocrits","nodmgspread","payload","uncletopia"],"game_id":440,"stv_port":27036,"stv_name":"Uncletopia | Sydney | 3 | All Maps | STV","players":null},{"server_id":396,"name":"Uncletopia | Sydney | 4 | All Maps","name_short":"syd-4","host":"syd-1.au.uncletopia.com","port":27045,"enabled":true,"region":"au","cc":"au","latitude":-33.865143,"longitude":151.2099,"reserved":0,"last_update":"0001-01-01T00:00:00Z","name_a2s":"Uncletopia | Sydney | 4 | All Maps","protocol":17,"map":"koth_lakeside_final","folder":"tf","game":"Team Fortress","app_id":440,"player_count":0,"max_players":24,"Bots":0,"server_type":"Dedicated","server_os":"Linux","password":true,"vac":true,"version":"7757534","steam_id":85568392925397958,"keywords":["cp","nocrits","nodmgspread","uncletopia"],"game_id":440,"stv_port":27046,"stv_name":"Uncletopia | Sydney | 4 | All Maps | STV","players":null},{"server_id":58,"name":"Uncletopia | Sydney | 5 | Stopwatch Beta","name_short":"syd-5","host":"syd-1.au.uncletopia.com","port":27055,"enabled":true,"region":"au","cc":"au","latitude":-33.865143,"longitude":151.2099,"reserved":0,"last_update":"0001-01-01T00:00:00Z","name_a2s":"Uncletopia | Sydney | 5 | Stopwatch Beta","protocol":17,"map":"koth_highpass","folder":"tf","game":"Team Fortress","app_id":440,"player_count":0,"max_players":24,"Bots":0,"server_type":"Dedicated","server_os":"Linux","password":true,"vac":true,"version":"7757534","steam_id":85568392925397959,"keywords":["cp","nocrits","nodmgspread","uncletopia"],"game_id":440,"stv_port":27056,"stv_name":"Uncletopia | Sydney | 5 | Stopwatch Beta | STV","players":null},{"server_id":59,"name":"Uncletopia | Sydney | 6 | Community","name_short":"syd-6","host":"syd-1.au.uncletopia.com","port":27065,"enabled":true,"region":"au","cc":"au","latitude":-33.865143,"longitude":151.2099,"reserved":0,"last_update":"0001-01-01T00:00:00Z","name_a2s":"Uncletopia | Sydney | 6 | Community","protocol":17,"map":"workshop/cp_sulfur_rc2.ugc619869471","folder":"tf","game":"Team Fortress","app_id":440,"player_count":0,"max_players":24,"Bots":0,"server_type":"Dedicated","server_os":"Linux","password":true,"vac":true,"version":"7757534","steam_id":85568392925397960,"keywords":["cp","nocrits","nodmgspread","uncletopia"],"game_id":440,"stv_port":27066,"stv_name":"Uncletopia | Sydney | 6 | Community | STV","players":null},{"server_id":49,"name":"Uncletopia | Warsaw | 1 | All Maps","name_short":"waw-1","host":"waw-1.pl.uncletopia.com","port":27015,"enabled":true,"region":"eu","cc":"pl","latitude":52.2297,"longitude":21.017532,"reserved":0,"last_update":"0001-01-01T00:00:00Z","name_a2s":"","protocol":0,"map":"","folder":"","game":"","app_id":0,"player_count":0,"max_players":0,"Bots":0,"server_type":"","server_os":"","password":false,"vac":false,"version":"","steam_id":0,"keywords":null,"game_id":0,"stv_port":0,"stv_name":"","players":null},{"server_id":50,"name":"Uncletopia | Warsaw | 2 | All Maps","name_short":"waw-2","host":"waw-1.pl.uncletopia.com","port":27025,"enabled":true,"region":"eu","cc":"pl","latitude":52.2297,"longitude":21.017532,"reserved":0,"last_update":"0001-01-01T00:00:00Z","name_a2s":"Uncletopia | Warsaw | 2 | All Maps","protocol":17,"map":"cp_process_final","folder":"tf","game":"Team Fortress","app_id":440,"player_count":0,"max_players":24,"Bots":0,"server_type":"Dedicated","server_os":"Linux","password":true,"vac":true,"version":"7757534","steam_id":85568392925397851,"keywords":["cp","nocrits","nodmgspread","uncletopia"],"game_id":440,"stv_port":27026,"stv_name":"Uncletopia | Warsaw | 2 | All Maps | STV","players":null},{"server_id":51,"name":"Uncletopia | Warsaw | 3 | All Maps","name_short":"waw-3","host":"waw-1.pl.uncletopia.com","port":27035,"enabled":true,"region":"eu","cc":"pl","latitude":52.2297,"longitude":21.017532,"reserved":0,"last_update":"0001-01-01T00:00:00Z","name_a2s":"Uncletopia | Warsaw | 3 | All Maps","protocol":17,"map":"pl_barnblitz","folder":"tf","game":"Team Fortress","app_id":440,"player_count":0,"max_players":24,"Bots":0,"server_type":"Dedicated","server_os":"Linux","password":true,"vac":true,"version":"7757534","steam_id":85568392925397852,"keywords":["nocrits","nodmgspread","payload","uncletopia"],"game_id":440,"stv_port":27036,"stv_name":"Uncletopia | Warsaw | 3 | All Maps | STV","players":null},{"server_id":52,"name":"Uncletopia | Warsaw | 4 | All Maps","name_short":"waw-4","host":"waw-1.pl.uncletopia.com","port":27045,"enabled":true,"region":"eu","cc":"pl","latitude":52.2297,"longitude":21.017532,"reserved":0,"last_update":"0001-01-01T00:00:00Z","name_a2s":"Uncletopia | Warsaw | 4 | All Maps","protocol":17,"map":"pl_snowycoast","folder":"tf","game":"Team Fortress","app_id":440,"player_count":0,"max_players":24,"Bots":0,"server_type":"Dedicated","server_os":"Linux","password":true,"vac":true,"version":"7757534","steam_id":85568392925397853,"keywords":["nocrits","nodmgspread","payload","uncletopia"],"game_id":440,"stv_port":27046,"stv_name":"Uncletopia | Warsaw | 4 | All Maps | STV","players":null},{"server_id":53,"name":"Uncletopia | Warsaw | 5 | Stopwatch Beta","name_short":"waw-5","host":"waw-1.pl.uncletopia.com","port":27055,"enabled":true,"region":"eu","cc":"pl","latitude":52.2297,"longitude":21.017532,"reserved":0,"last_update":"0001-01-01T00:00:00Z","name_a2s":"Uncletopia | Warsaw | 5 | Stopwatch Beta","protocol":17,"map":"pl_barnblitz","folder":"tf","game":"Team Fortress","app_id":440,"player_count":0,"max_players":24,"Bots":0,"server_type":"Dedicated","server_os":"Linux","password":true,"vac":true,"version":"7757534","steam_id":85568392925397854,"keywords":["nocrits","nodmgspread","payload","uncletopia"],"game_id":440,"stv_port":27056,"stv_name":"Uncletopia | Warsaw | 5 | Stopwatch Beta | STV","players":null},{"server_id":54,"name":"Uncletopia | Warsaw | 6 | Community","name_short":"waw-6","host":"waw-1.pl.uncletopia.com","port":27065,"enabled":true,"region":"eu","cc":"pl","latitude":52.2297,"longitude":21.017532,"reserved":0,"last_update":"0001-01-01T00:00:00Z","name_a2s":"Uncletopia | Warsaw | 6 | Community","protocol":17,"map":"pl_swiftwater_final1","folder":"tf","game":"Team Fortress","app_id":440,"player_count":0,"max_players":24,"Bots":0,"server_type":"Dedicated","server_os":"Linux","password":true,"vac":true,"version":"7757534","steam_id":85568392925397856,"keywords":["nocrits","nodmgspread","payload","uncletopia"],"game_id":440,"stv_port":27066,"stv_name":"Uncletopia | Warsaw | 6 | Community | STV","players":null}]}