{"status":true,"message":"","result":[{"server_id":9,"name":"Uncletopia | Atlanta | 1 | All Maps","name_short":"atl-1","host":"atl-1.us.uncletopia.com","port":27015,"enabled":true,"region":"us-east","cc":"us","latitude":33.753746,"longitude":-84.38633,"reserved":0,"last_update":"0001-01-01T00:00:00Z","name_a2s":"Uncletopia | Atlanta | 1 | All Maps","protocol":17,"map":"pl_barnblitz","folder":"tf","game":"Team Fortress","app_id":440,"player_count":24,"max_players":24,"Bots":0,"server_type":"Dedicated","server_os":"Linux","password":true,"vac":true,"version":"7882260","steam_id":85568392924469982,"keywords":["nocrits","nodmgspread","payload","uncletopia"],"game_id":440,"stv_port":27016,"stv_name":"Uncletopia | Atlanta | 1 | All Maps | STV","players":[{"user_id":259,"name":"SHADOW CURSED FOR ETERNITY","steam_id":76561198048110137,"connected_time":3261000000000,"state":"active","ping":52},{"user_id":303,"name":"stampdawg","steam_id":76561198050500060,"connected_time":12000000000,"state":"active","ping":78},{"user_id":158,"name":"lynt","steam_id":76561198988333976,"connected_time":14472000000000,"state":"active","ping":36},{"user_id":302,"name":"Idk","steam_id":76561198971629959,"connected_time":23000000000,"state":"active","ping":112},{"user_id":274,"name":"Brooklyn","steam_id":76561199242737130,"connected_time":2502000000000,"state":"active","ping":49},{"user_id":238,"name":"Onyx","steam_id":76561198275349640,"connected_time":5579000000000,"state":"active","ping":80},{"user_id":260,"name":"DuckMann","steam_id":76561198197058638,"connected_time":3238000000000,"state":"active","ping":44},{"user_id":286,"name":"Towns","steam_id":76561198984662863,"connected_time":1147000000000,"state":"active","ping":52},{"user_id":273,"name":"andyiscolorless","steam_id":76561199239870921,"connected_time":2514000000000,"state":"active","ping":120},{"user_id":264,"name":"atom","steam_id":76561198800020753,"connected_time":2804000000000,"state":"active","ping":65},{"user_id":290,"name":"TheRealMud","steam_id":76561198138312993,"connected_time":482000000000,"state":"active","ping":80},{"user_id":295,"name":"Pumbloom","steam_id":76561198024481281,"connected_time":285000000000,"state":"active","ping":48},{"user_id":250,"name":"LarryjusttLarry","steam_id":76561198982810452,"connected_time":4079000000000,"state":"active","ping":80},{"user_id":300,"name":"Jeremopolis","steam_id":76561198079467492,"connected_time":103000000000,"state":"active","ping":89},{"user_id":266,"name":"Rockhead","steam_id":76561197995196535,"connected_time":2801000000000,"state":"active","ping":72},{"user_id":249,"name":"Ninty","steam_id":76561199364725776,"connected_time":4209000000000,"state":"active","ping":58},{"user_id":77,"name":"BIG HOG","steam_id":76561198079923652,"connected_time":22402000000000,"state":"active","ping":64},{"user_id":288,"name":"DFR Wingm4n","steam_id":76561198064127012,"connected_time":776000000000,"state":"active","ping":49},{"user_id":289,"name":"joe","steam_id":76561198045781320,"connected_time":659000000000,"state":"active","ping":61},{"user_id":200,"name":"Karma","steam_id":76561198030565234,"connected_time":10288000000000,"state":"active","ping":72},{"user_id":224,"name":"Intro Bonito","steam_id":76561198119478838,"connected_time":6973000000000,"state":"active","ping":51},{"user_id":81,"name":"lil hog","steam_id":76561199230929836,"connected_time":22324000000000,"state":"active","ping":82},{"user_id":294,"name":"basmati jarate","steam_id":76561198319442494,"connected_time":300000000000,"state":"active","ping":100},{"user_id":297,"name":"--_Cook_--","steam_id":76561198080855748,"connected_time":239000000000,"state":"active","ping":42}]},{"server_id":104,"name":"Uncletopia | Atlanta | 2 | All Maps","name_short":"atl-2","host":"atl-1.us.uncletopia.com","port":27025,"enabled":true,"region":"us-east","cc":"us","latitude":33.753746,"longitude":-84.38633,"reserved":0,"last_update":"0001-01-01T00:00:00Z","name_a2s":"Uncletopia | Atlanta | 2 | All Maps","protocol":17,"map":"cp_sunshine","folder":"tf","game":"Team Fortress","app_id":440,"player_count":24,"max_players":24,"Bots":0,"server_type":"Dedicated","server_os":"Linux","password":true,"vac":true,"version":"7882260","steam_id":85568392924469983,"keywords":["cp","nocrits","nodmgspread","uncletopia"],"game_id":440,"stv_port":27026,"stv_name":"Uncletopia | Atlanta | 2 | All Maps | STV","players":[{"user_id":367,"name":"NoobleCup","steam_id":76561199021279162,"connected_time":601000000000,"state":"active","ping":70},{"user_id":340,"name":"ṽ⧉ cookie","steam_id":76561197998884823,"connected_time":3255000000000,"state":"active","ping":83},{"user_id":361,"name":"macroplastics","steam_id":76561198077272494,"connected_time":989000000000,"state":"active","ping":70},{"user_id":369,"name":"Lancer47","steam_id":76561198020481475,"connected_time":518000000000,"state":"active","ping":99},{"user_id":342,"name":"TF2C | fac -AA-","steam_id":76561198009818412,"connected_time":2740000000000,"state":"active","ping":63},{"user_id":292,"name":"airballer E²","steam_id":76561198165899125,"connected_time":4117000000000,"state":"active","ping":72},{"user_id":355,"name":"The Octoneer","steam_id":76561198203415747,"connected_time":2242000000000,"state":"active","ping":51},{"user_id":343,"name":"Notsocreative","steam_id":76561198236372202,"connected_time":2731000000000,"state":"active","ping":75},{"user_id":365,"name":"steven","steam_id":76561198173047169,"connected_time":623000000000,"state":"active","ping":62},{"user_id":366,"name":"Cereal","steam_id":76561198045889032,"connected_time":616000000000,"state":"active","ping":110},{"user_id":363,"name":"The Jar","steam_id":76561198146013385,"connected_time":626000000000,"state":"active","ping":75},{"user_id":368,"name":"Tealim","steam_id":76561198330085713,"connected_time":572000000000,"state":"active","ping":61},{"user_id":345,"name":"CASR","steam_id":76561199122040210,"connected_time":2707000000000,"state":"active","ping":92},{"user_id":353,"name":"ark","steam_id":76561198041066271,"connected_time":2383000000000,"state":"active","ping":94},{"user_id":370,"name":"Trash_Baboon","steam_id":76561198174060763,"connected_time":504000000000,"state":"active","ping":76},{"user_id":382,"name":"Motorolª","steam_id":76561198358119669,"connected_time":73000000000,"state":"active","ping":115},{"user_id":378,"name":"sound","steam_id":76561199053033603,"connected_time":315000000000,"state":"active","ping":123},{"user_id":372,"name":"swaws","steam_id":76561198361323409,"connected_time":455000000000,"state":"active","ping":88},{"user_id":373,"name":"Singular Rooster","steam_id":76561197983872657,"connected_time":454000000000,"state":"active","ping":53},{"user_id":377,"name":"Zero","steam_id":76561199383267408,"connected_time":347000000000,"state":"active","ping":69},{"user_id":379,"name":"Myn","steam_id":76561198055438857,"connected_time":277000000000,"state":"active","ping":82},{"user_id":375,"name":"The Mash Snaucer","steam_id":76561198315876764,"connected_time":443000000000,"state":"active","ping":88},{"user_id":381,"name":"FiddyFoMike","steam_id":76561198057072581,"connected_time":254000000000,"state":"active","ping":102},{"user_id":380,"name":"raduski","steam_id":76561198795699119,"connected_time":276000000000,"state":"active","ping":101}]},{"server_id":400,"name":"Uncletopia | Atlanta | 3 | Community","name_short":"atl-3","host":"atl-1.us.uncletopia.com","port":27035,"enabled":true,"region":"us-east","cc":"us","latitude":33.753746,"longitude":-84.38633,"reserved":0,"last_update":"0001-01-01T00:00:00Z","name_a2s":"Uncletopia | Atlanta | 3 | Community","protocol":17,"map":"workshop/pl_barnblitz_pro7.ugc582280235","folder":"tf","game":"Team Fortress","app_id":440,"player_count":24,"max_players":24,"Bots":0,"server_type":"Dedicated","server_os":"Linux","password":true,"vac":true,"version":"7882260","steam_id":85568392924515187,"keywords":["nocrits","nodmgspread","payload","uncletopia"],"game_id":440,"stv_port":27036,"stv_name":"Uncletopia | Atlanta | 3 | Community | STV","players":[{"user_id":119,"name":"Reyloko","steam_id":76561198172480913,"connected_time":1332000000000,"state":"active","ping":94},{"user_id":130,"name":"Cloud","steam_id":76561198954987128,"connected_time":902000000000,"state":"active","ping":51},{"user_id":13,"name":"Aeonspassed","steam_id":76561198014016451,"connected_time":9234000000000,"state":"active","ping":79},{"user_id":61,"name":"are luffy's pubes stretchy","steam_id":76561198030291655,"connected_time":6355000000000,"state":"active","ping":68},{"user_id":129,"name":"Kostya2525","steam_id":76561199110609717,"connected_time":982000000000,"state":"active","ping":61},{"user_id":135,"name":"In Da Ocean","steam_id":76561198084012705,"connected_time":95000000000,"state":"active","ping":112},{"user_id":125,"name":"Notation","steam_id":76561198119509319,"connected_time":1208000000000,"state":"active","ping":52},{"user_id":126,"name":"Sky","steam_id":76561198853245153,"connected_time":1190000000000,"state":"active","ping":100},{"user_id":96,"name":"Ticonderoga","steam_id":76561198047672832,"connected_time":3633000000000,"state":"active","ping":53},{"user_id":83,"name":"Phocae (She/Her)","steam_id":76561199317584594,"connected_time":5036000000000,"state":"active","ping":73},{"user_id":132,"name":"Whomsticot","steam_id":76561198406721885,"connected_time":515000000000,"state":"active","ping":131},{"user_id":78,"name":"Hatfam","steam_id":76561199192629036,"connected_time":5835000000000,"state":"active","ping":115},{"user_id":128,"name":"Lost CS player","steam_id":76561198892387723,"connected_time":1005000000000,"state":"active","ping":69},{"user_id":93,"name":"Angel_Bonnie","steam_id":76561199229447760,"connected_time":4200000000000,"state":"active","ping":88},{"user_id":114,"name":"Chip Skylark","steam_id":76561198148263717,"connected_time":1612000000000,"state":"active","ping":54},{"user_id":115,"name":"Mr. Rogers","steam_id":76561198296190438,"connected_time":1587000000000,"state":"active","ping":63},{"user_id":134,"name":"bogus binted","steam_id":76561198203329842,"connected_time":238000000000,"state":"active","ping":78},{"user_id":131,"name":"_normal","steam_id":76561198338505734,"connected_time":853000000000,"state":"active","ping":42},{"user_id":127,"name":"Milk Curdle","steam_id":76561198305106477,"connected_time":1169000000000,"state":"active","ping":67},{"user_id":108,"name":"NoExit","steam_id":76561198065725996,"connected_time":2739000000000,"state":"active","ping":90},{"user_id":107,"name":"i have placebo","steam_id":76561198940203364,"connected_time":2924000000000,"state":"active","ping":105},{"user_id":118,"name":"Xruffel :3 (gay)","steam_id":76561198067697879,"connected_time":1435000000000,"state":"active","ping":84},{"user_id":40,"name":"Ritzy","steam_id":76561198381955342,"connected_time":7724000000000,"state":"active","ping":142},{"user_id":43,"name":"Shadow WIZARD MoneyGang","steam_id":76561197986051713,"connected_time":7622000000000,"state":"active","ping":89}]},{"server_id":401,"name":"Uncletopia | Atlanta | 4 | No Payload","name_short":"atl-4","host":"atl-1.us.uncletopia.com","port":27045,"enabled":true,"region":"us-east","cc":"us","latitude":33.753746,"longitude":-84.38633,"reserved":0,"last_update":"0001-01-01T00:00:00Z","name_a2s":"","protocol":0,"map":"","folder":"","game":"","app_id":0,"player_count":0,"max_players":0,"Bots":0,"server_type":"","server_os":"","password":false,"vac":false,"version":"","steam_id":0,"keywords":null,"game_id":0,"stv_port":0,"stv_name":"","players":null},{"server_id":2,"name":"Uncletopia | Chicago | 1 | All Maps","name_short":"chi-1","host":"chi-1.us.uncletopia.com","port":27015,"enabled":true,"region":"us-central","cc":"us","latitude":41.881832,"longitude":-87.62318,"reserved":0,"last_update":"0001-01-01T00:00:00Z","name_a2s":"Uncletopia | Chicago | 1 | All Maps","protocol":17,"map":"pl_pier","folder":"tf","game":"Team Fortress","app_id":440,"player_count":24,"max_players":24,"Bots":0,"server_type":"Dedicated","server_os":"Linux","password":true,"vac":true,"version":"7882260","steam_id":85568392924469984,"keywords":["nocrits","nodmgspread","payload","uncletopia"],"game_id":440,"stv_port":27016,"stv_name":"Uncletopia | Chicago | 1 | All Maps | STV","players":[{"user_id":425,"name":"Pheonix","steam_id":76561199470538309,"connected_time":855000000000,"state":"active","ping":165},{"user_id":419,"name":"Goobbue","steam_id":76561198149240912,"connected_time":1244000000000,"state":"active","ping":59},{"user_id":420,"name":"all toasters toast toast","steam_id":76561198140846580,"connected_time":1243000000000,"state":"active","ping":59},{"user_id":432,"name":"JestinJester","steam_id":76561198411846094,"connected_time":127000000000,"state":"active","ping":72},{"user_id":421,"name":"Owen","steam_id":76561198025446908,"connected_time":1227000000000,"state":"active","ping":68},{"user_id":411,"name":"Thingy","steam_id":76561198140161202,"connected_time":2027000000000,"state":"active","ping":72},{"user_id":433,"name":"blob","steam_id":76561198122375328,"connected_time":29000000000,"state":"spawning","ping":61},{"user_id":435,"name":"hi","steam_id":76561198809577048,"connected_time":2000000000,"state":"spawning","ping":110},{"user_id":396,"name":"EnergyBolt30","steam_id":76561198925178957,"connected_time":2532000000000,"state":"active","ping":80},{"user_id":364,"name":"MedRed™ #IATAH","steam_id":76561198002962970,"connected_time":5796000000000,"state":"active","ping":91},{"user_id":422,"name":"Loops","steam_id":76561198139814686,"connected_time":1114000000000,"state":"active","ping":50},{"user_id":427,"name":"BombWolf","steam_id":76561198289812368,"connected_time":823000000000,"state":"active","ping":116},{"user_id":388,"name":"NarcolepticRock","steam_id":76561199123103642,"connected_time":4099000000000,"state":"active","ping":78},{"user_id":391,"name":"Swshbcklr","steam_id":76561197969421355,"connected_time":3352000000000,"state":"active","ping":58},{"user_id":399,"name":"while(1)","steam_id":76561198000876529,"connected_time":2486000000000,"state":"active","ping":89},{"user_id":405,"name":"Kapitan Bomba","steam_id":76561199102087660,"connected_time":2218000000000,"state":"active","ping":66},{"user_id":317,"name":"Michaelpc1","steam_id":76561198088365519,"connected_time":9924000000000,"state":"active","ping":75},{"user_id":428,"name":"a hedgehog","steam_id":76561198019010682,"connected_time":669000000000,"state":"active","ping":48},{"user_id":410,"name":"Vintage TV","steam_id":76561198800334545,"connected_time":2084000000000,"state":"active","ping":89},{"user_id":430,"name":"Rat (real)","steam_id":76561198302366619,"connected_time":350000000000,"state":"active","ping":101},{"user_id":413,"name":"Lost","steam_id":76561198093713427,"connected_time":1724000000000,"state":"active","ping":59},{"user_id":318,"name":"fish","steam_id":76561198381953108,"connected_time":9912000000000,"state":"active","ping":57},{"user_id":431,"name":"ReliableSoup","steam_id":76561199012909908,"connected_time":288000000000,"state":"active","ping":53},{"user_id":362,"name":"hej","steam_id":76561197996366940,"connected_time":6275000000000,"state":"active","ping":60}]},{"server_id":106,"name":"Uncletopia | Chicago | 2 | All Maps","name_short":"chi-2","host":"chi-1.us.uncletopia.com","port":27025,"enabled":true,"region":"us-central","cc":"us","latitude":41.881832,"longitude":-87.62318,"reserved":0,"last_update":"0001-01-01T00:00:00Z","name_a2s":"Uncletopia | Chicago | 2 | All Maps","protocol":17,"map":"pl_barnblitz","folder":"tf","game":"Team Fortress","app_id":440,"player_count":24,"max_players":24,"Bots":0,"server_type":"Dedicated","server_os":"Linux","password":true,"vac":true,"version":"7882260","steam_id":85568392924469985,"keywords":["nocrits","nodmgspread","payload","uncletopia"],"game_id":440,"stv_port":27026,"stv_name":"Uncletopia | Chicago | 2 | All Maps | STV","players":[{"user_id":291,"name":"Gamnic","steam_id":76561198264963731,"connected_time":2417000000000,"state":"active","ping":74},{"user_id":307,"name":"FWWM","steam_id":76561198387852168,"connected_time":924000000000,"state":"active","ping":59},{"user_id":301,"name":"Dr. Cube","steam_id":76561198025469828,"connected_time":1137000000000,"state":"active","ping":83},{"user_id":273,"name":"Tatum","steam_id":76561198106192754,"connected_time":3792000000000,"state":"active","ping":62},{"user_id":213,"name":"SOGGY DOGGY","steam_id":76561199158847498,"connected_time":6684000000000,"state":"active","ping":102},{"user_id":262,"name":"eat Pant","steam_id":76561197974965536,"connected_time":4669000000000,"state":"active","ping":52},{"user_id":321,"name":"Zephyr","steam_id":76561198129785553,"connected_time":138000000000,"state":"active","ping":69},{"user_id":322,"name":"Saturnz","steam_id":76561198433667214,"connected_time":113000000000,"state":"active","ping":148},{"user_id":313,"name":"Society","steam_id":76561198084167611,"connected_time":529000000000,"state":"active","ping":58},{"user_id":323,"name":"thc carts are evil","steam_id":76561198044115698,"connected_time":108000000000,"state":"active","ping":68},{"user_id":326,"name":"gun spy","steam_id":76561198929646112,"connected_time":83000000000,"state":"active","ping":66},{"user_id":310,"name":"Decs","steam_id":76561198825197974,"connected_time":671000000000,"state":"active","ping":127},{"user_id":324,"name":"Fredrick","steam_id":76561197981419964,"connected_time":92000000000,"state":"active","ping":61},{"user_id":281,"name":"Fozzy","steam_id":76561198258458765,"connected_time":3087000000000,"state":"active","ping":90},{"user_id":319,"name":"The Actual Sun","steam_id":76561198171492971,"connected_time":146000000000,"state":"active","ping":57},{"user_id":320,"name":"Sheev Palpatine","steam_id":76561198252332430,"connected_time":140000000000,"state":"active","ping":81},{"user_id":311,"name":"Zixzs","steam_id":76561198055504126,"connected_time":670000000000,"state":"active","ping":65},{"user_id":308,"name":"supcupman","steam_id":76561198051513866,"connected_time":777000000000,"state":"active","ping":123},{"user_id":325,"name":"veemdya yaymign :)","steam_id":76561199175434022,"connected_time":88000000000,"state":"active","ping":109},{"user_id":312,"name":"olivia","steam_id":76561198288130849,"connected_time":665000000000,"state":"active","ping":81},{"user_id":306,"name":"ShadowDragon0125","steam_id":76561198343849022,"connected_time":970000000000,"state":"active","ping":80},{"user_id":289,"name":"_cza","steam_id":76561198079793576,"connected_time":2973000000000,"state":"active","ping":95},{"user_id":327,"name":"99RM","steam_id":76561198107382571,"connected_time":77000000000,"state":"active","ping":134},{"user_id":328,"name":"graystripe420","steam_id":76561199161546139,"connected_time":76000000000,"state":"active","ping":130}]},{"server_id":402,"name":"Uncletopia | Chicago | 3 | All Maps","name_short":"chi-3","host":"chi-1.us.uncletopia.com","port":27035,"enabled":true,"region":"us-central","cc":"us","latitude":41.881832,"longitude":-87.62318,"reserved":0,"last_update":"0001-01-01T00:00:00Z","name_a2s":"Uncletopia | Chicago | 3 | All Maps","protocol":17,"map":"cp_gravelpit","folder":"tf","game":"Team Fortress","app_id":440,"player_count":24,"max_players":24,"Bots":0,"server_type":"Dedicated","server_os":"Linux","password":true,"vac":true,"version":"7882260","steam_id":85568392924515191,"keywords":["cp","nocrits","nodmgspread","uncletopia"],"game_id":440,"stv_port":27036,"stv_name":"Uncletopia | Chicago | 3 | All Maps | STV","players":[{"user_id":150,"name":"The World's Softest Sandwich","steam_id":76561198015577707,"connected_time":10774000000000,"state":"active","ping":79},{"user_id":308,"name":"Slug Warrior","steam_id":76561197996052704,"connected_time":367000000000,"state":"active","ping":82},{"user_id":280,"name":"Socioeconomic Factors","steam_id":76561197965022076,"connected_time":2366000000000,"state":"active","ping":59},{"user_id":279,"name":"Tophu","steam_id":76561198380229671,"connected_time":2390000000000,"state":"active","ping":73},{"user_id":313,"name":"jackhane109","steam_id":76561199076232027,"connected_time":72000000000,"state":"spawning","ping":51},{"user_id":302,"name":"Critscare","steam_id":76561198087712508,"connected_time":612000000000,"state":"active","ping":44},{"user_id":265,"name":"goku4life12","steam_id":76561198194471251,"connected_time":3803000000000,"state":"active","ping":55},{"user_id":288,"name":"Huevo Frito","steam_id":76561198896811394,"connected_time":2186000000000,"state":"active","ping":31},{"user_id":294,"name":"Mattron1","steam_id":76561198012270524,"connected_time":1628000000000,"state":"active","ping":80},{"user_id":303,"name":"freedom staff enjoyer of NASCAR","steam_id":76561199123218315,"connected_time":391000000000,"state":"active","ping":87},{"user_id":264,"name":"GreemBeans","steam_id":76561198069648014,"connected_time":3835000000000,"state":"active","ping":77},{"user_id":295,"name":"Muromasa","steam_id":76561198069883531,"connected_time":1426000000000,"state":"active","ping":75},{"user_id":255,"name":"Jeugh","steam_id":76561198073498865,"connected_time":4320000000000,"state":"active","ping":86},{"user_id":310,"name":"sunny","steam_id":76561198069380992,"connected_time":328000000000,"state":"active","ping":77},{"user_id":311,"name":"Badscatter","steam_id":76561198413869034,"connected_time":283000000000,"state":"active","ping":81},{"user_id":298,"name":"the nuisance","steam_id":76561198396326793,"connected_time":948000000000,"state":"active","ping":97},{"user_id":312,"name":"kdoge7","steam_id":76561198442310352,"connected_time":161000000000,"state":"active","ping":90},{"user_id":306,"name":"adolf tickler","steam_id":76561198163120788,"connected_time":374000000000,"state":"active","ping":90},{"user_id":296,"name":"Letters","steam_id":76561198035508148,"connected_time":1239000000000,"state":"active","ping":92},{"user_id":307,"name":"dogvader9000","steam_id":76561198374701702,"connected_time":369000000000,"state":"active","ping":126},{"user_id":309,"name":"Aerobro","steam_id":76561198033530996,"connected_time":363000000000,"state":"active","ping":91},{"user_id":147,"name":"Fresh Lychee","steam_id":76561198045399559,"connected_time":10853000000000,"state":"active","ping":58},{"user_id":299,"name":"Bee","steam_id":76561198074681324,"connected_time":868000000000,"state":"active","ping":66},{"user_id":301,"name":"Ashine","steam_id":76561199001771988,"connected_time":695000000000,"state":"active","ping":60}]},{"server_id":403,"name":"Uncletopia | Chicago | 4 | All Maps","name_short":"chi-4","host":"chi-1.us.uncletopia.com","port":27045,"enabled":true,"region":"us-central","cc":"us","latitude":41.881832,"longitude":-87.62318,"reserved":0,"last_update":"0001-01-01T00:00:00Z","name_a2s":"Uncletopia | Chicago | 4 | All Maps","protocol":17,"map":"pl_barnblitz","folder":"tf","game":"Team Fortress","app_id":440,"player_count":24,"max_players":24,"Bots":0,"server_type":"Dedicated","server_os":"Linux","password":true,"vac":true,"version":"7882260","steam_id":85568392924515193,"keywords":["nocrits","nodmgspread","payload","uncletopia"],"game_id":440,"stv_port":27046,"stv_name":"Uncletopia | Chicago | 4 | All Maps | STV","players":[{"user_id":17,"name":"Carpigani","steam_id":76561199472897062,"connected_time":7159000000000,"state":"active","ping":146},{"user_id":88,"name":"Necronoxide","steam_id":76561197997856321,"connected_time":2211000000000,"state":"active","ping":89},{"user_id":118,"name":"Dr. Stinker PH.D Nuking","steam_id":76561198133616658,"connected_time":315000000000,"state":"active","ping":258},{"user_id":98,"name":"hippo mode","steam_id":76561198073455521,"connected_time":1995000000000,"state":"active","ping":60},{"user_id":119,"name":"blue","steam_id":76561198342449098,"connected_time":167000000000,"state":"active","ping":86},{"user_id":94,"name":"BLACK MAN FROM JOJO","steam_id":76561198272948471,"connected_time":2145000000000,"state":"active","ping":44},{"user_id":72,"name":"HollyBlocky","steam_id":76561198030156100,"connected_time":3163000000000,"state":"active","ping":68},{"user_id":73,"name":"HeavyMettleDick","steam_id":76561198001925087,"connected_time":3160000000000,"state":"active","ping":72},{"user_id":108,"name":"STONKS (she/they)","steam_id":76561198965475199,"connected_time":826000000000,"state":"active","ping":63},{"user_id":106,"name":"weeb_whacker","steam_id":76561198187098041,"connected_time":1216000000000,"state":"active","ping":60},{"user_id":33,"name":"AkimboAoki","steam_id":76561198158323058,"connected_time":6009000000000,"state":"active","ping":92},{"user_id":29,"name":"Mrs.Frizzle","steam_id":76561198117157085,"connected_time":6103000000000,"state":"active","ping":73},{"user_id":112,"name":"A Glazed Donut","steam_id":76561198297536267,"connected_time":798000000000,"state":"active","ping":111},{"user_id":117,"name":"PENGEST","steam_id":76561198202605381,"connected_time":507000000000,"state":"active","ping":104},{"user_id":113,"name":"Kartyac","steam_id":76561197991069005,"connected_time":792000000000,"state":"active","ping":76},{"user_id":120,"name":"aren","steam_id":76561198080901365,"connected_time":55000000000,"state":"active","ping":48},{"user_id":35,"name":"Okpar","steam_id":76561199221067945,"connected_time":5979000000000,"state":"active","ping":96},{"user_id":114,"name":"hi","steam_id":76561198204995668,"connected_time":779000000000,"state":"active","ping":77},{"user_id":110,"name":"FREEDAY FREEDAY","steam_id":76561198046870291,"connected_time":814000000000,"state":"active","ping":61},{"user_id":87,"name":"Goomby","steam_id":76561198079416561,"connected_time":2256000000000,"state":"active","ping":76},{"user_id":115,"name":"Meadow","steam_id":76561198027636044,"connected_time":778000000000,"state":"active","ping":175},{"user_id":116,"name":"Judge cameltoe","steam_id":76561199215798445,"connected_time":706000000000,"state":"active","ping":58},{"user_id":85,"name":"Chris P. Bacon","steam_id":76561198000851038,"connected_time":2319000000000,"state":"active","ping":78},{"user_id":97,"name":"Vaude","steam_id":76561198369187511,"connected_time":2064000000000,"state":"active","ping":83}]},{"server_id":36,"name":"Uncletopia | Chicago | 5 | All Maps","name_short":"chi-5","host":"chi-2.us.uncletopia.com","port":27015,"enabled":true,"region":"us-central","cc":"us","latitude":41.881832,"longitude":-87.62318,"reserved":0,"last_update":"0001-01-01T00:00:00Z","name_a2s":"Uncletopia | Chicago | 5 | All Maps","protocol":17,"map":"pl_frontier_final","folder":"tf","game":"Team Fortress","app_id":440,"player_count":24,"max_players":24,"Bots":0,"server_type":"Dedicated","server_os":"Linux","password":true,"vac":true,"version":"7882260","steam_id":85568392924866362,"keywords":["nocrits","nodmgspread","payload","uncletopia"],"game_id":440,"stv_port":27016,"stv_name":"Uncletopia | Chicago | 5 | All Maps | STV","players":[{"user_id":385,"name":"bust that nut challenge","steam_id":76561198043162211,"connected_time":1717000000000,"state":"active","ping":122},{"user_id":365,"name":"MidSobbes08","steam_id":76561199013101925,"connected_time":2503000000000,"state":"active","ping":83},{"user_id":366,"name":"Dazzleberry","steam_id":76561198030369150,"connected_time":2480000000000,"state":"active","ping":75},{"user_id":352,"name":"[S]Enema Stone","steam_id":76561197993980257,"connected_time":4091000000000,"state":"active","ping":90},{"user_id":393,"name":"TERRARIAMOONLORD100","steam_id":76561199161322235,"connected_time":1555000000000,"state":"active","ping":61},{"user_id":382,"name":"CamelyKonas","steam_id":76561198097672992,"connected_time":1850000000000,"state":"active","ping":67},{"user_id":370,"name":"breakfast","steam_id":76561198043712978,"connected_time":2268000000000,"state":"active","ping":116},{"user_id":378,"name":"TEAMFT2GAMENING","steam_id":76561198139781520,"connected_time":2006000000000,"state":"active","ping":107},{"user_id":405,"name":"Johnny Lawrence #JohnnyMaxxing","steam_id":76561199367141671,"connected_time":151000000000,"state":"active","ping":66},{"user_id":391,"name":"God (real)","steam_id":76561198131089513,"connected_time":1653000000000,"state":"active","ping":45},{"user_id":401,"name":"carbuzz","steam_id":76561198129361580,"connected_time":420000000000,"state":"active","ping":154},{"user_id":302,"name":"Wandela","steam_id":76561198093703558,"connected_time":8023000000000,"state":"active","ping":65},{"user_id":388,"name":"1 if racist","steam_id":76561198117206414,"connected_time":1655000000000,"state":"active","ping":74},{"user_id":279,"name":"Honey bun","steam_id":76561198093518222,"connected_time":10257000000000,"state":"active","ping":60},{"user_id":394,"name":"not pipe jesus","steam_id":76561198332704108,"connected_time":1511000000000,"state":"active","ping":50},{"user_id":400,"name":"golem","steam_id":76561198355040593,"connected_time":449000000000,"state":"active","ping":75},{"user_id":374,"name":"The_atom_bomb","steam_id":76561198139944683,"connected_time":2244000000000,"state":"active","ping":58},{"user_id":363,"name":"4oh4","steam_id":76561198388047861,"connected_time":2741000000000,"state":"active","ping":76},{"user_id":402,"name":"GodLikeFocus","steam_id":76561198160524763,"connected_time":408000000000,"state":"active","ping":64},{"user_id":404,"name":"MINECRAFTENDERDRAGON999","steam_id":76561198070923665,"connected_time":207000000000,"state":"active","ping":74},{"user_id":406,"name":"5gOfRage","steam_id":76561199046659107,"connected_time":6000000000,"state":"spawning","ping":106},{"user_id":398,"name":"elincyt","steam_id":76561198967771724,"connected_time":615000000000,"state":"active","ping":75},{"user_id":392,"name":"smoogy17","steam_id":76561198129130176,"connected_time":1647000000000,"state":"active","ping":67},{"user_id":399,"name":"Clay Pot","steam_id":76561199030644557,"connected_time":614000000000,"state":"active","ping":95}]},{"server_id":37,"name":"Uncletopia | Chicago | 6 | All Maps","name_short":"chi-6","host":"chi-2.us.uncletopia.com","port":27025,"enabled":true,"region":"us-central","cc":"us","latitude":41.881832,"longitude":-87.62318,"reserved":0,"last_update":"0001-01-01T00:00:00Z","name_a2s":"Uncletopia | Chicago | 6 | All Maps","protocol":17,"map":"pl_swiftwater_final1","folder":"tf","game":"Team Fortress","app_id":440,"player_count":23,"max_players":24,"Bots":0,"server_type":"Dedicated","server_os":"Linux","password":true,"vac":true,"version":"7882260","steam_id":85568392924866363,"keywords":["nocrits","nodmgspread","payload","uncletopia"],"game_id":440,"stv_port":27026,"stv_name":"Uncletopia | Chicago | 6 | All Maps | STV","players":[{"user_id":203,"name":"bad","steam_id":76561199106343854,"connected_time":248000000000,"state":"active","ping":69},{"user_id":168,"name":"Fiendish Frog","steam_id":76561198029478821,"connected_time":2582000000000,"state":"active","ping":71},{"user_id":186,"name":"Voodo133","steam_id":76561198042670351,"connected_time":1727000000000,"state":"active","ping":91},{"user_id":166,"name":"doinkenspoinken","steam_id":76561198170088426,"connected_time":2658000000000,"state":"active","ping":63},{"user_id":206,"name":"skipper","steam_id":76561198395965181,"connected_time":140000000000,"state":"active","ping":65},{"user_id":197,"name":"ClericsRose","steam_id":76561198011013806,"connected_time":754000000000,"state":"active","ping":76},{"user_id":190,"name":"Uncle Dane's Left Testicle","steam_id":76561198880414240,"connected_time":1257000000000,"state":"active","ping":68},{"user_id":202,"name":"Huntpk","steam_id":76561198340591674,"connected_time":258000000000,"state":"active","ping":37},{"user_id":188,"name":"Also Known As Assteeth","steam_id":76561198049837377,"connected_time":1464000000000,"state":"active","ping":48},{"user_id":162,"name":"lucideath ✖","steam_id":76561198063809285,"connected_time":2925000000000,"state":"active","ping":58},{"user_id":195,"name":"The Irish Ghost","steam_id":76561199021970654,"connected_time":1003000000000,"state":"active","ping":100},{"user_id":198,"name":"Doc_Eevee","steam_id":76561199289204820,"connected_time":708000000000,"state":"active","ping":80},{"user_id":175,"name":"thumb","steam_id":76561198353762582,"connected_time":2035000000000,"state":"active","ping":132},{"user_id":192,"name":"t","steam_id":76561198175988929,"connected_time":1214000000000,"state":"active","ping":72},{"user_id":150,"name":"Doubting Dave","steam_id":76561198066410749,"connected_time":3675000000000,"state":"active","ping":70},{"user_id":74,"name":"TheGhostThatWas","steam_id":76561198055836483,"connected_time":8743000000000,"state":"active","ping":61},{"user_id":178,"name":"COW","steam_id":76561198149003050,"connected_time":2023000000000,"state":"active","ping":81},{"user_id":183,"name":"Generic_Soda","steam_id":76561197993528721,"connected_time":1878000000000,"state":"active","ping":63},{"user_id":193,"name":"Jesse Pikmin","steam_id":76561198042793243,"connected_time":1081000000000,"state":"active","ping":146},{"user_id":199,"name":"lucky","steam_id":76561198323426623,"connected_time":691000000000,"state":"active","ping":104},{"user_id":182,"name":"swan","steam_id":76561198012569200,"connected_time":1902000000000,"state":"active","ping":73},{"user_id":179,"name":"Mug Moment Gaming","steam_id":76561198233098136,"connected_time":2022000000000,"state":"active","ping":74},{"user_id":200,"name":"Lonely Friendless Gamer","steam_id":76561198046728155,"connected_time":543000000000,"state":"active","ping":46}]},{"server_id":38,"name":"Uncletopia | Chicago | 7 | Stopwatch Beta","name_short":"chi-7","host":"chi-2.us.uncletopia.com","port":27035,"enabled":true,"region":"us-central","cc":"us","latitude":41.881832,"longitude":-87.62318,"reserved":0,"last_update":"0001-01-01T00:00:00Z","name_a2s":"Uncletopia | Chicago | 7 | Stopwatch Beta","protocol":17,"map":"workshop/koth_product_final.ugc454272353","folder":"tf","game":"Team Fortress","app_id":440,"player_count":6,"max_players":24,"Bots":0,"server_type":"Dedicated","server_os":"Linux","password":true,"vac":true,"version":"7882260","steam_id":85568392924866364,"keywords":["cp","nocrits","nodmgspread","uncletopia"],"game_id":440,"stv_port":27036,"stv_name":"Uncletopia | Chicago | 7 | Stopwatch Beta | STV","players":[{"user_id":18,"name":"TheToasterToToast","steam_id":76561198989337253,"connected_time":1685000000000,"state":"active","ping":60},{"user_id":28,"name":"Wille79 #SaveTF2","steam_id":76561198995289070,"connected_time":113000000000,"state":"active","ping":107},{"user_id":20,"name":"DotBozo","steam_id":76561199131091835,"connected_time":1683000000000,"state":"active","ping":57},{"user_id":21,"name":"IonicCat538","steam_id":76561198219970067,"connected_time":1683000000000,"state":"active","ping":64},{"user_id":22,"name":"VoidStars","steam_id":76561198357771385,"connected_time":1659000000000,"state":"active","ping":54},{"user_id":29,"name":"to sem ideia #savetf2","steam_id":76561199052177486,"connected_time":74000000000,"state":"active","ping":186}]},{"server_id":39,"name":"Uncletopia | Chicago | 8 | Community","name_short":"chi-8","host":"chi-2.us.uncletopia.com","port":27045,"enabled":true,"region":"us-central","cc":"us","latitude":41.881832,"longitude":-87.62318,"reserved":0,"last_update":"0001-01-01T00:00:00Z","name_a2s":"Uncletopia | Chicago | 8 | Community","protocol":17,"map":"workshop/koth_trenchfoot_b1a.ugc731436616","folder":"tf","game":"Team Fortress","app_id":440,"player_count":24,"max_players":24,"Bots":0,"server_type":"Dedicated","server_os":"Linux","password":true,"vac":true,"version":"7882260","steam_id":85568392924866365,"keywords":["cp","nocrits","nodmgspread","uncletopia"],"game_id":440,"stv_port":27046,"stv_name":"Uncletopia | Chicago | 8 | Community | STV","players":[{"user_id":69,"name":"Your Local Jester","steam_id":76561199120223717,"connected_time":1629000000000,"state":"active","ping":66},{"user_id":70,"name":"❤[CandySwirl]❤","steam_id":76561198817361963,"connected_time":1614000000000,"state":"active","ping":104},{"user_id":71,"name":"Carthage (TRANSRIGHTS)","steam_id":76561198049001571,"connected_time":1584000000000,"state":"active","ping":107},{"user_id":72,"name":"¿skitt1eS?","steam_id":76561198330093211,"connected_time":1582000000000,"state":"active","ping":61},{"user_id":74,"name":"sevanial","steam_id":76561198071532126,"connected_time":1290000000000,"state":"active","ping":57},{"user_id":23,"name":"JAKe","steam_id":76561199237533332,"connected_time":3127000000000,"state":"active","ping":70},{"user_id":73,"name":"good soup guy","steam_id":76561199210237835,"connected_time":1544000000000,"state":"active","ping":73},{"user_id":77,"name":"Mr.noob","steam_id":76561199200442395,"connected_time":886000000000,"state":"active","ping":169},{"user_id":78,"name":"Ceej","steam_id":76561198416822503,"connected_time":790000000000,"state":"active","ping":90},{"user_id":79,"name":"Cliff Uppercut","steam_id":76561197999439391,"connected_time":633000000000,"state":"active","ping":79},{"user_id":60,"name":"Clit Eastwood","steam_id":76561198092102097,"connected_time":1801000000000,"state":"active","ping":67},{"user_id":80,"name":"Lots0","steam_id":76561198043143145,"connected_time":606000000000,"state":"active","ping":87},{"user_id":86,"name":"DonutKillMe","steam_id":76561198160221212,"connected_time":135000000000,"state":"active","ping":68},{"user_id":35,"name":"ross","steam_id":76561198043800619,"connected_time":2574000000000,"state":"active","ping":78},{"user_id":36,"name":"Serene Salamander","steam_id":76561198001094770,"connected_time":2535000000000,"state":"active","ping":116},{"user_id":47,"name":"Do you like cheese?","steam_id":76561198448465001,"connected_time":2302000000000,"state":"active","ping":88},{"user_id":83,"name":"jalapeno handjob","steam_id":76561198123298824,"connected_time":384000000000,"state":"active","ping":92},{"user_id":63,"name":"Ozzyrockin","steam_id":76561198094899868,"connected_time":1791000000000,"state":"active","ping":74},{"user_id":64,"name":"Eggregis-Thumbs","steam_id":76561198310566277,"connected_time":1783000000000,"state":"active","ping":66},{"user_id":65,"name":"Burrbank","steam_id":76561198042888060,"connected_time":1778000000000,"state":"active","ping":84},{"user_id":42,"name":"Masotan","steam_id":76561199047187302,"connected_time":2433000000000,"state":"active","ping":44},{"user_id":84,"name":"DaMultiversalist","steam_id":76561198239552412,"connected_time":215000000000,"state":"active","ping":69},{"user_id":56,"name":"Tryde","steam_id":76561198966747636,"connected_time":1940000000000,"state":"active","ping":58},{"user_id":54,"name":"Dark_","steam_id":76561198391453250,"connected_time":2053000000000,"state":"active","ping":82}]},{"server_id":8,"name":"Uncletopia | Dallas | 1 | All Maps","name_short":"dal-1","host":"dal-1.us.uncletopia.com","port":27015,"enabled":true,"region":"us-central","cc":"us","latitude":32.779167,"longitude":-96.80889,"reserved":0,"last_update":"0001-01-01T00:00:00Z","name_a2s":"Uncletopia | Dallas | 1 | All Maps","protocol":17,"map":"cp_mountainlab","folder":"tf","game":"Team Fortress","app_id":440,"player_count":24,"max_players":24,"Bots":0,"server_type":"Dedicated","server_os":"Linux","password":true,"vac":true,"version":"7882260","steam_id":85568392924469986,"keywords":["cp","nocrits","nodmgspread","uncletopia"],"game_id":440,"stv_port":27016,"stv_name":"Uncletopia | Dallas | 1 | All Maps | STV","players":[{"user_id":391,"name":"Average","steam_id":76561199133007007,"connected_time":2836000000000,"state":"active","ping":74},{"user_id":422,"name":"lil cock ass","steam_id":76561198242842394,"connected_time":1003000000000,"state":"active","ping":66},{"user_id":416,"name":"Bᵢg Bₒₛₛ","steam_id":76561198090271815,"connected_time":1222000000000,"state":"active","ping":118},{"user_id":415,"name":"[chef] iron","steam_id":76561197970888616,"connected_time":1246000000000,"state":"active","ping":59},{"user_id":367,"name":"BOWLING GOAT PETE WEBER","steam_id":76561198264385097,"connected_time":4124000000000,"state":"active","ping":75},{"user_id":395,"name":"Pyrite","steam_id":76561198158817820,"connected_time":2482000000000,"state":"active","ping":74},{"user_id":410,"name":"MINILEGOLAS","steam_id":76561198859362058,"connected_time":1825000000000,"state":"active","ping":85},{"user_id":400,"name":"EpicGamer48484","steam_id":76561199230935031,"connected_time":2444000000000,"state":"active","ping":62},{"user_id":417,"name":"Cutcleaner","steam_id":76561199000925667,"connected_time":1153000000000,"state":"active","ping":97},{"user_id":424,"name":"Phosu","steam_id":76561198180162801,"connected_time":651000000000,"state":"active","ping":64},{"user_id":425,"name":"LucentOwl","steam_id":76561198140978957,"connected_time":648000000000,"state":"active","ping":56},{"user_id":427,"name":"Anor","steam_id":76561198356139775,"connected_time":49000000000,"state":"active","ping":78},{"user_id":403,"name":"Sunfly","steam_id":76561198034307439,"connected_time":2432000000000,"state":"active","ping":62},{"user_id":421,"name":"simthedog21","steam_id":76561199220710746,"connected_time":1063000000000,"state":"active","ping":130},{"user_id":387,"name":"60","steam_id":76561198079583278,"connected_time":3231000000000,"state":"active","ping":73},{"user_id":419,"name":"CreepyCook","steam_id":76561198242874622,"connected_time":1117000000000,"state":"active","ping":67},{"user_id":401,"name":"BocchiTheRock From BocchiTheRoc","steam_id":76561198986388085,"connected_time":2440000000000,"state":"active","ping":114},{"user_id":426,"name":"Dark Lord","steam_id":76561198044199150,"connected_time":563000000000,"state":"active","ping":102},{"user_id":351,"name":"Cream Pioneer","steam_id":76561198309491596,"connected_time":6683000000000,"state":"active","ping":77},{"user_id":394,"name":"Taco","steam_id":76561198034670953,"connected_time":2535000000000,"state":"active","ping":66},{"user_id":414,"name":"TheAsianMeatball","steam_id":76561198336926133,"connected_time":1344000000000,"state":"active","ping":64},{"user_id":402,"name":"Pot Head Pixie","steam_id":76561198083024504,"connected_time":2434000000000,"state":"active","ping":53},{"user_id":407,"name":"atserc","steam_id":76561197997570349,"connected_time":1853000000000,"state":"active","ping":96},{"user_id":322,"name":"sbobi","steam_id":76561198320075173,"connected_time":9330000000000,"state":"active","ping":83}]},{"server_id":108,"name":"Uncletopia | Dallas | 2 | All Maps","name_short":"dal-2","host":"dal-1.us.uncletopia.com","port":27025,"enabled":true,"region":"us-central","cc":"us","latitude":32.779167,"longitude":-96.80889,"reserved":0,"last_update":"0001-01-01T00:00:00Z","name_a2s":"Uncletopia | Dallas | 2 | All Maps","protocol":17,"map":"cp_process_final","folder":"tf","game":"Team Fortress","app_id":440,"player_count":24,"max_players":24,"Bots":0,"server_type":"Dedicated","server_os":"Linux","password":true,"vac":true,"version":"7882260","steam_id":85568392924469988,"keywords":["cp","nocrits","nodmgspread","uncletopia"],"game_id":440,"stv_port":27026,"stv_name":"Uncletopia | Dallas | 2 | All Maps | STV","players":[{"user_id":137,"name":"BigPimpin","steam_id":76561198119549348,"connected_time":7952000000000,"state":"active","ping":46},{"user_id":229,"name":"Pandie","steam_id":76561198090842335,"connected_time":2418000000000,"state":"active","ping":60},{"user_id":260,"name":"lker","steam_id":76561197976975075,"connected_time":202000000000,"state":"active","ping":53},{"user_id":190,"name":"Panda Loser","steam_id":76561198828745176,"connected_time":4764000000000,"state":"active","ping":92},{"user_id":257,"name":"Eragoon78","steam_id":76561198019535714,"connected_time":420000000000,"state":"active","ping":72},{"user_id":259,"name":"J.G. Klaus","steam_id":76561198001111196,"connected_time":363000000000,"state":"active","ping":57},{"user_id":258,"name":"Mike Bean Burritos","steam_id":76561198173430607,"connected_time":412000000000,"state":"active","ping":105},{"user_id":253,"name":"Blink","steam_id":76561197986181277,"connected_time":1197000000000,"state":"active","ping":51},{"user_id":243,"name":"Kid B8","steam_id":76561198086764710,"connected_time":1834000000000,"state":"active","ping":74},{"user_id":248,"name":"Worst Scenario","steam_id":76561199052130229,"connected_time":1304000000000,"state":"active","ping":87},{"user_id":254,"name":"Asanez3","steam_id":76561198037381436,"connected_time":1025000000000,"state":"active","ping":86},{"user_id":242,"name":"He","steam_id":76561198398918486,"connected_time":1849000000000,"state":"active","ping":98},{"user_id":250,"name":"Ascrekd","steam_id":76561198896710422,"connected_time":1292000000000,"state":"active","ping":78},{"user_id":200,"name":"ror! smoking packs","steam_id":76561198021227843,"connected_time":4459000000000,"state":"active","ping":70},{"user_id":251,"name":"noel","steam_id":76561198128280883,"connected_time":1283000000000,"state":"active","ping":94},{"user_id":217,"name":"D-MROMA","steam_id":76561198837664861,"connected_time":3545000000000,"state":"active","ping":98},{"user_id":213,"name":"Swiifty","steam_id":76561198148262643,"connected_time":3710000000000,"state":"active","ping":75},{"user_id":208,"name":"chill koi","steam_id":76561198451516389,"connected_time":4003000000000,"state":"active","ping":46},{"user_id":236,"name":"ToughBirch","steam_id":76561198045035299,"connected_time":2289000000000,"state":"active","ping":88},{"user_id":221,"name":"Els (F2P)","steam_id":76561199129761684,"connected_time":3310000000000,"state":"active","ping":78},{"user_id":228,"name":"0x01FE","steam_id":76561198838881917,"connected_time":2572000000000,"state":"active","ping":64},{"user_id":255,"name":"Doomagedden","steam_id":76561198272589475,"connected_time":1007000000000,"state":"active","ping":60},{"user_id":240,"name":"ogenez","steam_id":76561198252596234,"connected_time":2010000000000,"state":"active","ping":70},{"user_id":252,"name":"frying pan gaming","steam_id":76561199097866312,"connected_time":1281000000000,"state":"active","ping":115}]},{"server_id":5,"name":"Uncletopia | Frankfurt | 1 | All Maps","name_short":"frk-1","host":"frk-1.de.uncletopia.com","port":27015,"enabled":true,"region":"eu","cc":"de","latitude":50.110924,"longitude":8.682127,"reserved":0,"last_update":"0001-01-01T00:00:00Z","name_a2s":"Uncletopia | Frankfurt | 1 | All Maps","protocol":17,"map":"pl_frontier_final","folder":"tf","game":"Team Fortress","app_id":440,"player_count":17,"max_players":24,"Bots":0,"server_type":"Dedicated","server_os":"Linux","password":true,"vac":true,"version":"7882260","steam_id":85568392924469989,"keywords":["nocrits","nodmgspread","payload","uncletopia"],"game_id":440,"stv_port":27016,"stv_name":"Uncletopia | Frankfurt | 1 | All Maps | STV","players":[{"user_id":472,"name":"Check Your Posture!","steam_id":76561198097466136,"connected_time":2347000000000,"state":"active","ping":60},{"user_id":460,"name":"Pestdoktor","steam_id":76561198058159271,"connected_time":3314000000000,"state":"active","ping":62},{"user_id":488,"name":"VolcanicArts","steam_id":76561198063453246,"connected_time":2034000000000,"state":"active","ping":73},{"user_id":483,"name":"shinji crank that soulja boy","steam_id":76561198099696876,"connected_time":2066000000000,"state":"active","ping":82},{"user_id":439,"name":"ali","steam_id":76561198148359093,"connected_time":5888000000000,"state":"active","ping":44},{"user_id":479,"name":"Sítheach","steam_id":76561198138915310,"connected_time":2169000000000,"state":"active","ping":75},{"user_id":494,"name":"aavikkorotta","steam_id":76561199429407130,"connected_time":1782000000000,"state":"active","ping":81},{"user_id":459,"name":"LarsInABox","steam_id":76561198028329262,"connected_time":3537000000000,"state":"active","ping":74},{"user_id":504,"name":"The Sex Defender","steam_id":76561198165732391,"connected_time":305000000000,"state":"active","ping":99},{"user_id":484,"name":"eeee","steam_id":76561198889987634,"connected_time":2057000000000,"state":"active","ping":60},{"user_id":498,"name":"pandeux","steam_id":76561198343527617,"connected_time":1409000000000,"state":"active","ping":50},{"user_id":440,"name":"Serton♝","steam_id":76561198011061126,"connected_time":5581000000000,"state":"active","ping":90},{"user_id":489,"name":"killbind irl","steam_id":76561198180637374,"connected_time":2011000000000,"state":"active","ping":81},{"user_id":471,"name":"Mach","steam_id":76561198952487564,"connected_time":2432000000000,"state":"active","ping":147},{"user_id":497,"name":"Qui12","steam_id":76561198039547649,"connected_time":1458000000000,"state":"active","ping":35},{"user_id":503,"name":"WATANG!","steam_id":76561198040478926,"connected_time":704000000000,"state":"active","ping":54},{"user_id":450,"name":"OSIRIS SK","steam_id":76561199120843409,"connected_time":4651000000000,"state":"active","ping":108}]},{"server_id":110,"name":"Uncletopia | Frankfurt | 2 | All Maps","name_short":"frk-2","host":"frk-1.de.uncletopia.com","port":27025,"enabled":true,"region":"eu","cc":"de","latitude":50.110924,"longitude":8.682127,"reserved":0,"last_update":"0001-01-01T00:00:00Z","name_a2s":"Uncletopia | Frankfurt | 2 | All Maps","protocol":17,"map":"pl_swiftwater_final1","folder":"tf","game":"Team Fortress","app_id":440,"player_count":15,"max_players":24,"Bots":0,"server_type":"Dedicated","server_os":"Linux","password":true,"vac":true,"version":"7882260","steam_id":85568392924469990,"keywords":["nocrits","nodmgspread","payload","uncletopia"],"game_id":440,"stv_port":27026,"stv_name":"Uncletopia | Frankfurt | 2 | All Maps | STV","players":[{"user_id":654,"name":"zdX","steam_id":76561198163735277,"connected_time":1132000000000,"state":"active","ping":70},{"user_id":635,"name":"Toxicò","steam_id":76561199031920676,"connected_time":2039000000000,"state":"active","ping":81},{"user_id":665,"name":"Viking Jeff","steam_id":76561198062000324,"connected_time":181000000000,"state":"active","ping":51},{"user_id":666,"name":"49belowzero","steam_id":76561198108177252,"connected_time":148000000000,"state":"active","ping":181},{"user_id":668,"name":"tone","steam_id":76561197975301462,"connected_time":26000000000,"state":"active","ping":74},{"user_id":659,"name":"MR.CRAB","steam_id":76561198329833659,"connected_time":534000000000,"state":"active","ping":64},{"user_id":663,"name":"wasps","steam_id":76561198049485054,"connected_time":376000000000,"state":"active","ping":75},{"user_id":667,"name":"Least sadistic healer main","steam_id":76561198114164702,"connected_time":108000000000,"state":"active","ping":62},{"user_id":587,"name":"Dor_atar","steam_id":76561198973980542,"connected_time":3449000000000,"state":"active","ping":63},{"user_id":658,"name":"ducks","steam_id":76561198166148685,"connected_time":606000000000,"state":"active","ping":45},{"user_id":664,"name":"The Waddling Soldier","steam_id":76561197995254867,"connected_time":355000000000,"state":"active","ping":57},{"user_id":640,"name":"xXtentioncableXx","steam_id":76561198082814549,"connected_time":1874000000000,"state":"active","ping":87},{"user_id":653,"name":"Dabbot","steam_id":76561199417800581,"connected_time":1225000000000,"state":"active","ping":138},{"user_id":652,"name":"Suetolog","steam_id":76561199053090212,"connected_time":1375000000000,"state":"active","ping":54},{"user_id":656,"name":"{TPF}Badaabing","steam_id":76561197996161449,"connected_time":1063000000000,"state":"active","ping":56}]},{"server_id":308,"name":"Uncletopia | Frankfurt | 3 | All Maps","name_short":"frk-3","host":"frk-1.de.uncletopia.com","port":27035,"enabled":true,"region":"eu","cc":"de","latitude":50.110924,"longitude":8.682127,"reserved":0,"last_update":"0001-01-01T00:00:00Z","name_a2s":"Uncletopia | Frankfurt | 3 | All Maps","protocol":17,"map":"pl_badwater","folder":"tf","game":"Team Fortress","app_id":440,"player_count":24,"max_players":24,"Bots":0,"server_type":"Dedicated","server_os":"Linux","password":true,"vac":true,"version":"7882260","steam_id":85568392924504274,"keywords":["nocrits","nodmgspread","payload","uncletopia"],"game_id":440,"stv_port":27036,"stv_name":"Uncletopia | Frankfurt | 3 | All Maps | STV","players":[{"user_id":637,"name":"WHUSSKEY","steam_id":76561198137827441,"connected_time":3147000000000,"state":"active","ping":61},{"user_id":613,"name":"JaneDoe","steam_id":76561198067081506,"connected_time":4938000000000,"state":"active","ping":85},{"user_id":673,"name":"RocK Knight","steam_id":76561198186054573,"connected_time":329000000000,"state":"active","ping":64},{"user_id":638,"name":"Jarvis","steam_id":76561198286293430,"connected_time":3045000000000,"state":"active","ping":56},{"user_id":654,"name":"radek","steam_id":76561197998883721,"connected_time":2388000000000,"state":"active","ping":81},{"user_id":671,"name":"HEenNiiNnNgGGgG","steam_id":76561198131050653,"connected_time":770000000000,"state":"active","ping":60},{"user_id":667,"name":"Lyell","steam_id":76561198350329389,"connected_time":1050000000000,"state":"active","ping":86},{"user_id":634,"name":"Cabbch","steam_id":76561198045955679,"connected_time":3340000000000,"state":"active","ping":54},{"user_id":672,"name":"JohkupohkuXD","steam_id":76561198391108762,"connected_time":676000000000,"state":"active","ping":86},{"user_id":660,"name":"holykyckling","steam_id":76561198040661615,"connected_time":1454000000000,"state":"active","ping":70},{"user_id":610,"name":"screenshot2020-25-09","steam_id":76561198255275650,"connected_time":5185000000000,"state":"active","ping":58},{"user_id":662,"name":"REDZED","steam_id":76561198419203843,"connected_time":1266000000000,"state":"active","ping":98},{"user_id":670,"name":"dafydd","steam_id":76561198052200325,"connected_time":816000000000,"state":"active","ping":78},{"user_id":678,"name":"Kili","steam_id":76561198138456346,"connected_time":114000000000,"state":"active","ping":57},{"user_id":649,"name":"cursedbygod♡","steam_id":76561198318291047,"connected_time":2579000000000,"state":"active","ping":110},{"user_id":665,"name":"Tomex999","steam_id":76561198049587675,"connected_time":1194000000000,"state":"active","ping":75},{"user_id":666,"name":"Neco-arc Astolfo","steam_id":76561198989682540,"connected_time":1176000000000,"state":"active","ping":44},{"user_id":677,"name":"AWP Bodyshot :) ❤","steam_id":76561198029928533,"connected_time":213000000000,"state":"active","ping":44},{"user_id":668,"name":"hananamanna","steam_id":76561198006570285,"connected_time":1047000000000,"state":"active","ping":114},{"user_id":674,"name":"Ezzy","steam_id":76561198115178348,"connected_time":260000000000,"state":"active","ping":98},{"user_id":652,"name":"ODanial","steam_id":76561198034854402,"connected_time":2470000000000,"state":"active","ping":94},{"user_id":675,"name":"Holy f stewie, I am shítting.","steam_id":76561198147173457,"connected_time":254000000000,"state":"active","ping":63},{"user_id":676,"name":"i got a glock in my rari","steam_id":76561199020903774,"connected_time":252000000000,"state":"active","ping":60},{"user_id":658,"name":"Marquis de Hoto","steam_id":76561198080687708,"connected_time":1872000000000,"state":"active","ping":69}]},{"server_id":309,"name":"Uncletopia | Frankfurt | 4 | All Maps","name_short":"frk-4","host":"frk-1.de.uncletopia.com","port":27045,"enabled":true,"region":"eu","cc":"de","latitude":50.110924,"longitude":8.682127,"reserved":0,"last_update":"0001-01-01T00:00:00Z","name_a2s":"Uncletopia | Frankfurt | 4 | All Maps","protocol":17,"map":"koth_highpass","folder":"tf","game":"Team Fortress","app_id":440,"player_count":10,"max_players":24,"Bots":0,"server_type":"Dedicated","server_os":"Linux","password":true,"vac":true,"version":"7882260","steam_id":85568392924504275,"keywords":["cp","nocrits","nodmgspread","uncletopia"],"game_id":440,"stv_port":27046,"stv_name":"Uncletopia | Frankfurt | 4 | All Maps | STV","players":[{"user_id":226,"name":"Soda Drink","steam_id":76561198202990635,"connected_time":639000000000,"state":"active","ping":60},{"user_id":231,"name":"FluoducK","steam_id":76561198158175778,"connected_time":347000000000,"state":"active","ping":64},{"user_id":230,"name":"Arcweld","steam_id":76561198816060720,"connected_time":401000000000,"state":"active","ping":79},{"user_id":234,"name":"S.Scary","steam_id":76561198248602386,"connected_time":126000000000,"state":"active","ping":60},{"user_id":182,"name":"ForceANature","steam_id":76561198113299033,"connected_time":4221000000000,"state":"active","ping":61},{"user_id":211,"name":"G.L.O.R.I.","steam_id":76561198134414380,"connected_time":2509000000000,"state":"active","ping":55},{"user_id":71,"name":"tïger","steam_id":76561198260483157,"connected_time":12028000000000,"state":"active","ping":87},{"user_id":220,"name":"tf2 snake","steam_id":76561198193971167,"connected_time":1760000000000,"state":"active","ping":48},{"user_id":162,"name":"Microsoft PowerPoint","steam_id":76561198204290539,"connected_time":6193000000000,"state":"active","ping":75},{"user_id":152,"name":"Tin","steam_id":76561198022201818,"connected_time":7239000000000,"state":"active","ping":53}]},{"server_id":310,"name":"Uncletopia | Frankfurt | 5 | All Maps","name_short":"frk-5","host":"frk-1.de.uncletopia.com","port":27055,"enabled":true,"region":"eu","cc":"de","latitude":50.110924,"longitude":8.682127,"reserved":0,"last_update":"0001-01-01T00:00:00Z","name_a2s":"Uncletopia | Frankfurt | 5 | All Maps","protocol":17,"map":"pl_upward","folder":"tf","game":"Team Fortress","app_id":440,"player_count":24,"max_players":24,"Bots":0,"server_type":"Dedicated","server_os":"Linux","password":true,"vac":true,"version":"7882260","steam_id":85568392924504277,"keywords":["nocrits","nodmgspread","payload","uncletopia"],"game_id":440,"stv_port":27056,"stv_name":"Uncletopia | Frankfurt | 5 | All Maps | STV","players":[{"user_id":262,"name":"Xpload","steam_id":76561198188505089,"connected_time":3005000000000,"state":"active","ping":45},{"user_id":289,"name":"ThellanM","steam_id":76561199014222387,"connected_time":658000000000,"state":"active","ping":74},{"user_id":264,"name":"demolition2n3","steam_id":76561198356060442,"connected_time":2938000000000,"state":"active","ping":56},{"user_id":252,"name":"Wade Wilson's Spoilt C4","steam_id":76561198013884709,"connected_time":3771000000000,"state":"active","ping":77},{"user_id":265,"name":"Möppy #savetf2","steam_id":76561198020555530,"connected_time":2711000000000,"state":"active","ping":48},{"user_id":272,"name":"Stern","steam_id":76561198065421312,"connected_time":2070000000000,"state":"active","ping":45},{"user_id":295,"name":"YAH","steam_id":76561198083249161,"connected_time":444000000000,"state":"active","ping":52},{"user_id":302,"name":"John Noob","steam_id":76561197999170026,"connected_time":278000000000,"state":"active","ping":86},{"user_id":281,"name":"NotChloe","steam_id":76561198080658092,"connected_time":1469000000000,"state":"active","ping":84},{"user_id":287,"name":"git bash -er","steam_id":76561198072586494,"connected_time":691000000000,"state":"active","ping":68},{"user_id":277,"name":"BluDiamynt","steam_id":76561198894231340,"connected_time":1827000000000,"state":"active","ping":67},{"user_id":278,"name":"Greencoffee","steam_id":76561198842090589,"connected_time":1804000000000,"state":"active","ping":85},{"user_id":306,"name":"We are in a world of magic","steam_id":76561198104745492,"connected_time":20000000000,"state":"spawning","ping":70},{"user_id":305,"name":"Zamn","steam_id":76561199014716093,"connected_time":108000000000,"state":"active","ping":171},{"user_id":291,"name":"Manne","steam_id":76561197966137258,"connected_time":633000000000,"state":"active","ping":79},{"user_id":248,"name":"Roland Deschain","steam_id":76561198023296355,"connected_time":4024000000000,"state":"active","ping":98},{"user_id":255,"name":"Undead Tit","steam_id":76561198042593027,"connected_time":3668000000000,"state":"active","ping":87},{"user_id":292,"name":"dinorno","steam_id":76561198146276830,"connected_time":623000000000,"state":"active","ping":81},{"user_id":293,"name":"BIGFriv","steam_id":76561198080925439,"connected_time":579000000000,"state":"active","ping":56},{"user_id":294,"name":"Wubba","steam_id":76561198409725218,"connected_time":450000000000,"state":"active","ping":58},{"user_id":303,"name":"Kestrel","steam_id":76561198144033005,"connected_time":182000000000,"state":"active","ping":62},{"user_id":304,"name":"LOBZIK","steam_id":76561198114830120,"connected_time":123000000000,"state":"active","ping":76},{"user_id":299,"name":"Der Herr Doktor","steam_id":76561198119476089,"connected_time":355000000000,"state":"active","ping":52},{"user_id":300,"name":"Carrotcracker","steam_id":76561198034862396,"connected_time":344000000000,"state":"active","ping":70}]},{"server_id":311,"name":"Uncletopia | Frankfurt | 6 | All Maps","name_short":"frk-6","host":"frk-1.de.uncletopia.com","port":27065,"enabled":true,"region":"eu","cc":"de","latitude":50.110924,"longitude":8.682127,"reserved":0,"last_update":"0001-01-01T00:00:00Z","name_a2s":"Uncletopia | Frankfurt | 6 | All Maps","protocol":17,"map":"pl_borneo","folder":"tf","game":"Team Fortress","app_id":440,"player_count":24,"max_players":24,"Bots":0,"server_type":"Dedicated","server_os":"Linux","password":true,"vac":true,"version":"7882260","steam_id":85568392924504278,"keywords":["nocrits","nodmgspread","payload","uncletopia"],"game_id":440,"stv_port":27066,"stv_name":"Uncletopia | Frankfurt | 6 | All Maps | STV","players":[{"user_id":541,"name":"Ennard777","steam_id":76561198965409493,"connected_time":4097000000000,"state":"active","ping":112},{"user_id":554,"name":"Thors","steam_id":76561197968739075,"connected_time":2825000000000,"state":"active","ping":49},{"user_id":567,"name":":3","steam_id":76561198311044984,"connected_time":2098000000000,"state":"active","ping":72},{"user_id":553,"name":"Garmin of Salivation","steam_id":76561197995163245,"connected_time":2878000000000,"state":"active","ping":68},{"user_id":577,"name":"Haiya \u003e:3","steam_id":76561198280507478,"connected_time":185000000000,"state":"active","ping":56},{"user_id":574,"name":"smell_my_cheese","steam_id":76561198008517427,"connected_time":817000000000,"state":"active","ping":68},{"user_id":487,"name":"BELADIT","steam_id":76561198011911501,"connected_time":8092000000000,"state":"active","ping":72},{"user_id":560,"name":"tactical bison","steam_id":76561198235814492,"connected_time":2489000000000,"state":"active","ping":89},{"user_id":575,"name":"4nalpr0d","steam_id":76561198052092018,"connected_time":620000000000,"state":"active","ping":60},{"user_id":571,"name":"Cookies and Bakies","steam_id":76561198017442928,"connected_time":1497000000000,"state":"active","ping":56},{"user_id":523,"name":"twitch.tv/Teathling","steam_id":76561198061580505,"connected_time":5516000000000,"state":"active","ping":55},{"user_id":566,"name":"kanelsnurr :3 \u003e///\u003c","steam_id":76561198163615254,"connected_time":2154000000000,"state":"active","ping":59},{"user_id":578,"name":"blåhaj","steam_id":76561198094268619,"connected_time":181000000000,"state":"active","ping":60},{"user_id":576,"name":"Very Original Name","steam_id":76561199159833013,"connected_time":584000000000,"state":"active","ping":111},{"user_id":551,"name":"ryft #freenioh","steam_id":76561198429138254,"connected_time":3018000000000,"state":"active","ping":69},{"user_id":549,"name":"ackermann","steam_id":76561199129801006,"connected_time":3771000000000,"state":"active","ping":49},{"user_id":579,"name":"MrBanana","steam_id":76561198116021623,"connected_time":63000000000,"state":"active","ping":92},{"user_id":540,"name":"etc","steam_id":76561197998394797,"connected_time":4110000000000,"state":"active","ping":60},{"user_id":538,"name":"Metalizer","steam_id":76561198099595082,"connected_time":4145000000000,"state":"active","ping":91},{"user_id":548,"name":"Deckard","steam_id":76561198004704647,"connected_time":3801000000000,"state":"active","ping":79},{"user_id":570,"name":"CHEERS MATE!","steam_id":76561198969244773,"connected_time":1633000000000,"state":"active","ping":107},{"user_id":545,"name":"A stripper","steam_id":76561198034865891,"connected_time":4049000000000,"state":"active","ping":66},{"user_id":569,"name":"Vezage","steam_id":76561198064916164,"connected_time":2008000000000,"state":"active","ping":75},{"user_id":535,"name":"Rezzarezz","steam_id":76561198092020043,"connected_time":4787000000000,"state":"active","ping":60}]},{"server_id":23,"name":"Uncletopia | Frankfurt | 7 | Stopwatch Beta","name_short":"frk-7","host":"frk-1.de.uncletopia.com","port":27075,"enabled":true,"region":"eu","cc":"de","latitude":50.110924,"longitude":8.682127,"reserved":0,"last_update":"0001-01-01T00:00:00Z","name_a2s":"Uncletopia | Frankfurt | 7 | Stopwatch Beta","protocol":17,"map":"pl_upward","folder":"tf","game":"Team Fortress","app_id":440,"player_count":0,"max_players":24,"Bots":0,"server_type":"Dedicated","server_os":"Linux","password":true,"vac":true,"version":"7882260","steam_id":85568392924742827,"keywords":["nocrits","nodmgspread","payload","uncletopia"],"game_id":440,"stv_port":27076,"stv_name":"Uncletopia | Frankfurt | 7 | Stopwatch Beta | STV","players":null},{"server_id":24,"name":"Uncletopia | Frankfurt | 8 | Community","name_short":"frk-8","host":"frk-1.de.uncletopia.com","port":27085,"enabled":true,"region":"eu","cc":"de","latitude":50.110924,"longitude":8.682127,"reserved":0,"last_update":"0001-01-01T00:00:00Z","name_a2s":"Uncletopia | Frankfurt | 8 | Community","protocol":17,"map":"workshop/koth_product_final.ugc454272353","folder":"tf","game":"Team Fortress","app_id":440,"player_count":10,"max_players":24,"Bots":0,"server_type":"Dedicated","server_os":"Linux","password":true,"vac":true,"version":"7882260","steam_id":85568392924742828,"keywords":["cp","nocrits","nodmgspread","uncletopia"],"game_id":440,"stv_port":27086,"stv_name":"Uncletopia | Frankfurt | 8 | Community | STV","players":[{"user_id":17,"name":"ifre3","steam_id":76561198052545817,"connected_time":6379000000000,"state":"active","ping":95},{"user_id":18,"name":"Farao Ramses II","steam_id":76561198078722712,"connected_time":6313000000000,"state":"active","ping":44},{"user_id":107,"name":"Willy banditcamp.com","steam_id":76561199192384267,"connected_time":683000000000,"state":"active","ping":59},{"user_id":96,"name":"dotdotdot","steam_id":76561198057628751,"connected_time":1500000000000,"state":"active","ping":62},{"user_id":109,"name":"bombidio","steam_id":76561198165871394,"connected_time":599000000000,"state":"active","ping":70},{"user_id":105,"name":"Deadly Queen","steam_id":76561198352144873,"connected_time":928000000000,"state":"active","ping":61},{"user_id":111,"name":"Nithle","steam_id":76561198025372740,"connected_time":104000000000,"state":"active","ping":46},{"user_id":76,"name":"Klokov","steam_id":76561198240633534,"connected_time":2781000000000,"state":"active","ping":64},{"user_id":54,"name":"Chicken pot pie","steam_id":76561198084997090,"connected_time":3996000000000,"state":"active","ping":47},{"user_id":79,"name":"dumbi","steam_id":76561197995265492,"connected_time":2514000000000,"state":"active","ping":43}]},{"server_id":202,"name":"Uncletopia | Hong Kong | 1 | All Maps","name_short":"hgk-1","host":"hgk-1.hk.uncletopia.com","port":27015,"enabled":true,"region":"asia","cc":"hk","latitude":22.302711,"longitude":114.177216,"reserved":0,"last_update":"0001-01-01T00:00:00Z","name_a2s":"Uncletopia | Hong Kong | 1 | All Maps","protocol":17,"map":"koth_cascade","folder":"tf","game":"Team Fortress","app_id":440,"player_count":0,"max_players":24,"Bots":0,"server_type":"Dedicated","server_os":"Linux","password":true,"vac":true,"version":"7882260","steam_id":85568392924494504,"keywords":["cp","nocrits","nodmgspread","uncletopia"],"game_id":440,"stv_port":27016,"stv_name":"Uncletopia | Hong Kong | 1 | All Maps | STV","players":null},{"server_id":1,"name":"Uncletopia | Los Angeles | 1 | All Maps","name_short":"lax-1","host":"lax-1.us.uncletopia.com","port":27015,"enabled":true,"region":"us-west","cc":"us","latitude":33.94279,"longitude":-118.41004,"reserved":0,"last_update":"0001-01-01T00:00:00Z","name_a2s":"Uncletopia | Los Angeles | 1 | All Maps","protocol":17,"map":"koth_viaduct","folder":"tf","game":"Team Fortress","app_id":440,"player_count":23,"max_players":24,"Bots":0,"server_type":"Dedicated","server_os":"Linux","password":true,"vac":true,"version":"7882260","steam_id":85568392924469991,"keywords":["cp","nocrits","nodmgspread","uncletopia"],"game_id":440,"stv_port":27016,"stv_name":"Uncletopia | Los Angeles | 1 | All Maps | STV","players":[{"user_id":153,"name":"Party Monster","steam_id":76561198119777371,"connected_time":4117000000000,"state":"active","ping":73},{"user_id":189,"name":"HeartAttack","steam_id":76561198135833968,"connected_time":1140000000000,"state":"active","ping":64},{"user_id":207,"name":"altpuppy","steam_id":76561198325643231,"connected_time":426000000000,"state":"active","ping":46},{"user_id":124,"name":"theeyeofsauronmc","steam_id":76561199157250663,"connected_time":5110000000000,"state":"active","ping":180},{"user_id":185,"name":"Whitesnake","steam_id":76561198100140416,"connected_time":1364000000000,"state":"active","ping":85},{"user_id":203,"name":"AMLO","steam_id":76561199213988023,"connected_time":649000000000,"state":"active","ping":41},{"user_id":205,"name":"infected tuna","steam_id":76561199024129541,"connected_time":513000000000,"state":"active","ping":62},{"user_id":128,"name":"OnlyError","steam_id":76561199122000011,"connected_time":4972000000000,"state":"active","ping":92},{"user_id":191,"name":"Clit Yeastwood","steam_id":76561199042672094,"connected_time":1131000000000,"state":"active","ping":92},{"user_id":192,"name":"Dingelsmurf the Orange","steam_id":76561198212489267,"connected_time":1126000000000,"state":"active","ping":133},{"user_id":198,"name":"theconqueror","steam_id":76561199229806456,"connected_time":863000000000,"state":"active","ping":101},{"user_id":98,"name":"Dreamzapp","steam_id":76561199084936632,"connected_time":8058000000000,"state":"active","ping":69},{"user_id":212,"name":"Boone","steam_id":76561198398931575,"connected_time":158000000000,"state":"active","ping":99},{"user_id":195,"name":"RC-XD","steam_id":76561198272327518,"connected_time":939000000000,"state":"active","ping":69},{"user_id":173,"name":"HiddenEgg","steam_id":76561199045105518,"connected_time":2360000000000,"state":"active","ping":62},{"user_id":196,"name":"RC-XD INBOUND!!!!!","steam_id":76561198963469265,"connected_time":928000000000,"state":"active","ping":71},{"user_id":197,"name":"farfalle","steam_id":76561198882758067,"connected_time":870000000000,"state":"active","ping":90},{"user_id":175,"name":"JustTiredMan","steam_id":76561199013705323,"connected_time":2193000000000,"state":"active","ping":93},{"user_id":199,"name":"Plastic","steam_id":76561198082908736,"connected_time":838000000000,"state":"active","ping":88},{"user_id":204,"name":"Local Shower Shitter","steam_id":76561198084154306,"connected_time":642000000000,"state":"active","ping":105},{"user_id":176,"name":"racsotlo","steam_id":76561198277824530,"connected_time":2120000000000,"state":"active","ping":68},{"user_id":201,"name":"noahjwarner09","steam_id":76561199444479988,"connected_time":791000000000,"state":"active","ping":115},{"user_id":214,"name":"Too Dense","steam_id":76561199015721075,"connected_time":23000000000,"state":"spawning","ping":69}]},{"server_id":112,"name":"Uncletopia | Los Angeles | 2 | All Maps","name_short":"lax-2","host":"lax-1.us.uncletopia.com","port":27025,"enabled":true,"region":"us-west","cc":"us","latitude":33.94279,"longitude":-118.41004,"reserved":0,"last_update":"0001-01-01T00:00:00Z","name_a2s":"Uncletopia | Los Angeles | 2 | All Maps","protocol":17,"map":"pl_upward","folder":"tf","game":"Team Fortress","app_id":440,"player_count":24,"max_players":24,"Bots":0,"server_type":"Dedicated","server_os":"Linux","password":true,"vac":true,"version":"7882260","steam_id":85568392924469992,"keywords":["nocrits","nodmgspread","payload","uncletopia"],"game_id":440,"stv_port":27026,"stv_name":"Uncletopia | Los Angeles | 2 | All Maps | STV","players":[{"user_id":18,"name":"MithStyck","steam_id":76561198071538489,"connected_time":2485000000000,"state":"active","ping":75},{"user_id":21,"name":"KatyAnna","steam_id":76561197992684543,"connected_time":1955000000000,"state":"active","ping":107},{"user_id":24,"name":"HansBanans","steam_id":76561198167894050,"connected_time":1912000000000,"state":"active","ping":110},{"user_id":23,"name":"Karrot","steam_id":76561198058970903,"connected_time":1931000000000,"state":"active","ping":114},{"user_id":47,"name":"PerpetuaForever","steam_id":76561198347444353,"connected_time":1403000000000,"state":"active","ping":112},{"user_id":26,"name":"Merconium","steam_id":76561197960551851,"connected_time":1802000000000,"state":"active","ping":105},{"user_id":48,"name":"Meet The Kazoo","steam_id":76561199229748300,"connected_time":1389000000000,"state":"active","ping":57},{"user_id":54,"name":"Crab Raftery","steam_id":76561197961982860,"connected_time":756000000000,"state":"active","ping":132},{"user_id":29,"name":"Xan Hathaway","steam_id":76561198069816677,"connected_time":1676000000000,"state":"active","ping":116},{"user_id":30,"name":"Tater Todd","steam_id":76561198020282117,"connected_time":1674000000000,"state":"active","ping":136},{"user_id":31,"name":"DancingMC","steam_id":76561198113054933,"connected_time":1671000000000,"state":"active","ping":112},{"user_id":32,"name":"matt_rolltide","steam_id":76561198796727164,"connected_time":1544000000000,"state":"active","ping":32},{"user_id":51,"name":"Djlumo18","steam_id":76561199191221872,"connected_time":1324000000000,"state":"active","ping":65},{"user_id":34,"name":"benjamoney","steam_id":76561199023027047,"connected_time":1523000000000,"state":"active","ping":69},{"user_id":35,"name":"legitassasin247","steam_id":76561198375197911,"connected_time":1504000000000,"state":"active","ping":103},{"user_id":36,"name":"Mickmissión","steam_id":76561199133527421,"connected_time":1484000000000,"state":"active","ping":57},{"user_id":37,"name":"Frontier Psychiatrist","steam_id":76561198038689088,"connected_time":1477000000000,"state":"active","ping":119},{"user_id":50,"name":"A UsedNom","steam_id":76561198402832756,"connected_time":1347000000000,"state":"active","ping":48},{"user_id":41,"name":"᲼᲼᲼","steam_id":76561198845246815,"connected_time":1439000000000,"state":"active","ping":50},{"user_id":42,"name":"hellish cat warrior","steam_id":76561199243506555,"connected_time":1439000000000,"state":"active","ping":101},{"user_id":44,"name":"pap","steam_id":76561198880934377,"connected_time":1417000000000,"state":"active","ping":101},{"user_id":45,"name":"bobby cigarette","steam_id":76561198059780866,"connected_time":1413000000000,"state":"active","ping":100},{"user_id":53,"name":"Hector Salamanca","steam_id":76561199103213955,"connected_time":769000000000,"state":"active","ping":71},{"user_id":49,"name":"SadCardinal","steam_id":76561198800531983,"connected_time":1387000000000,"state":"active","ping":100}]},{"server_id":324,"name":"Uncletopia | Los Angeles | 3 | All Maps","name_short":"lax-3","host":"lax-1.us.uncletopia.com","port":27035,"enabled":true,"region":"us-west","cc":"us","latitude":33.94279,"longitude":-118.41004,"reserved":0,"last_update":"0001-01-01T00:00:00Z","name_a2s":"Uncletopia | Los Angeles | 3 | All Maps","protocol":17,"map":"pl_swiftwater_final1","folder":"tf","game":"Team Fortress","app_id":440,"player_count":24,"max_players":24,"Bots":0,"server_type":"Dedicated","server_os":"Linux","password":true,"vac":true,"version":"7882260","steam_id":85568392924510198,"keywords":["nocrits","nodmgspread","payload","uncletopia"],"game_id":440,"stv_port":27036,"stv_name":"Uncletopia | Los Angeles | 3 | All Maps | STV","players":[{"user_id":7,"name":"Lulo","steam_id":76561198200617911,"connected_time":6989000000000,"state":"active","ping":74},{"user_id":118,"name":"dAiLyGrInD","steam_id":76561198163531915,"connected_time":435000000000,"state":"active","ping":90},{"user_id":10,"name":"Renz","steam_id":76561198118995036,"connected_time":6629000000000,"state":"active","ping":80},{"user_id":107,"name":"vern","steam_id":76561198129892148,"connected_time":1199000000000,"state":"active","ping":54},{"user_id":108,"name":"CopperBox","steam_id":76561198068217248,"connected_time":1040000000000,"state":"active","ping":54},{"user_id":101,"name":"Biggles","steam_id":76561198126576389,"connected_time":1486000000000,"state":"active","ping":95},{"user_id":103,"name":"Myko_mocha","steam_id":76561198198256314,"connected_time":1294000000000,"state":"active","ping":78},{"user_id":111,"name":"DOPEam1ne","steam_id":76561198112204774,"connected_time":826000000000,"state":"active","ping":59},{"user_id":83,"name":"BinaryOrbitals","steam_id":76561198975909393,"connected_time":2918000000000,"state":"active","ping":66},{"user_id":114,"name":"Schnitz","steam_id":76561198265484253,"connected_time":743000000000,"state":"active","ping":53},{"user_id":71,"name":"spacetoven","steam_id":76561198115821131,"connected_time":3745000000000,"state":"active","ping":60},{"user_id":116,"name":"JohnnyGitGud","steam_id":76561198401455467,"connected_time":712000000000,"state":"active","ping":59},{"user_id":47,"name":"Pyrotek⁴","steam_id":76561198072747672,"connected_time":4985000000000,"state":"active","ping":43},{"user_id":115,"name":"OHGODBEES!","steam_id":76561198000653374,"connected_time":728000000000,"state":"active","ping":75},{"user_id":117,"name":"galaxygelar","steam_id":76561199287148089,"connected_time":638000000000,"state":"active","ping":45},{"user_id":94,"name":"Skizzix","steam_id":76561197979993319,"connected_time":1910000000000,"state":"active","ping":139},{"user_id":63,"name":"Earl","steam_id":76561198970803382,"connected_time":4189000000000,"state":"active","ping":62},{"user_id":102,"name":"NotAWeeb","steam_id":76561198165530739,"connected_time":1304000000000,"state":"active","ping":54},{"user_id":95,"name":"Lelwani","steam_id":76561198029371348,"connected_time":1907000000000,"state":"active","ping":86},{"user_id":76,"name":"Brain damage squirrel","steam_id":76561198846344452,"connected_time":3485000000000,"state":"active","ping":51},{"user_id":96,"name":"Vil","steam_id":76561198032866331,"connected_time":1903000000000,"state":"active","ping":128},{"user_id":105,"name":"The Business","steam_id":76561197993147537,"connected_time":1277000000000,"state":"active","ping":113},{"user_id":79,"name":"stboncho","steam_id":76561198172275301,"connected_time":3355000000000,"state":"active","ping":70},{"user_id":110,"name":"BucketofIce","steam_id":76561199108563726,"connected_time":973000000000,"state":"active","ping":56}]},{"server_id":25,"name":"Uncletopia | Los Angeles | 4 | Stopwatch Beta","name_short":"lax-4","host":"lax-1.us.uncletopia.com","port":27045,"enabled":true,"region":"us-west","cc":"us","latitude":33.94279,"longitude":-118.41004,"reserved":0,"last_update":"0001-01-01T00:00:00Z","name_a2s":"Uncletopia | Los Angeles | 4 | Stopwatch Beta","protocol":17,"map":"workshop/pl_barnblitz_pro7.ugc582280235","folder":"tf","game":"Team Fortress","app_id":440,"player_count":1,"max_players":24,"Bots":0,"server_type":"Dedicated","server_os":"Linux","password":true,"vac":true,"version":"7882260","steam_id":85568392924510199,"keywords":["nocrits","nodmgspread","payload","uncletopia"],"game_id":440,"stv_port":27046,"stv_name":"Uncletopia | Los Angeles | 4 | Stopwatch Beta | STV","players":[{"user_id":12,"name":"Inside Joke","steam_id":76561199127820756,"connected_time":63000000000,"state":"active","ping":35}]},{"server_id":11,"name":"Uncletopia | London | 1 | All Maps","name_short":"lon-1","host":"lon-1.uk.uncletopia.com","port":27015,"enabled":true,"region":"eu","cc":"gb","latitude":51.509865,"longitude":-0.118092,"reserved":0,"last_update":"0001-01-01T00:00:00Z","name_a2s":"Uncletopia | London | 1 | All Maps","protocol":17,"map":"cp_process_final","folder":"tf","game":"Team Fortress","app_id":440,"player_count":24,"max_players":24,"Bots":0,"server_type":"Dedicated","server_os":"Linux","password":true,"vac":true,"version":"7882260","steam_id":85568392924367362,"keywords":["cp","nocrits","nodmgspread","uncletopia"],"game_id":440,"stv_port":27016,"stv_name":"Uncletopia | London | 1 | All Maps | STV","players":[{"user_id":964,"name":"OxygeNxo","steam_id":76561198031632028,"connected_time":1580000000000,"state":"active","ping":62},{"user_id":945,"name":"Jesus Enjoyer","steam_id":76561198840259819,"connected_time":3084000000000,"state":"active","ping":60},{"user_id":820,"name":"Jonathan","steam_id":76561198087988880,"connected_time":6599000000000,"state":"active","ping":59},{"user_id":967,"name":"biskuu","steam_id":76561198044361926,"connected_time":1298000000000,"state":"active","ping":84},{"user_id":578,"name":"Massmarine","steam_id":76561198038696531,"connected_time":11278000000000,"state":"active","ping":122},{"user_id":969,"name":"Locke","steam_id":76561198339408300,"connected_time":916000000000,"state":"active","ping":60},{"user_id":970,"name":"zvekan","steam_id":76561198381101196,"connected_time":868000000000,"state":"active","ping":63},{"user_id":719,"name":"Maridor","steam_id":76561199094592508,"connected_time":8232000000000,"state":"active","ping":68},{"user_id":971,"name":"pippis!","steam_id":76561198264553801,"connected_time":850000000000,"state":"active","ping":103},{"user_id":972,"name":"TECbias","steam_id":76561198109808372,"connected_time":806000000000,"state":"active","ping":60},{"user_id":928,"name":"Fat Pigeon","steam_id":76561198817940142,"connected_time":4929000000000,"state":"active","ping":50},{"user_id":963,"name":"Egor Pomidor","steam_id":76561199175688390,"connected_time":2066000000000,"state":"active","ping":89},{"user_id":966,"name":"Prole","steam_id":76561198049837199,"connected_time":1326000000000,"state":"active","ping":145},{"user_id":960,"name":"Circular","steam_id":76561198001536710,"connected_time":2297000000000,"state":"active","ping":45},{"user_id":819,"name":"X-tis","steam_id":76561198043837480,"connected_time":6611000000000,"state":"active","ping":74},{"user_id":941,"name":"Koli","steam_id":76561197992428783,"connected_time":3438000000000,"state":"active","ping":60},{"user_id":968,"name":"Milk","steam_id":76561198125876588,"connected_time":1206000000000,"state":"active","ping":41},{"user_id":956,"name":"nudjura","steam_id":76561198281986139,"connected_time":2434000000000,"state":"active","ping":38},{"user_id":952,"name":"Tobey Wan Kenobi","steam_id":76561198201249363,"connected_time":2866000000000,"state":"active","ping":92},{"user_id":974,"name":"FoOzTV","steam_id":76561197998636728,"connected_time":693000000000,"state":"active","ping":71},{"user_id":975,"name":"flappi","steam_id":76561198072892783,"connected_time":394000000000,"state":"active","ping":62},{"user_id":828,"name":"Quiet Kid","steam_id":76561199134800446,"connected_time":6487000000000,"state":"active","ping":109},{"user_id":976,"name":"Schwarzschild radius(Rg=2GM/c^2","steam_id":76561198179463343,"connected_time":81000000000,"state":"active","ping":45},{"user_id":962,"name":"idc","steam_id":76561198322087870,"connected_time":2093000000000,"state":"active","ping":111}]},{"server_id":114,"name":"Uncletopia | London | 2 | All Maps","name_short":"lon-2","host":"lon-1.uk.uncletopia.com","port":27025,"enabled":true,"region":"eu","cc":"gb","latitude":51.509865,"longitude":-0.118092,"reserved":0,"last_update":"0001-01-01T00:00:00Z","name_a2s":"Uncletopia | London | 2 | All Maps","protocol":17,"map":"pl_snowycoast","folder":"tf","game":"Team Fortress","app_id":440,"player_count":24,"max_players":24,"Bots":0,"server_type":"Dedicated","server_os":"Linux","password":true,"vac":true,"version":"7882260","steam_id":85568392924470941,"keywords":["nocrits","nodmgspread","payload","uncletopia"],"game_id":440,"stv_port":27026,"stv_name":"Uncletopia | London | 2 | All Maps | STV","players":[{"user_id":659,"name":"Acanda","steam_id":76561198123246537,"connected_time":1725000000000,"state":"active","ping":67},{"user_id":663,"name":"Malai","steam_id":76561198062537014,"connected_time":1589000000000,"state":"active","ping":65},{"user_id":688,"name":"Luuk","steam_id":76561198088266026,"connected_time":463000000000,"state":"active","ping":44},{"user_id":681,"name":"Thomas Küppers","steam_id":76561198399928033,"connected_time":749000000000,"state":"active","ping":46},{"user_id":646,"name":"Raingnome @SaveTF2","steam_id":76561198007394958,"connected_time":2815000000000,"state":"active","ping":55},{"user_id":671,"name":"Der_Milchmann","steam_id":76561198001417748,"connected_time":1158000000000,"state":"active","ping":59},{"user_id":672,"name":"Agent Matt","steam_id":76561199102565601,"connected_time":1123000000000,"state":"active","ping":54},{"user_id":665,"name":"Providence","steam_id":76561198003920270,"connected_time":1365000000000,"state":"active","ping":70},{"user_id":660,"name":"Drac","steam_id":76561198031636019,"connected_time":1708000000000,"state":"active","ping":53},{"user_id":684,"name":"Satirinm","steam_id":76561198068956102,"connected_time":699000000000,"state":"active","ping":64},{"user_id":647,"name":"Sneikijs","steam_id":76561198052549308,"connected_time":2799000000000,"state":"active","ping":40},{"user_id":674,"name":"King Crimson","steam_id":76561198133665338,"connected_time":1071000000000,"state":"active","ping":85},{"user_id":676,"name":"Flint","steam_id":76561197995920776,"connected_time":1024000000000,"state":"active","ping":47},{"user_id":614,"name":"Meddler","steam_id":76561198033001402,"connected_time":5759000000000,"state":"active","ping":38},{"user_id":648,"name":"Nyan Cat","steam_id":76561198439612132,"connected_time":2761000000000,"state":"active","ping":144},{"user_id":624,"name":"hipster_doofus","steam_id":76561197970902697,"connected_time":4641000000000,"state":"active","ping":56},{"user_id":690,"name":"Sonnakai","steam_id":76561198051688749,"connected_time":312000000000,"state":"active","ping":43},{"user_id":636,"name":"Arecibo","steam_id":76561198014359615,"connected_time":3845000000000,"state":"active","ping":60},{"user_id":683,"name":"vurtun","steam_id":76561198857395274,"connected_time":723000000000,"state":"active","ping":59},{"user_id":563,"name":"zoinks!","steam_id":76561198068645362,"connected_time":8237000000000,"state":"active","ping":41},{"user_id":633,"name":"favela_fan","steam_id":76561198086464040,"connected_time":4037000000000,"state":"active","ping":60},{"user_id":685,"name":"spawn lurker","steam_id":76561198080956366,"connected_time":636000000000,"state":"active","ping":92},{"user_id":680,"name":"BluuAzuul","steam_id":76561198970182028,"connected_time":887000000000,"state":"active","ping":70},{"user_id":686,"name":"Voks_","steam_id":76561198159687785,"connected_time":621000000000,"state":"active","ping":90}]},{"server_id":320,"name":"Uncletopia | London | 3 | All Maps","name_short":"lon-3","host":"lon-1.uk.uncletopia.com","port":27035,"enabled":true,"region":"eu","cc":"gb","latitude":51.509865,"longitude":-0.118092,"reserved":0,"last_update":"0001-01-01T00:00:00Z","name_a2s":"Uncletopia | London | 3 | All Maps","protocol":17,"map":"pl_snowycoast","folder":"tf","game":"Team Fortress","app_id":440,"player_count":14,"max_players":24,"Bots":0,"server_type":"Dedicated","server_os":"Linux","password":true,"vac":true,"version":"7882260","steam_id":85568392924510192,"keywords":["nocrits","nodmgspread","payload","uncletopia"],"game_id":440,"stv_port":27036,"stv_name":"Uncletopia | London | 3 | All Maps | STV","players":[{"user_id":576,"name":"Pinkchup","steam_id":76561198106802803,"connected_time":54000000000,"state":"active","ping":63},{"user_id":575,"name":"\u003cUsername Unknown\u003e","steam_id":76561198255311543,"connected_time":156000000000,"state":"active","ping":123},{"user_id":566,"name":"Ink in veins","steam_id":76561199082262091,"connected_time":948000000000,"state":"active","ping":88},{"user_id":562,"name":"TrollFace","steam_id":76561198799317717,"connected_time":1102000000000,"state":"active","ping":144},{"user_id":570,"name":"Minimi","steam_id":76561198873850443,"connected_time":413000000000,"state":"active","ping":57},{"user_id":559,"name":"konyacanavarı69","steam_id":76561198217273235,"connected_time":1468000000000,"state":"active","ping":78},{"user_id":556,"name":"ghehe","steam_id":76561198053539793,"connected_time":1889000000000,"state":"active","ping":94},{"user_id":577,"name":"meatsoupcube","steam_id":76561198276802249,"connected_time":52000000000,"state":"active","ping":108},{"user_id":554,"name":"𝔱𝔴𝔲𝔧𝔰𝔱𝔞\ufffd\ufffd\ufffd","steam_id":76561198155944450,"connected_time":2424000000000,"state":"active","ping":124},{"user_id":574,"name":"Uncle Terry","steam_id":76561198396415736,"connected_time":193000000000,"state":"active","ping":50},{"user_id":568,"name":"CrowbarWarrior","steam_id":76561198044077015,"connected_time":683000000000,"state":"active","ping":70},{"user_id":571,"name":"Bratty Sis ♡","steam_id":76561198979996938,"connected_time":377000000000,"state":"active","ping":152},{"user_id":578,"name":"Don","steam_id":76561198440393742,"connected_time":22000000000,"state":"spawning","ping":120},{"user_id":511,"name":"Bone Photogarapher","steam_id":76561198799953945,"connected_time":4499000000000,"state":"active","ping":45}]},{"server_id":321,"name":"Uncletopia | London | 4 | All Maps","name_short":"lon-4","host":"lon-1.uk.uncletopia.com","port":27045,"enabled":true,"region":"eu","cc":"gb","latitude":51.509865,"longitude":-0.118092,"reserved":0,"last_update":"0001-01-01T00:00:00Z","name_a2s":"Uncletopia | London | 4 | All Maps","protocol":17,"map":"cp_process_final","folder":"tf","game":"Team Fortress","app_id":440,"player_count":18,"max_players":24,"Bots":0,"server_type":"Dedicated","server_os":"Linux","password":true,"vac":true,"version":"7882260","steam_id":85568392924510193,"keywords":["cp","nocrits","nodmgspread","uncletopia"],"game_id":440,"stv_port":27046,"stv_name":"Uncletopia | London | 4 | All Maps | STV","players":[{"user_id":135,"name":"Ergas","steam_id":76561198860861032,"connected_time":651000000000,"state":"active","ping":75},{"user_id":139,"name":"mumbler","steam_id":76561197970641239,"connected_time":66000000000,"state":"spawning","ping":62},{"user_id":105,"name":"The Punch","steam_id":76561198212488780,"connected_time":2583000000000,"state":"active","ping":61},{"user_id":115,"name":"Envy","steam_id":76561198132723219,"connected_time":2009000000000,"state":"active","ping":106},{"user_id":102,"name":"d u k k i","steam_id":76561198071807437,"connected_time":2645000000000,"state":"active","ping":89},{"user_id":136,"name":"Dark","steam_id":76561198086889620,"connected_time":170000000000,"state":"active","ping":52},{"user_id":127,"name":"Tinhead","steam_id":76561198446806080,"connected_time":1126000000000,"state":"active","ping":129},{"user_id":117,"name":"wee woo","steam_id":76561198147277460,"connected_time":1973000000000,"state":"active","ping":74},{"user_id":138,"name":"Salesman Doren","steam_id":76561198076098142,"connected_time":124000000000,"state":"active","ping":52},{"user_id":132,"name":"balanced diet","steam_id":76561198240320806,"connected_time":881000000000,"state":"active","ping":71},{"user_id":111,"name":"♥ Cirno ♥","steam_id":76561198834982738,"connected_time":2387000000000,"state":"active","ping":69},{"user_id":126,"name":"AftiksPL","steam_id":76561198875182686,"connected_time":1503000000000,"state":"active","ping":101},{"user_id":120,"name":"kita ikuYOOOOOOOOOOOOOOOOOOOOOO","steam_id":76561198148074472,"connected_time":1968000000000,"state":"active","ping":45},{"user_id":133,"name":"Dispenser","steam_id":76561198088898260,"connected_time":734000000000,"state":"active","ping":70},{"user_id":137,"name":"si","steam_id":76561199093973876,"connected_time":163000000000,"state":"active","ping":71},{"user_id":96,"name":"The Collective","steam_id":76561198170423483,"connected_time":2713000000000,"state":"active","ping":142},{"user_id":131,"name":"insanitY","steam_id":76561198055666742,"connected_time":963000000000,"state":"active","ping":120},{"user_id":108,"name":"Buddy","steam_id":76561198050185582,"connected_time":2537000000000,"state":"active","ping":47}]},{"server_id":21,"name":"Uncletopia | London | 5 | All Maps","name_short":"lon-5","host":"lon-1.uk.uncletopia.com","port":27055,"enabled":true,"region":"eu","cc":"gb","latitude":51.509865,"longitude":-0.118092,"reserved":0,"last_update":"0001-01-01T00:00:00Z","name_a2s":"Uncletopia | London | 5 | All Maps","protocol":17,"map":"pl_borneo","folder":"tf","game":"Team Fortress","app_id":440,"player_count":21,"max_players":24,"Bots":0,"server_type":"Dedicated","server_os":"Linux","password":true,"vac":true,"version":"7882260","steam_id":85568392924742829,"keywords":["nocrits","nodmgspread","payload","uncletopia"],"game_id":440,"stv_port":27056,"stv_name":"Uncletopia | London | 5 | All Maps | STV","players":[{"user_id":181,"name":"DooWooD","steam_id":76561198335810106,"connected_time":11000000000,"state":"spawning","ping":136},{"user_id":173,"name":"bibib17","steam_id":76561198143319217,"connected_time":601000000000,"state":"active","ping":85},{"user_id":141,"name":"modavak","steam_id":76561198946290908,"connected_time":2084000000000,"state":"active","ping":105},{"user_id":130,"name":"glyph","steam_id":76561197980736364,"connected_time":2925000000000,"state":"active","ping":75},{"user_id":179,"name":"Nintyuk","steam_id":76561197994176164,"connected_time":68000000000,"state":"active","ping":28},{"user_id":182,"name":"astigmatic","steam_id":76561199103959197,"connected_time":5000000000,"state":"spawning","ping":75},{"user_id":145,"name":"Rat head","steam_id":76561198184360615,"connected_time":2044000000000,"state":"active","ping":104},{"user_id":155,"name":"Littleyoshifan","steam_id":76561198445491045,"connected_time":1578000000000,"state":"active","ping":42},{"user_id":85,"name":"The Bee","steam_id":76561198127779511,"connected_time":5413000000000,"state":"active","ping":60},{"user_id":64,"name":"waitrose gaming","steam_id":76561198011450253,"connected_time":7929000000000,"state":"active","ping":53},{"user_id":180,"name":"hedon/","steam_id":76561198249832770,"connected_time":67000000000,"state":"active","ping":49},{"user_id":144,"name":"bingus","steam_id":76561198283992686,"connected_time":2050000000000,"state":"active","ping":124},{"user_id":166,"name":"Sylvanas","steam_id":76561198154904165,"connected_time":1160000000000,"state":"active","ping":104},{"user_id":157,"name":"Critless","steam_id":76561198133968184,"connected_time":1563000000000,"state":"active","ping":46},{"user_id":174,"name":"1337","steam_id":76561198930351000,"connected_time":573000000000,"state":"active","ping":68},{"user_id":61,"name":"Mr. Oak","steam_id":76561198331315713,"connected_time":8219000000000,"state":"active","ping":54},{"user_id":175,"name":"24/7 Alpha #SaveTF2","steam_id":76561198071201324,"connected_time":555000000000,"state":"active","ping":51},{"user_id":168,"name":"Mownkey","steam_id":76561198152813004,"connected_time":938000000000,"state":"active","ping":45},{"user_id":176,"name":"Lewis Was Robbed","steam_id":76561198152696748,"connected_time":541000000000,"state":"active","ping":45},{"user_id":122,"name":"hallu","steam_id":76561198198581079,"connected_time":3117000000000,"state":"active","ping":72},{"user_id":143,"name":"clunk","steam_id":76561198836460767,"connected_time":2072000000000,"state":"active","ping":62}]},{"server_id":22,"name":"Uncletopia | London | 6 | All Maps","name_short":"lon-6","host":"lon-1.uk.uncletopia.com","port":27065,"enabled":true,"region":"eu","cc":"gb","latitude":51.509865,"longitude":-0.118092,"reserved":0,"last_update":"0001-01-01T00:00:00Z","name_a2s":"Uncletopia | London | 6 | All Maps","protocol":17,"map":"pl_pier","folder":"tf","game":"Team Fortress","app_id":440,"player_count":24,"max_players":24,"Bots":0,"server_type":"Dedicated","server_os":"Linux","password":true,"vac":true,"version":"7882260","steam_id":85568392924742830,"keywords":["nocrits","nodmgspread","payload","uncletopia"],"game_id":440,"stv_port":27066,"stv_name":"Uncletopia | London | 6 | All Maps | STV","players":[{"user_id":511,"name":"maisy","steam_id":76561198075835755,"connected_time":266000000000,"state":"active","ping":64},{"user_id":507,"name":"Tort","steam_id":76561198329646769,"connected_time":456000000000,"state":"active","ping":58},{"user_id":501,"name":"mike erhmentraut","steam_id":76561199025378498,"connected_time":986000000000,"state":"active","ping":48},{"user_id":513,"name":"Noe","steam_id":76561198926669975,"connected_time":229000000000,"state":"active","ping":56},{"user_id":510,"name":"biden blast","steam_id":76561198059699043,"connected_time":342000000000,"state":"active","ping":82},{"user_id":514,"name":"[Éire] Hype!","steam_id":76561198061449287,"connected_time":210000000000,"state":"active","ping":60},{"user_id":421,"name":"LasagneMan","steam_id":76561198971904377,"connected_time":3988000000000,"state":"active","ping":47},{"user_id":512,"name":"MercCross","steam_id":76561198073370185,"connected_time":233000000000,"state":"active","ping":63},{"user_id":492,"name":"fregaropa","steam_id":76561198150806166,"connected_time":1341000000000,"state":"active","ping":82},{"user_id":487,"name":"Barry Nottingham","steam_id":76561198089472878,"connected_time":1523000000000,"state":"active","ping":44},{"user_id":506,"name":"H-say","steam_id":76561198177400362,"connected_time":603000000000,"state":"active","ping":109},{"user_id":515,"name":"Krabs","steam_id":76561198161679477,"connected_time":202000000000,"state":"active","ping":42},{"user_id":466,"name":"Silent","steam_id":76561198344588858,"connected_time":2172000000000,"state":"active","ping":49},{"user_id":476,"name":"Zippo","steam_id":76561198056773656,"connected_time":1962000000000,"state":"active","ping":75},{"user_id":495,"name":"XSCod","steam_id":76561198124586634,"connected_time":1299000000000,"state":"active","ping":72},{"user_id":516,"name":"The one who knocks","steam_id":76561198089341471,"connected_time":196000000000,"state":"active","ping":76},{"user_id":503,"name":"Friendly Bohen","steam_id":76561198002412697,"connected_time":860000000000,"state":"active","ping":83},{"user_id":493,"name":"Bambi","steam_id":76561198166972711,"connected_time":1326000000000,"state":"active","ping":58},{"user_id":517,"name":"Dembek","steam_id":76561198280275064,"connected_time":194000000000,"state":"active","ping":71},{"user_id":504,"name":"Poopy_Joe","steam_id":76561198096839348,"connected_time":857000000000,"state":"active","ping":57},{"user_id":505,"name":"Marl Karx","steam_id":76561198396797516,"connected_time":801000000000,"state":"active","ping":115},{"user_id":497,"name":"Dr.Nefario","steam_id":76561198874586020,"connected_time":1264000000000,"state":"active","ping":76},{"user_id":498,"name":"Controller Gaming","steam_id":76561198134805479,"connected_time":1247000000000,"state":"active","ping":50},{"user_id":499,"name":"smk","steam_id":76561198068027379,"connected_time":1246000000000,"state":"active","ping":78}]},{"server_id":40,"name":"Uncletopia | London | 7 | No Payload","name_short":"lon-7","host":"lon-1.uk.uncletopia.com","port":27075,"enabled":true,"region":"eu","cc":"gb","latitude":51.509865,"longitude":-0.118092,"reserved":0,"last_update":"0001-01-01T00:00:00Z","name_a2s":"Uncletopia | London | 7 | No Payload","protocol":17,"map":"koth_cascade","folder":"tf","game":"Team Fortress","app_id":440,"player_count":11,"max_players":24,"Bots":0,"server_type":"Dedicated","server_os":"Linux","password":true,"vac":true,"version":"7882260","steam_id":85568392924964314,"keywords":["cp","nocrits","nodmgspread","uncletopia"],"game_id":440,"stv_port":27076,"stv_name":"Uncletopia | London | 7 | No Payload | STV","players":[{"user_id":692,"name":"quickfast","steam_id":76561199438900919,"connected_time":2241000000000,"state":"active","ping":45},{"user_id":722,"name":"Kraiti","steam_id":76561198847296908,"connected_time":45000000000,"state":"active","ping":80},{"user_id":723,"name":"Flying skyhigh","steam_id":76561198372971096,"connected_time":27000000000,"state":"active","ping":62},{"user_id":667,"name":"TheBeardedM1G","steam_id":76561198040208946,"connected_time":4458000000000,"state":"active","ping":55},{"user_id":641,"name":"Tegnerud","steam_id":76561198214185612,"connected_time":6542000000000,"state":"active","ping":72},{"user_id":682,"name":"🦐 Tust 🦐","steam_id":76561198045694677,"connected_time":3172000000000,"state":"active","ping":45},{"user_id":702,"name":"Kinnetic","steam_id":76561198161313074,"connected_time":1737000000000,"state":"active","ping":111},{"user_id":699,"name":"Birdseye","steam_id":76561198025852216,"connected_time":1893000000000,"state":"active","ping":46},{"user_id":546,"name":"M2rtRa","steam_id":76561198111036466,"connected_time":13135000000000,"state":"active","ping":75},{"user_id":705,"name":"♥EvanBunnyHearts♥","steam_id":76561199100627116,"connected_time":1623000000000,"state":"active","ping":147},{"user_id":644,"name":"Space","steam_id":76561198021572167,"connected_time":6505000000000,"state":"active","ping":44}]},{"server_id":41,"name":"Uncletopia | London | 8 | Community","name_short":"lon-8","host":"lon-1.uk.uncletopia.com","port":27085,"enabled":true,"region":"eu","cc":"gb","latitude":51.509865,"longitude":-0.118092,"reserved":0,"last_update":"0001-01-01T00:00:00Z","name_a2s":"Uncletopia | London | 8 | Community","protocol":17,"map":"workshop/cp_logjam_rc12.ugc454812035","folder":"tf","game":"Team Fortress","app_id":440,"player_count":0,"max_players":24,"Bots":0,"server_type":"Dedicated","server_os":"Linux","password":true,"vac":true,"version":"7882260","steam_id":85568392924964315,"keywords":["cp","nocrits","nodmgspread","uncletopia"],"game_id":440,"stv_port":27086,"stv_name":"Uncletopia | London | 8 | Community | STV","players":null},{"server_id":300,"name":"Uncletopia | Montréal | 1 | All Maps","name_short":"mtl-1","host":"mtl-1.ca.uncletopia.com","port":27015,"enabled":true,"region":"us-east","cc":"ca","latitude":45.50889,"longitude":-73.56167,"reserved":0,"last_update":"0001-01-01T00:00:00Z","name_a2s":"Uncletopia | Montréal | 1 | All Maps","protocol":17,"map":"cp_mountainlab","folder":"tf","game":"Team Fortress","app_id":440,"player_count":0,"max_players":24,"Bots":0,"server_type":"Dedicated","server_os":"Linux","password":true,"vac":true,"version":"7882260","steam_id":85568392924500087,"keywords":["cp","nocrits","nodmgspread","uncletopia"],"game_id":440,"stv_port":27016,"stv_name":"Uncletopia | Montréal | 1 | All Maps | STV","players":null},{"server_id":301,"name":"Uncletopia | Montréal | 2 | All Maps","name_short":"mtl-2","host":"mtl-1.ca.uncletopia.com","port":27025,"enabled":true,"region":"us-east","cc":"ca","latitude":45.50889,"longitude":-73.56167,"reserved":0,"last_update":"0001-01-01T00:00:00Z","name_a2s":"Uncletopia | Montréal | 2 | All Maps","protocol":17,"map":"pl_frontier_final","folder":"tf","game":"Team Fortress","app_id":440,"player_count":2,"max_players":24,"Bots":0,"server_type":"Dedicated","server_os":"Linux","password":true,"vac":true,"version":"7882260","steam_id":85568392924500088,"keywords":["nocrits","nodmgspread","payload","uncletopia"],"game_id":440,"stv_port":27026,"stv_name":"Uncletopia | Montréal | 2 | All Maps | STV","players":[{"user_id":8,"name":"chiswola","steam_id":76561198046920142,"connected_time":1321000000000,"state":"active","ping":84},{"user_id":10,"name":"Ghost Mountain","steam_id":76561198273383183,"connected_time":428000000000,"state":"active","ping":59}]},{"server_id":302,"name":"Uncletopia | Montréal | 3 | All Maps","name_short":"mtl-3","host":"mtl-1.ca.uncletopia.com","port":27035,"enabled":true,"region":"us-east","cc":"ca","latitude":45.50889,"longitude":-73.56167,"reserved":0,"last_update":"0001-01-01T00:00:00Z","name_a2s":"Uncletopia | Montréal | 3 | All Maps","protocol":17,"map":"cp_freight_final1","folder":"tf","game":"Team Fortress","app_id":440,"player_count":4,"max_players":24,"Bots":0,"server_type":"Dedicated","server_os":"Linux","password":true,"vac":true,"version":"7882260","steam_id":85568392924500089,"keywords":["cp","nocrits","nodmgspread","uncletopia"],"game_id":440,"stv_port":27036,"stv_name":"Uncletopia | Montréal | 3 | All Maps | STV","players":[{"user_id":16,"name":"Sigmar Male","steam_id":76561198162349273,"connected_time":178000000000,"state":"active","ping":45},{"user_id":11,"name":"Waaagh!","steam_id":76561197995317887,"connected_time":596000000000,"state":"active","ping":40},{"user_id":12,"name":"Big Mon","steam_id":76561198409907417,"connected_time":575000000000,"state":"active","ping":115},{"user_id":15,"name":"Horse","steam_id":76561198004583631,"connected_time":362000000000,"state":"active","ping":64}]},{"server_id":303,"name":"Uncletopia | Montréal | 4 | No Payload","name_short":"mtl-4","host":"mtl-1.ca.uncletopia.com","port":27045,"enabled":true,"region":"us-east","cc":"ca","latitude":45.50889,"longitude":-73.56167,"reserved":0,"last_update":"0001-01-01T00:00:00Z","name_a2s":"Uncletopia | Montréal | 4 | No Payload","protocol":17,"map":"koth_harvest_final","folder":"tf","game":"Team Fortress","app_id":440,"player_count":24,"max_players":24,"Bots":0,"server_type":"Dedicated","server_os":"Linux","password":true,"vac":true,"version":"7882260","steam_id":85568392924500090,"keywords":["cp","nocrits","nodmgspread","uncletopia"],"game_id":440,"stv_port":27046,"stv_name":"Uncletopia | Montréal | 4 | No Payload | STV","players":[{"user_id":70,"name":"The Angel of Death","steam_id":76561198026079349,"connected_time":1938000000000,"state":"active","ping":113},{"user_id":92,"name":"emseaeye","steam_id":76561198161499803,"connected_time":183000000000,"state":"active","ping":53},{"user_id":72,"name":"selarom | trade.tf |","steam_id":76561199069219350,"connected_time":1847000000000,"state":"active","ping":79},{"user_id":88,"name":"Chibi_Ignis","steam_id":76561198039657140,"connected_time":349000000000,"state":"active","ping":124},{"user_id":83,"name":"send dudes","steam_id":76561198084277762,"connected_time":1225000000000,"state":"active","ping":35},{"user_id":79,"name":"FUMO FUMO","steam_id":76561199445350651,"connected_time":1346000000000,"state":"active","ping":49},{"user_id":80,"name":"Torip0llo","steam_id":76561198251665862,"connected_time":1341000000000,"state":"active","ping":106},{"user_id":34,"name":"Reaper","steam_id":76561198435826103,"connected_time":3526000000000,"state":"active","ping":90},{"user_id":23,"name":"Lunar","steam_id":76561199120845371,"connected_time":4288000000000,"state":"active","ping":51},{"user_id":87,"name":"cold spaghetti","steam_id":76561198983037944,"connected_time":571000000000,"state":"active","ping":49},{"user_id":89,"name":"watchfull","steam_id":76561198433266742,"connected_time":294000000000,"state":"active","ping":113},{"user_id":41,"name":"The Incredible Fem Boy","steam_id":76561198355754259,"connected_time":2930000000000,"state":"active","ping":66},{"user_id":81,"name":"the_Harvard_School_of_Buisness","steam_id":76561199060920185,"connected_time":1339000000000,"state":"active","ping":64},{"user_id":47,"name":"jimmyfnaf172198yay","steam_id":76561198311446636,"connected_time":2673000000000,"state":"active","ping":75},{"user_id":51,"name":"Spring Beans","steam_id":76561197978546259,"connected_time":2507000000000,"state":"active","ping":73},{"user_id":56,"name":"Boinker!","steam_id":76561198272961376,"connected_time":2463000000000,"state":"active","ping":100},{"user_id":62,"name":"Banjoe MaMa","steam_id":76561199073432706,"connected_time":2313000000000,"state":"active","ping":59},{"user_id":46,"name":"Volt_killer","steam_id":76561198859486607,"connected_time":2712000000000,"state":"active","ping":111},{"user_id":84,"name":"Literally a Trans Woman","steam_id":76561198054639925,"connected_time":944000000000,"state":"active","ping":57},{"user_id":55,"name":"Barlon","steam_id":76561198023717515,"connected_time":2473000000000,"state":"active","ping":65},{"user_id":61,"name":"Jatotz","steam_id":76561198317467283,"connected_time":2383000000000,"state":"active","ping":83},{"user_id":74,"name":"archouser","steam_id":76561198409485413,"connected_time":1654000000000,"state":"active","ping":73},{"user_id":85,"name":"dr peppah chug!","steam_id":76561198068835693,"connected_time":800000000000,"state":"active","ping":66}]},{"server_id":13,"name":"Uncletopia | New York City | 1 | All Maps","name_short":"nyc-1","host":"nyc-1.us.uncletopia.com","port":27015,"enabled":true,"region":"us-east","cc":"us","latitude":40.73061,"longitude":-73.93524,"reserved":0,"last_update":"0001-01-01T00:00:00Z","name_a2s":"Uncletopia | New York City | 1 | All Maps","protocol":17,"map":"pl_barnblitz","folder":"tf","game":"Team Fortress","app_id":440,"player_count":24,"max_players":24,"Bots":0,"server_type":"Dedicated","server_os":"Linux","password":true,"vac":true,"version":"7882260","steam_id":85568392924469993,"keywords":["nocrits","nodmgspread","payload","uncletopia"],"game_id":440,"stv_port":27016,"stv_name":"Uncletopia | New York City | 1 | All Maps | STV","players":[{"user_id":277,"name":"Queso2469","steam_id":76561197993024580,"connected_time":760000000000,"state":"active","ping":44},{"user_id":280,"name":"FakeSteak","steam_id":76561198350623933,"connected_time":627000000000,"state":"active","ping":66},{"user_id":276,"name":"Soda Drink Shartblast","steam_id":76561198134187113,"connected_time":780000000000,"state":"active","ping":74},{"user_id":267,"name":"C0RV3L","steam_id":76561199205094837,"connected_time":1025000000000,"state":"active","ping":70},{"user_id":268,"name":"Herdez Hot Salsa","steam_id":76561197991740906,"connected_time":1006000000000,"state":"active","ping":67},{"user_id":286,"name":"meat glasses","steam_id":76561198046742645,"connected_time":155000000000,"state":"active","ping":60},{"user_id":270,"name":"The_Evil_Pickle","steam_id":76561198047308260,"connected_time":899000000000,"state":"active","ping":57},{"user_id":225,"name":"B.","steam_id":76561198040445907,"connected_time":3763000000000,"state":"active","ping":79},{"user_id":262,"name":"Maybe","steam_id":76561198268304564,"connected_time":1547000000000,"state":"active","ping":81},{"user_id":184,"name":"\u003c`)))))\u003c fish","steam_id":76561198410078962,"connected_time":7033000000000,"state":"active","ping":103},{"user_id":226,"name":"beerinabox","steam_id":76561198070614450,"connected_time":3753000000000,"state":"active","ping":87},{"user_id":250,"name":"Jabroni Kris","steam_id":76561198048736247,"connected_time":2212000000000,"state":"active","ping":125},{"user_id":281,"name":"lisa","steam_id":76561199330384395,"connected_time":542000000000,"state":"active","ping":65},{"user_id":261,"name":"alset333","steam_id":76561198405345260,"connected_time":1560000000000,"state":"active","ping":47},{"user_id":272,"name":"SirAythusa.TTV","steam_id":76561198099949897,"connected_time":848000000000,"state":"active","ping":95},{"user_id":285,"name":"glue sniffer","steam_id":76561198044689778,"connected_time":189000000000,"state":"active","ping":45},{"user_id":274,"name":"DJ Pierce","steam_id":76561198394241466,"connected_time":822000000000,"state":"active","ping":56},{"user_id":282,"name":"BasicPeaches","steam_id":76561198190890150,"connected_time":286000000000,"state":"active","ping":63},{"user_id":245,"name":"BaconWizard4","steam_id":76561198384591745,"connected_time":2455000000000,"state":"active","ping":59},{"user_id":259,"name":"Cube","steam_id":76561199021614213,"connected_time":1650000000000,"state":"active","ping":170},{"user_id":264,"name":"Yakul","steam_id":76561198100040013,"connected_time":1430000000000,"state":"active","ping":87},{"user_id":224,"name":"Eraserhead Baby","steam_id":76561198010968514,"connected_time":3787000000000,"state":"active","ping":108},{"user_id":231,"name":"lodediper","steam_id":76561198049606896,"connected_time":3731000000000,"state":"active","ping":79},{"user_id":234,"name":"filet minion","steam_id":76561198067950862,"connected_time":3725000000000,"state":"active","ping":71}]},{"server_id":14,"name":"Uncletopia | New York City | 2 | All Maps","name_short":"nyc-2","host":"nyc-1.us.uncletopia.com","port":27025,"enabled":true,"region":"us-east","cc":"us","latitude":40.73061,"longitude":-73.93524,"reserved":0,"last_update":"0001-01-01T00:00:00Z","name_a2s":"Uncletopia | New York City | 2 | All Maps","protocol":17,"map":"koth_sawmill","folder":"tf","game":"Team Fortress","app_id":440,"player_count":24,"max_players":24,"Bots":0,"server_type":"Dedicated","server_os":"Linux","password":true,"vac":true,"version":"7882260","steam_id":85568392924469994,"keywords":["cp","nocrits","nodmgspread","uncletopia"],"game_id":440,"stv_port":27026,"stv_name":"Uncletopia | New York City | 2 | All Maps | STV","players":[{"user_id":343,"name":"chrislo27","steam_id":76561198070331231,"connected_time":2436000000000,"state":"active","ping":130},{"user_id":321,"name":"homer","steam_id":76561198171491110,"connected_time":4894000000000,"state":"active","ping":49},{"user_id":395,"name":"Furlight","steam_id":76561198344970815,"connected_time":552000000000,"state":"active","ping":44},{"user_id":335,"name":"badasscoolboy57","steam_id":76561198795412055,"connected_time":3050000000000,"state":"active","ping":65},{"user_id":397,"name":"Pasta Enthusiast","steam_id":76561198306393090,"connected_time":498000000000,"state":"active","ping":49},{"user_id":381,"name":"pathulhu","steam_id":76561198323941614,"connected_time":1364000000000,"state":"active","ping":83},{"user_id":396,"name":"GanZ","steam_id":76561199378883538,"connected_time":541000000000,"state":"active","ping":73},{"user_id":398,"name":"「ＰＩＴＢＵＬＬ」","steam_id":76561198190323610,"connected_time":457000000000,"state":"active","ping":81},{"user_id":384,"name":"Drake the Pixel","steam_id":76561198131824401,"connected_time":1238000000000,"state":"active","ping":40},{"user_id":399,"name":"Peepster","steam_id":76561198297854733,"connected_time":447000000000,"state":"active","ping":84},{"user_id":401,"name":"Hoopla","steam_id":76561198327775508,"connected_time":431000000000,"state":"active","ping":43},{"user_id":387,"name":"Cpt.Rex","steam_id":76561199104175331,"connected_time":982000000000,"state":"active","ping":53},{"user_id":407,"name":"Shame","steam_id":76561198100490994,"connected_time":170000000000,"state":"active","ping":71},{"user_id":316,"name":"Gaskranx","steam_id":76561198020269547,"connected_time":5337000000000,"state":"active","ping":57},{"user_id":372,"name":"jeremieh","steam_id":76561199072287568,"connected_time":1510000000000,"state":"active","ping":49},{"user_id":377,"name":"♂♥ spum Burgler","steam_id":76561198158003907,"connected_time":1441000000000,"state":"active","ping":75},{"user_id":402,"name":"Bonestik","steam_id":76561198280472170,"connected_time":428000000000,"state":"active","ping":67},{"user_id":382,"name":"Rivann","steam_id":76561198218919757,"connected_time":1363000000000,"state":"active","ping":124},{"user_id":408,"name":"JimFrel","steam_id":76561199476029852,"connected_time":148000000000,"state":"active","ping":102},{"user_id":404,"name":"Zenabie","steam_id":76561198088372680,"connected_time":232000000000,"state":"active","ping":84},{"user_id":293,"name":"goldgardian","steam_id":76561198319471339,"connected_time":6684000000000,"state":"active","ping":95},{"user_id":390,"name":"Bob-ario","steam_id":76561198079348649,"connected_time":915000000000,"state":"active","ping":63},{"user_id":409,"name":"Bandee","steam_id":76561198974233692,"connected_time":133000000000,"state":"active","ping":77},{"user_id":363,"name":"Samercam","steam_id":76561198189403190,"connected_time":1783000000000,"state":"active","ping":62}]},{"server_id":15,"name":"Uncletopia | New York City | 3 | Stopwatch Beta","name_short":"nyc-3","host":"nyc-1.us.uncletopia.com","port":27035,"enabled":true,"region":"us-east","cc":"us","latitude":40.73061,"longitude":-73.93524,"reserved":0,"last_update":"0001-01-01T00:00:00Z","name_a2s":"Uncletopia | New York City | 3 | Stopwatch Beta","protocol":17,"map":"workshop/koth_product_final.ugc454272353","folder":"tf","game":"Team Fortress","app_id":440,"player_count":0,"max_players":24,"Bots":0,"server_type":"Dedicated","server_os":"Linux","password":true,"vac":true,"version":"7882260","steam_id":85568392924742820,"keywords":["cp","nocrits","nodmgspread","uncletopia"],"game_id":440,"stv_port":27036,"stv_name":"Uncletopia | New York City | 3 | Stopwatch Beta | STV","players":null},{"server_id":16,"name":"Uncletopia | New York City | 4 | Community","name_short":"nyc-4","host":"nyc-1.us.uncletopia.com","port":27045,"enabled":true,"region":"us-east","cc":"us","latitude":40.73061,"longitude":-73.93524,"reserved":0,"last_update":"0001-01-01T00:00:00Z","name_a2s":"Uncletopia | New York City | 4 | Community","protocol":17,"map":"workshop/koth_slaughter_rc1.ugc1712845210","folder":"tf","game":"Team Fortress","app_id":440,"player_count":0,"max_players":24,"Bots":0,"server_type":"Dedicated","server_os":"Linux","password":true,"vac":true,"version":"7882260","steam_id":85568392924742821,"keywords":["cp","nocrits","nodmgspread","uncletopia"],"game_id":440,"stv_port":27046,"stv_name":"Uncletopia | New York City | 4 | Community | STV","players":null},{"server_id":142,"name":"Uncletopia | São Paulo | 1 | All Maps","name_short":"sao-1","host":"sao-1.br.uncletopia.com","port":27015,"enabled":true,"region":"sa","cc":"br","latitude":-23.533773,"longitude":-46.62529,"reserved":0,"last_update":"0001-01-01T00:00:00Z","name_a2s":"Uncletopia | São Paulo | 1 | All Maps","protocol":17,"map":"koth_viaduct","folder":"tf","game":"Team Fortress","app_id":440,"player_count":0,"max_players":24,"Bots":0,"server_type":"Dedicated","server_os":"Linux","password":true,"vac":true,"version":"7882260","steam_id":85568392924469996,"keywords":["cp","nocrits","nodmgspread","uncletopia"],"game_id":440,"stv_port":27016,"stv_name":"Uncletopia | São Paulo | 1 | All Maps | STV","players":null},{"server_id":143,"name":"Uncletopia | São Paulo | 2 | All Maps","name_short":"sao-2","host":"sao-2.br.uncletopia.com","port":27015,"enabled":true,"region":"sa","cc":"br","latitude":-23.533773,"longitude":-46.62529,"reserved":0,"last_update":"0001-01-01T00:00:00Z","name_a2s":"Uncletopia | São Paulo | 2 | All Maps","protocol":17,"map":"pl_upward","folder":"tf","game":"Team Fortress","app_id":440,"player_count":21,"max_players":24,"Bots":0,"server_type":"Dedicated","server_os":"Linux","password":true,"vac":true,"version":"7882260","steam_id":85568392924485349,"keywords":["nocrits","nodmgspread","payload","uncletopia"],"game_id":440,"stv_port":27016,"stv_name":"Uncletopia | São Paulo | 2 | All Maps | STV","players":[{"user_id":20,"name":"Tio KillerParty","steam_id":76561198067918814,"connected_time":8114000000000,"state":"active","ping":59},{"user_id":21,"name":"Tou_Matt","steam_id":76561198898317327,"connected_time":8044000000000,"state":"active","ping":46},{"user_id":116,"name":"mika.","steam_id":76561198373134119,"connected_time":1301000000000,"state":"active","ping":45},{"user_id":106,"name":"maj8108","steam_id":76561199476715751,"connected_time":1854000000000,"state":"active","ping":62},{"user_id":144,"name":"Copmmer","steam_id":76561199080964271,"connected_time":91000000000,"state":"active","ping":48},{"user_id":141,"name":"☠︎ jao ☠","steam_id":76561198408082822,"connected_time":321000000000,"state":"active","ping":48},{"user_id":63,"name":"HeadShotGamerBR","steam_id":76561198116856702,"connected_time":4818000000000,"state":"active","ping":73},{"user_id":147,"name":"Grinch","steam_id":76561198322765783,"connected_time":12000000000,"state":"spawning","ping":376},{"user_id":148,"name":"_-_","steam_id":76561198026672557,"connected_time":2000000000,"state":"spawning","ping":42},{"user_id":119,"name":"vacaloca25","steam_id":76561198082683352,"connected_time":1284000000000,"state":"active","ping":60},{"user_id":94,"name":"matheus_lanches","steam_id":76561199359501901,"connected_time":2622000000000,"state":"active","ping":44},{"user_id":134,"name":"Ortega","steam_id":76561198018882166,"connected_time":703000000000,"state":"active","ping":56},{"user_id":121,"name":"anaheisenberg","steam_id":76561198304847307,"connected_time":1258000000000,"state":"active","ping":62},{"user_id":130,"name":"Rick Astley Gaming","steam_id":76561199088485755,"connected_time":949000000000,"state":"active","ping":83},{"user_id":142,"name":"nemo","steam_id":76561198083783451,"connected_time":194000000000,"state":"active","ping":72},{"user_id":132,"name":"Arts","steam_id":76561198306475891,"connected_time":754000000000,"state":"active","ping":88},{"user_id":133,"name":"X.","steam_id":76561198025925950,"connected_time":726000000000,"state":"active","ping":59},{"user_id":137,"name":"Pathetic","steam_id":76561198051056987,"connected_time":687000000000,"state":"active","ping":65},{"user_id":99,"name":"ARK","steam_id":76561198253139686,"connected_time":2056000000000,"state":"active","ping":93},{"user_id":138,"name":"domika is best","steam_id":76561198165412102,"connected_time":672000000000,"state":"active","ping":81},{"user_id":101,"name":"danbison #savetf2 TF2EASY.COM","steam_id":76561199231908154,"connected_time":2029000000000,"state":"active","ping":63}]},{"server_id":7,"name":"Uncletopia | Seattle | 1 | All Maps","name_short":"sea-1","host":"sea-1.us.uncletopia.com","port":27015,"enabled":true,"region":"us-west","cc":"us","latitude":47.608013,"longitude":-122.33517,"reserved":0,"last_update":"0001-01-01T00:00:00Z","name_a2s":"Uncletopia | Seattle | 1 | All Maps","protocol":17,"map":"cp_sunshine","folder":"tf","game":"Team Fortress","app_id":440,"player_count":24,"max_players":24,"Bots":0,"server_type":"Dedicated","server_os":"Linux","password":true,"vac":true,"version":"7882260","steam_id":85568392924469997,"keywords":["cp","nocrits","nodmgspread","uncletopia"],"game_id":440,"stv_port":27016,"stv_name":"Uncletopia | Seattle | 1 | All Maps | STV","players":[{"user_id":302,"name":"Goose","steam_id":76561198036774894,"connected_time":2992000000000,"state":"active","ping":52},{"user_id":277,"name":"Kafuka","steam_id":76561198014404374,"connected_time":4891000000000,"state":"active","ping":35},{"user_id":292,"name":"teqnok","steam_id":76561199226621264,"connected_time":4391000000000,"state":"active","ping":148},{"user_id":252,"name":"RainboomCrash","steam_id":76561198065612273,"connected_time":6092000000000,"state":"active","ping":47},{"user_id":300,"name":"CranAppleGaming","steam_id":76561198398206209,"connected_time":3552000000000,"state":"active","ping":87},{"user_id":315,"name":"Mom 2","steam_id":76561198200961750,"connected_time":1565000000000,"state":"active","ping":73},{"user_id":318,"name":"Dad 2","steam_id":76561198138546187,"connected_time":1477000000000,"state":"active","ping":124},{"user_id":312,"name":"dash","steam_id":76561198043889548,"connected_time":2077000000000,"state":"active","ping":76},{"user_id":303,"name":"Mustapha Lemieux","steam_id":76561198151666102,"connected_time":2985000000000,"state":"active","ping":63},{"user_id":321,"name":"Simplicity","steam_id":76561198005224796,"connected_time":643000000000,"state":"active","ping":51},{"user_id":308,"name":"C U Next Tuesday","steam_id":76561198058493492,"connected_time":2792000000000,"state":"active","ping":56},{"user_id":329,"name":"bladees saddest, realest verse","steam_id":76561198098099826,"connected_time":287000000000,"state":"active","ping":80},{"user_id":322,"name":"They/Them Rattussy","steam_id":76561198238186628,"connected_time":641000000000,"state":"active","ping":73},{"user_id":319,"name":"Neptune *:･ﾟ✧*:･ﾟ","steam_id":76561199054203198,"connected_time":1079000000000,"state":"active","ping":130},{"user_id":323,"name":"Big G","steam_id":76561198053279911,"connected_time":635000000000,"state":"active","ping":52},{"user_id":290,"name":"Mimely","steam_id":76561198005644619,"connected_time":4538000000000,"state":"active","ping":141},{"user_id":324,"name":"PeesTi2","steam_id":76561199016865192,"connected_time":626000000000,"state":"active","ping":63},{"user_id":330,"name":"mooney","steam_id":76561199110622484,"connected_time":276000000000,"state":"active","ping":79},{"user_id":328,"name":"V∆lume The 1rd","steam_id":76561198133260990,"connected_time":312000000000,"state":"active","ping":60},{"user_id":320,"name":"ed","steam_id":76561198080475712,"connected_time":692000000000,"state":"active","ping":65},{"user_id":317,"name":"Dimple #TF2Center","steam_id":76561198980324190,"connected_time":1562000000000,"state":"active","ping":59},{"user_id":327,"name":"brobtlcehc","steam_id":76561198043558709,"connected_time":533000000000,"state":"active","ping":46},{"user_id":307,"name":"Tazzz","steam_id":76561198280897107,"connected_time":2835000000000,"state":"active","ping":45},{"user_id":313,"name":"troller","steam_id":76561198395740686,"connected_time":2056000000000,"state":"active","ping":60}]},{"server_id":119,"name":"Uncletopia | Seattle | 2 | All Maps","name_short":"sea-2","host":"sea-1.us.uncletopia.com","port":27025,"enabled":true,"region":"us-west","cc":"us","latitude":47.608013,"longitude":-122.33517,"reserved":0,"last_update":"0001-01-01T00:00:00Z","name_a2s":"Uncletopia | Seattle | 2 | All Maps","protocol":17,"map":"pl_frontier_final","folder":"tf","game":"Team Fortress","app_id":440,"player_count":24,"max_players":24,"Bots":0,"server_type":"Dedicated","server_os":"Linux","password":true,"vac":true,"version":"7882260","steam_id":85568392924469998,"keywords":["nocrits","nodmgspread","payload","uncletopia"],"game_id":440,"stv_port":27026,"stv_name":"Uncletopia | Seattle | 2 | All Maps | STV","players":[{"user_id":255,"name":"Booster Gold","steam_id":76561198045873731,"connected_time":1232000000000,"state":"active","ping":54},{"user_id":264,"name":"dark romantic","steam_id":76561198325306660,"connected_time":690000000000,"state":"active","ping":54},{"user_id":208,"name":"Caspar","steam_id":76561198202378258,"connected_time":4417000000000,"state":"active","ping":47},{"user_id":218,"name":"O","steam_id":76561198450073779,"connected_time":3784000000000,"state":"active","ping":49},{"user_id":259,"name":"Pyrolimited","steam_id":76561198195455657,"connected_time":1141000000000,"state":"active","ping":49},{"user_id":256,"name":"TheWorstName","steam_id":76561198370629265,"connected_time":1205000000000,"state":"active","ping":83},{"user_id":210,"name":"I pocket snipers *♥‧₊˚","steam_id":76561198048925904,"connected_time":4302000000000,"state":"active","ping":90},{"user_id":242,"name":"John Wick's puppy","steam_id":76561198064662875,"connected_time":2326000000000,"state":"active","ping":64},{"user_id":173,"name":"TheFatNinja","steam_id":76561197998934635,"connected_time":7053000000000,"state":"active","ping":78},{"user_id":238,"name":"lord setch","steam_id":76561198252328518,"connected_time":2447000000000,"state":"active","ping":117},{"user_id":188,"name":"Justy","steam_id":76561198044014069,"connected_time":5534000000000,"state":"active","ping":77},{"user_id":262,"name":"MAK","steam_id":76561198089361823,"connected_time":927000000000,"state":"active","ping":86},{"user_id":243,"name":"Phone","steam_id":76561198334357092,"connected_time":2304000000000,"state":"active","ping":68},{"user_id":227,"name":"♦Benji♦","steam_id":76561198313529973,"connected_time":2896000000000,"state":"active","ping":41},{"user_id":265,"name":"Nico The Cheese","steam_id":76561199065272792,"connected_time":524000000000,"state":"active","ping":76},{"user_id":260,"name":"Red Orbama","steam_id":76561198047002366,"connected_time":1041000000000,"state":"active","ping":48},{"user_id":214,"name":"Little Linguine","steam_id":76561198816986370,"connected_time":3981000000000,"state":"active","ping":59},{"user_id":263,"name":"drum chord","steam_id":76561198363821364,"connected_time":921000000000,"state":"active","ping":67},{"user_id":219,"name":"Els","steam_id":76561198354718934,"connected_time":3627000000000,"state":"active","ping":107},{"user_id":267,"name":"Tibetan Pop Star","steam_id":76561198844903984,"connected_time":296000000000,"state":"active","ping":85},{"user_id":254,"name":"Lawnmower","steam_id":76561198186680197,"connected_time":1286000000000,"state":"active","ping":61},{"user_id":268,"name":"clock","steam_id":76561198797821731,"connected_time":293000000000,"state":"active","ping":112},{"user_id":247,"name":"cock","steam_id":76561198207881077,"connected_time":1712000000000,"state":"active","ping":97},{"user_id":245,"name":"Lapis💛 ","steam_id":76561198009198502,"connected_time":2298000000000,"state":"active","ping":130}]},{"server_id":406,"name":"Uncletopia | Seattle | 3 | Stopwatch Beta","name_short":"sea-3","host":"sea-1.us.uncletopia.com","port":27035,"enabled":true,"region":"us-west","cc":"us","latitude":47.608013,"longitude":-122.33517,"reserved":0,"last_update":"0001-01-01T00:00:00Z","name_a2s":"Uncletopia | Seattle | 3 | Stopwatch Beta","protocol":17,"map":"workshop/koth_ashville_final.ugc2130459942","folder":"tf","game":"Team Fortress","app_id":440,"player_count":2,"max_players":24,"Bots":0,"server_type":"Dedicated","server_os":"Linux","password":true,"vac":true,"version":"7882260","steam_id":85568392924515217,"keywords":["cp","nocrits","nodmgspread","uncletopia"],"game_id":440,"stv_port":27036,"stv_name":"Uncletopia | Seattle | 3 | Stopwatch Beta | STV","players":[{"user_id":17,"name":"Blind Soldier","steam_id":76561199244579158,"connected_time":72000000000,"state":"spawning","ping":178},{"user_id":18,"name":"Teriyaki Jones","steam_id":76561198010282442,"connected_time":39000000000,"state":"active","ping":81}]},{"server_id":17,"name":"Uncletopia | San Francisco | 1 | All Maps","name_short":"sfo-1","host":"sfo-1.us.uncletopia.com","port":27015,"enabled":true,"region":"us-west","cc":"us","latitude":37.77397,"longitude":-122.4313,"reserved":0,"last_update":"0001-01-01T00:00:00Z","name_a2s":"Uncletopia | San Francisco | 1 | All Maps","protocol":17,"map":"cp_process_final","folder":"tf","game":"Team Fortress","app_id":440,"player_count":0,"max_players":24,"Bots":0,"server_type":"Dedicated","server_os":"Linux","password":true,"vac":true,"version":"7757534","steam_id":85568392924469999,"keywords":["cp","nocrits","nodmgspread","uncletopia"],"game_id":440,"stv_port":27016,"stv_name":"Uncletopia | San Francisco | 1 | All Maps | STV","players":null},{"server_id":18,"name":"Uncletopia | San Francisco | 2 | All Maps","name_short":"sfo-2","host":"sfo-1.us.uncletopia.com","port":27025,"enabled":true,"region":"us-west","cc":"us","latitude":37.77397,"longitude":-122.4313,"reserved":0,"last_update":"0001-01-01T00:00:00Z","name_a2s":"Uncletopia | San Francisco | 2 | All Maps","protocol":17,"map":"koth_highpass","folder":"tf","game":"Team Fortress","app_id":440,"player_count":0,"max_players":24,"Bots":0,"server_type":"Dedicated","server_os":"Linux","password":true,"vac":true,"version":"7757534","steam_id":85568392924470000,"keywords":["cp","nocrits","nodmgspread","uncletopia"],"game_id":440,"stv_port":27026,"stv_name":"Uncletopia | San Francisco | 2 | All Maps | STV","players":null},{"server_id":19,"name":"Uncletopia | San Francisco | 3 | Stopwatch Beta","name_short":"sfo-3","host":"sfo-1.us.uncletopia.com","port":27035,"enabled":true,"region":"us-west","cc":"us","latitude":37.77397,"longitude":-122.4313,"reserved":0,"last_update":"0001-01-01T00:00:00Z","name_a2s":"Uncletopia | San Francisco | 3 | Stopwatch Beta","protocol":17,"map":"koth_lakeside_final","folder":"tf","game":"Team Fortress","app_id":440,"player_count":0,"max_players":24,"Bots":0,"server_type":"Dedicated","server_os":"Linux","password":true,"vac":true,"version":"7757534","steam_id":85568392924742824,"keywords":["cp","nocrits","nodmgspread","uncletopia"],"game_id":440,"stv_port":27036,"stv_name":"Uncletopia | San Francisco | 3 | Stopwatch Beta | STV","players":null},{"server_id":20,"name":"Uncletopia | San Francisco | 4 | Community","name_short":"sfo-4","host":"sfo-1.us.uncletopia.com","port":27045,"enabled":true,"region":"us-west","cc":"us","latitude":37.77397,"longitude":-122.4313,"reserved":0,"last_update":"0001-01-01T00:00:00Z","name_a2s":"Uncletopia | San Francisco | 4 | Community","protocol":17,"map":"cp_altitude","folder":"tf","game":"Team Fortress","app_id":440,"player_count":0,"max_players":24,"Bots":0,"server_type":"Dedicated","server_os":"Linux","password":true,"vac":true,"version":"7757534","steam_id":85568392924742826,"keywords":["cp","nocrits","nodmgspread","uncletopia"],"game_id":440,"stv_port":27046,"stv_name":"Uncletopia | San Francisco | 4 | Community | STV","players":null},{"server_id":141,"name":"Uncletopia | Sydney | 1 | All Maps","name_short":"syd-1","host":"syd-1.au.uncletopia.com","port":27015,"enabled":true,"region":"au","cc":"au","latitude":-33.865143,"longitude":151.2099,"reserved":0,"last_update":"0001-01-01T00:00:00Z","name_a2s":"Uncletopia | Sydney | 1 | All Maps","protocol":17,"map":"pl_borneo","folder":"tf","game":"Team Fortress","app_id":440,"player_count":0,"max_players":24,"Bots":0,"server_type":"Dedicated","server_os":"Linux","password":true,"vac":true,"version":"7882260","steam_id":85568392924470001,"keywords":["nocrits","nodmgspread","payload","uncletopia"],"game_id":440,"stv_port":27016,"stv_name":"Uncletopia | Sydney | 1 | All Maps | STV","players":null},{"server_id":123,"name":"Uncletopia | Sydney | 2 | All Maps","name_short":"syd-2","host":"syd-1.au.uncletopia.com","port":27025,"enabled":true,"region":"au","cc":"au","latitude":-33.865143,"longitude":151.2099,"reserved":0,"last_update":"0001-01-01T00:00:00Z","name_a2s":"Uncletopia | Sydney | 2 | All Maps","protocol":17,"map":"pl_barnblitz","folder":"tf","game":"Team Fortress","app_id":440,"player_count":0,"max_players":24,"Bots":0,"server_type":"Dedicated","server_os":"Linux","password":true,"vac":true,"version":"7882260","steam_id":85568392924470002,"keywords":["nocrits","nodmgspread","payload","uncletopia"],"game_id":440,"stv_port":27026,"stv_name":"Uncletopia | Sydney | 2 | All Maps | STV","players":null},{"server_id":395,"name":"Uncletopia | Sydney | 3 | All Maps","name_short":"syd-3","host":"syd-1.au.uncletopia.com","port":27035,"enabled":true,"region":"au","cc":"au","latitude":-33.865143,"longitude":151.2099,"reserved":0,"last_update":"0001-01-01T00:00:00Z","name_a2s":"Uncletopia | Sydney | 3 | All Maps","protocol":17,"map":"pl_upward","folder":"tf","game":"Team Fortress","app_id":440,"player_count":0,"max_players":24,"Bots":0,"server_type":"Dedicated","server_os":"Linux","password":true,"vac":true,"version":"7882260","steam_id":85568392925194467,"keywords":["nocrits","nodmgspread","payload","uncletopia"],"game_id":440,"stv_port":27036,"stv_name":"Uncletopia | Sydney | 3 | All Maps | STV","players":null},{"server_id":396,"name":"Uncletopia | Sydney | 4 | All Maps","name_short":"syd-4","host":"syd-1.au.uncletopia.com","port":27045,"enabled":true,"region":"au","cc":"au","latitude":-33.865143,"longitude":151.2099,"reserved":0,"last_update":"0001-01-01T00:00:00Z","name_a2s":"Uncletopia | Sydney | 4 | All Maps","protocol":17,"map":"cp_dustbowl","folder":"tf","game":"Team Fortress","app_id":440,"player_count":0,"max_players":24,"Bots":0,"server_type":"Dedicated","server_os":"Linux","password":true,"vac":true,"version":"7882260","steam_id":85568392925397958,"keywords":["cp","nocrits","nodmgspread","uncletopia"],"game_id":440,"stv_port":27046,"stv_name":"Uncletopia | Sydney | 4 | All Maps | STV","players":null},{"server_id":58,"name":"Uncletopia | Sydney | 5 | Stopwatch Beta","name_short":"syd-5","host":"syd-1.au.uncletopia.com","port":27055,"enabled":true,"region":"au","cc":"au","latitude":-33.865143,"longitude":151.2099,"reserved":0,"last_update":"0001-01-01T00:00:00Z","name_a2s":"Uncletopia | Sydney | 5 | Stopwatch Beta","protocol":17,"map":"cp_snakewater_final1","folder":"tf","game":"Team Fortress","app_id":440,"player_count":1,"max_players":24,"Bots":0,"server_type":"Dedicated","server_os":"Linux","password":true,"vac":true,"version":"7882260","steam_id":85568392925397959,"keywords":["cp","nocrits","nodmgspread","uncletopia"],"game_id":440,"stv_port":27056,"stv_name":"Uncletopia | Sydney | 5 | Stopwatch Beta | STV","players":[{"user_id":3,"name":"я твою маму","steam_id":76561199051988920,"connected_time":20000000000,"state":"active","ping":325}]},{"server_id":59,"name":"Uncletopia | Sydney | 6 | Community","name_short":"syd-6","host":"syd-1.au.uncletopia.com","port":27065,"enabled":true,"region":"au","cc":"au","latitude":-33.865143,"longitude":151.2099,"reserved":0,"last_update":"0001-01-01T00:00:00Z","name_a2s":"Uncletopia | Sydney | 6 | Community","protocol":17,"map":"pl_snowycoast","folder":"tf","game":"Team Fortress","app_id":440,"player_count":0,"max_players":24,"Bots":0,"server_type":"Dedicated","server_os":"Linux","password":true,"vac":true,"version":"7882260","steam_id":85568392925397960,"keywords":["nocrits","nodmgspread","payload","uncletopia"],"game_id":440,"stv_port":27066,"stv_name":"Uncletopia | Sydney | 6 | Community | STV","players":null},{"server_id":49,"name":"Uncletopia | Warsaw | 1 | All Maps","name_short":"waw-1","host":"waw-1.pl.uncletopia.com","port":27015,"enabled":true,"region":"eu","cc":"pl","latitude":52.2297,"longitude":21.017532,"reserved":0,"last_update":"0001-01-01T00:00:00Z","name_a2s":"","protocol":0,"map":"","folder":"","game":"","app_id":0,"player_count":0,"max_players":0,"Bots":0,"server_type":"","server_os":"","password":false,"vac":false,"version":"","steam_id":0,"keywords":null,"game_id":0,"stv_port":0,"stv_name":"","players":null},{"server_id":50,"name":"Uncletopia | Warsaw | 2 | All Maps","name_short":"waw-2","host":"waw-1.pl.uncletopia.com","port":27025,"enabled":true,"region":"eu","cc":"pl","latitude":52.2297,"longitude":21.017532,"reserved":0,"last_update":"0001-01-01T00:00:00Z","name_a2s":"Uncletopia | Warsaw | 2 | All Maps","protocol":17,"map":"cp_mountainlab","folder":"tf","game":"Team Fortress","app_id":440,"player_count":0,"max_players":24,"Bots":0,"server_type":"Dedicated","server_os":"Linux","password":true,"vac":true,"version":"7882260","steam_id":85568392925397851,"keywords":["cp","nocrits","nodmgspread","uncletopia"],"game_id":440,"stv_port":27026,"stv_name":"Uncletopia | Warsaw | 2 | All Maps | STV","players":null},{"server_id":51,"name":"Uncletopia | Warsaw | 3 | All Maps","name_short":"waw-3","host":"waw-1.pl.uncletopia.com","port":27035,"enabled":true,"region":"eu","cc":"pl","latitude":52.2297,"longitude":21.017532,"reserved":0,"last_update":"0001-01-01T00:00:00Z","name_a2s":"Uncletopia | Warsaw | 3 | All Maps","protocol":17,"map":"pl_badwater","folder":"tf","game":"Team Fortress","app_id":440,"player_count":0,"max_players":24,"Bots":0,"server_type":"Dedicated","server_os":"Linux","password":true,"vac":true,"version":"7882260","steam_id":85568392925397852,"keywords":["nocrits","nodmgspread","payload","uncletopia"],"game_id":440,"stv_port":27036,"stv_name":"Uncletopia | Warsaw | 3 | All Maps | STV","players":null},{"server_id":52,"name":"Uncletopia | Warsaw | 4 | All Maps","name_short":"waw-4","host":"waw-1.pl.uncletopia.com","port":27045,"enabled":true,"region":"eu","cc":"pl","latitude":52.2297,"longitude":21.017532,"reserved":0,"last_update":"0001-01-01T00:00:00Z","name_a2s":"Uncletopia | Warsaw | 4 | All Maps","protocol":17,"map":"cp_dustbowl","folder":"tf","game":"Team Fortress","app_id":440,"player_count":0,"max_players":24,"Bots":0,"server_type":"Dedicated","server_os":"Linux","password":true,"vac":true,"version":"7882260","steam_id":85568392925397853,"keywords":["cp","nocrits","nodmgspread","uncletopia"],"game_id":440,"stv_port":27046,"stv_name":"Uncletopia | Warsaw | 4 | All Maps | STV","players":null},{"server_id":53,"name":"Uncletopia | Warsaw | 5 | Stopwatch Beta","name_short":"waw-5","host":"waw-1.pl.uncletopia.com","port":27055,"enabled":true,"region":"eu","cc":"pl","latitude":52.2297,"longitude":21.017532,"reserved":0,"last_update":"0001-01-01T00:00:00Z","name_a2s":"Uncletopia | Warsaw | 5 | Stopwatch Beta","protocol":17,"map":"cp_process_final","folder":"tf","game":"Team Fortress","app_id":440,"player_count":0,"max_players":24,"Bots":0,"server_type":"Dedicated","server_os":"Linux","password":true,"vac":true,"version":"7882260","steam_id":85568392925397854,"keywords":["cp","nocrits","nodmgspread","uncletopia"],"game_id":440,"stv_port":27056,"stv_name":"Uncletopia | Warsaw | 5 | Stopwatch Beta | STV","players":null},{"server_id":54,"name":"Uncletopia | Warsaw | 6 | Community","name_short":"waw-6","host":"waw-1.pl.uncletopia.com","port":27065,"enabled":true,"region":"eu","cc":"pl","latitude":52.2297,"longitude":21.017532,"reserved":0,"last_update":"0001-01-01T00:00:00Z","name_a2s":"Uncletopia | Warsaw | 6 | Community","protocol":17,"map":"koth_viaduct","folder":"tf","game":"Team Fortress","app_id":440,"player_count":0,"max_players":24,"Bots":0,"server_type":"Dedicated","server_os":"Linux","password":true,"vac":true,"version":"7882260","steam_id":85568392925397856,"keywords":["cp","nocrits","nodmgspread","uncletopia"],"game_id":440,"stv_port":27066,"stv_name":"Uncletopia | Warsaw | 6 | Community | STV","players":null}]}