{"status":true,"message":"","result":[{"server_id":9,"name":"Uncletopia | Atlanta | 1 | All Maps","name_short":"atl-1","host":"atl-1.us.uncletopia.com","port":27015,"enabled":true,"region":"us-east","cc":"us","latitude":33.753746,"longitude":-84.38633,"reserved":0,"last_update":"0001-01-01T00:00:00Z","name_a2s":"Uncletopia | Atlanta | 1 | All Maps","protocol":17,"map":"pl_frontier_final","folder":"tf","game":"Team Fortress","app_id":440,"player_count":24,"max_players":24,"Bots":0,"server_type":"Dedicated","server_os":"Linux","password":true,"vac":true,"version":"7757534","steam_id":85568392924469982,"keywords":["nocrits","nodmgspread","payload","uncletopia"],"game_id":440,"stv_port":27016,"stv_name":"Uncletopia | Atlanta | 1 | All Maps | STV","players":[{"user_id":650,"name":"Big Man","steam_id":76561198353366625,"connected_time":134000000000,"state":"active","ping":74},{"user_id":654,"name":"StarPhantasy","steam_id":76561199083081251,"connected_time":2000000000,"state":"spawning","ping":54},{"user_id":651,"name":"Crystron","steam_id":76561198880437428,"connected_time":123000000000,"state":"active","ping":79},{"user_id":652,"name":"ƐՌѴƳ","steam_id":76561198099470277,"connected_time":121000000000,"state":"active","ping":60},{"user_id":648,"name":"Higgle Poggers","steam_id":76561198043960257,"connected_time":154000000000,"state":"active","ping":70},{"user_id":555,"name":"ATL 1 | Save your wifi","steam_id":76561198286147372,"connected_time":7341000000000,"state":"active","ping":54},{"user_id":546,"name":"lil hog","steam_id":76561199230929836,"connected_time":8070000000000,"state":"active","ping":72},{"user_id":619,"name":"PerpetuaForever","steam_id":76561198347444353,"connected_time":1463000000000,"state":"active","ping":72},{"user_id":574,"name":"BIG HOG","steam_id":76561198079923652,"connected_time":5006000000000,"state":"active","ping":78},{"user_id":649,"name":"Tue","steam_id":76561198181668501,"connected_time":153000000000,"state":"active","ping":64},{"user_id":590,"name":"Intro Bonito","steam_id":76561198119478838,"connected_time":4179000000000,"state":"active","ping":47},{"user_id":579,"name":"Onyx","steam_id":76561198275349640,"connected_time":4592000000000,"state":"active","ping":76},{"user_id":580,"name":"CreepyCook","steam_id":76561198242874622,"connected_time":4581000000000,"state":"active","ping":71},{"user_id":618,"name":"krabby","steam_id":76561199072773402,"connected_time":1485000000000,"state":"active","ping":64},{"user_id":606,"name":"ATL1 | cola","steam_id":76561198374390458,"connected_time":2664000000000,"state":"active","ping":55},{"user_id":610,"name":"Alkivo","steam_id":76561198315999766,"connected_time":2330000000000,"state":"active","ping":78},{"user_id":615,"name":"ATL1 | on my hunting trip","steam_id":76561198315341646,"connected_time":1720000000000,"state":"active","ping":74},{"user_id":616,"name":"Inkmix","steam_id":76561198854070384,"connected_time":1719000000000,"state":"active","ping":98},{"user_id":569,"name":"Messy_","steam_id":76561199095580664,"connected_time":5385000000000,"state":"active","ping":109},{"user_id":596,"name":"perCoo","steam_id":76561199015740297,"connected_time":3780000000000,"state":"active","ping":56},{"user_id":647,"name":"freyja #LetsEat","steam_id":76561198249206656,"connected_time":519000000000,"state":"active","ping":89},{"user_id":613,"name":"metal pipe","steam_id":76561198849461209,"connected_time":2099000000000,"state":"active","ping":82},{"user_id":540,"name":"Bag","steam_id":76561198012395490,"connected_time":8891000000000,"state":"active","ping":58},{"user_id":601,"name":"bill","steam_id":76561199142779872,"connected_time":3665000000000,"state":"active","ping":88}]},{"server_id":104,"name":"Uncletopia | Atlanta | 2 | All Maps","name_short":"atl-2","host":"atl-1.us.uncletopia.com","port":27025,"enabled":true,"region":"us-east","cc":"us","latitude":33.753746,"longitude":-84.38633,"reserved":0,"last_update":"0001-01-01T00:00:00Z","name_a2s":"Uncletopia | Atlanta | 2 | All Maps","protocol":17,"map":"ctf_sawmill","folder":"tf","game":"Team Fortress","app_id":440,"player_count":21,"max_players":24,"Bots":0,"server_type":"Dedicated","server_os":"Linux","password":true,"vac":true,"version":"7757534","steam_id":85568392924469983,"keywords":["ctf","nocrits","nodmgspread","uncletopia"],"game_id":440,"stv_port":27026,"stv_name":"Uncletopia | Atlanta | 2 | All Maps | STV","players":[{"user_id":559,"name":"Pascal","steam_id":76561198902657591,"connected_time":1650000000000,"state":"active","ping":54},{"user_id":576,"name":"Succubus_Lilith","steam_id":76561198240578890,"connected_time":673000000000,"state":"active","ping":64},{"user_id":578,"name":"TaeTaeNuna","steam_id":76561199177395010,"connected_time":635000000000,"state":"active","ping":144},{"user_id":482,"name":"Soupman_Official","steam_id":76561198314308732,"connected_time":6389000000000,"state":"active","ping":92},{"user_id":579,"name":"drdoofus123","steam_id":76561198016826181,"connected_time":595000000000,"state":"active","ping":62},{"user_id":489,"name":"bucket head","steam_id":76561199093619156,"connected_time":5210000000000,"state":"active","ping":115},{"user_id":545,"name":"Kazmirl [Youtube]","steam_id":76561198116008410,"connected_time":2151000000000,"state":"active","ping":93},{"user_id":571,"name":"Dragonofponies","steam_id":76561199016800803,"connected_time":1095000000000,"state":"active","ping":70},{"user_id":549,"name":"troll","steam_id":76561198040890252,"connected_time":1897000000000,"state":"active","ping":53},{"user_id":550,"name":"Crunchy","steam_id":76561199065412274,"connected_time":1894000000000,"state":"active","ping":64},{"user_id":551,"name":"Jettey","steam_id":76561198064018303,"connected_time":1864000000000,"state":"active","ping":69},{"user_id":594,"name":"Captain Zyrin","steam_id":76561197983121824,"connected_time":18000000000,"state":"spawning","ping":47},{"user_id":503,"name":"The sad vanilla","steam_id":76561198268621447,"connected_time":3942000000000,"state":"active","ping":77},{"user_id":592,"name":"Meat Dragon","steam_id":76561198120319256,"connected_time":100000000000,"state":"active","ping":91},{"user_id":591,"name":"Concerned Lucario","steam_id":76561198320694856,"connected_time":120000000000,"state":"active","ping":268},{"user_id":572,"name":"Scita","steam_id":76561198066861559,"connected_time":1088000000000,"state":"active","ping":68},{"user_id":567,"name":"[IRP] Dover","steam_id":76561198417653786,"connected_time":1314000000000,"state":"active","ping":106},{"user_id":417,"name":"Gentoo Linux Gaming","steam_id":76561197999657118,"connected_time":10188000000000,"state":"active","ping":96},{"user_id":593,"name":"Mr. Call You Back","steam_id":76561198025172811,"connected_time":48000000000,"state":"active","ping":58},{"user_id":588,"name":"Ludcmorais","steam_id":76561198359217809,"connected_time":293000000000,"state":"active","ping":184},{"user_id":585,"name":"tubby","steam_id":76561198174982661,"connected_time":455000000000,"state":"active","ping":70}]},{"server_id":400,"name":"Uncletopia | Atlanta | 3 | Community","name_short":"atl-3","host":"atl-1.us.uncletopia.com","port":27035,"enabled":true,"region":"us-east","cc":"us","latitude":33.753746,"longitude":-84.38633,"reserved":0,"last_update":"0001-01-01T00:00:00Z","name_a2s":"Uncletopia | Atlanta | 3 | Community","protocol":17,"map":"workshop/koth_synthetic_rc6a.ugc1549817316","folder":"tf","game":"Team Fortress","app_id":440,"player_count":23,"max_players":24,"Bots":0,"server_type":"Dedicated","server_os":"Linux","password":true,"vac":true,"version":"7757534","steam_id":85568392924515187,"keywords":["cp","nocrits","nodmgspread","uncletopia"],"game_id":440,"stv_port":27036,"stv_name":"Uncletopia | Atlanta | 3 | Community | STV","players":[{"user_id":256,"name":"Azuras","steam_id":76561198156416843,"connected_time":2887000000000,"state":"active","ping":93},{"user_id":292,"name":"[12V] Marv","steam_id":76561198158638384,"connected_time":1053000000000,"state":"active","ping":45},{"user_id":287,"name":"why the wig?","steam_id":76561199084109885,"connected_time":1178000000000,"state":"active","ping":60},{"user_id":299,"name":"Glow Juice","steam_id":76561198081983588,"connected_time":336000000000,"state":"active","ping":75},{"user_id":291,"name":"=)","steam_id":76561198076598729,"connected_time":1061000000000,"state":"active","ping":69},{"user_id":257,"name":"Isaac Clarke","steam_id":76561198317662346,"connected_time":2822000000000,"state":"active","ping":93},{"user_id":293,"name":"Replica","steam_id":76561198043761647,"connected_time":1046000000000,"state":"active","ping":82},{"user_id":305,"name":"Sh¡T_in_the_walls","steam_id":76561198950820621,"connected_time":125000000000,"state":"active","ping":88},{"user_id":296,"name":"Wilhelmktx","steam_id":76561198158102295,"connected_time":755000000000,"state":"active","ping":68},{"user_id":304,"name":"Karma's Camera","steam_id":76561198059385185,"connected_time":152000000000,"state":"active","ping":60},{"user_id":275,"name":"Rin \"Hindwing\" Redtail","steam_id":76561199074865638,"connected_time":2123000000000,"state":"active","ping":62},{"user_id":262,"name":"Greasy Guavas","steam_id":76561198089650428,"connected_time":2717000000000,"state":"active","ping":85},{"user_id":297,"name":"Missing Minus","steam_id":76561198120822928,"connected_time":754000000000,"state":"active","ping":57},{"user_id":289,"name":"pool shark","steam_id":76561198130191179,"connected_time":1141000000000,"state":"active","ping":79},{"user_id":301,"name":"Peter McKay","steam_id":76561198842221188,"connected_time":273000000000,"state":"active","ping":75},{"user_id":298,"name":"Lord Scrubling","steam_id":76561198263744445,"connected_time":748000000000,"state":"active","ping":70},{"user_id":272,"name":"amablehughes","steam_id":76561199007131236,"connected_time":2267000000000,"state":"active","ping":87},{"user_id":302,"name":"Epha","steam_id":76561198079379951,"connected_time":225000000000,"state":"active","ping":85},{"user_id":303,"name":"Hadrian Khalos","steam_id":76561198061268044,"connected_time":207000000000,"state":"active","ping":89},{"user_id":278,"name":"Bzamo","steam_id":76561198039883392,"connected_time":1972000000000,"state":"active","ping":52},{"user_id":290,"name":"TheSecretNewbie","steam_id":76561198194671218,"connected_time":1133000000000,"state":"active","ping":38},{"user_id":285,"name":"ATL1 | yumyum","steam_id":76561198150567198,"connected_time":1411000000000,"state":"active","ping":62},{"user_id":283,"name":"HappySmiles1010","steam_id":76561199202300463,"connected_time":1800000000000,"state":"active","ping":79}]},{"server_id":401,"name":"Uncletopia | Atlanta | 4 | No Payload","name_short":"atl-4","host":"atl-1.us.uncletopia.com","port":27045,"enabled":true,"region":"us-east","cc":"us","latitude":33.753746,"longitude":-84.38633,"reserved":0,"last_update":"0001-01-01T00:00:00Z","name_a2s":"","protocol":0,"map":"","folder":"","game":"","app_id":0,"player_count":0,"max_players":0,"Bots":0,"server_type":"","server_os":"","password":false,"vac":false,"version":"","steam_id":0,"keywords":null,"game_id":0,"stv_port":0,"stv_name":"","players":null},{"server_id":2,"name":"Uncletopia | Chicago | 1 | All Maps","name_short":"chi-1","host":"chi-1.us.uncletopia.com","port":27015,"enabled":true,"region":"us-central","cc":"us","latitude":41.881832,"longitude":-87.62318,"reserved":0,"last_update":"0001-01-01T00:00:00Z","name_a2s":"Uncletopia | Chicago | 1 | All Maps","protocol":17,"map":"pl_frontier_final","folder":"tf","game":"Team Fortress","app_id":440,"player_count":24,"max_players":24,"Bots":0,"server_type":"Dedicated","server_os":"Linux","password":true,"vac":true,"version":"7757534","steam_id":85568392924469984,"keywords":["nocrits","nodmgspread","payload","uncletopia"],"game_id":440,"stv_port":27016,"stv_name":"Uncletopia | Chicago | 1 | All Maps | STV","players":[{"user_id":595,"name":"briggs","steam_id":76561198045655893,"connected_time":391000000000,"state":"active","ping":58},{"user_id":492,"name":"peakmeta","steam_id":76561199053600691,"connected_time":6433000000000,"state":"active","ping":64},{"user_id":551,"name":"mcjuice","steam_id":76561198087730829,"connected_time":3464000000000,"state":"active","ping":65},{"user_id":587,"name":"Aristotle Voulton","steam_id":76561198100174923,"connected_time":771000000000,"state":"active","ping":86},{"user_id":593,"name":"Rip King \"The Naive\" XlV","steam_id":76561198047561037,"connected_time":454000000000,"state":"active","ping":101},{"user_id":550,"name":"Giggles™","steam_id":76561198058708019,"connected_time":3466000000000,"state":"active","ping":54},{"user_id":540,"name":"azlondon","steam_id":76561197995819002,"connected_time":4117000000000,"state":"active","ping":78},{"user_id":573,"name":"capybapy","steam_id":76561198798828328,"connected_time":2393000000000,"state":"active","ping":48},{"user_id":594,"name":"darkHeart :3","steam_id":76561198184071579,"connected_time":419000000000,"state":"active","ping":45},{"user_id":575,"name":"SuperFresh","steam_id":76561198200723198,"connected_time":2257000000000,"state":"active","ping":39},{"user_id":548,"name":"delusional schizophrenic","steam_id":76561198323435040,"connected_time":3477000000000,"state":"active","ping":61},{"user_id":526,"name":"Brian_F's SFV Spreadsheet","steam_id":76561198257691881,"connected_time":4928000000000,"state":"active","ping":91},{"user_id":584,"name":"Thundermonkey (SMOKE)","steam_id":76561198017631728,"connected_time":838000000000,"state":"active","ping":65},{"user_id":536,"name":"blob","steam_id":76561198122375328,"connected_time":4437000000000,"state":"active","ping":58},{"user_id":592,"name":"ʕ•ᴥ•ʔ the bear","steam_id":76561197989591976,"connected_time":546000000000,"state":"active","ping":82},{"user_id":578,"name":"Mister Frank","steam_id":76561198161473385,"connected_time":2015000000000,"state":"active","ping":66},{"user_id":558,"name":"joebot","steam_id":76561197975606100,"connected_time":3424000000000,"state":"active","ping":73},{"user_id":588,"name":"Grilled Jizo","steam_id":76561199250875340,"connected_time":757000000000,"state":"active","ping":79},{"user_id":589,"name":"Olly","steam_id":76561198054273611,"connected_time":755000000000,"state":"active","ping":69},{"user_id":568,"name":"Side egg? Unnecessary.","steam_id":76561198091172158,"connected_time":2801000000000,"state":"active","ping":45},{"user_id":559,"name":"Neophyte","steam_id":76561198027183394,"connected_time":3413000000000,"state":"active","ping":92},{"user_id":561,"name":"Dr_Spek","steam_id":76561198128667701,"connected_time":3279000000000,"state":"active","ping":59},{"user_id":582,"name":"Blackbird","steam_id":76561198127818333,"connected_time":844000000000,"state":"active","ping":51},{"user_id":583,"name":"Captain S. Forrest","steam_id":76561198062463029,"connected_time":843000000000,"state":"active","ping":84}]},{"server_id":106,"name":"Uncletopia | Chicago | 2 | All Maps","name_short":"chi-2","host":"chi-1.us.uncletopia.com","port":27025,"enabled":true,"region":"us-central","cc":"us","latitude":41.881832,"longitude":-87.62318,"reserved":0,"last_update":"0001-01-01T00:00:00Z","name_a2s":"Uncletopia | Chicago | 2 | All Maps","protocol":17,"map":"ctf_doublecross","folder":"tf","game":"Team Fortress","app_id":440,"player_count":24,"max_players":24,"Bots":0,"server_type":"Dedicated","server_os":"Linux","password":true,"vac":true,"version":"7757534","steam_id":85568392924469985,"keywords":["ctf","nocrits","nodmgspread","uncletopia"],"game_id":440,"stv_port":27026,"stv_name":"Uncletopia | Chicago | 2 | All Maps | STV","players":[{"user_id":549,"name":"CoffeePasta","steam_id":76561198969890522,"connected_time":2456000000000,"state":"active","ping":112},{"user_id":538,"name":"Papahemmy","steam_id":76561198155470810,"connected_time":2862000000000,"state":"active","ping":57},{"user_id":583,"name":"warscout101bro","steam_id":76561198813489938,"connected_time":251000000000,"state":"active","ping":101},{"user_id":564,"name":"Trove","steam_id":76561198110970476,"connected_time":1460000000000,"state":"active","ping":45},{"user_id":570,"name":"Concolor","steam_id":76561198027734150,"connected_time":1118000000000,"state":"active","ping":67},{"user_id":473,"name":"coldhogs","steam_id":76561198120349982,"connected_time":7408000000000,"state":"active","ping":46},{"user_id":579,"name":"sauce","steam_id":76561198155481540,"connected_time":469000000000,"state":"active","ping":74},{"user_id":461,"name":"Bow_","steam_id":76561198109608134,"connected_time":8456000000000,"state":"active","ping":77},{"user_id":500,"name":"Queso2469","steam_id":76561197993024580,"connected_time":6117000000000,"state":"active","ping":68},{"user_id":565,"name":"jose.gutierrez.2012","steam_id":76561198059685658,"connected_time":1438000000000,"state":"active","ping":74},{"user_id":572,"name":"bloard","steam_id":76561198083206034,"connected_time":1104000000000,"state":"active","ping":77},{"user_id":554,"name":"SiskoSenpai","steam_id":76561198053701833,"connected_time":1885000000000,"state":"active","ping":102},{"user_id":573,"name":"Baoshan Iron \u0026 Steel Co., Ltd.","steam_id":76561198095313463,"connected_time":1092000000000,"state":"active","ping":65},{"user_id":581,"name":"Motreir","steam_id":76561198151717946,"connected_time":388000000000,"state":"active","ping":79},{"user_id":553,"name":"Voids","steam_id":76561198128386726,"connected_time":2176000000000,"state":"active","ping":82},{"user_id":532,"name":"triangleman","steam_id":76561198972733542,"connected_time":3435000000000,"state":"active","ping":51},{"user_id":550,"name":"Exotic","steam_id":76561198094518524,"connected_time":2413000000000,"state":"active","ping":45},{"user_id":547,"name":"Snivy64","steam_id":76561198423445376,"connected_time":2630000000000,"state":"active","ping":96},{"user_id":575,"name":"Bad","steam_id":76561198372994028,"connected_time":1081000000000,"state":"active","ping":93},{"user_id":582,"name":"The 2Fort Dweller","steam_id":76561198349119311,"connected_time":342000000000,"state":"active","ping":96},{"user_id":563,"name":"1-800-GHOST-DANCE","steam_id":76561198835430429,"connected_time":1475000000000,"state":"active","ping":75},{"user_id":584,"name":"OrangeShoes","steam_id":76561197971249940,"connected_time":188000000000,"state":"active","ping":106},{"user_id":417,"name":"bobbymcbobington","steam_id":76561199089411172,"connected_time":11943000000000,"state":"active","ping":114},{"user_id":576,"name":"be","steam_id":76561198000824533,"connected_time":1077000000000,"state":"active","ping":88}]},{"server_id":402,"name":"Uncletopia | Chicago | 3 | All Maps","name_short":"chi-3","host":"chi-1.us.uncletopia.com","port":27035,"enabled":true,"region":"us-central","cc":"us","latitude":41.881832,"longitude":-87.62318,"reserved":0,"last_update":"0001-01-01T00:00:00Z","name_a2s":"Uncletopia | Chicago | 3 | All Maps","protocol":17,"map":"pl_snowycoast","folder":"tf","game":"Team Fortress","app_id":440,"player_count":24,"max_players":24,"Bots":0,"server_type":"Dedicated","server_os":"Linux","password":true,"vac":true,"version":"7757534","steam_id":85568392924515191,"keywords":["nocrits","nodmgspread","payload","uncletopia"],"game_id":440,"stv_port":27036,"stv_name":"Uncletopia | Chicago | 3 | All Maps | STV","players":[{"user_id":473,"name":"Fergus","steam_id":76561198828018167,"connected_time":833000000000,"state":"active","ping":129},{"user_id":470,"name":"Baka!⑨⑨⑨⑨","steam_id":76561198152948254,"connected_time":905000000000,"state":"active","ping":71},{"user_id":460,"name":"Person","steam_id":76561198093244204,"connected_time":2138000000000,"state":"active","ping":76},{"user_id":466,"name":"Gary Budussy","steam_id":76561197969793969,"connected_time":1309000000000,"state":"active","ping":67},{"user_id":476,"name":"monsterkill4567","steam_id":76561198272986367,"connected_time":287000000000,"state":"active","ping":108},{"user_id":471,"name":"Uhhhh Yep","steam_id":76561199122315920,"connected_time":882000000000,"state":"active","ping":61},{"user_id":428,"name":"bug o1","steam_id":76561198126386686,"connected_time":3844000000000,"state":"active","ping":46},{"user_id":439,"name":"Samitch","steam_id":76561198038247982,"connected_time":2790000000000,"state":"active","ping":74},{"user_id":468,"name":"G6 habib","steam_id":76561198053621664,"connected_time":1299000000000,"state":"active","ping":45},{"user_id":472,"name":"Rock and Stone","steam_id":76561198057374871,"connected_time":865000000000,"state":"active","ping":68},{"user_id":457,"name":"CHEEKY EUNUCH","steam_id":76561198990825232,"connected_time":2294000000000,"state":"active","ping":62},{"user_id":475,"name":"Iron","steam_id":76561198247918478,"connected_time":630000000000,"state":"active","ping":67},{"user_id":465,"name":"Carlos Spartan","steam_id":76561198362047478,"connected_time":1649000000000,"state":"active","ping":103},{"user_id":422,"name":"orcluvr69","steam_id":76561198068712028,"connected_time":4016000000000,"state":"active","ping":82},{"user_id":444,"name":"Elena Manetta","steam_id":76561197998344054,"connected_time":2676000000000,"state":"active","ping":60},{"user_id":445,"name":"pel","steam_id":76561198021224745,"connected_time":2668000000000,"state":"active","ping":55},{"user_id":446,"name":"DolphiN | RGL.gg","steam_id":76561198048614515,"connected_time":2657000000000,"state":"active","ping":59},{"user_id":461,"name":"Ranger Plague","steam_id":76561198174647666,"connected_time":1941000000000,"state":"active","ping":81},{"user_id":448,"name":"spc1","steam_id":76561198050136796,"connected_time":2638000000000,"state":"active","ping":76},{"user_id":424,"name":"The Jar","steam_id":76561198146013385,"connected_time":3992000000000,"state":"active","ping":76},{"user_id":429,"name":"CarTii","steam_id":76561198101086870,"connected_time":3829000000000,"state":"active","ping":73},{"user_id":455,"name":"LCGPhantom","steam_id":76561199052145044,"connected_time":2365000000000,"state":"active","ping":77},{"user_id":469,"name":"Hefeel","steam_id":76561199473801131,"connected_time":1161000000000,"state":"active","ping":59},{"user_id":474,"name":"Jasper Zawn","steam_id":76561198077651204,"connected_time":811000000000,"state":"active","ping":72}]},{"server_id":403,"name":"Uncletopia | Chicago | 4 | All Maps","name_short":"chi-4","host":"chi-1.us.uncletopia.com","port":27045,"enabled":true,"region":"us-central","cc":"us","latitude":41.881832,"longitude":-87.62318,"reserved":0,"last_update":"0001-01-01T00:00:00Z","name_a2s":"Uncletopia | Chicago | 4 | All Maps","protocol":17,"map":"cp_dustbowl","folder":"tf","game":"Team Fortress","app_id":440,"player_count":24,"max_players":24,"Bots":0,"server_type":"Dedicated","server_os":"Linux","password":true,"vac":true,"version":"7757534","steam_id":85568392924515193,"keywords":["cp","nocrits","nodmgspread","uncletopia"],"game_id":440,"stv_port":27046,"stv_name":"Uncletopia | Chicago | 4 | All Maps | STV","players":[{"user_id":530,"name":"porfer","steam_id":76561199118049168,"connected_time":2024000000000,"state":"active","ping":99},{"user_id":566,"name":"LilValWow","steam_id":76561198000827404,"connected_time":79000000000,"state":"active","ping":89},{"user_id":547,"name":"ameritech","steam_id":76561198064769089,"connected_time":432000000000,"state":"active","ping":89},{"user_id":539,"name":"rock raiders enjoyer","steam_id":76561198139718219,"connected_time":1153000000000,"state":"active","ping":79},{"user_id":552,"name":"fingles","steam_id":76561199151888352,"connected_time":351000000000,"state":"active","ping":71},{"user_id":548,"name":"lego star wars on the psp","steam_id":76561198148014773,"connected_time":427000000000,"state":"active","ping":71},{"user_id":541,"name":"Mimic","steam_id":76561198060164147,"connected_time":699000000000,"state":"active","ping":51},{"user_id":549,"name":"knu7x","steam_id":76561198035475805,"connected_time":422000000000,"state":"active","ping":86},{"user_id":540,"name":"Emails","steam_id":76561198836919458,"connected_time":784000000000,"state":"active","ping":69},{"user_id":550,"name":"reymundo","steam_id":76561197989412830,"connected_time":398000000000,"state":"active","ping":116},{"user_id":510,"name":"Battery Acid Addict","steam_id":76561198439793697,"connected_time":2789000000000,"state":"active","ping":80},{"user_id":551,"name":"HappyOtterMan","steam_id":76561199051276989,"connected_time":394000000000,"state":"active","ping":72},{"user_id":553,"name":"Vetenigga","steam_id":76561198129546803,"connected_time":343000000000,"state":"active","ping":100},{"user_id":554,"name":"jalen","steam_id":76561198065205306,"connected_time":326000000000,"state":"active","ping":82},{"user_id":555,"name":"cold","steam_id":76561199017901552,"connected_time":320000000000,"state":"active","ping":67},{"user_id":559,"name":"Emberdened","steam_id":76561199163688421,"connected_time":262000000000,"state":"active","ping":101},{"user_id":526,"name":"Braindawg","steam_id":76561197988531991,"connected_time":2132000000000,"state":"active","ping":98},{"user_id":556,"name":"TransWomanGaming","steam_id":76561198809645656,"connected_time":315000000000,"state":"active","ping":77},{"user_id":557,"name":"Drilly22","steam_id":76561198068838338,"connected_time":308000000000,"state":"active","ping":92},{"user_id":567,"name":"Discourse","steam_id":76561198984286678,"connected_time":62000000000,"state":"active","ping":59},{"user_id":561,"name":"Baby gaming","steam_id":76561198867319323,"connected_time":233000000000,"state":"active","ping":66},{"user_id":564,"name":"Tick","steam_id":76561198184161214,"connected_time":141000000000,"state":"active","ping":40},{"user_id":534,"name":"Kimba","steam_id":76561199092078325,"connected_time":1401000000000,"state":"active","ping":93},{"user_id":563,"name":"thetroupegang","steam_id":76561198340510098,"connected_time":219000000000,"state":"active","ping":76}]},{"server_id":36,"name":"Uncletopia | Chicago | 5 | All Maps","name_short":"chi-5","host":"chi-2.us.uncletopia.com","port":27015,"enabled":true,"region":"us-central","cc":"us","latitude":41.881832,"longitude":-87.62318,"reserved":0,"last_update":"0001-01-01T00:00:00Z","name_a2s":"Uncletopia | Chicago | 5 | All Maps","protocol":17,"map":"cp_snakewater_final1","folder":"tf","game":"Team Fortress","app_id":440,"player_count":24,"max_players":24,"Bots":0,"server_type":"Dedicated","server_os":"Linux","password":true,"vac":true,"version":"7757534","steam_id":85568392924866362,"keywords":["cp","nocrits","nodmgspread","uncletopia"],"game_id":440,"stv_port":27016,"stv_name":"Uncletopia | Chicago | 5 | All Maps | STV","players":[{"user_id":496,"name":"RyInc","steam_id":76561198874261643,"connected_time":1008000000000,"state":"active","ping":47},{"user_id":500,"name":"aquatic ambiance","steam_id":76561198042788986,"connected_time":798000000000,"state":"active","ping":81},{"user_id":490,"name":"Dacoda999","steam_id":76561198092203780,"connected_time":1448000000000,"state":"active","ping":52},{"user_id":502,"name":"Holdie","steam_id":76561198070378200,"connected_time":595000000000,"state":"active","ping":57},{"user_id":505,"name":"BowlOfSoup","steam_id":76561198000849668,"connected_time":478000000000,"state":"active","ping":83},{"user_id":494,"name":"Gaben Gaming","steam_id":76561198330119627,"connected_time":1258000000000,"state":"active","ping":75},{"user_id":484,"name":"SD","steam_id":76561198217410988,"connected_time":1730000000000,"state":"active","ping":105},{"user_id":200,"name":"uhooter","steam_id":76561198007829078,"connected_time":20855000000000,"state":"active","ping":47},{"user_id":506,"name":"Rudy","steam_id":76561198013456828,"connected_time":435000000000,"state":"active","ping":54},{"user_id":469,"name":"fuckterry","steam_id":76561198271957738,"connected_time":2759000000000,"state":"active","ping":65},{"user_id":485,"name":"steggy","steam_id":76561198000564263,"connected_time":1718000000000,"state":"active","ping":69},{"user_id":448,"name":"FlarbaDoodle","steam_id":76561198176879990,"connected_time":4403000000000,"state":"active","ping":58},{"user_id":457,"name":"JRB","steam_id":76561198054629439,"connected_time":4098000000000,"state":"active","ping":68},{"user_id":450,"name":"WorthiestPeak04","steam_id":76561198340598319,"connected_time":4351000000000,"state":"active","ping":63},{"user_id":507,"name":"java","steam_id":76561198030276792,"connected_time":344000000000,"state":"active","ping":73},{"user_id":486,"name":"chinese guy balloon","steam_id":76561198106690989,"connected_time":1712000000000,"state":"active","ping":66},{"user_id":498,"name":"The destroyer of foreskin","steam_id":76561198135275966,"connected_time":956000000000,"state":"active","ping":85},{"user_id":487,"name":"thai","steam_id":76561198052462287,"connected_time":1671000000000,"state":"active","ping":91},{"user_id":488,"name":"Viennetta","steam_id":76561198044088335,"connected_time":1663000000000,"state":"active","ping":75},{"user_id":499,"name":"Geloman","steam_id":76561198005501322,"connected_time":944000000000,"state":"active","ping":76},{"user_id":453,"name":"Kartezwei","steam_id":76561198388501441,"connected_time":4312000000000,"state":"active","ping":75},{"user_id":434,"name":"threethree","steam_id":76561198177354155,"connected_time":4763000000000,"state":"active","ping":58},{"user_id":495,"name":"CoconutNeutral","steam_id":76561198277110108,"connected_time":1244000000000,"state":"active","ping":85},{"user_id":504,"name":"MattJettskie","steam_id":76561199229493583,"connected_time":578000000000,"state":"active","ping":93}]},{"server_id":37,"name":"Uncletopia | Chicago | 6 | All Maps","name_short":"chi-6","host":"chi-2.us.uncletopia.com","port":27025,"enabled":true,"region":"us-central","cc":"us","latitude":41.881832,"longitude":-87.62318,"reserved":0,"last_update":"0001-01-01T00:00:00Z","name_a2s":"Uncletopia | Chicago | 6 | All Maps","protocol":17,"map":"pl_pier","folder":"tf","game":"Team Fortress","app_id":440,"player_count":24,"max_players":24,"Bots":0,"server_type":"Dedicated","server_os":"Linux","password":true,"vac":true,"version":"7757534","steam_id":85568392924866363,"keywords":["nocrits","nodmgspread","payload","uncletopia"],"game_id":440,"stv_port":27026,"stv_name":"Uncletopia | Chicago | 6 | All Maps | STV","players":[{"user_id":272,"name":"❤ Ashley ❤","steam_id":76561198056428303,"connected_time":6661000000000,"state":"active","ping":105},{"user_id":308,"name":"self sufficient kitten","steam_id":76561197960592612,"connected_time":5126000000000,"state":"active","ping":91},{"user_id":390,"name":"veryscaryreaper","steam_id":76561198380018244,"connected_time":585000000000,"state":"active","ping":75},{"user_id":404,"name":"krakowski","steam_id":76561198119536224,"connected_time":66000000000,"state":"active","ping":80},{"user_id":363,"name":"Ka Xin Yu","steam_id":76561198057116531,"connected_time":1869000000000,"state":"active","ping":57},{"user_id":397,"name":"a","steam_id":76561198131245396,"connected_time":294000000000,"state":"active","ping":128},{"user_id":369,"name":"ethan","steam_id":76561198132637556,"connected_time":1460000000000,"state":"active","ping":64},{"user_id":401,"name":"i fell in luv w dah bandz","steam_id":76561198042600523,"connected_time":125000000000,"state":"active","ping":60},{"user_id":398,"name":"Ringo Barrs","steam_id":76561198043906449,"connected_time":193000000000,"state":"active","ping":63},{"user_id":368,"name":"bobby peanstalk","steam_id":76561198040495463,"connected_time":1493000000000,"state":"active","ping":67},{"user_id":400,"name":"shibaba bababool","steam_id":76561197972601902,"connected_time":168000000000,"state":"active","ping":84},{"user_id":402,"name":"BroBuck3","steam_id":76561198119436987,"connected_time":120000000000,"state":"active","ping":68},{"user_id":403,"name":"Zing","steam_id":76561198097160898,"connected_time":100000000000,"state":"active","ping":56},{"user_id":386,"name":"Digal","steam_id":76561197993059060,"connected_time":679000000000,"state":"active","ping":167},{"user_id":393,"name":"Architect","steam_id":76561198015242016,"connected_time":523000000000,"state":"active","ping":49},{"user_id":394,"name":"2Case","steam_id":76561198451849633,"connected_time":520000000000,"state":"active","ping":83},{"user_id":379,"name":"LORD CANTI","steam_id":76561198254479725,"connected_time":925000000000,"state":"active","ping":47},{"user_id":315,"name":"money getting 1 percenter","steam_id":76561198012796388,"connected_time":4608000000000,"state":"active","ping":50},{"user_id":380,"name":"The Juice","steam_id":76561198065307144,"connected_time":917000000000,"state":"active","ping":75},{"user_id":395,"name":"GonzoSpawn","steam_id":76561198113067183,"connected_time":505000000000,"state":"active","ping":61},{"user_id":387,"name":"AAGooseman","steam_id":76561198378941369,"connected_time":652000000000,"state":"active","ping":97},{"user_id":366,"name":"EvilMrPotoo ｡◕‿◕｡","steam_id":76561198012566870,"connected_time":1673000000000,"state":"active","ping":74},{"user_id":381,"name":"A Duck Phone!?","steam_id":76561198044707749,"connected_time":905000000000,"state":"active","ping":60},{"user_id":391,"name":"HanakoToast","steam_id":76561198045233131,"connected_time":582000000000,"state":"active","ping":123}]},{"server_id":38,"name":"Uncletopia | Chicago | 7 | Stopwatch Beta","name_short":"chi-7","host":"chi-2.us.uncletopia.com","port":27035,"enabled":true,"region":"us-central","cc":"us","latitude":41.881832,"longitude":-87.62318,"reserved":0,"last_update":"0001-01-01T00:00:00Z","name_a2s":"Uncletopia | Chicago | 7 | Stopwatch Beta","protocol":17,"map":"workshop/pl_vigil_rc9.ugc1266210012","folder":"tf","game":"Team Fortress","app_id":440,"player_count":0,"max_players":24,"Bots":0,"server_type":"Dedicated","server_os":"Linux","password":true,"vac":true,"version":"7757534","steam_id":85568392924866364,"keywords":["nocrits","nodmgspread","payload","uncletopia"],"game_id":440,"stv_port":27036,"stv_name":"Uncletopia | Chicago | 7 | Stopwatch Beta | STV","players":null},{"server_id":39,"name":"Uncletopia | Chicago | 8 | Community","name_short":"chi-8","host":"chi-2.us.uncletopia.com","port":27045,"enabled":true,"region":"us-central","cc":"us","latitude":41.881832,"longitude":-87.62318,"reserved":0,"last_update":"0001-01-01T00:00:00Z","name_a2s":"Uncletopia | Chicago | 8 | Community","protocol":17,"map":"workshop/pl_badwater_pro_v12.ugc2142942074","folder":"tf","game":"Team Fortress","app_id":440,"player_count":4,"max_players":24,"Bots":0,"server_type":"Dedicated","server_os":"Linux","password":true,"vac":true,"version":"7757534","steam_id":85568392924866365,"keywords":["nocrits","nodmgspread","payload","uncletopia"],"game_id":440,"stv_port":27046,"stv_name":"Uncletopia | Chicago | 8 | Community | STV","players":[{"user_id":54,"name":"corpach","steam_id":76561198150418268,"connected_time":2021000000000,"state":"active","ping":77},{"user_id":56,"name":"matt","steam_id":76561198174529235,"connected_time":1750000000000,"state":"active","ping":82},{"user_id":63,"name":"chem⭑","steam_id":76561198972045654,"connected_time":55000000000,"state":"active","ping":65},{"user_id":58,"name":"Dr. Doofenshmirtz","steam_id":76561199190995382,"connected_time":1077000000000,"state":"active","ping":80}]},{"server_id":8,"name":"Uncletopia | Dallas | 1 | All Maps","name_short":"dal-1","host":"dal-1.us.uncletopia.com","port":27015,"enabled":true,"region":"us-central","cc":"us","latitude":32.779167,"longitude":-96.80889,"reserved":0,"last_update":"0001-01-01T00:00:00Z","name_a2s":"Uncletopia | Dallas | 1 | All Maps","protocol":17,"map":"pl_swiftwater_final1","folder":"tf","game":"Team Fortress","app_id":440,"player_count":21,"max_players":24,"Bots":0,"server_type":"Dedicated","server_os":"Linux","password":true,"vac":true,"version":"7757534","steam_id":85568392924469986,"keywords":["nocrits","nodmgspread","payload","uncletopia"],"game_id":440,"stv_port":27016,"stv_name":"Uncletopia | Dallas | 1 | All Maps | STV","players":[{"user_id":661,"name":"Ballista","steam_id":76561197983182562,"connected_time":3426000000000,"state":"active","ping":57},{"user_id":702,"name":"god approaches","steam_id":76561198081617990,"connected_time":113000000000,"state":"active","ping":95},{"user_id":679,"name":"InvaderAlex","steam_id":76561198039232451,"connected_time":2439000000000,"state":"active","ping":60},{"user_id":681,"name":"Space_Cowboy","steam_id":76561198202240772,"connected_time":1229000000000,"state":"active","ping":96},{"user_id":703,"name":"Colesom81","steam_id":76561198835308355,"connected_time":6000000000,"state":"spawning","ping":168},{"user_id":670,"name":"Pepe Silvia","steam_id":76561198071775268,"connected_time":3044000000000,"state":"active","ping":101},{"user_id":695,"name":"TI-83 Plus","steam_id":76561198316134443,"connected_time":621000000000,"state":"active","ping":80},{"user_id":698,"name":"iaPK","steam_id":76561198056618642,"connected_time":475000000000,"state":"active","ping":52},{"user_id":664,"name":"RooRoo","steam_id":76561198320885124,"connected_time":3314000000000,"state":"active","ping":54},{"user_id":696,"name":"Goat","steam_id":76561198068447650,"connected_time":618000000000,"state":"active","ping":69},{"user_id":701,"name":"Saltycheesecak0","steam_id":76561199044288353,"connected_time":330000000000,"state":"active","ping":68},{"user_id":693,"name":"reis","steam_id":76561199232952016,"connected_time":792000000000,"state":"active","ping":177},{"user_id":686,"name":"go touch keyboard","steam_id":76561198197388678,"connected_time":1190000000000,"state":"active","ping":76},{"user_id":484,"name":"brock","steam_id":76561199015537819,"connected_time":17342000000000,"state":"active","ping":60},{"user_id":676,"name":"{ST} Oxythemoron","steam_id":76561198060089965,"connected_time":2814000000000,"state":"active","ping":55},{"user_id":682,"name":"barker bill","steam_id":76561198018451994,"connected_time":1229000000000,"state":"active","ping":57},{"user_id":689,"name":"MinePig","steam_id":76561198963008726,"connected_time":1159000000000,"state":"active","ping":136},{"user_id":684,"name":"Phosu","steam_id":76561198180162801,"connected_time":1222000000000,"state":"active","ping":66},{"user_id":658,"name":"Flubdy_","steam_id":76561198073338521,"connected_time":3598000000000,"state":"active","ping":52},{"user_id":645,"name":"minty","steam_id":76561198062821894,"connected_time":4610000000000,"state":"active","ping":47},{"user_id":699,"name":"Worst Scenario","steam_id":76561199052130229,"connected_time":475000000000,"state":"active","ping":92}]},{"server_id":108,"name":"Uncletopia | Dallas | 2 | All Maps","name_short":"dal-2","host":"dal-1.us.uncletopia.com","port":27025,"enabled":true,"region":"us-central","cc":"us","latitude":32.779167,"longitude":-96.80889,"reserved":0,"last_update":"0001-01-01T00:00:00Z","name_a2s":"Uncletopia | Dallas | 2 | All Maps","protocol":17,"map":"koth_highpass","folder":"tf","game":"Team Fortress","app_id":440,"player_count":24,"max_players":24,"Bots":0,"server_type":"Dedicated","server_os":"Linux","password":true,"vac":true,"version":"7757534","steam_id":85568392924469988,"keywords":["cp","nocrits","nodmgspread","uncletopia"],"game_id":440,"stv_port":27026,"stv_name":"Uncletopia | Dallas | 2 | All Maps | STV","players":[{"user_id":396,"name":"FoamyPirate.h","steam_id":76561197970312151,"connected_time":5710000000000,"state":"active","ping":77},{"user_id":426,"name":"Tribute","steam_id":76561198081594043,"connected_time":2244000000000,"state":"active","ping":56},{"user_id":427,"name":"Quilifer","steam_id":76561198138835562,"connected_time":1891000000000,"state":"active","ping":68},{"user_id":412,"name":"A Straw","steam_id":76561199367935846,"connected_time":4513000000000,"state":"active","ping":70},{"user_id":387,"name":"TechnoBear2099","steam_id":76561198238863596,"connected_time":5924000000000,"state":"active","ping":39},{"user_id":400,"name":"m*gan","steam_id":76561198068950175,"connected_time":5472000000000,"state":"active","ping":78},{"user_id":433,"name":"._.","steam_id":76561198127039453,"connected_time":1035000000000,"state":"active","ping":89},{"user_id":437,"name":"faxxy","steam_id":76561198079621240,"connected_time":558000000000,"state":"active","ping":92},{"user_id":403,"name":"Benjamin Linus","steam_id":76561198083812864,"connected_time":5004000000000,"state":"active","ping":110},{"user_id":402,"name":"Carvernon","steam_id":76561198011356505,"connected_time":5011000000000,"state":"active","ping":104},{"user_id":430,"name":"Florence Jenkins","steam_id":76561198023894049,"connected_time":1361000000000,"state":"active","ping":98},{"user_id":438,"name":"Shylo","steam_id":76561199276858045,"connected_time":305000000000,"state":"active","ping":54},{"user_id":421,"name":"Sgt. Gomez","steam_id":76561198001462967,"connected_time":3130000000000,"state":"active","ping":80},{"user_id":439,"name":"ShapedSilver","steam_id":76561199073305310,"connected_time":90000000000,"state":"active","ping":61},{"user_id":368,"name":"dr worm","steam_id":76561198105515914,"connected_time":8218000000000,"state":"active","ping":66},{"user_id":414,"name":"Gengoron","steam_id":76561197994829919,"connected_time":4233000000000,"state":"active","ping":112},{"user_id":413,"name":"Halibard","steam_id":76561198011239659,"connected_time":4410000000000,"state":"active","ping":79},{"user_id":432,"name":"tyg","steam_id":76561198056246867,"connected_time":1234000000000,"state":"active","ping":89},{"user_id":434,"name":"plink","steam_id":76561198057829889,"connected_time":1019000000000,"state":"active","ping":76},{"user_id":401,"name":"mkl","steam_id":76561197986401685,"connected_time":5318000000000,"state":"active","ping":59},{"user_id":416,"name":"black \u0026 blue","steam_id":76561198057075677,"connected_time":3610000000000,"state":"active","ping":69},{"user_id":398,"name":"El Camino","steam_id":76561197992848313,"connected_time":5632000000000,"state":"active","ping":84},{"user_id":379,"name":"do cats have bones","steam_id":76561198292475857,"connected_time":6715000000000,"state":"active","ping":85},{"user_id":425,"name":"Rawhate","steam_id":76561198079736945,"connected_time":2396000000000,"state":"active","ping":84}]},{"server_id":5,"name":"Uncletopia | Frankfurt | 1 | All Maps","name_short":"frk-1","host":"frk-1.de.uncletopia.com","port":27015,"enabled":true,"region":"eu","cc":"de","latitude":50.110924,"longitude":8.682127,"reserved":0,"last_update":"0001-01-01T00:00:00Z","name_a2s":"Uncletopia | Frankfurt | 1 | All Maps","protocol":17,"map":"pl_borneo","folder":"tf","game":"Team Fortress","app_id":440,"player_count":0,"max_players":24,"Bots":0,"server_type":"Dedicated","server_os":"Linux","password":true,"vac":true,"version":"7757534","steam_id":85568392924469989,"keywords":["nocrits","nodmgspread","payload","uncletopia"],"game_id":440,"stv_port":27016,"stv_name":"Uncletopia | Frankfurt | 1 | All Maps | STV","players":null},{"server_id":110,"name":"Uncletopia | Frankfurt | 2 | All Maps","name_short":"frk-2","host":"frk-1.de.uncletopia.com","port":27025,"enabled":true,"region":"eu","cc":"de","latitude":50.110924,"longitude":8.682127,"reserved":0,"last_update":"0001-01-01T00:00:00Z","name_a2s":"Uncletopia | Frankfurt | 2 | All Maps","protocol":17,"map":"pl_frontier_final","folder":"tf","game":"Team Fortress","app_id":440,"player_count":0,"max_players":24,"Bots":0,"server_type":"Dedicated","server_os":"Linux","password":true,"vac":true,"version":"7757534","steam_id":85568392924469990,"keywords":["nocrits","nodmgspread","payload","uncletopia"],"game_id":440,"stv_port":27026,"stv_name":"Uncletopia | Frankfurt | 2 | All Maps | STV","players":null},{"server_id":308,"name":"Uncletopia | Frankfurt | 3 | All Maps","name_short":"frk-3","host":"frk-1.de.uncletopia.com","port":27035,"enabled":true,"region":"eu","cc":"de","latitude":50.110924,"longitude":8.682127,"reserved":0,"last_update":"0001-01-01T00:00:00Z","name_a2s":"Uncletopia | Frankfurt | 3 | All Maps","protocol":17,"map":"cp_sunshine","folder":"tf","game":"Team Fortress","app_id":440,"player_count":0,"max_players":24,"Bots":0,"server_type":"Dedicated","server_os":"Linux","password":true,"vac":true,"version":"7757534","steam_id":85568392924504274,"keywords":["cp","nocrits","nodmgspread","uncletopia"],"game_id":440,"stv_port":27036,"stv_name":"Uncletopia | Frankfurt | 3 | All Maps | STV","players":null},{"server_id":309,"name":"Uncletopia | Frankfurt | 4 | All Maps","name_short":"frk-4","host":"frk-1.de.uncletopia.com","port":27045,"enabled":true,"region":"eu","cc":"de","latitude":50.110924,"longitude":8.682127,"reserved":0,"last_update":"0001-01-01T00:00:00Z","name_a2s":"Uncletopia | Frankfurt | 4 | All Maps","protocol":17,"map":"cp_altitude","folder":"tf","game":"Team Fortress","app_id":440,"player_count":0,"max_players":24,"Bots":0,"server_type":"Dedicated","server_os":"Linux","password":true,"vac":true,"version":"7757534","steam_id":85568392924504275,"keywords":["cp","nocrits","nodmgspread","uncletopia"],"game_id":440,"stv_port":27046,"stv_name":"Uncletopia | Frankfurt | 4 | All Maps | STV","players":null},{"server_id":310,"name":"Uncletopia | Frankfurt | 5 | All Maps","name_short":"frk-5","host":"frk-1.de.uncletopia.com","port":27055,"enabled":true,"region":"eu","cc":"de","latitude":50.110924,"longitude":8.682127,"reserved":0,"last_update":"0001-01-01T00:00:00Z","name_a2s":"Uncletopia | Frankfurt | 5 | All Maps","protocol":17,"map":"pl_barnblitz","folder":"tf","game":"Team Fortress","app_id":440,"player_count":23,"max_players":24,"Bots":0,"server_type":"Dedicated","server_os":"Linux","password":true,"vac":true,"version":"7757534","steam_id":85568392924504277,"keywords":["nocrits","nodmgspread","payload","uncletopia"],"game_id":440,"stv_port":27056,"stv_name":"Uncletopia | Frankfurt | 5 | All Maps | STV","players":[{"user_id":842,"name":"skindiver376","steam_id":76561198056533071,"connected_time":4105000000000,"state":"active","ping":51},{"user_id":870,"name":"Sneaky Sombrero","steam_id":76561198317601978,"connected_time":1276000000000,"state":"active","ping":174},{"user_id":871,"name":"zen","steam_id":76561198358006442,"connected_time":1200000000000,"state":"active","ping":55},{"user_id":861,"name":"SammyJay","steam_id":76561198183403071,"connected_time":2193000000000,"state":"active","ping":142},{"user_id":851,"name":"Minus Rep","steam_id":76561198065992476,"connected_time":3707000000000,"state":"active","ping":159},{"user_id":868,"name":"DragonFruit","steam_id":76561198099526623,"connected_time":1575000000000,"state":"active","ping":71},{"user_id":856,"name":"nine inch whales","steam_id":76561198071176058,"connected_time":3467000000000,"state":"active","ping":60},{"user_id":844,"name":"《¤Rowdy¤》","steam_id":76561198151184020,"connected_time":4095000000000,"state":"active","ping":172},{"user_id":864,"name":"Cosmetic brain","steam_id":76561198055936410,"connected_time":1978000000000,"state":"active","ping":85},{"user_id":869,"name":"i are steve","steam_id":76561198867457465,"connected_time":1527000000000,"state":"active","ping":162},{"user_id":813,"name":"metamikko","steam_id":76561198324704234,"connected_time":7369000000000,"state":"active","ping":114},{"user_id":878,"name":"Chaffy2125","steam_id":76561198232839260,"connected_time":743000000000,"state":"active","ping":60},{"user_id":874,"name":"Adolf Potter","steam_id":76561198120554557,"connected_time":1027000000000,"state":"active","ping":59},{"user_id":875,"name":":D","steam_id":76561198062075870,"connected_time":963000000000,"state":"active","ping":60},{"user_id":866,"name":"Knowitallplays","steam_id":76561199213282352,"connected_time":1747000000000,"state":"active","ping":161},{"user_id":879,"name":"Woona","steam_id":76561198014716191,"connected_time":45000000000,"state":"active","ping":52},{"user_id":846,"name":"M2rtRa","steam_id":76561198111036466,"connected_time":3943000000000,"state":"active","ping":69},{"user_id":876,"name":"Westlyroots","steam_id":76561198170431198,"connected_time":850000000000,"state":"active","ping":153},{"user_id":803,"name":"Doctor Marijuana","steam_id":76561198288289879,"connected_time":7819000000000,"state":"active","ping":60},{"user_id":867,"name":"Pineapple Okan","steam_id":76561198069199449,"connected_time":1740000000000,"state":"active","ping":105},{"user_id":836,"name":"IceDreamer","steam_id":76561197997569989,"connected_time":4781000000000,"state":"active","ping":60},{"user_id":877,"name":"Goo","steam_id":76561198062381107,"connected_time":820000000000,"state":"active","ping":60},{"user_id":850,"name":"Smoke","steam_id":76561198140627349,"connected_time":3719000000000,"state":"active","ping":160}]},{"server_id":311,"name":"Uncletopia | Frankfurt | 6 | All Maps","name_short":"frk-6","host":"frk-1.de.uncletopia.com","port":27065,"enabled":true,"region":"eu","cc":"de","latitude":50.110924,"longitude":8.682127,"reserved":0,"last_update":"0001-01-01T00:00:00Z","name_a2s":"Uncletopia | Frankfurt | 6 | All Maps","protocol":17,"map":"koth_highpass","folder":"tf","game":"Team Fortress","app_id":440,"player_count":0,"max_players":24,"Bots":0,"server_type":"Dedicated","server_os":"Linux","password":true,"vac":true,"version":"7757534","steam_id":85568392924504278,"keywords":["cp","nocrits","nodmgspread","uncletopia"],"game_id":440,"stv_port":27066,"stv_name":"Uncletopia | Frankfurt | 6 | All Maps | STV","players":null},{"server_id":23,"name":"Uncletopia | Frankfurt | 7 | Stopwatch Beta","name_short":"frk-7","host":"frk-1.de.uncletopia.com","port":27075,"enabled":true,"region":"eu","cc":"de","latitude":50.110924,"longitude":8.682127,"reserved":0,"last_update":"0001-01-01T00:00:00Z","name_a2s":"Uncletopia | Frankfurt | 7 | Stopwatch Beta","protocol":17,"map":"workshop/cp_process_f12.ugc2302948105","folder":"tf","game":"Team Fortress","app_id":440,"player_count":0,"max_players":24,"Bots":0,"server_type":"Dedicated","server_os":"Linux","password":true,"vac":true,"version":"7757534","steam_id":85568392924742827,"keywords":["cp","nocrits","nodmgspread","uncletopia"],"game_id":440,"stv_port":27076,"stv_name":"Uncletopia | Frankfurt | 7 | Stopwatch Beta | STV","players":null},{"server_id":24,"name":"Uncletopia | Frankfurt | 8 | Community","name_short":"frk-8","host":"frk-1.de.uncletopia.com","port":27085,"enabled":true,"region":"eu","cc":"de","latitude":50.110924,"longitude":8.682127,"reserved":0,"last_update":"0001-01-01T00:00:00Z","name_a2s":"Uncletopia | Frankfurt | 8 | Community","protocol":17,"map":"workshop/pl_fifthcurve_rc1.ugc648227046","folder":"tf","game":"Team Fortress","app_id":440,"player_count":0,"max_players":24,"Bots":0,"server_type":"Dedicated","server_os":"Linux","password":true,"vac":true,"version":"7757534","steam_id":85568392924742828,"keywords":["nocrits","nodmgspread","payload","uncletopia"],"game_id":440,"stv_port":27086,"stv_name":"Uncletopia | Frankfurt | 8 | Community | STV","players":null},{"server_id":202,"name":"Uncletopia | Hong Kong | 1 | All Maps","name_short":"hgk-1","host":"hgk-1.hk.uncletopia.com","port":27015,"enabled":true,"region":"asia","cc":"hk","latitude":22.302711,"longitude":114.177216,"reserved":0,"last_update":"0001-01-01T00:00:00Z","name_a2s":"Uncletopia | Hong Kong | 1 | All Maps","protocol":17,"map":"pl_borneo","folder":"tf","game":"Team Fortress","app_id":440,"player_count":0,"max_players":24,"Bots":0,"server_type":"Dedicated","server_os":"Linux","password":true,"vac":true,"version":"7757534","steam_id":85568392924494504,"keywords":["nocrits","nodmgspread","payload","uncletopia"],"game_id":440,"stv_port":27016,"stv_name":"Uncletopia | Hong Kong | 1 | All Maps | STV","players":null},{"server_id":1,"name":"Uncletopia | Los Angeles | 1 | All Maps","name_short":"lax-1","host":"lax-1.us.uncletopia.com","port":27015,"enabled":true,"region":"us-west","cc":"us","latitude":33.94279,"longitude":-118.41004,"reserved":0,"last_update":"0001-01-01T00:00:00Z","name_a2s":"Uncletopia | Los Angeles | 1 | All Maps","protocol":17,"map":"pl_snowycoast","folder":"tf","game":"Team Fortress","app_id":440,"player_count":23,"max_players":24,"Bots":0,"server_type":"Dedicated","server_os":"Linux","password":true,"vac":true,"version":"7757534","steam_id":85568392924469991,"keywords":["nocrits","nodmgspread","payload","uncletopia"],"game_id":440,"stv_port":27016,"stv_name":"Uncletopia | Los Angeles | 1 | All Maps | STV","players":[{"user_id":286,"name":"Vladikr1","steam_id":76561198401495362,"connected_time":436000000000,"state":"active","ping":121},{"user_id":251,"name":"Soap","steam_id":76561197994893383,"connected_time":2972000000000,"state":"active","ping":71},{"user_id":276,"name":"Apprentice Pybro","steam_id":76561197996353534,"connected_time":1454000000000,"state":"active","ping":52},{"user_id":142,"name":"Slim Charles","steam_id":76561197981687895,"connected_time":10850000000000,"state":"active","ping":60},{"user_id":289,"name":"Srattinee","steam_id":76561198199840395,"connected_time":390000000000,"state":"active","ping":109},{"user_id":291,"name":"YASAI JUICE","steam_id":76561198131971992,"connected_time":372000000000,"state":"active","ping":88},{"user_id":271,"name":"mrselfdestruct13","steam_id":76561197992054553,"connected_time":1747000000000,"state":"active","ping":79},{"user_id":288,"name":"pigswill","steam_id":76561197999081865,"connected_time":400000000000,"state":"active","ping":120},{"user_id":266,"name":"cunt","steam_id":76561198118644686,"connected_time":1994000000000,"state":"active","ping":53},{"user_id":285,"name":"Sumtingwong","steam_id":76561198154503584,"connected_time":448000000000,"state":"active","ping":85},{"user_id":290,"name":"Wakasaurus","steam_id":76561198046963497,"connected_time":384000000000,"state":"active","ping":111},{"user_id":280,"name":"Alfie","steam_id":76561198331938688,"connected_time":1184000000000,"state":"active","ping":102},{"user_id":292,"name":"Malmart_Employee","steam_id":76561198320388704,"connected_time":372000000000,"state":"active","ping":85},{"user_id":294,"name":"Monty","steam_id":76561197993567253,"connected_time":315000000000,"state":"active","ping":74},{"user_id":274,"name":"Trotsky Gaming","steam_id":76561199101638460,"connected_time":1571000000000,"state":"active","ping":76},{"user_id":283,"name":"NFL.com","steam_id":76561198113405376,"connected_time":792000000000,"state":"active","ping":45},{"user_id":282,"name":"Unknown2Me","steam_id":76561199049192464,"connected_time":1049000000000,"state":"active","ping":65},{"user_id":284,"name":"Cheems","steam_id":76561199081634726,"connected_time":480000000000,"state":"active","ping":74},{"user_id":295,"name":"Keamy","steam_id":76561199471434875,"connected_time":256000000000,"state":"active","ping":73},{"user_id":260,"name":"D","steam_id":76561198292908619,"connected_time":2678000000000,"state":"active","ping":120},{"user_id":261,"name":"WillieMakit","steam_id":76561197985391684,"connected_time":2631000000000,"state":"active","ping":64},{"user_id":278,"name":"DeathSushi","steam_id":76561199156131540,"connected_time":1386000000000,"state":"active","ping":98},{"user_id":296,"name":"DOGE??","steam_id":76561198331098675,"connected_time":206000000000,"state":"active","ping":97}]},{"server_id":112,"name":"Uncletopia | Los Angeles | 2 | All Maps","name_short":"lax-2","host":"lax-1.us.uncletopia.com","port":27025,"enabled":true,"region":"us-west","cc":"us","latitude":33.94279,"longitude":-118.41004,"reserved":0,"last_update":"0001-01-01T00:00:00Z","name_a2s":"Uncletopia | Los Angeles | 2 | All Maps","protocol":17,"map":"pl_borneo","folder":"tf","game":"Team Fortress","app_id":440,"player_count":23,"max_players":24,"Bots":0,"server_type":"Dedicated","server_os":"Linux","password":true,"vac":true,"version":"7757534","steam_id":85568392924469992,"keywords":["nocrits","nodmgspread","payload","uncletopia"],"game_id":440,"stv_port":27026,"stv_name":"Uncletopia | Los Angeles | 2 | All Maps | STV","players":[{"user_id":462,"name":"perc 10","steam_id":76561198116471653,"connected_time":817000000000,"state":"active","ping":76},{"user_id":406,"name":"Zigadox","steam_id":76561198079813479,"connected_time":4589000000000,"state":"active","ping":120},{"user_id":444,"name":"Core19","steam_id":76561198318126190,"connected_time":2252000000000,"state":"active","ping":148},{"user_id":472,"name":"raya","steam_id":76561198051504581,"connected_time":219000000000,"state":"active","ping":76},{"user_id":463,"name":"SwineFlu","steam_id":76561197989014109,"connected_time":750000000000,"state":"active","ping":94},{"user_id":440,"name":"Droozlex","steam_id":76561198157221366,"connected_time":2474000000000,"state":"active","ping":68},{"user_id":473,"name":"loned","steam_id":76561199180338753,"connected_time":207000000000,"state":"active","ping":70},{"user_id":437,"name":"Bloodgoat","steam_id":76561198047407295,"connected_time":2997000000000,"state":"active","ping":70},{"user_id":445,"name":"Snakebro","steam_id":76561199014219382,"connected_time":2094000000000,"state":"active","ping":67},{"user_id":446,"name":"Sandwich Sam","steam_id":76561198170089546,"connected_time":2076000000000,"state":"active","ping":97},{"user_id":461,"name":"armpit fetishist","steam_id":76561199008452637,"connected_time":941000000000,"state":"active","ping":61},{"user_id":451,"name":"amedei porcelana","steam_id":76561198150382695,"connected_time":1907000000000,"state":"active","ping":103},{"user_id":474,"name":"Joe Biden (Deceased)","steam_id":76561198170427507,"connected_time":197000000000,"state":"active","ping":80},{"user_id":447,"name":"American freedom bird","steam_id":76561198366142388,"connected_time":2076000000000,"state":"active","ping":63},{"user_id":464,"name":"Tohubohu","steam_id":76561198077838448,"connected_time":748000000000,"state":"active","ping":59},{"user_id":478,"name":"PWWNED","steam_id":76561198841016072,"connected_time":164000000000,"state":"active","ping":95},{"user_id":476,"name":"[S]Mr. X [No Monitor]","steam_id":76561197963746035,"connected_time":184000000000,"state":"active","ping":118},{"user_id":470,"name":"luigiclub","steam_id":76561198180548194,"connected_time":377000000000,"state":"active","ping":96},{"user_id":471,"name":"Spring Heeled Black","steam_id":76561198155272972,"connected_time":235000000000,"state":"active","ping":95},{"user_id":481,"name":"geeWIZ","steam_id":76561198067909242,"connected_time":122000000000,"state":"active","ping":101},{"user_id":467,"name":"Shawn","steam_id":76561199199772083,"connected_time":680000000000,"state":"active","ping":74},{"user_id":480,"name":"nothowon","steam_id":76561198937601452,"connected_time":140000000000,"state":"active","ping":105},{"user_id":469,"name":"dsmagic","steam_id":76561198038601542,"connected_time":528000000000,"state":"active","ping":62}]},{"server_id":324,"name":"Uncletopia | Los Angeles | 3 | All Maps","name_short":"lax-3","host":"lax-1.us.uncletopia.com","port":27035,"enabled":true,"region":"us-west","cc":"us","latitude":33.94279,"longitude":-118.41004,"reserved":0,"last_update":"0001-01-01T00:00:00Z","name_a2s":"Uncletopia | Los Angeles | 3 | All Maps","protocol":17,"map":"pl_upward","folder":"tf","game":"Team Fortress","app_id":440,"player_count":24,"max_players":24,"Bots":0,"server_type":"Dedicated","server_os":"Linux","password":true,"vac":true,"version":"7757534","steam_id":85568392924510198,"keywords":["nocrits","nodmgspread","payload","uncletopia"],"game_id":440,"stv_port":27036,"stv_name":"Uncletopia | Los Angeles | 3 | All Maps | STV","players":[{"user_id":372,"name":"DonoC","steam_id":76561198274473338,"connected_time":2042000000000,"state":"active","ping":89},{"user_id":384,"name":"The Irish Ghost","steam_id":76561199021970654,"connected_time":1157000000000,"state":"active","ping":61},{"user_id":389,"name":"Vottor","steam_id":76561199482683267,"connected_time":950000000000,"state":"active","ping":72},{"user_id":393,"name":"walrooos","steam_id":76561198024521839,"connected_time":452000000000,"state":"active","ping":44},{"user_id":257,"name":"fire","steam_id":76561198044354279,"connected_time":9434000000000,"state":"active","ping":48},{"user_id":385,"name":"Hat in Time","steam_id":76561198045964573,"connected_time":1141000000000,"state":"active","ping":50},{"user_id":394,"name":"ToastMan","steam_id":76561198799398918,"connected_time":449000000000,"state":"active","ping":80},{"user_id":396,"name":"Jasmine Rice","steam_id":76561198163163590,"connected_time":426000000000,"state":"active","ping":78},{"user_id":369,"name":"Rabamonki","steam_id":76561199009987174,"connected_time":2101000000000,"state":"active","ping":104},{"user_id":390,"name":"elephant thumb","steam_id":76561198118859752,"connected_time":941000000000,"state":"active","ping":46},{"user_id":343,"name":"momus","steam_id":76561198966979196,"connected_time":3301000000000,"state":"active","ping":47},{"user_id":387,"name":"MasKingDark","steam_id":76561198820069625,"connected_time":1114000000000,"state":"active","ping":133},{"user_id":333,"name":"Rock Kickass","steam_id":76561198450510841,"connected_time":3830000000000,"state":"active","ping":79},{"user_id":398,"name":"Flashtasm","steam_id":76561198026635660,"connected_time":326000000000,"state":"active","ping":115},{"user_id":374,"name":"♥Lyra♥","steam_id":76561198092853824,"connected_time":2022000000000,"state":"active","ping":106},{"user_id":383,"name":"Nintendo 64","steam_id":76561198206922028,"connected_time":1444000000000,"state":"active","ping":46},{"user_id":335,"name":"\u003c bl4nk \u003e","steam_id":76561198009384143,"connected_time":3776000000000,"state":"active","ping":102},{"user_id":399,"name":"GඞMER","steam_id":76561198340389876,"connected_time":42000000000,"state":"active","ping":76},{"user_id":353,"name":"rip ghost mountain","steam_id":76561198357132470,"connected_time":2524000000000,"state":"active","ping":70},{"user_id":375,"name":"Deja Vu","steam_id":76561198062090620,"connected_time":2015000000000,"state":"active","ping":59},{"user_id":376,"name":"Kamin","steam_id":76561198255299559,"connected_time":1999000000000,"state":"active","ping":101},{"user_id":395,"name":"dodecadron","steam_id":76561198027397222,"connected_time":435000000000,"state":"active","ping":98},{"user_id":392,"name":"fart with reverb","steam_id":76561198861823583,"connected_time":589000000000,"state":"active","ping":108},{"user_id":397,"name":"Magnus","steam_id":76561198061634483,"connected_time":423000000000,"state":"active","ping":83}]},{"server_id":25,"name":"Uncletopia | Los Angeles | 4 | Stopwatch Beta","name_short":"lax-4","host":"lax-1.us.uncletopia.com","port":27045,"enabled":true,"region":"us-west","cc":"us","latitude":33.94279,"longitude":-118.41004,"reserved":0,"last_update":"0001-01-01T00:00:00Z","name_a2s":"Uncletopia | Los Angeles | 4 | Stopwatch Beta","protocol":17,"map":"pl_swiftwater_final1","folder":"tf","game":"Team Fortress","app_id":440,"player_count":0,"max_players":24,"Bots":0,"server_type":"Dedicated","server_os":"Linux","password":true,"vac":true,"version":"7757534","steam_id":85568392924510199,"keywords":["nocrits","nodmgspread","payload","uncletopia"],"game_id":440,"stv_port":27046,"stv_name":"Uncletopia | Los Angeles | 4 | Stopwatch Beta | STV","players":null},{"server_id":11,"name":"Uncletopia | London | 1 | All Maps","name_short":"lon-1","host":"lon-1.uk.uncletopia.com","port":27015,"enabled":true,"region":"eu","cc":"gb","latitude":51.509865,"longitude":-0.118092,"reserved":0,"last_update":"0001-01-01T00:00:00Z","name_a2s":"Uncletopia | London | 1 | All Maps","protocol":17,"map":"koth_highpass","folder":"tf","game":"Team Fortress","app_id":440,"player_count":0,"max_players":24,"Bots":0,"server_type":"Dedicated","server_os":"Linux","password":true,"vac":true,"version":"7757534","steam_id":85568392924367362,"keywords":["cp","nocrits","nodmgspread","uncletopia"],"game_id":440,"stv_port":27016,"stv_name":"Uncletopia | London | 1 | All Maps | STV","players":null},{"server_id":114,"name":"Uncletopia | London | 2 | All Maps","name_short":"lon-2","host":"lon-1.uk.uncletopia.com","port":27025,"enabled":true,"region":"eu","cc":"gb","latitude":51.509865,"longitude":-0.118092,"reserved":0,"last_update":"0001-01-01T00:00:00Z","name_a2s":"Uncletopia | London | 2 | All Maps","protocol":17,"map":"koth_cascade","folder":"tf","game":"Team Fortress","app_id":440,"player_count":0,"max_players":24,"Bots":0,"server_type":"Dedicated","server_os":"Linux","password":true,"vac":true,"version":"7757534","steam_id":85568392924470941,"keywords":["cp","nocrits","nodmgspread","uncletopia"],"game_id":440,"stv_port":27026,"stv_name":"Uncletopia | London | 2 | All Maps | STV","players":null},{"server_id":320,"name":"Uncletopia | London | 3 | All Maps","name_short":"lon-3","host":"lon-1.uk.uncletopia.com","port":27035,"enabled":true,"region":"eu","cc":"gb","latitude":51.509865,"longitude":-0.118092,"reserved":0,"last_update":"0001-01-01T00:00:00Z","name_a2s":"Uncletopia | London | 3 | All Maps","protocol":17,"map":"pl_badwater","folder":"tf","game":"Team Fortress","app_id":440,"player_count":19,"max_players":24,"Bots":0,"server_type":"Dedicated","server_os":"Linux","password":true,"vac":true,"version":"7757534","steam_id":85568392924510192,"keywords":["nocrits","nodmgspread","payload","uncletopia"],"game_id":440,"stv_port":27036,"stv_name":"Uncletopia | London | 3 | All Maps | STV","players":[{"user_id":939,"name":"high velocity projectile","steam_id":76561199039152146,"connected_time":1986000000000,"state":"active","ping":133},{"user_id":947,"name":"ladeinglessiemprejuega","steam_id":76561198112986842,"connected_time":1674000000000,"state":"active","ping":51},{"user_id":972,"name":"Second Thot","steam_id":76561198175625815,"connected_time":252000000000,"state":"active","ping":45},{"user_id":961,"name":"SpaceHog","steam_id":76561198171200735,"connected_time":838000000000,"state":"active","ping":47},{"user_id":962,"name":"Homebound","steam_id":76561198531978435,"connected_time":773000000000,"state":"active","ping":65},{"user_id":945,"name":"Biggles","steam_id":76561198126576389,"connected_time":1891000000000,"state":"active","ping":119},{"user_id":963,"name":"regimiro","steam_id":76561198120457008,"connected_time":770000000000,"state":"active","ping":60},{"user_id":946,"name":"mö","steam_id":76561198061197114,"connected_time":1846000000000,"state":"active","ping":78},{"user_id":964,"name":"rozen","steam_id":76561198119167317,"connected_time":723000000000,"state":"active","ping":47},{"user_id":965,"name":"¬°Nice","steam_id":76561198387871867,"connected_time":573000000000,"state":"active","ping":83},{"user_id":933,"name":"[Sheep] Tomco","steam_id":76561198388549261,"connected_time":2648000000000,"state":"active","ping":61},{"user_id":966,"name":"RIFT","steam_id":76561198991622379,"connected_time":497000000000,"state":"active","ping":41},{"user_id":967,"name":"Edgebug Earl","steam_id":76561197970114051,"connected_time":464000000000,"state":"active","ping":45},{"user_id":969,"name":"Stupidbird","steam_id":76561198229839896,"connected_time":344000000000,"state":"active","ping":44},{"user_id":970,"name":"MediCosine","steam_id":76561199108699086,"connected_time":309000000000,"state":"active","ping":72},{"user_id":955,"name":"Ableburrito9","steam_id":76561199229713461,"connected_time":1259000000000,"state":"active","ping":177},{"user_id":938,"name":"Strafely","steam_id":76561199242567438,"connected_time":2131000000000,"state":"active","ping":67},{"user_id":971,"name":"Backup","steam_id":76561197999557567,"connected_time":280000000000,"state":"active","ping":60},{"user_id":890,"name":"Infineable","steam_id":76561198358100698,"connected_time":6325000000000,"state":"active","ping":158}]},{"server_id":321,"name":"Uncletopia | London | 4 | All Maps","name_short":"lon-4","host":"lon-1.uk.uncletopia.com","port":27045,"enabled":true,"region":"eu","cc":"gb","latitude":51.509865,"longitude":-0.118092,"reserved":0,"last_update":"0001-01-01T00:00:00Z","name_a2s":"Uncletopia | London | 4 | All Maps","protocol":17,"map":"koth_cascade","folder":"tf","game":"Team Fortress","app_id":440,"player_count":0,"max_players":24,"Bots":0,"server_type":"Dedicated","server_os":"Linux","password":true,"vac":true,"version":"7757534","steam_id":85568392924510193,"keywords":["cp","nocrits","nodmgspread","uncletopia"],"game_id":440,"stv_port":27046,"stv_name":"Uncletopia | London | 4 | All Maps | STV","players":null},{"server_id":21,"name":"Uncletopia | London | 5 | All Maps","name_short":"lon-5","host":"lon-1.uk.uncletopia.com","port":27055,"enabled":true,"region":"eu","cc":"gb","latitude":51.509865,"longitude":-0.118092,"reserved":0,"last_update":"0001-01-01T00:00:00Z","name_a2s":"Uncletopia | London | 5 | All Maps","protocol":17,"map":"pl_badwater","folder":"tf","game":"Team Fortress","app_id":440,"player_count":0,"max_players":24,"Bots":0,"server_type":"Dedicated","server_os":"Linux","password":true,"vac":true,"version":"7757534","steam_id":85568392924742829,"keywords":["nocrits","nodmgspread","payload","uncletopia"],"game_id":440,"stv_port":27056,"stv_name":"Uncletopia | London | 5 | All Maps | STV","players":null},{"server_id":22,"name":"Uncletopia | London | 6 | All Maps","name_short":"lon-6","host":"lon-1.uk.uncletopia.com","port":27065,"enabled":true,"region":"eu","cc":"gb","latitude":51.509865,"longitude":-0.118092,"reserved":0,"last_update":"0001-01-01T00:00:00Z","name_a2s":"Uncletopia | London | 6 | All Maps","protocol":17,"map":"koth_cascade","folder":"tf","game":"Team Fortress","app_id":440,"player_count":0,"max_players":24,"Bots":0,"server_type":"Dedicated","server_os":"Linux","password":true,"vac":true,"version":"7757534","steam_id":85568392924742830,"keywords":["cp","nocrits","nodmgspread","uncletopia"],"game_id":440,"stv_port":27066,"stv_name":"Uncletopia | London | 6 | All Maps | STV","players":null},{"server_id":40,"name":"Uncletopia | London | 7 | No Payload","name_short":"lon-7","host":"lon-1.uk.uncletopia.com","port":27075,"enabled":true,"region":"eu","cc":"gb","latitude":51.509865,"longitude":-0.118092,"reserved":0,"last_update":"0001-01-01T00:00:00Z","name_a2s":"Uncletopia | London | 7 | No Payload","protocol":17,"map":"koth_lazarus","folder":"tf","game":"Team Fortress","app_id":440,"player_count":0,"max_players":24,"Bots":0,"server_type":"Dedicated","server_os":"Linux","password":true,"vac":true,"version":"7757534","steam_id":85568392924964314,"keywords":["cp","nocrits","nodmgspread","uncletopia"],"game_id":440,"stv_port":27076,"stv_name":"Uncletopia | London | 7 | No Payload | STV","players":null},{"server_id":41,"name":"Uncletopia | London | 8 | Community","name_short":"lon-8","host":"lon-1.uk.uncletopia.com","port":27085,"enabled":true,"region":"eu","cc":"gb","latitude":51.509865,"longitude":-0.118092,"reserved":0,"last_update":"0001-01-01T00:00:00Z","name_a2s":"Uncletopia | London | 8 | Community","protocol":17,"map":"workshop/koth_ashville_final.ugc2130459942","folder":"tf","game":"Team Fortress","app_id":440,"player_count":0,"max_players":24,"Bots":0,"server_type":"Dedicated","server_os":"Linux","password":true,"vac":true,"version":"7757534","steam_id":85568392924964315,"keywords":["cp","nocrits","nodmgspread","uncletopia"],"game_id":440,"stv_port":27086,"stv_name":"Uncletopia | London | 8 | Community | STV","players":null},{"server_id":300,"name":"Uncletopia | Montréal | 1 | All Maps","name_short":"mtl-1","host":"mtl-1.ca.uncletopia.com","port":27015,"enabled":true,"region":"us-east","cc":"ca","latitude":45.50889,"longitude":-73.56167,"reserved":0,"last_update":"0001-01-01T00:00:00Z","name_a2s":"Uncletopia | Montréal | 1 | All Maps","protocol":17,"map":"koth_cascade","folder":"tf","game":"Team Fortress","app_id":440,"player_count":0,"max_players":24,"Bots":0,"server_type":"Dedicated","server_os":"Linux","password":true,"vac":true,"version":"7757534","steam_id":85568392924500087,"keywords":["cp","nocrits","nodmgspread","uncletopia"],"game_id":440,"stv_port":27016,"stv_name":"Uncletopia | Montréal | 1 | All Maps | STV","players":null},{"server_id":301,"name":"Uncletopia | Montréal | 2 | All Maps","name_short":"mtl-2","host":"mtl-1.ca.uncletopia.com","port":27025,"enabled":true,"region":"us-east","cc":"ca","latitude":45.50889,"longitude":-73.56167,"reserved":0,"last_update":"0001-01-01T00:00:00Z","name_a2s":"Uncletopia | Montréal | 2 | All Maps","protocol":17,"map":"pl_barnblitz","folder":"tf","game":"Team Fortress","app_id":440,"player_count":3,"max_players":24,"Bots":0,"server_type":"Dedicated","server_os":"Linux","password":true,"vac":true,"version":"7757534","steam_id":85568392924500088,"keywords":["nocrits","nodmgspread","payload","uncletopia"],"game_id":440,"stv_port":27026,"stv_name":"Uncletopia | Montréal | 2 | All Maps | STV","players":[{"user_id":20,"name":"MagusTheThriceGreat","steam_id":76561198148249513,"connected_time":3458000000000,"state":"active","ping":58},{"user_id":21,"name":"Far Ting","steam_id":76561198177699130,"connected_time":3439000000000,"state":"active","ping":86},{"user_id":22,"name":"Professional Brohamad","steam_id":76561198824025210,"connected_time":2937000000000,"state":"active","ping":62}]},{"server_id":302,"name":"Uncletopia | Montréal | 3 | All Maps","name_short":"mtl-3","host":"mtl-1.ca.uncletopia.com","port":27035,"enabled":true,"region":"us-east","cc":"ca","latitude":45.50889,"longitude":-73.56167,"reserved":0,"last_update":"0001-01-01T00:00:00Z","name_a2s":"Uncletopia | Montréal | 3 | All Maps","protocol":17,"map":"koth_cascade","folder":"tf","game":"Team Fortress","app_id":440,"player_count":0,"max_players":24,"Bots":0,"server_type":"Dedicated","server_os":"Linux","password":true,"vac":true,"version":"7757534","steam_id":85568392924500089,"keywords":["cp","nocrits","nodmgspread","uncletopia"],"game_id":440,"stv_port":27036,"stv_name":"Uncletopia | Montréal | 3 | All Maps | STV","players":null},{"server_id":303,"name":"Uncletopia | Montréal | 4 | No Payload","name_short":"mtl-4","host":"mtl-1.ca.uncletopia.com","port":27045,"enabled":true,"region":"us-east","cc":"ca","latitude":45.50889,"longitude":-73.56167,"reserved":0,"last_update":"0001-01-01T00:00:00Z","name_a2s":"Uncletopia | Montréal | 4 | No Payload","protocol":17,"map":"cp_mountainlab","folder":"tf","game":"Team Fortress","app_id":440,"player_count":0,"max_players":24,"Bots":0,"server_type":"Dedicated","server_os":"Linux","password":true,"vac":true,"version":"7757534","steam_id":85568392924500090,"keywords":["cp","nocrits","nodmgspread","uncletopia"],"game_id":440,"stv_port":27046,"stv_name":"Uncletopia | Montréal | 4 | No Payload | STV","players":null},{"server_id":13,"name":"Uncletopia | New York City | 1 | All Maps","name_short":"nyc-1","host":"nyc-1.us.uncletopia.com","port":27015,"enabled":true,"region":"us-east","cc":"us","latitude":40.73061,"longitude":-73.93524,"reserved":0,"last_update":"0001-01-01T00:00:00Z","name_a2s":"Uncletopia | New York City | 1 | All Maps","protocol":17,"map":"pl_frontier_final","folder":"tf","game":"Team Fortress","app_id":440,"player_count":22,"max_players":24,"Bots":0,"server_type":"Dedicated","server_os":"Linux","password":true,"vac":true,"version":"7757534","steam_id":85568392924469993,"keywords":["nocrits","nodmgspread","payload","uncletopia"],"game_id":440,"stv_port":27016,"stv_name":"Uncletopia | New York City | 1 | All Maps | STV","players":[{"user_id":662,"name":"SKYRRUNNER","steam_id":76561199275648928,"connected_time":202000000000,"state":"active","ping":76},{"user_id":640,"name":"monkey","steam_id":76561198966980576,"connected_time":1507000000000,"state":"active","ping":40},{"user_id":663,"name":"Oh no","steam_id":76561198123441203,"connected_time":122000000000,"state":"active","ping":70},{"user_id":651,"name":"Flak Maniak","steam_id":76561198005653808,"connected_time":990000000000,"state":"active","ping":58},{"user_id":622,"name":"COURAGETHECOWARDLYDOG42","steam_id":76561198070923665,"connected_time":2110000000000,"state":"active","ping":68},{"user_id":624,"name":"BOOTZ","steam_id":76561198042750746,"connected_time":2099000000000,"state":"active","ping":88},{"user_id":653,"name":"Two Thin Coats","steam_id":76561198018449200,"connected_time":933000000000,"state":"active","ping":55},{"user_id":633,"name":"samson6401","steam_id":76561198310871665,"connected_time":1844000000000,"state":"active","ping":72},{"user_id":647,"name":"Raccoon.Of.Waffle.House","steam_id":76561199018770554,"connected_time":1220000000000,"state":"active","ping":91},{"user_id":664,"name":"moonage72","steam_id":76561199187008629,"connected_time":107000000000,"state":"active","ping":68},{"user_id":625,"name":"01","steam_id":76561198025437192,"connected_time":2078000000000,"state":"active","ping":106},{"user_id":665,"name":"Alteraxia","steam_id":76561198213333961,"connected_time":103000000000,"state":"active","ping":104},{"user_id":666,"name":"MondoDong","steam_id":76561197991400109,"connected_time":7000000000,"state":"spawning","ping":29},{"user_id":597,"name":"loldewdz","steam_id":76561198067562811,"connected_time":4385000000000,"state":"active","ping":65},{"user_id":660,"name":"a table","steam_id":76561198158461279,"connected_time":460000000000,"state":"active","ping":73},{"user_id":628,"name":"Devoid","steam_id":76561198254039012,"connected_time":2039000000000,"state":"active","ping":35},{"user_id":649,"name":"Pozyomka","steam_id":76561198086331015,"connected_time":1194000000000,"state":"active","ping":37},{"user_id":657,"name":"21Choppa","steam_id":76561198208463348,"connected_time":543000000000,"state":"active","ping":54},{"user_id":645,"name":"DefinitelyNotRelevant","steam_id":76561198826235608,"connected_time":1267000000000,"state":"active","ping":39},{"user_id":634,"name":"The Map","steam_id":76561198138812108,"connected_time":1834000000000,"state":"active","ping":70},{"user_id":632,"name":"BetoelAff es","steam_id":76561198377842585,"connected_time":1988000000000,"state":"active","ping":143},{"user_id":643,"name":"Braamklauw","steam_id":76561198283287697,"connected_time":1383000000000,"state":"active","ping":144}]},{"server_id":14,"name":"Uncletopia | New York City | 2 | All Maps","name_short":"nyc-2","host":"nyc-1.us.uncletopia.com","port":27025,"enabled":true,"region":"us-east","cc":"us","latitude":40.73061,"longitude":-73.93524,"reserved":0,"last_update":"0001-01-01T00:00:00Z","name_a2s":"Uncletopia | New York City | 2 | All Maps","protocol":17,"map":"pl_snowycoast","folder":"tf","game":"Team Fortress","app_id":440,"player_count":24,"max_players":24,"Bots":0,"server_type":"Dedicated","server_os":"Linux","password":true,"vac":true,"version":"7757534","steam_id":85568392924469994,"keywords":["nocrits","nodmgspread","payload","uncletopia"],"game_id":440,"stv_port":27026,"stv_name":"Uncletopia | New York City | 2 | All Maps | STV","players":[{"user_id":556,"name":"Milk (she/her)","steam_id":76561198348941784,"connected_time":4482000000000,"state":"active","ping":89},{"user_id":618,"name":"Fishman_200","steam_id":76561198152455167,"connected_time":995000000000,"state":"active","ping":63},{"user_id":602,"name":"emseaeye","steam_id":76561198161499803,"connected_time":1531000000000,"state":"active","ping":59},{"user_id":624,"name":"oobigaloobi","steam_id":76561198065205158,"connected_time":231000000000,"state":"active","ping":86},{"user_id":613,"name":"rivera","steam_id":76561198051058706,"connected_time":1091000000000,"state":"active","ping":41},{"user_id":596,"name":"Krusty Nut","steam_id":76561198120637924,"connected_time":2370000000000,"state":"active","ping":60},{"user_id":611,"name":"kbsfnk","steam_id":76561198036884600,"connected_time":1098000000000,"state":"active","ping":53},{"user_id":620,"name":"loudpizzer","steam_id":76561198078802110,"connected_time":648000000000,"state":"active","ping":96},{"user_id":507,"name":"精液Blev Blev精液","steam_id":76561198208972565,"connected_time":8364000000000,"state":"active","ping":89},{"user_id":623,"name":"Scusemua","steam_id":76561198042151731,"connected_time":240000000000,"state":"active","ping":55},{"user_id":625,"name":"[chef] iron","steam_id":76561197970888616,"connected_time":225000000000,"state":"active","ping":67},{"user_id":621,"name":"JoCaleb02","steam_id":76561198272389829,"connected_time":352000000000,"state":"active","ping":59},{"user_id":628,"name":"Werezombie","steam_id":76561197975199229,"connected_time":23000000000,"state":"active","ping":84},{"user_id":545,"name":"Chewbacca","steam_id":76561198041927925,"connected_time":5582000000000,"state":"active","ping":46},{"user_id":605,"name":"Sanic_Bum","steam_id":76561198094179822,"connected_time":1365000000000,"state":"active","ping":49},{"user_id":588,"name":"Butters495","steam_id":76561197998689042,"connected_time":2916000000000,"state":"active","ping":69},{"user_id":622,"name":"Bear bird","steam_id":76561198166769479,"connected_time":284000000000,"state":"active","ping":72},{"user_id":617,"name":"Heropon","steam_id":76561198105224481,"connected_time":1063000000000,"state":"active","ping":70},{"user_id":591,"name":"chiswola","steam_id":76561198046920142,"connected_time":2874000000000,"state":"active","ping":103},{"user_id":553,"name":"unsafequeen","steam_id":76561199088126900,"connected_time":4545000000000,"state":"active","ping":88},{"user_id":569,"name":"Crackmire","steam_id":76561199016285746,"connected_time":3573000000000,"state":"active","ping":97},{"user_id":603,"name":"Lincs","steam_id":76561198049851872,"connected_time":1498000000000,"state":"active","ping":97},{"user_id":529,"name":"you so bad on me no follow","steam_id":76561198124311404,"connected_time":6799000000000,"state":"active","ping":70}]},{"server_id":15,"name":"Uncletopia | New York City | 3 | Stopwatch Beta","name_short":"nyc-3","host":"nyc-1.us.uncletopia.com","port":27035,"enabled":true,"region":"us-east","cc":"us","latitude":40.73061,"longitude":-73.93524,"reserved":0,"last_update":"0001-01-01T00:00:00Z","name_a2s":"Uncletopia | New York City | 3 | Stopwatch Beta","protocol":17,"map":"workshop/koth_clearcut_b15.ugc2107050255","folder":"tf","game":"Team Fortress","app_id":440,"player_count":22,"max_players":24,"Bots":0,"server_type":"Dedicated","server_os":"Linux","password":true,"vac":true,"version":"7757534","steam_id":85568392924742820,"keywords":["cp","nocrits","nodmgspread","uncletopia"],"game_id":440,"stv_port":27036,"stv_name":"Uncletopia | New York City | 3 | Stopwatch Beta | STV","players":[{"user_id":171,"name":"han","steam_id":76561198058374130,"connected_time":730000000000,"state":"active","ping":70},{"user_id":166,"name":"Van","steam_id":76561198073518712,"connected_time":1053000000000,"state":"active","ping":45},{"user_id":170,"name":"Cheesemelt","steam_id":76561198008221847,"connected_time":797000000000,"state":"active","ping":62},{"user_id":172,"name":"Hex","steam_id":76561199219938155,"connected_time":722000000000,"state":"active","ping":71},{"user_id":164,"name":"leer.","steam_id":76561198864458303,"connected_time":1114000000000,"state":"active","ping":57},{"user_id":119,"name":"Buck","steam_id":76561197993075304,"connected_time":3408000000000,"state":"active","ping":55},{"user_id":173,"name":"SimplePants","steam_id":76561198059434838,"connected_time":708000000000,"state":"active","ping":78},{"user_id":181,"name":"pat","steam_id":76561198042672873,"connected_time":161000000000,"state":"active","ping":75},{"user_id":176,"name":"pipebombrater","steam_id":76561199029030831,"connected_time":615000000000,"state":"active","ping":65},{"user_id":169,"name":"Garzy Hardbody","steam_id":76561198024304342,"connected_time":924000000000,"state":"active","ping":82},{"user_id":177,"name":"skoop","steam_id":76561198966283838,"connected_time":516000000000,"state":"active","ping":75},{"user_id":178,"name":"infin","steam_id":76561199126776574,"connected_time":441000000000,"state":"active","ping":54},{"user_id":41,"name":"Henry Ota-Clay","steam_id":76561198053232470,"connected_time":7442000000000,"state":"active","ping":72},{"user_id":75,"name":"goldgardian","steam_id":76561198319471339,"connected_time":6002000000000,"state":"active","ping":88},{"user_id":160,"name":"「Swede」","steam_id":76561198024821171,"connected_time":1330000000000,"state":"active","ping":85},{"user_id":116,"name":"Reisen Udongein Inaba","steam_id":76561198051082314,"connected_time":3446000000000,"state":"active","ping":131},{"user_id":180,"name":"Sudiak","steam_id":76561198119246214,"connected_time":187000000000,"state":"active","ping":83},{"user_id":182,"name":"vukdrako","steam_id":76561198818135010,"connected_time":158000000000,"state":"active","ping":142},{"user_id":183,"name":"ripqtip","steam_id":76561199042619052,"connected_time":98000000000,"state":"active","ping":62},{"user_id":184,"name":"I can’t believe its not butte","steam_id":76561199122875712,"connected_time":90000000000,"state":"active","ping":90},{"user_id":185,"name":"box","steam_id":76561198049531483,"connected_time":17000000000,"state":"active","ping":92},{"user_id":118,"name":"Junko","steam_id":76561198146089003,"connected_time":3443000000000,"state":"active","ping":33}]},{"server_id":16,"name":"Uncletopia | New York City | 4 | Community","name_short":"nyc-4","host":"nyc-1.us.uncletopia.com","port":27045,"enabled":true,"region":"us-east","cc":"us","latitude":40.73061,"longitude":-73.93524,"reserved":0,"last_update":"0001-01-01T00:00:00Z","name_a2s":"Uncletopia | New York City | 4 | Community","protocol":17,"map":"workshop/pl_cactuscanyon_redux_final2.ugc2579644293","folder":"tf","game":"Team Fortress","app_id":440,"player_count":0,"max_players":24,"Bots":0,"server_type":"Dedicated","server_os":"Linux","password":true,"vac":true,"version":"7757534","steam_id":85568392924742821,"keywords":["nocrits","nodmgspread","payload","uncletopia"],"game_id":440,"stv_port":27046,"stv_name":"Uncletopia | New York City | 4 | Community | STV","players":null},{"server_id":142,"name":"Uncletopia | São Paulo | 1 | All Maps","name_short":"sao-1","host":"sao-1.br.uncletopia.com","port":27015,"enabled":true,"region":"sa","cc":"br","latitude":-23.533773,"longitude":-46.62529,"reserved":0,"last_update":"0001-01-01T00:00:00Z","name_a2s":"Uncletopia | São Paulo | 1 | All Maps","protocol":17,"map":"pl_upward","folder":"tf","game":"Team Fortress","app_id":440,"player_count":0,"max_players":24,"Bots":0,"server_type":"Dedicated","server_os":"Linux","password":true,"vac":true,"version":"7757534","steam_id":85568392924469996,"keywords":["nocrits","nodmgspread","payload","uncletopia"],"game_id":440,"stv_port":27016,"stv_name":"Uncletopia | São Paulo | 1 | All Maps | STV","players":null},{"server_id":143,"name":"Uncletopia | São Paulo | 2 | All Maps","name_short":"sao-2","host":"sao-2.br.uncletopia.com","port":27015,"enabled":true,"region":"sa","cc":"br","latitude":-23.533773,"longitude":-46.62529,"reserved":0,"last_update":"0001-01-01T00:00:00Z","name_a2s":"Uncletopia | São Paulo | 2 | All Maps","protocol":17,"map":"pl_frontier_final","folder":"tf","game":"Team Fortress","app_id":440,"player_count":0,"max_players":24,"Bots":0,"server_type":"Dedicated","server_os":"Linux","password":true,"vac":true,"version":"7757534","steam_id":85568392924485349,"keywords":["nocrits","nodmgspread","payload","uncletopia"],"game_id":440,"stv_port":27016,"stv_name":"Uncletopia | São Paulo | 2 | All Maps | STV","players":null},{"server_id":7,"name":"Uncletopia | Seattle | 1 | All Maps","name_short":"sea-1","host":"sea-1.us.uncletopia.com","port":27015,"enabled":true,"region":"us-west","cc":"us","latitude":47.608013,"longitude":-122.33517,"reserved":0,"last_update":"0001-01-01T00:00:00Z","name_a2s":"Uncletopia | Seattle | 1 | All Maps","protocol":17,"map":"pl_goldrush","folder":"tf","game":"Team Fortress","app_id":440,"player_count":22,"max_players":24,"Bots":0,"server_type":"Dedicated","server_os":"Linux","password":true,"vac":true,"version":"7757534","steam_id":85568392924469997,"keywords":["nocrits","nodmgspread","payload","uncletopia"],"game_id":440,"stv_port":27016,"stv_name":"Uncletopia | Seattle | 1 | All Maps | STV","players":[{"user_id":528,"name":"D0VE","steam_id":76561198151618566,"connected_time":1423000000000,"state":"active","ping":56},{"user_id":490,"name":"arsenic","steam_id":76561198176391550,"connected_time":4005000000000,"state":"active","ping":90},{"user_id":534,"name":"soda","steam_id":76561198105924953,"connected_time":257000000000,"state":"active","ping":70},{"user_id":538,"name":"alenku","steam_id":76561198997139815,"connected_time":92000000000,"state":"active","ping":48},{"user_id":525,"name":"THE_DARK_TRICKSTER","steam_id":76561198870649125,"connected_time":1493000000000,"state":"active","ping":75},{"user_id":522,"name":"toodles","steam_id":76561198025463883,"connected_time":1526000000000,"state":"active","ping":54},{"user_id":533,"name":"mobe","steam_id":76561198121633820,"connected_time":532000000000,"state":"active","ping":73},{"user_id":541,"name":"Hezawolf","steam_id":76561198166681336,"connected_time":31000000000,"state":"active","ping":266},{"user_id":510,"name":"HiphopAfrica","steam_id":76561198048302698,"connected_time":2371000000000,"state":"active","ping":60},{"user_id":497,"name":"Lentil Soup","steam_id":76561198051834684,"connected_time":2960000000000,"state":"active","ping":59},{"user_id":535,"name":"Ping","steam_id":76561199206514106,"connected_time":217000000000,"state":"active","ping":109},{"user_id":515,"name":"Nebula she/her","steam_id":76561198094306627,"connected_time":1863000000000,"state":"active","ping":70},{"user_id":531,"name":"Chronic Bad At Game Disease","steam_id":76561198179387139,"connected_time":905000000000,"state":"active","ping":66},{"user_id":536,"name":"Agent86","steam_id":76561198046794593,"connected_time":213000000000,"state":"active","ping":131},{"user_id":516,"name":"gorlab","steam_id":76561198025089694,"connected_time":1635000000000,"state":"active","ping":60},{"user_id":518,"name":"Dr. X","steam_id":76561198023136484,"connected_time":1535000000000,"state":"active","ping":57},{"user_id":532,"name":"Confirmed Bachelor","steam_id":76561198441041496,"connected_time":761000000000,"state":"active","ping":57},{"user_id":540,"name":"McSpazatron","steam_id":76561198955942148,"connected_time":86000000000,"state":"active","ping":123},{"user_id":542,"name":"Bonk Co.","steam_id":76561198009355408,"connected_time":18000000000,"state":"spawning","ping":40},{"user_id":519,"name":"liliLovesUnicorns83","steam_id":76561199391478575,"connected_time":1532000000000,"state":"active","ping":70},{"user_id":520,"name":"Lazy-assed Prophet","steam_id":76561198214400452,"connected_time":1530000000000,"state":"active","ping":75},{"user_id":513,"name":"HiFivr","steam_id":76561198285190162,"connected_time":2040000000000,"state":"active","ping":70}]},{"server_id":119,"name":"Uncletopia | Seattle | 2 | All Maps","name_short":"sea-2","host":"sea-1.us.uncletopia.com","port":27025,"enabled":true,"region":"us-west","cc":"us","latitude":47.608013,"longitude":-122.33517,"reserved":0,"last_update":"0001-01-01T00:00:00Z","name_a2s":"Uncletopia | Seattle | 2 | All Maps","protocol":17,"map":"pl_barnblitz","folder":"tf","game":"Team Fortress","app_id":440,"player_count":23,"max_players":24,"Bots":0,"server_type":"Dedicated","server_os":"Linux","password":true,"vac":true,"version":"7757534","steam_id":85568392924469998,"keywords":["nocrits","nodmgspread","payload","uncletopia"],"game_id":440,"stv_port":27026,"stv_name":"Uncletopia | Seattle | 2 | All Maps | STV","players":[{"user_id":392,"name":"Kipper","steam_id":76561198008515450,"connected_time":375000000000,"state":"active","ping":77},{"user_id":389,"name":"ShrekExpert","steam_id":76561198099991218,"connected_time":482000000000,"state":"active","ping":106},{"user_id":380,"name":"Y2K","steam_id":76561199191855486,"connected_time":1075000000000,"state":"active","ping":46},{"user_id":317,"name":"Dosario","steam_id":76561198298095535,"connected_time":6236000000000,"state":"active","ping":55},{"user_id":372,"name":"Corpe","steam_id":76561198054490549,"connected_time":2679000000000,"state":"active","ping":49},{"user_id":330,"name":"SolarusD","steam_id":76561198029279861,"connected_time":5479000000000,"state":"active","ping":62},{"user_id":379,"name":"Puskinti","steam_id":76561198032120688,"connected_time":1701000000000,"state":"active","ping":64},{"user_id":384,"name":"MRC00KIECRUMBLE","steam_id":76561199123384619,"connected_time":569000000000,"state":"active","ping":135},{"user_id":362,"name":"WaffleWithNoToppings","steam_id":76561199088280111,"connected_time":2918000000000,"state":"active","ping":47},{"user_id":382,"name":"mango cafe","steam_id":76561198142328193,"connected_time":696000000000,"state":"active","ping":34},{"user_id":386,"name":"⛧Alkahestry","steam_id":76561198109641497,"connected_time":541000000000,"state":"active","ping":73},{"user_id":383,"name":"XxX420UwUMaster666XxX","steam_id":76561199351137762,"connected_time":652000000000,"state":"active","ping":58},{"user_id":363,"name":"Kras","steam_id":76561198339398992,"connected_time":2914000000000,"state":"active","ping":72},{"user_id":393,"name":"Flyingcat9000","steam_id":76561198179561797,"connected_time":5000000000,"state":"spawning","ping":88},{"user_id":364,"name":"ILOVEWAFFLEZ","steam_id":76561198355028537,"connected_time":2892000000000,"state":"active","ping":131},{"user_id":347,"name":"chunkysquare","steam_id":76561199076468383,"connected_time":4175000000000,"state":"active","ping":43},{"user_id":365,"name":"jupper","steam_id":76561198066022599,"connected_time":2858000000000,"state":"active","ping":63},{"user_id":390,"name":"Tranq","steam_id":76561197967250757,"connected_time":472000000000,"state":"active","ping":93},{"user_id":369,"name":"Kdash","steam_id":76561198043829155,"connected_time":2811000000000,"state":"active","ping":100},{"user_id":391,"name":"Captain Boopers","steam_id":76561197980385816,"connected_time":407000000000,"state":"active","ping":55},{"user_id":350,"name":"Duncan Idaho","steam_id":76561197988963861,"connected_time":3815000000000,"state":"active","ping":117},{"user_id":366,"name":"JOPtheMonk","steam_id":76561198070728533,"connected_time":2858000000000,"state":"active","ping":46},{"user_id":376,"name":"Korbi.","steam_id":76561198355711373,"connected_time":1867000000000,"state":"active","ping":57}]},{"server_id":406,"name":"Uncletopia | Seattle | 3 | Stopwatch Beta","name_short":"sea-3","host":"sea-1.us.uncletopia.com","port":27035,"enabled":true,"region":"us-west","cc":"us","latitude":47.608013,"longitude":-122.33517,"reserved":0,"last_update":"0001-01-01T00:00:00Z","name_a2s":"Uncletopia | Seattle | 3 | Stopwatch Beta","protocol":17,"map":"workshop/pl_vigil_rc9.ugc1266210012","folder":"tf","game":"Team Fortress","app_id":440,"player_count":0,"max_players":24,"Bots":0,"server_type":"Dedicated","server_os":"Linux","password":true,"vac":true,"version":"7757534","steam_id":85568392924515217,"keywords":["nocrits","nodmgspread","payload","uncletopia"],"game_id":440,"stv_port":27036,"stv_name":"Uncletopia | Seattle | 3 | Stopwatch Beta | STV","players":null},{"server_id":17,"name":"Uncletopia | San Francisco | 1 | All Maps","name_short":"sfo-1","host":"sfo-1.us.uncletopia.com","port":27015,"enabled":true,"region":"us-west","cc":"us","latitude":37.77397,"longitude":-122.4313,"reserved":0,"last_update":"0001-01-01T00:00:00Z","name_a2s":"Uncletopia | San Francisco | 1 | All Maps","protocol":17,"map":"cp_dustbowl","folder":"tf","game":"Team Fortress","app_id":440,"player_count":24,"max_players":24,"Bots":0,"server_type":"Dedicated","server_os":"Linux","password":true,"vac":true,"version":"7757534","steam_id":85568392924469999,"keywords":["cp","nocrits","nodmgspread","uncletopia"],"game_id":440,"stv_port":27016,"stv_name":"Uncletopia | San Francisco | 1 | All Maps | STV","players":[{"user_id":156,"name":"Turtimos","steam_id":76561198093519137,"connected_time":9617000000000,"state":"active","ping":69},{"user_id":309,"name":"walkerarcher2","steam_id":76561199479691952,"connected_time":1285000000000,"state":"active","ping":158},{"user_id":315,"name":"dfgedrtrdtgdfgxd gfdgdfgdfgsd","steam_id":76561199299519036,"connected_time":881000000000,"state":"active","ping":90},{"user_id":321,"name":"Tort boi","steam_id":76561198125327110,"connected_time":506000000000,"state":"active","ping":67},{"user_id":283,"name":"Smiles","steam_id":76561198107197973,"connected_time":1988000000000,"state":"active","ping":105},{"user_id":327,"name":"Mako","steam_id":76561199437710547,"connected_time":88000000000,"state":"active","ping":130},{"user_id":326,"name":"Ian","steam_id":76561198159334435,"connected_time":250000000000,"state":"active","ping":167},{"user_id":270,"name":"Driving Cat Orange (can drive)","steam_id":76561199067771554,"connected_time":2883000000000,"state":"active","ping":112},{"user_id":317,"name":"PinguEnjoyer6","steam_id":76561199186723516,"connected_time":813000000000,"state":"active","ping":49},{"user_id":275,"name":"Feel the bern","steam_id":76561198078824519,"connected_time":2595000000000,"state":"active","ping":85},{"user_id":318,"name":"Shamrock Shake Oct.10.2020 @8pm","steam_id":76561198833313201,"connected_time":778000000000,"state":"active","ping":68},{"user_id":296,"name":"Krissy","steam_id":76561198328958337,"connected_time":1550000000000,"state":"active","ping":60},{"user_id":328,"name":"Mexican pyro gaming","steam_id":76561199139660797,"connected_time":80000000000,"state":"active","ping":112},{"user_id":259,"name":"Buswolley","steam_id":76561197995205571,"connected_time":3200000000000,"state":"active","ping":55},{"user_id":291,"name":"starshynee","steam_id":76561199058955154,"connected_time":1669000000000,"state":"active","ping":153},{"user_id":292,"name":"wwhg","steam_id":76561198140658919,"connected_time":1668000000000,"state":"active","ping":104},{"user_id":319,"name":"Fish_man_Jon","steam_id":76561198068158264,"connected_time":775000000000,"state":"active","ping":112},{"user_id":294,"name":"Malkoma","steam_id":76561199004465543,"connected_time":1595000000000,"state":"active","ping":50},{"user_id":320,"name":"chilis baby back ribs","steam_id":76561198813516435,"connected_time":775000000000,"state":"active","ping":54},{"user_id":253,"name":"Jimmy","steam_id":76561198857959855,"connected_time":4200000000000,"state":"active","ping":53},{"user_id":303,"name":"matt martians","steam_id":76561198363821364,"connected_time":1422000000000,"state":"active","ping":45},{"user_id":306,"name":"hakuna318","steam_id":76561199015177592,"connected_time":1340000000000,"state":"active","ping":79},{"user_id":323,"name":"dooooooooooooooooooooooood","steam_id":76561198319442494,"connected_time":445000000000,"state":"active","ping":61},{"user_id":312,"name":"Lucky_Charms","steam_id":76561199036296295,"connected_time":1199000000000,"state":"active","ping":53}]},{"server_id":18,"name":"Uncletopia | San Francisco | 2 | All Maps","name_short":"sfo-2","host":"sfo-1.us.uncletopia.com","port":27025,"enabled":true,"region":"us-west","cc":"us","latitude":37.77397,"longitude":-122.4313,"reserved":0,"last_update":"0001-01-01T00:00:00Z","name_a2s":"Uncletopia | San Francisco | 2 | All Maps","protocol":17,"map":"pl_borneo","folder":"tf","game":"Team Fortress","app_id":440,"player_count":24,"max_players":24,"Bots":0,"server_type":"Dedicated","server_os":"Linux","password":true,"vac":true,"version":"7757534","steam_id":85568392924470000,"keywords":["nocrits","nodmgspread","payload","uncletopia"],"game_id":440,"stv_port":27026,"stv_name":"Uncletopia | San Francisco | 2 | All Maps | STV","players":[{"user_id":166,"name":"NightmareTheCEO","steam_id":76561198349694120,"connected_time":1334000000000,"state":"active","ping":79},{"user_id":169,"name":"weed","steam_id":76561199128192017,"connected_time":1142000000000,"state":"active","ping":73},{"user_id":153,"name":"Pyrotek⁴","steam_id":76561198072747672,"connected_time":2248000000000,"state":"active","ping":54},{"user_id":182,"name":"Minnie","steam_id":76561198091052019,"connected_time":492000000000,"state":"active","ping":118},{"user_id":186,"name":"Renota","steam_id":76561198058224488,"connected_time":66000000000,"state":"active","ping":125},{"user_id":170,"name":"H0UZM@$T3R!!!!1","steam_id":76561198044297170,"connected_time":1131000000000,"state":"active","ping":62},{"user_id":177,"name":"liftin'","steam_id":76561199089515791,"connected_time":892000000000,"state":"active","ping":53},{"user_id":167,"name":"TheSkyLord22","steam_id":76561198138088855,"connected_time":1248000000000,"state":"active","ping":83},{"user_id":185,"name":"frozenwasanokmovie","steam_id":76561198157407952,"connected_time":194000000000,"state":"active","ping":58},{"user_id":141,"name":"brea?","steam_id":76561198025130409,"connected_time":3211000000000,"state":"active","ping":100},{"user_id":97,"name":"jello","steam_id":76561198149683030,"connected_time":6535000000000,"state":"active","ping":61},{"user_id":183,"name":"Dimmerswitch","steam_id":76561198034782177,"connected_time":480000000000,"state":"active","ping":35},{"user_id":171,"name":"Frank Accardi","steam_id":76561198017275707,"connected_time":1130000000000,"state":"active","ping":81},{"user_id":180,"name":"Krome","steam_id":76561198087317232,"connected_time":508000000000,"state":"active","ping":101},{"user_id":124,"name":"A Shiny Meat Bicycle","steam_id":76561198358757709,"connected_time":4652000000000,"state":"active","ping":124},{"user_id":173,"name":"Risky","steam_id":76561198231029328,"connected_time":1075000000000,"state":"active","ping":35},{"user_id":104,"name":"Loizeau","steam_id":76561199277299322,"connected_time":6365000000000,"state":"active","ping":91},{"user_id":172,"name":"Ice Tray","steam_id":76561198156184504,"connected_time":1105000000000,"state":"active","ping":120},{"user_id":175,"name":"Angelhasagun","steam_id":76561198279694559,"connected_time":943000000000,"state":"active","ping":79},{"user_id":155,"name":"Engynier Gaimeang (F2P)","steam_id":76561199013888779,"connected_time":2171000000000,"state":"active","ping":62},{"user_id":187,"name":"HiddenEgg","steam_id":76561199045105518,"connected_time":60000000000,"state":"active","ping":67},{"user_id":178,"name":"Runner175","steam_id":76561198307230510,"connected_time":859000000000,"state":"active","ping":96},{"user_id":181,"name":"ForAPessimistImPrettyOptimistic","steam_id":76561198170128009,"connected_time":505000000000,"state":"active","ping":52},{"user_id":179,"name":"Conniver's Crutchnai","steam_id":76561198046526036,"connected_time":842000000000,"state":"active","ping":59}]},{"server_id":19,"name":"Uncletopia | San Francisco | 3 | Stopwatch Beta","name_short":"sfo-3","host":"sfo-1.us.uncletopia.com","port":27035,"enabled":true,"region":"us-west","cc":"us","latitude":37.77397,"longitude":-122.4313,"reserved":0,"last_update":"0001-01-01T00:00:00Z","name_a2s":"Uncletopia | San Francisco | 3 | Stopwatch Beta","protocol":17,"map":"workshop/koth_clearcut_b15.ugc2107050255","folder":"tf","game":"Team Fortress","app_id":440,"player_count":0,"max_players":24,"Bots":0,"server_type":"Dedicated","server_os":"Linux","password":true,"vac":true,"version":"7757534","steam_id":85568392924742824,"keywords":["cp","nocrits","nodmgspread","uncletopia"],"game_id":440,"stv_port":27036,"stv_name":"Uncletopia | San Francisco | 3 | Stopwatch Beta | STV","players":null},{"server_id":20,"name":"Uncletopia | San Francisco | 4 | Community","name_short":"sfo-4","host":"sfo-1.us.uncletopia.com","port":27045,"enabled":true,"region":"us-west","cc":"us","latitude":37.77397,"longitude":-122.4313,"reserved":0,"last_update":"0001-01-01T00:00:00Z","name_a2s":"Uncletopia | San Francisco | 4 | Community","protocol":17,"map":"workshop/pl_cactuscanyon_redux_final2.ugc2579644293","folder":"tf","game":"Team Fortress","app_id":440,"player_count":0,"max_players":24,"Bots":0,"server_type":"Dedicated","server_os":"Linux","password":true,"vac":true,"version":"7757534","steam_id":85568392924742826,"keywords":["nocrits","nodmgspread","payload","uncletopia"],"game_id":440,"stv_port":27046,"stv_name":"Uncletopia | San Francisco | 4 | Community | STV","players":null},{"server_id":141,"name":"Uncletopia | Sydney | 1 | All Maps","name_short":"syd-1","host":"syd-1.au.uncletopia.com","port":27015,"enabled":true,"region":"au","cc":"au","latitude":-33.865143,"longitude":151.2099,"reserved":0,"last_update":"0001-01-01T00:00:00Z","name_a2s":"Uncletopia | Sydney | 1 | All Maps","protocol":17,"map":"pl_badwater","folder":"tf","game":"Team Fortress","app_id":440,"player_count":0,"max_players":24,"Bots":0,"server_type":"Dedicated","server_os":"Linux","password":true,"vac":true,"version":"7757534","steam_id":85568392924470001,"keywords":["nocrits","nodmgspread","payload","uncletopia"],"game_id":440,"stv_port":27016,"stv_name":"Uncletopia | Sydney | 1 | All Maps | STV","players":null},{"server_id":123,"name":"Uncletopia | Sydney | 2 | All Maps","name_short":"syd-2","host":"syd-1.au.uncletopia.com","port":27025,"enabled":true,"region":"au","cc":"au","latitude":-33.865143,"longitude":151.2099,"reserved":0,"last_update":"0001-01-01T00:00:00Z","name_a2s":"Uncletopia | Sydney | 2 | All Maps","protocol":17,"map":"koth_lakeside_final","folder":"tf","game":"Team Fortress","app_id":440,"player_count":0,"max_players":24,"Bots":0,"server_type":"Dedicated","server_os":"Linux","password":true,"vac":true,"version":"7757534","steam_id":85568392924470002,"keywords":["cp","nocrits","nodmgspread","uncletopia"],"game_id":440,"stv_port":27026,"stv_name":"Uncletopia | Sydney | 2 | All Maps | STV","players":null},{"server_id":395,"name":"Uncletopia | Sydney | 3 | All Maps","name_short":"syd-3","host":"syd-1.au.uncletopia.com","port":27035,"enabled":true,"region":"au","cc":"au","latitude":-33.865143,"longitude":151.2099,"reserved":0,"last_update":"0001-01-01T00:00:00Z","name_a2s":"Uncletopia | Sydney | 3 | All Maps","protocol":17,"map":"pl_swiftwater_final1","folder":"tf","game":"Team Fortress","app_id":440,"player_count":0,"max_players":24,"Bots":0,"server_type":"Dedicated","server_os":"Linux","password":true,"vac":true,"version":"7757534","steam_id":85568392925194467,"keywords":["nocrits","nodmgspread","payload","uncletopia"],"game_id":440,"stv_port":27036,"stv_name":"Uncletopia | Sydney | 3 | All Maps | STV","players":null},{"server_id":396,"name":"Uncletopia | Sydney | 4 | All Maps","name_short":"syd-4","host":"syd-1.au.uncletopia.com","port":27045,"enabled":true,"region":"au","cc":"au","latitude":-33.865143,"longitude":151.2099,"reserved":0,"last_update":"0001-01-01T00:00:00Z","name_a2s":"Uncletopia | Sydney | 4 | All Maps","protocol":17,"map":"koth_highpass","folder":"tf","game":"Team Fortress","app_id":440,"player_count":0,"max_players":24,"Bots":0,"server_type":"Dedicated","server_os":"Linux","password":true,"vac":true,"version":"7757534","steam_id":85568392925397958,"keywords":["cp","nocrits","nodmgspread","uncletopia"],"game_id":440,"stv_port":27046,"stv_name":"Uncletopia | Sydney | 4 | All Maps | STV","players":null},{"server_id":58,"name":"Uncletopia | Sydney | 5 | Stopwatch Beta","name_short":"syd-5","host":"syd-1.au.uncletopia.com","port":27055,"enabled":true,"region":"au","cc":"au","latitude":-33.865143,"longitude":151.2099,"reserved":0,"last_update":"0001-01-01T00:00:00Z","name_a2s":"Uncletopia | Sydney | 5 | Stopwatch Beta","protocol":17,"map":"koth_cascade","folder":"tf","game":"Team Fortress","app_id":440,"player_count":0,"max_players":24,"Bots":0,"server_type":"Dedicated","server_os":"Linux","password":true,"vac":true,"version":"7757534","steam_id":85568392925397959,"keywords":["cp","nocrits","nodmgspread","uncletopia"],"game_id":440,"stv_port":27056,"stv_name":"Uncletopia | Sydney | 5 | Stopwatch Beta | STV","players":null},{"server_id":59,"name":"Uncletopia | Sydney | 6 | Community","name_short":"syd-6","host":"syd-1.au.uncletopia.com","port":27065,"enabled":true,"region":"au","cc":"au","latitude":-33.865143,"longitude":151.2099,"reserved":0,"last_update":"0001-01-01T00:00:00Z","name_a2s":"Uncletopia | Sydney | 6 | Community","protocol":17,"map":"workshop/cp_mannbase_rc2a.ugc1900737467","folder":"tf","game":"Team Fortress","app_id":440,"player_count":0,"max_players":24,"Bots":0,"server_type":"Dedicated","server_os":"Linux","password":true,"vac":true,"version":"7757534","steam_id":85568392925397960,"keywords":["cp","nocrits","nodmgspread","uncletopia"],"game_id":440,"stv_port":27066,"stv_name":"Uncletopia | Sydney | 6 | Community | STV","players":null},{"server_id":49,"name":"Uncletopia | Warsaw | 1 | All Maps","name_short":"waw-1","host":"waw-1.pl.uncletopia.com","port":27015,"enabled":true,"region":"eu","cc":"pl","latitude":52.2297,"longitude":21.017532,"reserved":0,"last_update":"0001-01-01T00:00:00Z","name_a2s":"","protocol":0,"map":"","folder":"","game":"","app_id":0,"player_count":0,"max_players":0,"Bots":0,"server_type":"","server_os":"","password":false,"vac":false,"version":"","steam_id":0,"keywords":null,"game_id":0,"stv_port":0,"stv_name":"","players":null},{"server_id":50,"name":"Uncletopia | Warsaw | 2 | All Maps","name_short":"waw-2","host":"waw-1.pl.uncletopia.com","port":27025,"enabled":true,"region":"eu","cc":"pl","latitude":52.2297,"longitude":21.017532,"reserved":0,"last_update":"0001-01-01T00:00:00Z","name_a2s":"Uncletopia | Warsaw | 2 | All Maps","protocol":17,"map":"koth_highpass","folder":"tf","game":"Team Fortress","app_id":440,"player_count":0,"max_players":24,"Bots":0,"server_type":"Dedicated","server_os":"Linux","password":true,"vac":true,"version":"7757534","steam_id":85568392925397851,"keywords":["cp","nocrits","nodmgspread","uncletopia"],"game_id":440,"stv_port":27026,"stv_name":"Uncletopia | Warsaw | 2 | All Maps | STV","players":null},{"server_id":51,"name":"Uncletopia | Warsaw | 3 | All Maps","name_short":"waw-3","host":"waw-1.pl.uncletopia.com","port":27035,"enabled":true,"region":"eu","cc":"pl","latitude":52.2297,"longitude":21.017532,"reserved":0,"last_update":"0001-01-01T00:00:00Z","name_a2s":"Uncletopia | Warsaw | 3 | All Maps","protocol":17,"map":"koth_cascade","folder":"tf","game":"Team Fortress","app_id":440,"player_count":0,"max_players":24,"Bots":0,"server_type":"Dedicated","server_os":"Linux","password":true,"vac":true,"version":"7757534","steam_id":85568392925397852,"keywords":["cp","nocrits","nodmgspread","uncletopia"],"game_id":440,"stv_port":27036,"stv_name":"Uncletopia | Warsaw | 3 | All Maps | STV","players":null},{"server_id":52,"name":"Uncletopia | Warsaw | 4 | All Maps","name_short":"waw-4","host":"waw-1.pl.uncletopia.com","port":27045,"enabled":true,"region":"eu","cc":"pl","latitude":52.2297,"longitude":21.017532,"reserved":0,"last_update":"0001-01-01T00:00:00Z","name_a2s":"Uncletopia | Warsaw | 4 | All Maps","protocol":17,"map":"koth_lakeside_final","folder":"tf","game":"Team Fortress","app_id":440,"player_count":0,"max_players":24,"Bots":0,"server_type":"Dedicated","server_os":"Linux","password":true,"vac":true,"version":"7757534","steam_id":85568392925397853,"keywords":["cp","nocrits","nodmgspread","uncletopia"],"game_id":440,"stv_port":27046,"stv_name":"Uncletopia | Warsaw | 4 | All Maps | STV","players":null},{"server_id":53,"name":"Uncletopia | Warsaw | 5 | Stopwatch Beta","name_short":"waw-5","host":"waw-1.pl.uncletopia.com","port":27055,"enabled":true,"region":"eu","cc":"pl","latitude":52.2297,"longitude":21.017532,"reserved":0,"last_update":"0001-01-01T00:00:00Z","name_a2s":"Uncletopia | Warsaw | 5 | Stopwatch Beta","protocol":17,"map":"pl_borneo","folder":"tf","game":"Team Fortress","app_id":440,"player_count":0,"max_players":24,"Bots":0,"server_type":"Dedicated","server_os":"Linux","password":true,"vac":true,"version":"7757534","steam_id":85568392925397854,"keywords":["nocrits","nodmgspread","payload","uncletopia"],"game_id":440,"stv_port":27056,"stv_name":"Uncletopia | Warsaw | 5 | Stopwatch Beta | STV","players":null},{"server_id":54,"name":"Uncletopia | Warsaw | 6 | Community","name_short":"waw-6","host":"waw-1.pl.uncletopia.com","port":27065,"enabled":true,"region":"eu","cc":"pl","latitude":52.2297,"longitude":21.017532,"reserved":0,"last_update":"0001-01-01T00:00:00Z","name_a2s":"Uncletopia | Warsaw | 6 | Community","protocol":17,"map":"workshop/cp_glacier_rc6.ugc2905735376","folder":"tf","game":"Team Fortress","app_id":440,"player_count":0,"max_players":24,"Bots":0,"server_type":"Dedicated","server_os":"Linux","password":true,"vac":true,"version":"7757534","steam_id":85568392925397856,"keywords":["cp","nocrits","nodmgspread","uncletopia"],"game_id":440,"stv_port":27066,"stv_name":"Uncletopia | Warsaw | 6 | Community | STV","players":null}]}