{"status":true,"message":"","result":[{"server_id":9,"name":"Uncletopia | Atlanta | 1 | All Maps","name_short":"atl-1","host":"atl-1.us.uncletopia.com","port":27015,"enabled":true,"region":"us-east","cc":"us","latitude":33.753746,"longitude":-84.38633,"reserved":0,"last_update":"0001-01-01T00:00:00Z","name_a2s":"Uncletopia | Atlanta | 1 | All Maps","protocol":17,"map":"pl_upward","folder":"tf","game":"Team Fortress","app_id":440,"player_count":1,"max_players":24,"Bots":0,"server_type":"Dedicated","server_os":"Linux","password":true,"vac":true,"version":"7961495","steam_id":85568392924469982,"keywords":["nocrits","nodmgspread","payload","uncletopia"],"game_id":440,"stv_port":27016,"stv_name":"Uncletopia | Atlanta | 1 | All Maps | STV","players":null},{"server_id":104,"name":"Uncletopia | Atlanta | 2 | All Maps","name_short":"atl-2","host":"atl-1.us.uncletopia.com","port":27025,"enabled":true,"region":"us-east","cc":"us","latitude":33.753746,"longitude":-84.38633,"reserved":0,"last_update":"0001-01-01T00:00:00Z","name_a2s":"Uncletopia | Atlanta | 2 | All Maps","protocol":17,"map":"pl_pier","folder":"tf","game":"Team Fortress","app_id":440,"player_count":10,"max_players":24,"Bots":0,"server_type":"Dedicated","server_os":"Linux","password":true,"vac":true,"version":"7961495","steam_id":85568392924469983,"keywords":["nocrits","nodmgspread","payload","uncletopia"],"game_id":440,"stv_port":27026,"stv_name":"Uncletopia | Atlanta | 2 | All Maps | STV","players":null},{"server_id":400,"name":"Uncletopia | Atlanta | 3 | All Maps","name_short":"atl-3","host":"atl-1.us.uncletopia.com","port":27035,"enabled":true,"region":"us-east","cc":"us","latitude":33.753746,"longitude":-84.38633,"reserved":0,"last_update":"0001-01-01T00:00:00Z","name_a2s":"Uncletopia | Atlanta | 3 | All Maps","protocol":17,"map":"pl_borneo","folder":"tf","game":"Team Fortress","app_id":440,"player_count":0,"max_players":24,"Bots":0,"server_type":"Dedicated","server_os":"Linux","password":true,"vac":true,"version":"7961495","steam_id":85568392924515187,"keywords":["nocrits","nodmgspread","payload","uncletopia"],"game_id":440,"stv_port":27036,"stv_name":"Uncletopia | Atlanta | 3 | All Maps | STV","players":null},{"server_id":401,"name":"Uncletopia | Atlanta | 4 | Community","name_short":"atl-4","host":"atl-1.us.uncletopia.com","port":27045,"enabled":true,"region":"us-east","cc":"us","latitude":33.753746,"longitude":-84.38633,"reserved":0,"last_update":"0001-01-01T00:00:00Z","name_a2s":"Uncletopia | Atlanta | 4 | Community","protocol":17,"map":"pl_fifthcurve_rc1","folder":"tf","game":"Team Fortress","app_id":440,"player_count":0,"max_players":24,"Bots":0,"server_type":"Dedicated","server_os":"Linux","password":true,"vac":true,"version":"7961495","steam_id":85568392924515188,"keywords":["nocrits","nodmgspread","payload","uncletopia"],"game_id":440,"stv_port":27046,"stv_name":"Uncletopia | Atlanta | 4 | Community | STV","players":null},{"server_id":2,"name":"Uncletopia | Chicago | 1 | All Maps","name_short":"chi-1","host":"chi-1.us.uncletopia.com","port":27015,"enabled":true,"region":"us-central","cc":"us","latitude":41.881832,"longitude":-87.62318,"reserved":0,"last_update":"0001-01-01T00:00:00Z","name_a2s":"Uncletopia | Chicago | 1 | All Maps","protocol":17,"map":"cp_altitude","folder":"tf","game":"Team Fortress","app_id":440,"player_count":19,"max_players":24,"Bots":0,"server_type":"Dedicated","server_os":"Linux","password":true,"vac":true,"version":"7961495","steam_id":85568392924469984,"keywords":["cp","nocrits","nodmgspread","uncletopia"],"game_id":440,"stv_port":27016,"stv_name":"Uncletopia | Chicago | 1 | All Maps | STV","players":[{"user_id":829,"name":"WaywardFinn","steam_id":76561198040391296,"connected_time":968000000000,"state":"active","ping":77},{"user_id":803,"name":"❤Cookie❤","steam_id":76561198167488304,"connected_time":3482000000000,"state":"active","ping":55},{"user_id":842,"name":"Qwerty","steam_id":76561198023525894,"connected_time":632000000000,"state":"active","ping":162},{"user_id":845,"name":"crispy","steam_id":76561198971106376,"connected_time":4000000000,"state":"spawning","ping":74},{"user_id":823,"name":"munch","steam_id":76561198820480684,"connected_time":1056000000000,"state":"active","ping":56},{"user_id":830,"name":"Critscare","steam_id":76561198087712508,"connected_time":949000000000,"state":"active","ping":44},{"user_id":843,"name":"cheese burger","steam_id":76561198999217575,"connected_time":181000000000,"state":"active","ping":62},{"user_id":844,"name":"Wizard Raccoon","steam_id":76561198072562591,"connected_time":10000000000,"state":"spawning","ping":75},{"user_id":760,"name":"Zero","steam_id":76561198033384990,"connected_time":7004000000000,"state":"active","ping":47},{"user_id":782,"name":"Undertime Slopper","steam_id":76561198396789061,"connected_time":5614000000000,"state":"active","ping":75},{"user_id":815,"name":"Big Smoke","steam_id":76561198278375987,"connected_time":2187000000000,"state":"active","ping":73},{"user_id":787,"name":"blob","steam_id":76561198122375328,"connected_time":5373000000000,"state":"active","ping":55},{"user_id":773,"name":"ComputerKatto","steam_id":76561199120645430,"connected_time":6301000000000,"state":"active","ping":51},{"user_id":834,"name":"OffKey","steam_id":76561198017660927,"connected_time":898000000000,"state":"active","ping":47},{"user_id":838,"name":"Wind of Change","steam_id":76561198274462772,"connected_time":839000000000,"state":"active","ping":56},{"user_id":839,"name":"cocowheat","steam_id":76561198273524804,"connected_time":828000000000,"state":"active","ping":47},{"user_id":765,"name":"dilfbot","steam_id":76561198099988165,"connected_time":6979000000000,"state":"active","ping":77},{"user_id":841,"name":"beyonder","steam_id":76561198045844070,"connected_time":768000000000,"state":"active","ping":81},{"user_id":790,"name":"loser","steam_id":76561198259380127,"connected_time":4480000000000,"state":"active","ping":57}]},{"server_id":106,"name":"Uncletopia | Chicago | 2 | All Maps","name_short":"chi-2","host":"chi-1.us.uncletopia.com","port":27025,"enabled":true,"region":"us-central","cc":"us","latitude":41.881832,"longitude":-87.62318,"reserved":0,"last_update":"0001-01-01T00:00:00Z","name_a2s":"Uncletopia | Chicago | 2 | All Maps","protocol":17,"map":"cp_mountainlab","folder":"tf","game":"Team Fortress","app_id":440,"player_count":24,"max_players":24,"Bots":0,"server_type":"Dedicated","server_os":"Linux","password":true,"vac":true,"version":"7961495","steam_id":85568392924469985,"keywords":["cp","nocrits","nodmgspread","uncletopia"],"game_id":440,"stv_port":27026,"stv_name":"Uncletopia | Chicago | 2 | All Maps | STV","players":[{"user_id":277,"name":"Cosmic","steam_id":76561198103201211,"connected_time":212000000000,"state":"active","ping":77},{"user_id":178,"name":"moss","steam_id":76561198309118529,"connected_time":5795000000000,"state":"active","ping":82},{"user_id":279,"name":"Cosmic Torgue","steam_id":76561198828724945,"connected_time":123000000000,"state":"active","ping":80},{"user_id":262,"name":"Monophonic","steam_id":76561198001220466,"connected_time":643000000000,"state":"active","ping":97},{"user_id":215,"name":"Pattar","steam_id":76561198146276146,"connected_time":3227000000000,"state":"active","ping":59},{"user_id":276,"name":"Sam","steam_id":76561197991129901,"connected_time":222000000000,"state":"active","ping":51},{"user_id":270,"name":"RURU","steam_id":76561198039758987,"connected_time":424000000000,"state":"active","ping":103},{"user_id":278,"name":"The Law","steam_id":76561198202209948,"connected_time":169000000000,"state":"active","ping":46},{"user_id":242,"name":"I have no brain \u0026 i must scream","steam_id":76561198141344039,"connected_time":1166000000000,"state":"active","ping":81},{"user_id":271,"name":"HE’S IN THE GODDAMN WALLS","steam_id":76561198363267009,"connected_time":298000000000,"state":"active","ping":81},{"user_id":176,"name":"papersamurai","steam_id":76561198313608698,"connected_time":5830000000000,"state":"active","ping":53},{"user_id":282,"name":"DontRunWithScissors","steam_id":76561198079662757,"connected_time":57000000000,"state":"active","ping":97},{"user_id":255,"name":"AncientMecha","steam_id":76561197984921885,"connected_time":751000000000,"state":"active","ping":76},{"user_id":256,"name":"stungoperation","steam_id":76561199162409918,"connected_time":718000000000,"state":"active","ping":120},{"user_id":269,"name":"Fightin Cow","steam_id":76561198080941486,"connected_time":459000000000,"state":"active","ping":80},{"user_id":258,"name":"Megatron G","steam_id":76561198168864083,"connected_time":706000000000,"state":"active","ping":87},{"user_id":132,"name":"Rambly Dambly","steam_id":76561198844496567,"connected_time":9164000000000,"state":"active","ping":52},{"user_id":280,"name":"Vem","steam_id":76561198117273112,"connected_time":122000000000,"state":"active","ping":72},{"user_id":265,"name":"bouzelouf","steam_id":76561198095000722,"connected_time":576000000000,"state":"active","ping":60},{"user_id":274,"name":"dewferd the 3rd","steam_id":76561199069280079,"connected_time":271000000000,"state":"active","ping":111},{"user_id":228,"name":"Truck-kun2107","steam_id":76561199161417910,"connected_time":2058000000000,"state":"active","ping":89},{"user_id":273,"name":"lights","steam_id":76561198004374205,"connected_time":288000000000,"state":"active","ping":74},{"user_id":236,"name":"SmallDog","steam_id":76561198141291034,"connected_time":1713000000000,"state":"active","ping":57},{"user_id":209,"name":"Whatsapp Spy","steam_id":76561198085410969,"connected_time":3995000000000,"state":"active","ping":53}]},{"server_id":402,"name":"Uncletopia | Chicago | 3 | All Maps","name_short":"chi-3","host":"chi-1.us.uncletopia.com","port":27035,"enabled":true,"region":"us-central","cc":"us","latitude":41.881832,"longitude":-87.62318,"reserved":0,"last_update":"0001-01-01T00:00:00Z","name_a2s":"Uncletopia | Chicago | 3 | All Maps","protocol":17,"map":"pl_upward","folder":"tf","game":"Team Fortress","app_id":440,"player_count":24,"max_players":24,"Bots":0,"server_type":"Dedicated","server_os":"Linux","password":true,"vac":true,"version":"7961495","steam_id":85568392924515191,"keywords":["nocrits","nodmgspread","payload","uncletopia"],"game_id":440,"stv_port":27036,"stv_name":"Uncletopia | Chicago | 3 | All Maps | STV","players":[{"user_id":642,"name":"Shorty","steam_id":76561198044873248,"connected_time":1113000000000,"state":"active","ping":43},{"user_id":616,"name":"JetZ","steam_id":76561199122488957,"connected_time":3423000000000,"state":"active","ping":62},{"user_id":625,"name":"Uber","steam_id":76561198060564605,"connected_time":2925000000000,"state":"active","ping":54},{"user_id":633,"name":"chesterwnimitz","steam_id":76561198062664377,"connected_time":2556000000000,"state":"active","ping":93},{"user_id":626,"name":"Slap","steam_id":76561198065145622,"connected_time":2921000000000,"state":"active","ping":69},{"user_id":627,"name":"Saucexe","steam_id":76561198013383203,"connected_time":2903000000000,"state":"active","ping":72},{"user_id":639,"name":"cheeser","steam_id":76561198281772700,"connected_time":1148000000000,"state":"active","ping":61},{"user_id":650,"name":"barack.obama.2008","steam_id":76561198200802811,"connected_time":461000000000,"state":"active","ping":68},{"user_id":636,"name":"the Jorker","steam_id":76561198235414632,"connected_time":2288000000000,"state":"active","ping":96},{"user_id":649,"name":"NoobCesar","steam_id":76561198095250755,"connected_time":637000000000,"state":"active","ping":67},{"user_id":569,"name":"looloopaa","steam_id":76561198048179242,"connected_time":6582000000000,"state":"active","ping":58},{"user_id":617,"name":"Donnie Blasto","steam_id":76561198043432005,"connected_time":3356000000000,"state":"active","ping":50},{"user_id":628,"name":"Extoned","steam_id":76561198391311164,"connected_time":2901000000000,"state":"active","ping":70},{"user_id":640,"name":"merginator","steam_id":76561198987908876,"connected_time":1136000000000,"state":"active","ping":95},{"user_id":646,"name":"my kneecap cartilage is eroding","steam_id":76561198012126625,"connected_time":1088000000000,"state":"active","ping":62},{"user_id":648,"name":"ThatOneKnight","steam_id":76561198388583650,"connected_time":706000000000,"state":"active","ping":74},{"user_id":637,"name":"HOTA","steam_id":76561199002778841,"connected_time":2281000000000,"state":"active","ping":74},{"user_id":643,"name":"attentiondeficit","steam_id":76561198129682583,"connected_time":1103000000000,"state":"active","ping":76},{"user_id":644,"name":"mollusk_obliteration","steam_id":76561198085388962,"connected_time":1102000000000,"state":"active","ping":57},{"user_id":528,"name":"NvAka","steam_id":76561199044781490,"connected_time":11008000000000,"state":"active","ping":68},{"user_id":645,"name":"We Go Crazy","steam_id":76561198209641359,"connected_time":1098000000000,"state":"active","ping":61},{"user_id":630,"name":"boobs lol","steam_id":76561198249206656,"connected_time":2871000000000,"state":"active","ping":65},{"user_id":562,"name":"Lord TriM","steam_id":76561198048332533,"connected_time":7296000000000,"state":"active","ping":62},{"user_id":634,"name":"all my medics same color as gab","steam_id":76561198079416036,"connected_time":2521000000000,"state":"active","ping":44}]},{"server_id":403,"name":"Uncletopia | Chicago | 4 | All Maps","name_short":"chi-4","host":"chi-1.us.uncletopia.com","port":27045,"enabled":true,"region":"us-central","cc":"us","latitude":41.881832,"longitude":-87.62318,"reserved":0,"last_update":"0001-01-01T00:00:00Z","name_a2s":"Uncletopia | Chicago | 4 | All Maps","protocol":17,"map":"pl_snowycoast","folder":"tf","game":"Team Fortress","app_id":440,"player_count":24,"max_players":24,"Bots":0,"server_type":"Dedicated","server_os":"Linux","password":true,"vac":true,"version":"7961495","steam_id":85568392924515193,"keywords":["nocrits","nodmgspread","payload","uncletopia"],"game_id":440,"stv_port":27046,"stv_name":"Uncletopia | Chicago | 4 | All Maps | STV","players":[{"user_id":570,"name":"Nobody","steam_id":76561198085808754,"connected_time":862000000000,"state":"active","ping":89},{"user_id":553,"name":"BigBubble42","steam_id":76561198136286123,"connected_time":2300000000000,"state":"active","ping":50},{"user_id":574,"name":"girlpeen supreme","steam_id":76561198031242903,"connected_time":405000000000,"state":"active","ping":71},{"user_id":543,"name":"Weakforanimebitches","steam_id":76561198217663016,"connected_time":3388000000000,"state":"active","ping":102},{"user_id":558,"name":"Brob Zombie","steam_id":76561198149795942,"connected_time":1648000000000,"state":"active","ping":80},{"user_id":573,"name":"InsulinDealer","steam_id":76561197994220909,"connected_time":623000000000,"state":"active","ping":113},{"user_id":545,"name":"playguy carter","steam_id":76561198080679337,"connected_time":3344000000000,"state":"active","ping":62},{"user_id":568,"name":"morsetime","steam_id":76561199116362348,"connected_time":1096000000000,"state":"active","ping":94},{"user_id":437,"name":"Classy","steam_id":76561198128415840,"connected_time":10564000000000,"state":"active","ping":62},{"user_id":565,"name":"Spruce","steam_id":76561198081684676,"connected_time":1128000000000,"state":"active","ping":131},{"user_id":578,"name":"Lawrence Pemberton","steam_id":76561198180863090,"connected_time":358000000000,"state":"active","ping":74},{"user_id":534,"name":"dinka","steam_id":76561198200569830,"connected_time":3624000000000,"state":"active","ping":73},{"user_id":576,"name":"lilpix3l","steam_id":76561198358892539,"connected_time":368000000000,"state":"active","ping":92},{"user_id":563,"name":"Zarg0n","steam_id":76561198199264549,"connected_time":1290000000000,"state":"active","ping":61},{"user_id":537,"name":"Punished Kong","steam_id":76561198973620882,"connected_time":3572000000000,"state":"active","ping":83},{"user_id":567,"name":"nippleballs","steam_id":76561199088693762,"connected_time":1110000000000,"state":"active","ping":116},{"user_id":550,"name":"femtofarad™","steam_id":76561198308583053,"connected_time":2623000000000,"state":"active","ping":84},{"user_id":502,"name":"Zigadox","steam_id":76561198079813479,"connected_time":5998000000000,"state":"active","ping":89},{"user_id":577,"name":"Lucky","steam_id":76561198418262145,"connected_time":365000000000,"state":"active","ping":128},{"user_id":556,"name":"Chin, Bruce Lee's Relative","steam_id":76561198240105522,"connected_time":1729000000000,"state":"active","ping":85},{"user_id":544,"name":"[MRY] Sk-iLite","steam_id":76561198041797350,"connected_time":3376000000000,"state":"active","ping":72},{"user_id":454,"name":"Kamin","steam_id":76561198255299559,"connected_time":9088000000000,"state":"active","ping":90},{"user_id":564,"name":"Omyskull","steam_id":76561198131711758,"connected_time":1279000000000,"state":"active","ping":170},{"user_id":528,"name":"Space⭐Taffy","steam_id":76561198002271720,"connected_time":3774000000000,"state":"active","ping":68}]},{"server_id":36,"name":"Uncletopia | Chicago | 5 | All Maps","name_short":"chi-5","host":"chi-2.us.uncletopia.com","port":27015,"enabled":true,"region":"us-central","cc":"us","latitude":41.881832,"longitude":-87.62318,"reserved":0,"last_update":"0001-01-01T00:00:00Z","name_a2s":"Uncletopia | Chicago | 5 | All Maps","protocol":17,"map":"cp_dustbowl","folder":"tf","game":"Team Fortress","app_id":440,"player_count":20,"max_players":24,"Bots":0,"server_type":"Dedicated","server_os":"Linux","password":true,"vac":true,"version":"7961495","steam_id":85568392924866362,"keywords":["cp","nocrits","nodmgspread","uncletopia"],"game_id":440,"stv_port":27016,"stv_name":"Uncletopia | Chicago | 5 | All Maps | STV","players":[{"user_id":423,"name":"Kevbot","steam_id":76561198028055669,"connected_time":3164000000000,"state":"active","ping":59},{"user_id":459,"name":"danny shitheater","steam_id":76561198203353732,"connected_time":120000000000,"state":"active","ping":65},{"user_id":463,"name":"Peter Popoff","steam_id":76561198027171160,"connected_time":53000000000,"state":"active","ping":34},{"user_id":445,"name":"Urbanzpinapple","steam_id":76561198115426938,"connected_time":937000000000,"state":"active","ping":115},{"user_id":457,"name":"[Soldunk]","steam_id":76561198142400155,"connected_time":479000000000,"state":"active","ping":60},{"user_id":425,"name":"Agent Mania","steam_id":76561198029741272,"connected_time":3142000000000,"state":"active","ping":102},{"user_id":460,"name":"I am NOT a Spy","steam_id":76561199153596010,"connected_time":108000000000,"state":"active","ping":123},{"user_id":434,"name":"Ghandi","steam_id":76561198046702733,"connected_time":1518000000000,"state":"active","ping":75},{"user_id":433,"name":"TheXenoKing","steam_id":76561198127424141,"connected_time":1906000000000,"state":"active","ping":100},{"user_id":438,"name":"Topfix","steam_id":76561198038899333,"connected_time":1259000000000,"state":"active","ping":70},{"user_id":427,"name":"Juicebox","steam_id":76561197997052180,"connected_time":3129000000000,"state":"active","ping":59},{"user_id":398,"name":"glue","steam_id":76561198382076026,"connected_time":4645000000000,"state":"active","ping":104},{"user_id":464,"name":"@realJohnLenn0nGaming","steam_id":76561198048779989,"connected_time":38000000000,"state":"active","ping":46},{"user_id":461,"name":"A_Toaster","steam_id":76561198946997549,"connected_time":66000000000,"state":"active","ping":98},{"user_id":412,"name":"FrostyBoiGrim [Honcho Guy]","steam_id":76561198114335037,"connected_time":3827000000000,"state":"active","ping":103},{"user_id":453,"name":"CHIEF_JUSTICE_FUCKASS","steam_id":76561199261675844,"connected_time":688000000000,"state":"active","ping":104},{"user_id":462,"name":"bur","steam_id":76561198004231658,"connected_time":60000000000,"state":"active","ping":80},{"user_id":366,"name":"Goober","steam_id":76561198988863807,"connected_time":7584000000000,"state":"active","ping":78},{"user_id":440,"name":"magickxanadu","steam_id":76561199117360103,"connected_time":1245000000000,"state":"active","ping":91},{"user_id":403,"name":"hum","steam_id":76561198085457599,"connected_time":4598000000000,"state":"active","ping":76}]},{"server_id":37,"name":"Uncletopia | Chicago | 6 | All Maps","name_short":"chi-6","host":"chi-2.us.uncletopia.com","port":27025,"enabled":true,"region":"us-central","cc":"us","latitude":41.881832,"longitude":-87.62318,"reserved":0,"last_update":"0001-01-01T00:00:00Z","name_a2s":"Uncletopia | Chicago | 6 | All Maps","protocol":17,"map":"cp_steel","folder":"tf","game":"Team Fortress","app_id":440,"player_count":22,"max_players":24,"Bots":0,"server_type":"Dedicated","server_os":"Linux","password":true,"vac":true,"version":"7961495","steam_id":85568392924866363,"keywords":["cp","nocrits","nodmgspread","uncletopia"],"game_id":440,"stv_port":27026,"stv_name":"Uncletopia | Chicago | 6 | All Maps | STV","players":[{"user_id":442,"name":"Soup","steam_id":76561198079000665,"connected_time":3799000000000,"state":"active","ping":53},{"user_id":489,"name":"500ms reaction time gaming","steam_id":76561198117206414,"connected_time":332000000000,"state":"active","ping":74},{"user_id":480,"name":"KAPIKYO","steam_id":76561198016949737,"connected_time":917000000000,"state":"active","ping":83},{"user_id":492,"name":"Movarc'h Princess","steam_id":76561198024057411,"connected_time":192000000000,"state":"active","ping":54},{"user_id":455,"name":"BootySalad","steam_id":76561198058811379,"connected_time":2718000000000,"state":"active","ping":59},{"user_id":485,"name":"PapaCantSleep","steam_id":76561198027657247,"connected_time":453000000000,"state":"active","ping":90},{"user_id":467,"name":"Jankyo","steam_id":76561198083339492,"connected_time":1802000000000,"state":"active","ping":82},{"user_id":490,"name":"percules","steam_id":76561198070915882,"connected_time":301000000000,"state":"active","ping":94},{"user_id":482,"name":"SuperToaster","steam_id":76561198080274264,"connected_time":717000000000,"state":"active","ping":61},{"user_id":487,"name":"Xyverle","steam_id":76561198799726415,"connected_time":400000000000,"state":"active","ping":58},{"user_id":469,"name":"Naffty","steam_id":76561198119734981,"connected_time":1786000000000,"state":"active","ping":105},{"user_id":493,"name":"lost in spaaaaace","steam_id":76561199085974120,"connected_time":173000000000,"state":"active","ping":72},{"user_id":476,"name":"toastman","steam_id":76561198207073088,"connected_time":1448000000000,"state":"active","ping":81},{"user_id":470,"name":"Dumgum","steam_id":76561198044960992,"connected_time":1784000000000,"state":"active","ping":73},{"user_id":464,"name":"CrazyKermitRubes","steam_id":76561198009065204,"connected_time":2229000000000,"state":"active","ping":80},{"user_id":439,"name":"LORDO","steam_id":76561198044824675,"connected_time":3861000000000,"state":"active","ping":73},{"user_id":481,"name":"Inked♡","steam_id":76561198044040456,"connected_time":841000000000,"state":"active","ping":63},{"user_id":460,"name":"laddie","steam_id":76561198063029230,"connected_time":2504000000000,"state":"active","ping":69},{"user_id":494,"name":"NeonBean","steam_id":76561198088335827,"connected_time":166000000000,"state":"active","ping":93},{"user_id":484,"name":"Yesmar","steam_id":76561198236328806,"connected_time":579000000000,"state":"active","ping":70},{"user_id":457,"name":"Eat my buttocks, heathen!","steam_id":76561199091290729,"connected_time":2704000000000,"state":"active","ping":79},{"user_id":453,"name":"DB1","steam_id":76561199172642819,"connected_time":3115000000000,"state":"active","ping":73}]},{"server_id":38,"name":"Uncletopia | Chicago | 7 | Stopwatch Beta","name_short":"chi-7","host":"chi-2.us.uncletopia.com","port":27035,"enabled":true,"region":"us-central","cc":"us","latitude":41.881832,"longitude":-87.62318,"reserved":0,"last_update":"0001-01-01T00:00:00Z","name_a2s":"Uncletopia | Chicago | 7 | Stopwatch Beta","protocol":17,"map":"workshop/koth_product_final.ugc454272353","folder":"tf","game":"Team Fortress","app_id":440,"player_count":0,"max_players":24,"Bots":0,"server_type":"Dedicated","server_os":"Linux","password":true,"vac":true,"version":"7961495","steam_id":85568392924866364,"keywords":["cp","nocrits","nodmgspread","uncletopia"],"game_id":440,"stv_port":27036,"stv_name":"Uncletopia | Chicago | 7 | Stopwatch Beta | STV","players":null},{"server_id":39,"name":"Uncletopia | Chicago | 8 | Community","name_short":"chi-8","host":"chi-2.us.uncletopia.com","port":27045,"enabled":true,"region":"us-central","cc":"us","latitude":41.881832,"longitude":-87.62318,"reserved":0,"last_update":"0001-01-01T00:00:00Z","name_a2s":"Uncletopia | Chicago | 8 | Community","protocol":17,"map":"workshop/cp_propaganda_b18.ugc1603743849","folder":"tf","game":"Team Fortress","app_id":440,"player_count":24,"max_players":24,"Bots":0,"server_type":"Dedicated","server_os":"Linux","password":true,"vac":true,"version":"7961495","steam_id":85568392924866365,"keywords":["cp","nocrits","nodmgspread","uncletopia"],"game_id":440,"stv_port":27046,"stv_name":"Uncletopia | Chicago | 8 | Community | STV","players":[{"user_id":536,"name":"Glowing5KY","steam_id":76561198850434905,"connected_time":5637000000000,"state":"active","ping":125},{"user_id":491,"name":"Miss Star","steam_id":76561199106587693,"connected_time":8485000000000,"state":"active","ping":61},{"user_id":568,"name":"[ᎴᏋᏋᎮ] Danmar33","steam_id":76561198056453091,"connected_time":3733000000000,"state":"active","ping":59},{"user_id":600,"name":"Rgcia21213","steam_id":76561199047817421,"connected_time":951000000000,"state":"active","ping":117},{"user_id":595,"name":"hash","steam_id":76561198058516339,"connected_time":1104000000000,"state":"active","ping":91},{"user_id":581,"name":"Roomsky","steam_id":76561198012827494,"connected_time":2308000000000,"state":"active","ping":89},{"user_id":602,"name":"dad's favorite snack♥","steam_id":76561198971285292,"connected_time":890000000000,"state":"active","ping":62},{"user_id":573,"name":"Volks","steam_id":76561198018552479,"connected_time":2951000000000,"state":"active","ping":79},{"user_id":607,"name":"Default Cat","steam_id":76561198952202329,"connected_time":608000000000,"state":"active","ping":108},{"user_id":515,"name":"Skeleton Hotel","steam_id":76561198041704727,"connected_time":7542000000000,"state":"active","ping":52},{"user_id":586,"name":"OneTrueCorvid","steam_id":76561199012953221,"connected_time":1908000000000,"state":"active","ping":89},{"user_id":598,"name":"joyner","steam_id":76561197998099591,"connected_time":1023000000000,"state":"active","ping":67},{"user_id":599,"name":"Solly","steam_id":76561198157466077,"connected_time":1017000000000,"state":"active","ping":88},{"user_id":569,"name":"Induce Salt","steam_id":76561198116645978,"connected_time":3497000000000,"state":"active","ping":57},{"user_id":587,"name":"NASA PEEPO","steam_id":76561198024982267,"connected_time":1893000000000,"state":"active","ping":106},{"user_id":608,"name":"Hindmost","steam_id":76561199081837220,"connected_time":466000000000,"state":"active","ping":83},{"user_id":529,"name":"SNFL","steam_id":76561198120360279,"connected_time":6858000000000,"state":"active","ping":60},{"user_id":603,"name":"gerge","steam_id":76561198092238353,"connected_time":839000000000,"state":"active","ping":68},{"user_id":582,"name":"we're so back","steam_id":76561198058485742,"connected_time":2282000000000,"state":"active","ping":62},{"user_id":609,"name":"bobby wasabi","steam_id":76561198380018244,"connected_time":235000000000,"state":"active","ping":76},{"user_id":577,"name":"sonikro","steam_id":76561197989428692,"connected_time":2669000000000,"state":"active","ping":59},{"user_id":594,"name":"Phillip Jeffries","steam_id":76561198064052174,"connected_time":1303000000000,"state":"active","ping":63},{"user_id":606,"name":"GreekGoat_Coffee","steam_id":76561198129331088,"connected_time":755000000000,"state":"active","ping":46},{"user_id":571,"name":"Flap","steam_id":76561198078889633,"connected_time":3219000000000,"state":"active","ping":59}]},{"server_id":8,"name":"Uncletopia | Dallas | 1 | All Maps","name_short":"dal-1","host":"dal-1.us.uncletopia.com","port":27015,"enabled":true,"region":"us-central","cc":"us","latitude":32.779167,"longitude":-96.80889,"reserved":0,"last_update":"0001-01-01T00:00:00Z","name_a2s":"Uncletopia | Dallas | 1 | All Maps","protocol":17,"map":"pl_pier","folder":"tf","game":"Team Fortress","app_id":440,"player_count":24,"max_players":24,"Bots":0,"server_type":"Dedicated","server_os":"Linux","password":true,"vac":true,"version":"7961495","steam_id":85568392924469986,"keywords":["nocrits","nodmgspread","payload","uncletopia"],"game_id":440,"stv_port":27016,"stv_name":"Uncletopia | Dallas | 1 | All Maps | STV","players":[{"user_id":606,"name":"???","steam_id":76561198200155343,"connected_time":2293000000000,"state":"active","ping":44},{"user_id":623,"name":"Kirbothebrony","steam_id":76561198971911330,"connected_time":1128000000000,"state":"active","ping":71},{"user_id":572,"name":"Cyberwulph","steam_id":76561198297412789,"connected_time":4219000000000,"state":"active","ping":100},{"user_id":630,"name":"DragonHunter994","steam_id":76561199076203907,"connected_time":2000000000,"state":"spawning","ping":43},{"user_id":601,"name":"Koffy","steam_id":76561198184386039,"connected_time":2539000000000,"state":"active","ping":87},{"user_id":625,"name":"MeMyBongusAndTheGreatOutdoors","steam_id":76561198097708978,"connected_time":958000000000,"state":"active","ping":55},{"user_id":559,"name":"a bucket of chicken","steam_id":76561198023710042,"connected_time":5268000000000,"state":"active","ping":53},{"user_id":561,"name":"Greg Boberton 2012","steam_id":76561198983566026,"connected_time":5232000000000,"state":"active","ping":80},{"user_id":568,"name":"banana gaming","steam_id":76561198334907218,"connected_time":4829000000000,"state":"active","ping":57},{"user_id":626,"name":"Hotshot","steam_id":76561198082355470,"connected_time":723000000000,"state":"active","ping":96},{"user_id":610,"name":"selling rice","steam_id":76561198063357023,"connected_time":1812000000000,"state":"active","ping":82},{"user_id":580,"name":"Pasta","steam_id":76561198358320222,"connected_time":3547000000000,"state":"active","ping":72},{"user_id":627,"name":"Bird","steam_id":76561198231624620,"connected_time":595000000000,"state":"active","ping":62},{"user_id":503,"name":"Lee?","steam_id":76561199060892634,"connected_time":11087000000000,"state":"active","ping":66},{"user_id":591,"name":"frank","steam_id":76561198137777483,"connected_time":3212000000000,"state":"active","ping":91},{"user_id":611,"name":"Lezabel","steam_id":76561198970753261,"connected_time":1799000000000,"state":"active","ping":74},{"user_id":616,"name":"Gm_Trash","steam_id":76561199445091548,"connected_time":1638000000000,"state":"active","ping":76},{"user_id":605,"name":"Legal Eagle","steam_id":76561198072282096,"connected_time":2357000000000,"state":"active","ping":55},{"user_id":628,"name":"pajama mama mia","steam_id":76561198286627157,"connected_time":533000000000,"state":"active","ping":82},{"user_id":578,"name":"ducky","steam_id":76561198007764271,"connected_time":3561000000000,"state":"active","ping":59},{"user_id":629,"name":"Valenhart","steam_id":76561198354036240,"connected_time":107000000000,"state":"active","ping":69},{"user_id":579,"name":"Sahbi ʕ •ᴥ•ʔ (she/they)","steam_id":76561199196292242,"connected_time":3560000000000,"state":"active","ping":69},{"user_id":618,"name":"Sparroh","steam_id":76561198071819927,"connected_time":1588000000000,"state":"active","ping":74},{"user_id":619,"name":"Das Anchor","steam_id":76561198060173151,"connected_time":1588000000000,"state":"active","ping":89}]},{"server_id":108,"name":"Uncletopia | Dallas | 2 | All Maps","name_short":"dal-2","host":"dal-1.us.uncletopia.com","port":27025,"enabled":true,"region":"us-central","cc":"us","latitude":32.779167,"longitude":-96.80889,"reserved":0,"last_update":"0001-01-01T00:00:00Z","name_a2s":"Uncletopia | Dallas | 2 | All Maps","protocol":17,"map":"pl_thundermountain","folder":"tf","game":"Team Fortress","app_id":440,"player_count":24,"max_players":24,"Bots":0,"server_type":"Dedicated","server_os":"Linux","password":true,"vac":true,"version":"7961495","steam_id":85568392924469988,"keywords":["nocrits","nodmgspread","payload","uncletopia"],"game_id":440,"stv_port":27026,"stv_name":"Uncletopia | Dallas | 2 | All Maps | STV","players":[{"user_id":572,"name":"LampMan","steam_id":76561198079857527,"connected_time":1614000000000,"state":"active","ping":57},{"user_id":496,"name":"VexApathy","steam_id":76561198862661914,"connected_time":8861000000000,"state":"active","ping":70},{"user_id":582,"name":"Triwq","steam_id":76561198054810406,"connected_time":510000000000,"state":"active","ping":45},{"user_id":575,"name":"max poop retention","steam_id":76561199050461421,"connected_time":840000000000,"state":"active","ping":87},{"user_id":556,"name":"Snoopy","steam_id":76561198273735974,"connected_time":4543000000000,"state":"active","ping":74},{"user_id":585,"name":"The Muscle","steam_id":76561198156908708,"connected_time":104000000000,"state":"active","ping":52},{"user_id":586,"name":"wertyuiop21","steam_id":76561199103151695,"connected_time":35000000000,"state":"active","ping":89},{"user_id":576,"name":"I am strong......","steam_id":76561198170890847,"connected_time":805000000000,"state":"active","ping":69},{"user_id":581,"name":"Celtronis","steam_id":76561198445363359,"connected_time":652000000000,"state":"active","ping":89},{"user_id":551,"name":"Goldensliv","steam_id":76561198161673891,"connected_time":5266000000000,"state":"active","ping":63},{"user_id":580,"name":"[DATS➡] Sugar Meowth","steam_id":76561197995251793,"connected_time":698000000000,"state":"active","ping":87},{"user_id":564,"name":"Truly Cryo","steam_id":76561198347497484,"connected_time":3486000000000,"state":"active","ping":100},{"user_id":520,"name":"Your Dad™","steam_id":76561198254739340,"connected_time":6815000000000,"state":"active","ping":89},{"user_id":495,"name":"EzzyIzzy","steam_id":76561198032350068,"connected_time":8881000000000,"state":"active","ping":53},{"user_id":570,"name":"YASAI JUICE","steam_id":76561198131971992,"connected_time":2160000000000,"state":"active","ping":59},{"user_id":525,"name":"Kng","steam_id":76561198993248203,"connected_time":6475000000000,"state":"active","ping":88},{"user_id":549,"name":"Sprit ♥","steam_id":76561198268780781,"connected_time":5297000000000,"state":"active","ping":72},{"user_id":577,"name":"FrostNova","steam_id":76561198348354629,"connected_time":797000000000,"state":"active","ping":80},{"user_id":547,"name":"Broken Cereal√","steam_id":76561198087489795,"connected_time":5350000000000,"state":"active","ping":86},{"user_id":578,"name":"YORCHspartan117","steam_id":76561198272955205,"connected_time":787000000000,"state":"active","ping":66},{"user_id":569,"name":"shelf","steam_id":76561198260021696,"connected_time":2201000000000,"state":"active","ping":96},{"user_id":587,"name":"Adonut","steam_id":76561198805858184,"connected_time":34000000000,"state":"active","ping":105},{"user_id":500,"name":"smurphypoo","steam_id":76561198054130433,"connected_time":8745000000000,"state":"active","ping":92},{"user_id":583,"name":"Maid Knight","steam_id":76561198214370515,"connected_time":500000000000,"state":"active","ping":89}]},{"server_id":404,"name":"Uncletopia | Dallas | 3 | All Maps","name_short":"dal-3","host":"dal-1.us.uncletopia.com","port":27035,"enabled":true,"region":"us-central","cc":"us","latitude":32.779167,"longitude":-96.80889,"reserved":0,"last_update":"0001-01-01T00:00:00Z","name_a2s":"Uncletopia | Dallas | 3 | All Maps","protocol":17,"map":"pl_pier","folder":"tf","game":"Team Fortress","app_id":440,"player_count":21,"max_players":24,"Bots":0,"server_type":"Dedicated","server_os":"Linux","password":true,"vac":true,"version":"7961495","steam_id":85568392924515219,"keywords":["nocrits","nodmgspread","payload","uncletopia"],"game_id":440,"stv_port":27036,"stv_name":"Uncletopia | Dallas | 3 | All Maps | STV","players":[{"user_id":572,"name":"β⁧⁧⁧⁧r a y d e n","steam_id":76561198334728972,"connected_time":65000000000,"state":"active","ping":108},{"user_id":498,"name":"Captain_Eldeezee","steam_id":76561198301560834,"connected_time":4455000000000,"state":"active","ping":31},{"user_id":557,"name":"tacofever","steam_id":76561198010966507,"connected_time":497000000000,"state":"active","ping":74},{"user_id":568,"name":"Phozumi","steam_id":76561198054068499,"connected_time":84000000000,"state":"active","ping":73},{"user_id":566,"name":"THICCBEEF GRANDPA","steam_id":76561197993550572,"connected_time":234000000000,"state":"active","ping":92},{"user_id":570,"name":"Prince Rakeem","steam_id":76561198246812566,"connected_time":80000000000,"state":"active","ping":62},{"user_id":558,"name":"caRat","steam_id":76561198859267372,"connected_time":491000000000,"state":"active","ping":72},{"user_id":509,"name":"Weirdo","steam_id":76561199150514223,"connected_time":4013000000000,"state":"active","ping":116},{"user_id":533,"name":"detective","steam_id":76561198413125750,"connected_time":1997000000000,"state":"active","ping":86},{"user_id":556,"name":"A Fruit","steam_id":76561198951830050,"connected_time":560000000000,"state":"active","ping":42},{"user_id":571,"name":"Mars","steam_id":76561198896022737,"connected_time":74000000000,"state":"active","ping":71},{"user_id":548,"name":"roo the observer","steam_id":76561198120684348,"connected_time":1381000000000,"state":"active","ping":76},{"user_id":553,"name":"errant","steam_id":76561197961758410,"connected_time":652000000000,"state":"active","ping":34},{"user_id":573,"name":"KrylonHeretic","steam_id":76561198139811459,"connected_time":30000000000,"state":"active","ping":98},{"user_id":574,"name":"scottbagel","steam_id":76561199144640325,"connected_time":28000000000,"state":"spawning","ping":57},{"user_id":575,"name":"mercenary","steam_id":76561198027901887,"connected_time":9000000000,"state":"active","ping":55},{"user_id":472,"name":"TrenchcoatCraig","steam_id":76561198295599533,"connected_time":6000000000000,"state":"active","ping":75},{"user_id":576,"name":"Alazu","steam_id":76561198105847077,"connected_time":7000000000,"state":"spawning","ping":79},{"user_id":528,"name":"thorg","steam_id":76561199144740188,"connected_time":2988000000000,"state":"active","ping":72},{"user_id":480,"name":"mkl","steam_id":76561197986401685,"connected_time":5767000000000,"state":"active","ping":60},{"user_id":505,"name":"peebs","steam_id":76561198261319753,"connected_time":4127000000000,"state":"active","ping":55}]},{"server_id":405,"name":"Uncletopia | Dallas | 4 | Community","name_short":"dal-4","host":"dal-1.us.uncletopia.com","port":27045,"enabled":true,"region":"us-central","cc":"us","latitude":32.779167,"longitude":-96.80889,"reserved":0,"last_update":"0001-01-01T00:00:00Z","name_a2s":"Uncletopia | Dallas | 4 | Community","protocol":17,"map":"workshop/cp_villa_b19.ugc2113052569","folder":"tf","game":"Team Fortress","app_id":440,"player_count":0,"max_players":24,"Bots":0,"server_type":"Dedicated","server_os":"Linux","password":true,"vac":true,"version":"7961495","steam_id":85568392924515220,"keywords":["cp","nocrits","nodmgspread","uncletopia"],"game_id":440,"stv_port":27046,"stv_name":"Uncletopia | Dallas | 4 | Community | STV","players":null},{"server_id":5,"name":"Uncletopia | Frankfurt | 1 | All Maps","name_short":"frk-1","host":"frk-1.de.uncletopia.com","port":27015,"enabled":true,"region":"eu","cc":"de","latitude":50.110924,"longitude":8.682127,"reserved":0,"last_update":"0001-01-01T00:00:00Z","name_a2s":"Uncletopia | Frankfurt | 1 | All Maps","protocol":17,"map":"pl_pier","folder":"tf","game":"Team Fortress","app_id":440,"player_count":0,"max_players":24,"Bots":0,"server_type":"Dedicated","server_os":"Linux","password":true,"vac":true,"version":"7961495","steam_id":85568392924469989,"keywords":["nocrits","nodmgspread","payload","uncletopia"],"game_id":440,"stv_port":27016,"stv_name":"Uncletopia | Frankfurt | 1 | All Maps | STV","players":null},{"server_id":110,"name":"Uncletopia | Frankfurt | 2 | All Maps","name_short":"frk-2","host":"frk-1.de.uncletopia.com","port":27025,"enabled":true,"region":"eu","cc":"de","latitude":50.110924,"longitude":8.682127,"reserved":0,"last_update":"0001-01-01T00:00:00Z","name_a2s":"Uncletopia | Frankfurt | 2 | All Maps","protocol":17,"map":"koth_cascade","folder":"tf","game":"Team Fortress","app_id":440,"player_count":0,"max_players":24,"Bots":0,"server_type":"Dedicated","server_os":"Linux","password":true,"vac":true,"version":"7961495","steam_id":85568392924469990,"keywords":["cp","nocrits","nodmgspread","uncletopia"],"game_id":440,"stv_port":27026,"stv_name":"Uncletopia | Frankfurt | 2 | All Maps | STV","players":null},{"server_id":308,"name":"Uncletopia | Frankfurt | 3 | All Maps","name_short":"frk-3","host":"frk-1.de.uncletopia.com","port":27035,"enabled":true,"region":"eu","cc":"de","latitude":50.110924,"longitude":8.682127,"reserved":0,"last_update":"0001-01-01T00:00:00Z","name_a2s":"Uncletopia | Frankfurt | 3 | All Maps","protocol":17,"map":"koth_lakeside_final","folder":"tf","game":"Team Fortress","app_id":440,"player_count":0,"max_players":24,"Bots":0,"server_type":"Dedicated","server_os":"Linux","password":true,"vac":true,"version":"7961495","steam_id":85568392924504274,"keywords":["cp","nocrits","nodmgspread","uncletopia"],"game_id":440,"stv_port":27036,"stv_name":"Uncletopia | Frankfurt | 3 | All Maps | STV","players":null},{"server_id":309,"name":"Uncletopia | Frankfurt | 4 | All Maps","name_short":"frk-4","host":"frk-1.de.uncletopia.com","port":27045,"enabled":true,"region":"eu","cc":"de","latitude":50.110924,"longitude":8.682127,"reserved":0,"last_update":"0001-01-01T00:00:00Z","name_a2s":"Uncletopia | Frankfurt | 4 | All Maps","protocol":17,"map":"koth_lakeside_final","folder":"tf","game":"Team Fortress","app_id":440,"player_count":0,"max_players":24,"Bots":0,"server_type":"Dedicated","server_os":"Linux","password":true,"vac":true,"version":"7961495","steam_id":85568392924504275,"keywords":["cp","nocrits","nodmgspread","uncletopia"],"game_id":440,"stv_port":27046,"stv_name":"Uncletopia | Frankfurt | 4 | All Maps | STV","players":null},{"server_id":310,"name":"Uncletopia | Frankfurt | 5 | All Maps","name_short":"frk-5","host":"frk-1.de.uncletopia.com","port":27055,"enabled":true,"region":"eu","cc":"de","latitude":50.110924,"longitude":8.682127,"reserved":0,"last_update":"0001-01-01T00:00:00Z","name_a2s":"Uncletopia | Frankfurt | 5 | All Maps","protocol":17,"map":"koth_lakeside_final","folder":"tf","game":"Team Fortress","app_id":440,"player_count":0,"max_players":24,"Bots":0,"server_type":"Dedicated","server_os":"Linux","password":true,"vac":true,"version":"7961495","steam_id":85568392924504277,"keywords":["cp","nocrits","nodmgspread","uncletopia"],"game_id":440,"stv_port":27056,"stv_name":"Uncletopia | Frankfurt | 5 | All Maps | STV","players":null},{"server_id":311,"name":"Uncletopia | Frankfurt | 6 | All Maps","name_short":"frk-6","host":"frk-1.de.uncletopia.com","port":27065,"enabled":true,"region":"eu","cc":"de","latitude":50.110924,"longitude":8.682127,"reserved":0,"last_update":"0001-01-01T00:00:00Z","name_a2s":"Uncletopia | Frankfurt | 6 | All Maps","protocol":17,"map":"pl_swiftwater_final1","folder":"tf","game":"Team Fortress","app_id":440,"player_count":0,"max_players":24,"Bots":0,"server_type":"Dedicated","server_os":"Linux","password":true,"vac":true,"version":"7961495","steam_id":85568392924504278,"keywords":["nocrits","nodmgspread","payload","uncletopia"],"game_id":440,"stv_port":27066,"stv_name":"Uncletopia | Frankfurt | 6 | All Maps | STV","players":null},{"server_id":23,"name":"Uncletopia | Frankfurt | 7 | Stopwatch Beta","name_short":"frk-7","host":"frk-1.de.uncletopia.com","port":27075,"enabled":true,"region":"eu","cc":"de","latitude":50.110924,"longitude":8.682127,"reserved":0,"last_update":"0001-01-01T00:00:00Z","name_a2s":"Uncletopia | Frankfurt | 7 | Stopwatch Beta","protocol":17,"map":"workshop/koth_clearcut_b15.ugc2107050255","folder":"tf","game":"Team Fortress","app_id":440,"player_count":0,"max_players":24,"Bots":0,"server_type":"Dedicated","server_os":"Linux","password":true,"vac":true,"version":"7961495","steam_id":85568392924742827,"keywords":["cp","nocrits","nodmgspread","uncletopia"],"game_id":440,"stv_port":27076,"stv_name":"Uncletopia | Frankfurt | 7 | Stopwatch Beta | STV","players":null},{"server_id":24,"name":"Uncletopia | Frankfurt | 8 | Community","name_short":"frk-8","host":"frk-1.de.uncletopia.com","port":27085,"enabled":true,"region":"eu","cc":"de","latitude":50.110924,"longitude":8.682127,"reserved":0,"last_update":"0001-01-01T00:00:00Z","name_a2s":"Uncletopia | Frankfurt | 8 | Community","protocol":17,"map":"workshop/cp_overgrown_rc8.ugc503939302","folder":"tf","game":"Team Fortress","app_id":440,"player_count":0,"max_players":24,"Bots":0,"server_type":"Dedicated","server_os":"Linux","password":true,"vac":true,"version":"7961495","steam_id":85568392924742828,"keywords":["cp","nocrits","nodmgspread","uncletopia"],"game_id":440,"stv_port":27086,"stv_name":"Uncletopia | Frankfurt | 8 | Community | STV","players":null},{"server_id":202,"name":"Uncletopia | Hong Kong | 1 | All Maps","name_short":"hgk-1","host":"hgk-1.hk.uncletopia.com","port":27015,"enabled":true,"region":"asia","cc":"hk","latitude":22.302711,"longitude":114.177216,"reserved":0,"last_update":"0001-01-01T00:00:00Z","name_a2s":"","protocol":0,"map":"","folder":"","game":"","app_id":0,"player_count":0,"max_players":0,"Bots":0,"server_type":"","server_os":"","password":false,"vac":false,"version":"","steam_id":0,"keywords":null,"game_id":0,"stv_port":0,"stv_name":"","players":null},{"server_id":1,"name":"Uncletopia | Los Angeles | 1 | All Maps","name_short":"lax-1","host":"lax-1.us.uncletopia.com","port":27015,"enabled":true,"region":"us-west","cc":"us","latitude":33.94279,"longitude":-118.41004,"reserved":0,"last_update":"0001-01-01T00:00:00Z","name_a2s":"Uncletopia | Los Angeles | 1 | All Maps","protocol":17,"map":"pl_frontier_final","folder":"tf","game":"Team Fortress","app_id":440,"player_count":24,"max_players":24,"Bots":0,"server_type":"Dedicated","server_os":"Linux","password":true,"vac":true,"version":"7961495","steam_id":85568392924469991,"keywords":["nocrits","nodmgspread","payload","uncletopia"],"game_id":440,"stv_port":27016,"stv_name":"Uncletopia | Los Angeles | 1 | All Maps | STV","players":[{"user_id":209,"name":"Zaiah","steam_id":76561198377588247,"connected_time":4971000000000,"state":"active","ping":75},{"user_id":252,"name":"Chad the Sex Haver","steam_id":76561198058236528,"connected_time":1823000000000,"state":"active","ping":46},{"user_id":245,"name":"Heckolo","steam_id":76561198168010993,"connected_time":2540000000000,"state":"active","ping":63},{"user_id":279,"name":"coolbust carti","steam_id":76561198065384345,"connected_time":102000000000,"state":"active","ping":58},{"user_id":259,"name":"heavy","steam_id":76561199391478575,"connected_time":1034000000000,"state":"active","ping":86},{"user_id":249,"name":"Quagsire Acquired","steam_id":76561198417169465,"connected_time":1962000000000,"state":"active","ping":101},{"user_id":247,"name":"Mr. Ravioli","steam_id":76561197996625649,"connected_time":2189000000000,"state":"active","ping":76},{"user_id":253,"name":"Schnitz","steam_id":76561198265484253,"connected_time":1752000000000,"state":"active","ping":61},{"user_id":217,"name":"Seshreb","steam_id":76561198846614634,"connected_time":4461000000000,"state":"active","ping":60},{"user_id":281,"name":"vulcan nightclub pon farr night","steam_id":76561197974283797,"connected_time":44000000000,"state":"active","ping":96},{"user_id":273,"name":"lamadre07","steam_id":76561198067337453,"connected_time":470000000000,"state":"connecting","ping":693},{"user_id":268,"name":"Tocha","steam_id":76561198119725400,"connected_time":612000000000,"state":"active","ping":103},{"user_id":265,"name":"zinnk","steam_id":76561198092081825,"connected_time":902000000000,"state":"active","ping":58},{"user_id":277,"name":"The Horselords and Animal Gods","steam_id":76561197975094050,"connected_time":353000000000,"state":"active","ping":53},{"user_id":263,"name":"Ralph Kramden (Slim Charles)","steam_id":76561197981687895,"connected_time":954000000000,"state":"active","ping":60},{"user_id":280,"name":"GlizzLord","steam_id":76561198321010427,"connected_time":91000000000,"state":"active","ping":67},{"user_id":266,"name":"Soupy Meal","steam_id":76561199056842761,"connected_time":845000000000,"state":"active","ping":48},{"user_id":232,"name":"Tako","steam_id":76561199264073138,"connected_time":3611000000000,"state":"active","ping":37},{"user_id":255,"name":"1995 Cooler ranch Doritos","steam_id":76561199006526991,"connected_time":1386000000000,"state":"active","ping":46},{"user_id":282,"name":"Keamy","steam_id":76561199471434875,"connected_time":40000000000,"state":"active","ping":72},{"user_id":235,"name":"bendera","steam_id":76561197965486503,"connected_time":3307000000000,"state":"active","ping":116},{"user_id":258,"name":"MEDIO METRO","steam_id":76561198424030927,"connected_time":1053000000000,"state":"active","ping":107},{"user_id":234,"name":"HAT-WEARING™ Maggot Gamer Cat","steam_id":76561197973992705,"connected_time":3438000000000,"state":"active","ping":67},{"user_id":244,"name":"exx","steam_id":76561198090552145,"connected_time":2664000000000,"state":"active","ping":45}]},{"server_id":112,"name":"Uncletopia | Los Angeles | 2 | All Maps","name_short":"lax-2","host":"lax-1.us.uncletopia.com","port":27025,"enabled":true,"region":"us-west","cc":"us","latitude":33.94279,"longitude":-118.41004,"reserved":0,"last_update":"0001-01-01T00:00:00Z","name_a2s":"Uncletopia | Los Angeles | 2 | All Maps","protocol":17,"map":"pl_barnblitz","folder":"tf","game":"Team Fortress","app_id":440,"player_count":24,"max_players":24,"Bots":0,"server_type":"Dedicated","server_os":"Linux","password":true,"vac":true,"version":"7961495","steam_id":85568392924469992,"keywords":["nocrits","nodmgspread","payload","uncletopia"],"game_id":440,"stv_port":27026,"stv_name":"Uncletopia | Los Angeles | 2 | All Maps | STV","players":[{"user_id":499,"name":"SAVECASEY","steam_id":76561198857896847,"connected_time":78000000000,"state":"active","ping":46},{"user_id":482,"name":"Gub","steam_id":76561199386531376,"connected_time":1233000000000,"state":"active","ping":56},{"user_id":491,"name":"Ha Gottem","steam_id":76561198041329791,"connected_time":294000000000,"state":"active","ping":49},{"user_id":468,"name":"They could be starlings","steam_id":76561198441020995,"connected_time":2053000000000,"state":"active","ping":68},{"user_id":485,"name":"Wheaty","steam_id":76561198003553412,"connected_time":734000000000,"state":"active","ping":70},{"user_id":492,"name":"Sleuth","steam_id":76561198418288939,"connected_time":226000000000,"state":"active","ping":64},{"user_id":494,"name":"Synergy","steam_id":76561198098630198,"connected_time":204000000000,"state":"active","ping":60},{"user_id":495,"name":"ุ","steam_id":76561198404271005,"connected_time":192000000000,"state":"active","ping":54},{"user_id":472,"name":"two scoops of a jar of somethin","steam_id":76561199029306384,"connected_time":1664000000000,"state":"active","ping":54},{"user_id":452,"name":"squibonacci","steam_id":76561198305870184,"connected_time":2857000000000,"state":"active","ping":68},{"user_id":427,"name":"Pvt. Sandvich","steam_id":76561198010317453,"connected_time":4122000000000,"state":"active","ping":47},{"user_id":496,"name":"Jamie","steam_id":76561198917309036,"connected_time":167000000000,"state":"active","ping":101},{"user_id":479,"name":"DOKTERR!","steam_id":76561199483607733,"connected_time":1404000000000,"state":"active","ping":63},{"user_id":480,"name":"isomething","steam_id":76561199221951548,"connected_time":1401000000000,"state":"active","ping":65},{"user_id":421,"name":"Rodgedan","steam_id":76561198226236524,"connected_time":5184000000000,"state":"active","ping":157},{"user_id":392,"name":"JavaScript Frappuccino","steam_id":76561198111620153,"connected_time":6667000000000,"state":"active","ping":75},{"user_id":497,"name":"Cam","steam_id":76561198285054047,"connected_time":143000000000,"state":"active","ping":75},{"user_id":477,"name":"Marz","steam_id":76561198799364911,"connected_time":1503000000000,"state":"active","ping":63},{"user_id":486,"name":"Strange Potato","steam_id":76561199059013304,"connected_time":718000000000,"state":"active","ping":70},{"user_id":461,"name":"IsThatAJoJoReference","steam_id":76561198835513424,"connected_time":2584000000000,"state":"active","ping":66},{"user_id":498,"name":"Bheem","steam_id":76561198170453459,"connected_time":113000000000,"state":"active","ping":62},{"user_id":447,"name":"rawgust","steam_id":76561198004523887,"connected_time":3092000000000,"state":"active","ping":97},{"user_id":488,"name":"Gerbias","steam_id":76561198001002427,"connected_time":625000000000,"state":"active","ping":62},{"user_id":442,"name":"Deadshot Daiquiri","steam_id":76561199151946743,"connected_time":3494000000000,"state":"active","ping":72}]},{"server_id":324,"name":"Uncletopia | Los Angeles | 3 | All Maps","name_short":"lax-3","host":"lax-1.us.uncletopia.com","port":27035,"enabled":true,"region":"us-west","cc":"us","latitude":33.94279,"longitude":-118.41004,"reserved":0,"last_update":"0001-01-01T00:00:00Z","name_a2s":"Uncletopia | Los Angeles | 3 | All Maps","protocol":17,"map":"pl_swiftwater_final1","folder":"tf","game":"Team Fortress","app_id":440,"player_count":24,"max_players":24,"Bots":0,"server_type":"Dedicated","server_os":"Linux","password":true,"vac":true,"version":"7961495","steam_id":85568392924510198,"keywords":["nocrits","nodmgspread","payload","uncletopia"],"game_id":440,"stv_port":27036,"stv_name":"Uncletopia | Los Angeles | 3 | All Maps | STV","players":[{"user_id":321,"name":"Sensational Sesame Seed","steam_id":76561198092494136,"connected_time":439000000000,"state":"active","ping":74},{"user_id":330,"name":"Kzjytsugn","steam_id":76561198130241974,"connected_time":260000000000,"state":"active","ping":79},{"user_id":336,"name":"PBnJames","steam_id":76561198834000962,"connected_time":113000000000,"state":"active","ping":106},{"user_id":320,"name":"dave","steam_id":76561198135961731,"connected_time":459000000000,"state":"active","ping":93},{"user_id":315,"name":"A_LEMMING","steam_id":76561198040134083,"connected_time":575000000000,"state":"active","ping":75},{"user_id":316,"name":"ruben!","steam_id":76561198248731498,"connected_time":556000000000,"state":"active","ping":53},{"user_id":333,"name":"CoolerK","steam_id":76561197993787252,"connected_time":218000000000,"state":"active","ping":108},{"user_id":322,"name":"Arizona Killer","steam_id":76561198110345484,"connected_time":390000000000,"state":"active","ping":82},{"user_id":323,"name":"weed","steam_id":76561198149929071,"connected_time":390000000000,"state":"active","ping":75},{"user_id":324,"name":"TheHeadlessHunter","steam_id":76561199140936746,"connected_time":342000000000,"state":"active","ping":58},{"user_id":325,"name":"Amateur Glaswegian","steam_id":76561198030851956,"connected_time":314000000000,"state":"active","ping":75},{"user_id":310,"name":"papi Chulo","steam_id":76561198126274984,"connected_time":1004000000000,"state":"active","ping":83},{"user_id":262,"name":"BurdBrain","steam_id":76561197962097737,"connected_time":5365000000000,"state":"active","ping":62},{"user_id":326,"name":"b4ss","steam_id":76561198116549222,"connected_time":308000000000,"state":"active","ping":62},{"user_id":180,"name":"riSygneD","steam_id":76561198331618687,"connected_time":10167000000000,"state":"active","ping":41},{"user_id":297,"name":"goon refinery","steam_id":76561198166781089,"connected_time":2285000000000,"state":"active","ping":88},{"user_id":328,"name":"chilis baby back ribs","steam_id":76561198813516435,"connected_time":298000000000,"state":"active","ping":49},{"user_id":329,"name":"DesertFroggo","steam_id":76561198015607829,"connected_time":293000000000,"state":"active","ping":143},{"user_id":337,"name":"sage","steam_id":76561198994761483,"connected_time":85000000000,"state":"active","ping":80},{"user_id":332,"name":"Kylek1133","steam_id":76561198277595899,"connected_time":241000000000,"state":"active","ping":63},{"user_id":334,"name":"Townze","steam_id":76561198081827165,"connected_time":210000000000,"state":"active","ping":90},{"user_id":335,"name":"gatorbelt","steam_id":76561198145784505,"connected_time":208000000000,"state":"active","ping":49},{"user_id":279,"name":"Owl_eyes","steam_id":76561198066199203,"connected_time":3400000000000,"state":"active","ping":60},{"user_id":296,"name":"wrist game dumbin","steam_id":76561198247984828,"connected_time":2346000000000,"state":"active","ping":45}]},{"server_id":25,"name":"Uncletopia | Los Angeles | 4 | Stopwatch Beta","name_short":"lax-4","host":"lax-1.us.uncletopia.com","port":27045,"enabled":true,"region":"us-west","cc":"us","latitude":33.94279,"longitude":-118.41004,"reserved":0,"last_update":"0001-01-01T00:00:00Z","name_a2s":"Uncletopia | Los Angeles | 4 | Stopwatch Beta","protocol":17,"map":"workshop/koth_ashville_final.ugc2130459942","folder":"tf","game":"Team Fortress","app_id":440,"player_count":0,"max_players":24,"Bots":0,"server_type":"Dedicated","server_os":"Linux","password":true,"vac":true,"version":"7961495","steam_id":85568392924510199,"keywords":["cp","nocrits","nodmgspread","uncletopia"],"game_id":440,"stv_port":27046,"stv_name":"Uncletopia | Los Angeles | 4 | Stopwatch Beta | STV","players":null},{"server_id":11,"name":"Uncletopia | London | 1 | All Maps","name_short":"lon-1","host":"lon-1.uk.uncletopia.com","port":27015,"enabled":true,"region":"eu","cc":"gb","latitude":51.509865,"longitude":-0.118092,"reserved":0,"last_update":"0001-01-01T00:00:00Z","name_a2s":"Uncletopia | London | 1 | All Maps","protocol":17,"map":"cp_altitude","folder":"tf","game":"Team Fortress","app_id":440,"player_count":6,"max_players":24,"Bots":0,"server_type":"Dedicated","server_os":"Linux","password":true,"vac":true,"version":"7961495","steam_id":85568392924367362,"keywords":["cp","nocrits","nodmgspread","uncletopia"],"game_id":440,"stv_port":27016,"stv_name":"Uncletopia | London | 1 | All Maps | STV","players":[{"user_id":660,"name":"yuno appreciator","steam_id":76561198083286511,"connected_time":1132000000000,"state":"active","ping":30},{"user_id":666,"name":"quantumexistenc3","steam_id":76561199379634118,"connected_time":312000000000,"state":"active","ping":65},{"user_id":667,"name":"Dragon","steam_id":76561198163255365,"connected_time":226000000000,"state":"spawning","ping":128},{"user_id":644,"name":"SnareBreaker","steam_id":76561198854045058,"connected_time":2711000000000,"state":"active","ping":59},{"user_id":640,"name":"Marcus","steam_id":76561198205027963,"connected_time":2995000000000,"state":"active","ping":61},{"user_id":638,"name":"Gooby","steam_id":76561198383937031,"connected_time":3533000000000,"state":"active","ping":45}]},{"server_id":114,"name":"Uncletopia | London | 2 | All Maps","name_short":"lon-2","host":"lon-1.uk.uncletopia.com","port":27025,"enabled":true,"region":"eu","cc":"gb","latitude":51.509865,"longitude":-0.118092,"reserved":0,"last_update":"0001-01-01T00:00:00Z","name_a2s":"Uncletopia | London | 2 | All Maps","protocol":17,"map":"koth_highpass","folder":"tf","game":"Team Fortress","app_id":440,"player_count":0,"max_players":24,"Bots":0,"server_type":"Dedicated","server_os":"Linux","password":true,"vac":true,"version":"7961495","steam_id":85568392924470941,"keywords":["cp","nocrits","nodmgspread","uncletopia"],"game_id":440,"stv_port":27026,"stv_name":"Uncletopia | London | 2 | All Maps | STV","players":null},{"server_id":320,"name":"Uncletopia | London | 3 | All Maps","name_short":"lon-3","host":"lon-1.uk.uncletopia.com","port":27035,"enabled":true,"region":"eu","cc":"gb","latitude":51.509865,"longitude":-0.118092,"reserved":0,"last_update":"0001-01-01T00:00:00Z","name_a2s":"Uncletopia | London | 3 | All Maps","protocol":17,"map":"cp_dustbowl","folder":"tf","game":"Team Fortress","app_id":440,"player_count":0,"max_players":24,"Bots":0,"server_type":"Dedicated","server_os":"Linux","password":true,"vac":true,"version":"7961495","steam_id":85568392924510192,"keywords":["cp","nocrits","nodmgspread","uncletopia"],"game_id":440,"stv_port":27036,"stv_name":"Uncletopia | London | 3 | All Maps | STV","players":null},{"server_id":321,"name":"Uncletopia | London | 4 | All Maps","name_short":"lon-4","host":"lon-1.uk.uncletopia.com","port":27045,"enabled":true,"region":"eu","cc":"gb","latitude":51.509865,"longitude":-0.118092,"reserved":0,"last_update":"0001-01-01T00:00:00Z","name_a2s":"Uncletopia | London | 4 | All Maps","protocol":17,"map":"cp_mountainlab","folder":"tf","game":"Team Fortress","app_id":440,"player_count":0,"max_players":24,"Bots":0,"server_type":"Dedicated","server_os":"Linux","password":true,"vac":true,"version":"7961495","steam_id":85568392924510193,"keywords":["cp","nocrits","nodmgspread","uncletopia"],"game_id":440,"stv_port":27046,"stv_name":"Uncletopia | London | 4 | All Maps | STV","players":null},{"server_id":21,"name":"Uncletopia | London | 5 | All Maps","name_short":"lon-5","host":"lon-1.uk.uncletopia.com","port":27055,"enabled":true,"region":"eu","cc":"gb","latitude":51.509865,"longitude":-0.118092,"reserved":0,"last_update":"0001-01-01T00:00:00Z","name_a2s":"Uncletopia | London | 5 | All Maps","protocol":17,"map":"koth_highpass","folder":"tf","game":"Team Fortress","app_id":440,"player_count":0,"max_players":24,"Bots":0,"server_type":"Dedicated","server_os":"Linux","password":true,"vac":true,"version":"7961495","steam_id":85568392924742829,"keywords":["cp","nocrits","nodmgspread","uncletopia"],"game_id":440,"stv_port":27056,"stv_name":"Uncletopia | London | 5 | All Maps | STV","players":null},{"server_id":22,"name":"Uncletopia | London | 6 | All Maps","name_short":"lon-6","host":"lon-1.uk.uncletopia.com","port":27065,"enabled":true,"region":"eu","cc":"gb","latitude":51.509865,"longitude":-0.118092,"reserved":0,"last_update":"0001-01-01T00:00:00Z","name_a2s":"Uncletopia | London | 6 | All Maps","protocol":17,"map":"koth_highpass","folder":"tf","game":"Team Fortress","app_id":440,"player_count":0,"max_players":24,"Bots":0,"server_type":"Dedicated","server_os":"Linux","password":true,"vac":true,"version":"7961495","steam_id":85568392924742830,"keywords":["cp","nocrits","nodmgspread","uncletopia"],"game_id":440,"stv_port":27066,"stv_name":"Uncletopia | London | 6 | All Maps | STV","players":null},{"server_id":40,"name":"Uncletopia | London | 7 | No Payload","name_short":"lon-7","host":"lon-1.uk.uncletopia.com","port":27075,"enabled":true,"region":"eu","cc":"gb","latitude":51.509865,"longitude":-0.118092,"reserved":0,"last_update":"0001-01-01T00:00:00Z","name_a2s":"Uncletopia | London | 7 | No Payload","protocol":17,"map":"koth_harvest_final","folder":"tf","game":"Team Fortress","app_id":440,"player_count":2,"max_players":24,"Bots":0,"server_type":"Dedicated","server_os":"Linux","password":true,"vac":true,"version":"7961495","steam_id":85568392924964314,"keywords":["cp","nocrits","nodmgspread","uncletopia"],"game_id":440,"stv_port":27076,"stv_name":"Uncletopia | London | 7 | No Payload | STV","players":[{"user_id":444,"name":"kdhbuilder","steam_id":76561199058095193,"connected_time":9136000000000,"state":"active","ping":185},{"user_id":445,"name":"Tx_madmash","steam_id":76561198924656512,"connected_time":9082000000000,"state":"active","ping":125}]},{"server_id":41,"name":"Uncletopia | London | 8 | Community","name_short":"lon-8","host":"lon-1.uk.uncletopia.com","port":27085,"enabled":true,"region":"eu","cc":"gb","latitude":51.509865,"longitude":-0.118092,"reserved":0,"last_update":"0001-01-01T00:00:00Z","name_a2s":"Uncletopia | London | 8 | Community","protocol":17,"map":"workshop/koth_ashville_final.ugc2130459942","folder":"tf","game":"Team Fortress","app_id":440,"player_count":0,"max_players":24,"Bots":0,"server_type":"Dedicated","server_os":"Linux","password":true,"vac":true,"version":"7961495","steam_id":85568392924964315,"keywords":["cp","nocrits","nodmgspread","uncletopia"],"game_id":440,"stv_port":27086,"stv_name":"Uncletopia | London | 8 | Community | STV","players":null},{"server_id":300,"name":"Uncletopia | Montréal | 1 | All Maps","name_short":"mtl-1","host":"mtl-1.ca.uncletopia.com","port":27015,"enabled":true,"region":"us-east","cc":"ca","latitude":45.50889,"longitude":-73.56167,"reserved":0,"last_update":"0001-01-01T00:00:00Z","name_a2s":"Uncletopia | Montréal | 1 | All Maps","protocol":17,"map":"cp_process_final","folder":"tf","game":"Team Fortress","app_id":440,"player_count":0,"max_players":24,"Bots":0,"server_type":"Dedicated","server_os":"Linux","password":true,"vac":true,"version":"7961495","steam_id":85568392924500087,"keywords":["cp","nocrits","nodmgspread","uncletopia"],"game_id":440,"stv_port":27016,"stv_name":"Uncletopia | Montréal | 1 | All Maps | STV","players":null},{"server_id":301,"name":"Uncletopia | Montréal | 2 | All Maps","name_short":"mtl-2","host":"mtl-1.ca.uncletopia.com","port":27025,"enabled":true,"region":"us-east","cc":"ca","latitude":45.50889,"longitude":-73.56167,"reserved":0,"last_update":"0001-01-01T00:00:00Z","name_a2s":"Uncletopia | Montréal | 2 | All Maps","protocol":17,"map":"cp_altitude","folder":"tf","game":"Team Fortress","app_id":440,"player_count":0,"max_players":24,"Bots":0,"server_type":"Dedicated","server_os":"Linux","password":true,"vac":true,"version":"7961495","steam_id":85568392924500088,"keywords":["cp","nocrits","nodmgspread","uncletopia"],"game_id":440,"stv_port":27026,"stv_name":"Uncletopia | Montréal | 2 | All Maps | STV","players":null},{"server_id":302,"name":"Uncletopia | Montréal | 3 | All Maps","name_short":"mtl-3","host":"mtl-1.ca.uncletopia.com","port":27035,"enabled":true,"region":"us-east","cc":"ca","latitude":45.50889,"longitude":-73.56167,"reserved":0,"last_update":"0001-01-01T00:00:00Z","name_a2s":"Uncletopia | Montréal | 3 | All Maps","protocol":17,"map":"koth_cascade","folder":"tf","game":"Team Fortress","app_id":440,"player_count":0,"max_players":24,"Bots":0,"server_type":"Dedicated","server_os":"Linux","password":true,"vac":true,"version":"7961495","steam_id":85568392924500089,"keywords":["cp","nocrits","nodmgspread","uncletopia"],"game_id":440,"stv_port":27036,"stv_name":"Uncletopia | Montréal | 3 | All Maps | STV","players":null},{"server_id":303,"name":"Uncletopia | Montréal | 4 | No Payload","name_short":"mtl-4","host":"mtl-1.ca.uncletopia.com","port":27045,"enabled":true,"region":"us-east","cc":"ca","latitude":45.50889,"longitude":-73.56167,"reserved":0,"last_update":"0001-01-01T00:00:00Z","name_a2s":"Uncletopia | Montréal | 4 | No Payload","protocol":17,"map":"koth_lakeside_final","folder":"tf","game":"Team Fortress","app_id":440,"player_count":0,"max_players":24,"Bots":0,"server_type":"Dedicated","server_os":"Linux","password":true,"vac":true,"version":"7961495","steam_id":85568392924500090,"keywords":["cp","nocrits","nodmgspread","uncletopia"],"game_id":440,"stv_port":27046,"stv_name":"Uncletopia | Montréal | 4 | No Payload | STV","players":null},{"server_id":13,"name":"Uncletopia | New York City | 1 | All Maps","name_short":"nyc-1","host":"nyc-1.us.uncletopia.com","port":27015,"enabled":true,"region":"us-east","cc":"us","latitude":40.73061,"longitude":-73.93524,"reserved":0,"last_update":"0001-01-01T00:00:00Z","name_a2s":"Uncletopia | New York City | 1 | All Maps","protocol":17,"map":"cp_dustbowl","folder":"tf","game":"Team Fortress","app_id":440,"player_count":24,"max_players":24,"Bots":0,"server_type":"Dedicated","server_os":"Linux","password":true,"vac":true,"version":"7961495","steam_id":85568392924469993,"keywords":["cp","nocrits","nodmgspread","uncletopia"],"game_id":440,"stv_port":27016,"stv_name":"Uncletopia | New York City | 1 | All Maps | STV","players":[{"user_id":881,"name":"Absolute Fucking Cretin","steam_id":76561198067744790,"connected_time":1093000000000,"state":"active","ping":56},{"user_id":872,"name":"Team Fortress 2","steam_id":76561198180638958,"connected_time":1715000000000,"state":"active","ping":56},{"user_id":875,"name":"Kinda_Clownish","steam_id":76561198309111836,"connected_time":1605000000000,"state":"active","ping":101},{"user_id":886,"name":"Shitfart","steam_id":76561199017059007,"connected_time":537000000000,"state":"active","ping":115},{"user_id":867,"name":"allimadness","steam_id":76561199061698187,"connected_time":1991000000000,"state":"active","ping":129},{"user_id":739,"name":"Rock Lee in a Bikini","steam_id":76561198011204478,"connected_time":11018000000000,"state":"active","ping":80},{"user_id":830,"name":"Doofenshmirtz Evil Inc.","steam_id":76561198439793697,"connected_time":5163000000000,"state":"active","ping":86},{"user_id":858,"name":"ft. Mitk","steam_id":76561199109203558,"connected_time":3391000000000,"state":"active","ping":74},{"user_id":884,"name":"chem✨","steam_id":76561198972045654,"connected_time":650000000000,"state":"active","ping":84},{"user_id":869,"name":"Duk","steam_id":76561198450692568,"connected_time":1957000000000,"state":"active","ping":44},{"user_id":868,"name":"Moshi Man","steam_id":76561198038249762,"connected_time":1986000000000,"state":"active","ping":74},{"user_id":853,"name":"OKAY","steam_id":76561198091980659,"connected_time":3932000000000,"state":"active","ping":57},{"user_id":885,"name":"eish","steam_id":76561198089463603,"connected_time":572000000000,"state":"active","ping":134},{"user_id":860,"name":"you forgot the sauce","steam_id":76561198387016713,"connected_time":3123000000000,"state":"active","ping":64},{"user_id":871,"name":"financial recession","steam_id":76561198313695660,"connected_time":1808000000000,"state":"active","ping":52},{"user_id":882,"name":"kursed","steam_id":76561198992371495,"connected_time":989000000000,"state":"active","ping":45},{"user_id":845,"name":"Terror-Billy #SaveTF2","steam_id":76561198328141870,"connected_time":4065000000000,"state":"active","ping":71},{"user_id":874,"name":"Scrib Nibbler","steam_id":76561198042227832,"connected_time":1650000000000,"state":"active","ping":83},{"user_id":876,"name":"MacMan","steam_id":76561198142124971,"connected_time":1528000000000,"state":"active","ping":84},{"user_id":879,"name":"Herdez Hot Salsa","steam_id":76561197991740906,"connected_time":1177000000000,"state":"active","ping":67},{"user_id":887,"name":"nomad","steam_id":76561197998740399,"connected_time":100000000000,"state":"active","ping":52},{"user_id":859,"name":"CaptainPigeon","steam_id":76561198020541863,"connected_time":3267000000000,"state":"active","ping":61},{"user_id":857,"name":"Kirbs","steam_id":76561198970654800,"connected_time":3438000000000,"state":"active","ping":48},{"user_id":864,"name":"Meh","steam_id":76561198078187920,"connected_time":2345000000000,"state":"active","ping":88}]},{"server_id":14,"name":"Uncletopia | New York City | 2 | All Maps","name_short":"nyc-2","host":"nyc-1.us.uncletopia.com","port":27025,"enabled":true,"region":"us-east","cc":"us","latitude":40.73061,"longitude":-73.93524,"reserved":0,"last_update":"0001-01-01T00:00:00Z","name_a2s":"Uncletopia | New York City | 2 | All Maps","protocol":17,"map":"cp_snakewater_final1","folder":"tf","game":"Team Fortress","app_id":440,"player_count":24,"max_players":24,"Bots":0,"server_type":"Dedicated","server_os":"Linux","password":true,"vac":true,"version":"7961495","steam_id":85568392924469994,"keywords":["cp","nocrits","nodmgspread","uncletopia"],"game_id":440,"stv_port":27026,"stv_name":"Uncletopia | New York City | 2 | All Maps | STV","players":[{"user_id":687,"name":"goliath birdeater","steam_id":76561198089852954,"connected_time":274000000000,"state":"active","ping":90},{"user_id":606,"name":"Ugzugzug The Bucket Mann","steam_id":76561198836624330,"connected_time":6948000000000,"state":"active","ping":85},{"user_id":686,"name":"dunk","steam_id":76561198066114874,"connected_time":289000000000,"state":"active","ping":120},{"user_id":674,"name":"A_Malebolgia","steam_id":76561198097722818,"connected_time":1632000000000,"state":"active","ping":84},{"user_id":650,"name":"Smiles","steam_id":76561198107197973,"connected_time":3748000000000,"state":"active","ping":75},{"user_id":690,"name":"Mally","steam_id":76561198025013765,"connected_time":201000000000,"state":"active","ping":74},{"user_id":677,"name":"WitheringLeo","steam_id":76561198046722918,"connected_time":1238000000000,"state":"active","ping":73},{"user_id":649,"name":"Ascendance","steam_id":76561198065357068,"connected_time":3778000000000,"state":"active","ping":99},{"user_id":684,"name":"pirate pete","steam_id":76561198151048590,"connected_time":336000000000,"state":"active","ping":78},{"user_id":697,"name":"Speedy","steam_id":76561198080761661,"connected_time":21000000000,"state":"active","ping":64},{"user_id":683,"name":"deimos","steam_id":76561198148357768,"connected_time":357000000000,"state":"active","ping":53},{"user_id":688,"name":"sqerkbo","steam_id":76561198080012700,"connected_time":249000000000,"state":"active","ping":45},{"user_id":654,"name":"Jango","steam_id":76561198084589742,"connected_time":3658000000000,"state":"active","ping":76},{"user_id":682,"name":"aciddragon","steam_id":76561198151211107,"connected_time":439000000000,"state":"active","ping":99},{"user_id":689,"name":"newport menthol 100s CEO","steam_id":76561198050976060,"connected_time":247000000000,"state":"active","ping":60},{"user_id":646,"name":"Another Neko Weeb","steam_id":76561198051785884,"connected_time":3867000000000,"state":"active","ping":49},{"user_id":662,"name":"Vibrantword3732","steam_id":76561198916638641,"connected_time":3301000000000,"state":"active","ping":121},{"user_id":691,"name":"dipp","steam_id":76561198395577807,"connected_time":192000000000,"state":"active","ping":46},{"user_id":692,"name":"braindead","steam_id":76561198263631055,"connected_time":151000000000,"state":"active","ping":75},{"user_id":693,"name":"mop","steam_id":76561198083853538,"connected_time":143000000000,"state":"active","ping":59},{"user_id":669,"name":"M@verick","steam_id":76561198006363519,"connected_time":2458000000000,"state":"active","ping":68},{"user_id":695,"name":"Mcfighter2","steam_id":76561198168073956,"connected_time":89000000000,"state":"spawning","ping":59},{"user_id":660,"name":"JtsRes","steam_id":76561197994809241,"connected_time":3599000000000,"state":"active","ping":91},{"user_id":667,"name":"living in mushroom park","steam_id":76561198097588802,"connected_time":2514000000000,"state":"active","ping":72}]},{"server_id":15,"name":"Uncletopia | New York City | 3 | Stopwatch Beta","name_short":"nyc-3","host":"nyc-1.us.uncletopia.com","port":27035,"enabled":true,"region":"us-east","cc":"us","latitude":40.73061,"longitude":-73.93524,"reserved":0,"last_update":"0001-01-01T00:00:00Z","name_a2s":"Uncletopia | New York City | 3 | Stopwatch Beta","protocol":17,"map":"workshop/koth_product_final.ugc454272353","folder":"tf","game":"Team Fortress","app_id":440,"player_count":23,"max_players":24,"Bots":0,"server_type":"Dedicated","server_os":"Linux","password":true,"vac":true,"version":"7961495","steam_id":85568392924742820,"keywords":["cp","nocrits","nodmgspread","uncletopia"],"game_id":440,"stv_port":27036,"stv_name":"Uncletopia | New York City | 3 | Stopwatch Beta | STV","players":[{"user_id":142,"name":"Shay","steam_id":76561198108143601,"connected_time":3107000000000,"state":"active","ping":61},{"user_id":163,"name":"AudioMedic","steam_id":76561198333939032,"connected_time":1235000000000,"state":"active","ping":58},{"user_id":164,"name":"i drink dr pepper","steam_id":76561198370925029,"connected_time":1182000000000,"state":"active","ping":52},{"user_id":173,"name":"Mart","steam_id":76561198091974816,"connected_time":250000000000,"state":"active","ping":73},{"user_id":165,"name":"bibblingcattywampus499","steam_id":76561198957517065,"connected_time":1054000000000,"state":"active","ping":43},{"user_id":172,"name":"Disco Fever","steam_id":76561198069532215,"connected_time":544000000000,"state":"active","ping":56},{"user_id":139,"name":"Doppler Effect","steam_id":76561198046713998,"connected_time":3150000000000,"state":"active","ping":48},{"user_id":140,"name":"Drae Wulf","steam_id":76561198267422906,"connected_time":3142000000000,"state":"active","ping":46},{"user_id":167,"name":"Dreamzapp","steam_id":76561199084936632,"connected_time":803000000000,"state":"active","ping":137},{"user_id":168,"name":"exotic fishes","steam_id":76561199046490785,"connected_time":802000000000,"state":"active","ping":64},{"user_id":144,"name":"skoop","steam_id":76561198966283838,"connected_time":2905000000000,"state":"active","ping":66},{"user_id":169,"name":"GROOVYROOM","steam_id":76561199153684166,"connected_time":735000000000,"state":"active","ping":71},{"user_id":156,"name":"Caterpillar Smoking a Blunt","steam_id":76561198369511235,"connected_time":1743000000000,"state":"active","ping":60},{"user_id":170,"name":"skullcrushar","steam_id":76561198094512992,"connected_time":725000000000,"state":"active","ping":70},{"user_id":171,"name":"Sun Tzu Gaming","steam_id":76561198066887958,"connected_time":697000000000,"state":"active","ping":62},{"user_id":174,"name":"The Hamburglar","steam_id":76561198072446018,"connected_time":246000000000,"state":"active","ping":72},{"user_id":175,"name":"Waveshift","steam_id":76561199030125662,"connected_time":105000000000,"state":"active","ping":77},{"user_id":176,"name":"Dr Nefario","steam_id":76561198254646194,"connected_time":74000000000,"state":"active","ping":43},{"user_id":177,"name":"ark","steam_id":76561198041066271,"connected_time":73000000000,"state":"active","ping":95},{"user_id":178,"name":"Justario","steam_id":76561198016095410,"connected_time":28000000000,"state":"active","ping":45},{"user_id":179,"name":"Cheeki","steam_id":76561198024375176,"connected_time":14000000000,"state":"spawning","ping":52},{"user_id":180,"name":"Jesse Bear","steam_id":76561198217075305,"connected_time":1000000000,"state":"spawning","ping":42},{"user_id":181,"name":"litroolay","steam_id":76561197995226856,"connected_time":0,"state":"spawning","ping":134}]},{"server_id":16,"name":"Uncletopia | New York City | 4 | Community","name_short":"nyc-4","host":"nyc-1.us.uncletopia.com","port":27045,"enabled":true,"region":"us-east","cc":"us","latitude":40.73061,"longitude":-73.93524,"reserved":0,"last_update":"0001-01-01T00:00:00Z","name_a2s":"Uncletopia | New York City | 4 | Community","protocol":17,"map":"workshop/cp_croissant_final.ugc458840209","folder":"tf","game":"Team Fortress","app_id":440,"player_count":0,"max_players":24,"Bots":0,"server_type":"Dedicated","server_os":"Linux","password":true,"vac":true,"version":"7961495","steam_id":85568392924742821,"keywords":["cp","nocrits","nodmgspread","uncletopia"],"game_id":440,"stv_port":27046,"stv_name":"Uncletopia | New York City | 4 | Community | STV","players":null},{"server_id":142,"name":"Uncletopia | São Paulo | 1 | All Maps","name_short":"sao-1","host":"sao-1.br.uncletopia.com","port":27015,"enabled":true,"region":"sa","cc":"br","latitude":-23.533773,"longitude":-46.62529,"reserved":0,"last_update":"0001-01-01T00:00:00Z","name_a2s":"Uncletopia | São Paulo | 1 | All Maps","protocol":17,"map":"koth_viaduct","folder":"tf","game":"Team Fortress","app_id":440,"player_count":0,"max_players":24,"Bots":0,"server_type":"Dedicated","server_os":"Linux","password":true,"vac":true,"version":"7961495","steam_id":85568392924469996,"keywords":["cp","nocrits","nodmgspread","uncletopia"],"game_id":440,"stv_port":27016,"stv_name":"Uncletopia | São Paulo | 1 | All Maps | STV","players":null},{"server_id":143,"name":"Uncletopia | São Paulo | 2 | Community","name_short":"sao-2","host":"sao-2.br.uncletopia.com","port":27015,"enabled":true,"region":"sa","cc":"br","latitude":-23.533773,"longitude":-46.62529,"reserved":0,"last_update":"0001-01-01T00:00:00Z","name_a2s":"Uncletopia | São Paulo | 2 | Community","protocol":17,"map":"workshop/pl_corrode_rc2.ugc546577989","folder":"tf","game":"Team Fortress","app_id":440,"player_count":0,"max_players":24,"Bots":0,"server_type":"Dedicated","server_os":"Linux","password":true,"vac":true,"version":"7961495","steam_id":85568392924485349,"keywords":["nocrits","nodmgspread","payload","uncletopia"],"game_id":440,"stv_port":27016,"stv_name":"Uncletopia | São Paulo | 2 | Community | STV","players":null},{"server_id":7,"name":"Uncletopia | Seattle | 1 | All Maps","name_short":"sea-1","host":"sea-1.us.uncletopia.com","port":27015,"enabled":true,"region":"us-west","cc":"us","latitude":47.608013,"longitude":-122.33517,"reserved":0,"last_update":"0001-01-01T00:00:00Z","name_a2s":"Uncletopia | Seattle | 1 | All Maps","protocol":17,"map":"pl_snowycoast","folder":"tf","game":"Team Fortress","app_id":440,"player_count":24,"max_players":24,"Bots":0,"server_type":"Dedicated","server_os":"Linux","password":true,"vac":true,"version":"7961495","steam_id":85568392924469997,"keywords":["nocrits","nodmgspread","payload","uncletopia"],"game_id":440,"stv_port":27016,"stv_name":"Uncletopia | Seattle | 1 | All Maps | STV","players":[{"user_id":365,"name":"ilun","steam_id":76561198042913843,"connected_time":7619000000000,"state":"active","ping":60},{"user_id":428,"name":"Haydob13","steam_id":76561198110378191,"connected_time":2375000000000,"state":"active","ping":60},{"user_id":398,"name":"ORANGE","steam_id":76561198000401769,"connected_time":5153000000000,"state":"active","ping":45},{"user_id":405,"name":"greens beans","steam_id":76561198153611491,"connected_time":4084000000000,"state":"active","ping":45},{"user_id":408,"name":"a cat plushie","steam_id":76561198080046542,"connected_time":4025000000000,"state":"active","ping":48},{"user_id":441,"name":"brick_bloxer","steam_id":76561198075671287,"connected_time":1352000000000,"state":"active","ping":87},{"user_id":386,"name":"Trogdor","steam_id":76561198121353181,"connected_time":6362000000000,"state":"active","ping":74},{"user_id":323,"name":"Daz","steam_id":76561198041431938,"connected_time":10788000000000,"state":"active","ping":53},{"user_id":444,"name":"lavender","steam_id":76561199069518286,"connected_time":241000000000,"state":"active","ping":75},{"user_id":443,"name":"SPEEEEEEEEEEEEEEEEEEEEED","steam_id":76561198316768819,"connected_time":1185000000000,"state":"active","ping":124},{"user_id":449,"name":"gldhd","steam_id":76561198051751133,"connected_time":113000000000,"state":"active","ping":60},{"user_id":450,"name":"Josep","steam_id":76561198345759958,"connected_time":22000000000,"state":"active","ping":69},{"user_id":442,"name":"Yatchi.","steam_id":76561198878073232,"connected_time":1342000000000,"state":"active","ping":112},{"user_id":446,"name":"⛧ Erēmitēs ΘΔ ⛧","steam_id":76561198126171688,"connected_time":208000000000,"state":"active","ping":149},{"user_id":434,"name":"keithykeithers","steam_id":76561197995552615,"connected_time":1381000000000,"state":"active","ping":53},{"user_id":376,"name":"McSpazatron","steam_id":76561198955942148,"connected_time":7084000000000,"state":"active","ping":64},{"user_id":435,"name":"Puppygirl full of Estradiol","steam_id":76561198085813708,"connected_time":1381000000000,"state":"active","ping":120},{"user_id":436,"name":"dust | she/it","steam_id":76561198045218909,"connected_time":1372000000000,"state":"active","ping":45},{"user_id":437,"name":"Crake","steam_id":76561198001959071,"connected_time":1368000000000,"state":"active","ping":62},{"user_id":438,"name":"blinkerton city","steam_id":76561198054270410,"connected_time":1368000000000,"state":"active","ping":68},{"user_id":439,"name":"bbbbb","steam_id":76561198095480838,"connected_time":1365000000000,"state":"active","ping":50},{"user_id":412,"name":"HaphazardHazel","steam_id":76561198316812693,"connected_time":3648000000000,"state":"active","ping":136},{"user_id":430,"name":"Bendidy","steam_id":76561198041964300,"connected_time":2370000000000,"state":"active","ping":84},{"user_id":445,"name":"Peppy","steam_id":76561198866629645,"connected_time":241000000000,"state":"active","ping":60}]},{"server_id":119,"name":"Uncletopia | Seattle | 2 | All Maps","name_short":"sea-2","host":"sea-1.us.uncletopia.com","port":27025,"enabled":true,"region":"us-west","cc":"us","latitude":47.608013,"longitude":-122.33517,"reserved":0,"last_update":"0001-01-01T00:00:00Z","name_a2s":"Uncletopia | Seattle | 2 | All Maps","protocol":17,"map":"koth_cascade","folder":"tf","game":"Team Fortress","app_id":440,"player_count":23,"max_players":24,"Bots":0,"server_type":"Dedicated","server_os":"Linux","password":true,"vac":true,"version":"7961495","steam_id":85568392924469998,"keywords":["cp","nocrits","nodmgspread","uncletopia"],"game_id":440,"stv_port":27026,"stv_name":"Uncletopia | Seattle | 2 | All Maps | STV","players":[{"user_id":518,"name":"DaBigA","steam_id":76561198326492538,"connected_time":2102000000000,"state":"active","ping":41},{"user_id":509,"name":"PROFILE NAME","steam_id":76561199438851854,"connected_time":2615000000000,"state":"active","ping":55},{"user_id":490,"name":"HotHead","steam_id":76561198138468982,"connected_time":4010000000000,"state":"active","ping":46},{"user_id":457,"name":"......","steam_id":76561198067612741,"connected_time":5894000000000,"state":"active","ping":45},{"user_id":510,"name":"Blueghost555","steam_id":76561198379198065,"connected_time":2608000000000,"state":"active","ping":83},{"user_id":517,"name":"AlIen","steam_id":76561198093605031,"connected_time":2227000000000,"state":"active","ping":64},{"user_id":524,"name":"fiend","steam_id":76561198122159645,"connected_time":739000000000,"state":"active","ping":55},{"user_id":470,"name":"General Fisticuffs","steam_id":76561198255721392,"connected_time":5420000000000,"state":"active","ping":113},{"user_id":525,"name":"Mocha Josie","steam_id":76561198066452726,"connected_time":727000000000,"state":"active","ping":86},{"user_id":534,"name":"Rude Dog","steam_id":76561197980385816,"connected_time":207000000000,"state":"active","ping":62},{"user_id":527,"name":"AT✪MIC","steam_id":76561198100385184,"connected_time":673000000000,"state":"active","ping":77},{"user_id":451,"name":"Heinz-Harald Frentzen","steam_id":76561199002203593,"connected_time":5992000000000,"state":"active","ping":100},{"user_id":452,"name":"Morse","steam_id":76561198039944542,"connected_time":5981000000000,"state":"active","ping":56},{"user_id":521,"name":"gloobern","steam_id":76561198341190679,"connected_time":801000000000,"state":"active","ping":71},{"user_id":535,"name":"enderantics","steam_id":76561198388495246,"connected_time":26000000000,"state":"active","ping":49},{"user_id":531,"name":"D.A.V.I.D","steam_id":76561199443570634,"connected_time":457000000000,"state":"active","ping":68},{"user_id":480,"name":"ArchmageF","steam_id":76561197992246851,"connected_time":4822000000000,"state":"active","ping":49},{"user_id":523,"name":"Cheezbeargur","steam_id":76561198164702899,"connected_time":755000000000,"state":"active","ping":61},{"user_id":529,"name":"Finkly","steam_id":76561198049828110,"connected_time":654000000000,"state":"active","ping":48},{"user_id":475,"name":"mega","steam_id":76561198089520959,"connected_time":5144000000000,"state":"active","ping":100},{"user_id":486,"name":"CashGordon","steam_id":76561197975594096,"connected_time":4071000000000,"state":"active","ping":41},{"user_id":530,"name":"Ajayajax","steam_id":76561198389802335,"connected_time":601000000000,"state":"active","ping":55},{"user_id":533,"name":"TüCold","steam_id":76561198111278197,"connected_time":346000000000,"state":"active","ping":60}]},{"server_id":406,"name":"Uncletopia | Seattle | 3 | Stopwatch Beta","name_short":"sea-3","host":"sea-1.us.uncletopia.com","port":27035,"enabled":true,"region":"us-west","cc":"us","latitude":47.608013,"longitude":-122.33517,"reserved":0,"last_update":"0001-01-01T00:00:00Z","name_a2s":"Uncletopia | Seattle | 3 | Stopwatch Beta","protocol":17,"map":"workshop/koth_ashville_final.ugc2130459942","folder":"tf","game":"Team Fortress","app_id":440,"player_count":0,"max_players":24,"Bots":0,"server_type":"Dedicated","server_os":"Linux","password":true,"vac":true,"version":"7961495","steam_id":85568392924515217,"keywords":["cp","nocrits","nodmgspread","uncletopia"],"game_id":440,"stv_port":27036,"stv_name":"Uncletopia | Seattle | 3 | Stopwatch Beta | STV","players":null},{"server_id":17,"name":"Uncletopia | San Francisco | 1 | All Maps","name_short":"sfo-1","host":"sfo-1.us.uncletopia.com","port":27015,"enabled":true,"region":"us-west","cc":"us","latitude":37.77397,"longitude":-122.4313,"reserved":0,"last_update":"0001-01-01T00:00:00Z","name_a2s":"Uncletopia | San Francisco | 1 | All Maps","protocol":17,"map":"cp_sunshine","folder":"tf","game":"Team Fortress","app_id":440,"player_count":23,"max_players":24,"Bots":0,"server_type":"Dedicated","server_os":"Linux","password":true,"vac":true,"version":"7961495","steam_id":85568392924469999,"keywords":["cp","nocrits","nodmgspread","uncletopia"],"game_id":440,"stv_port":27016,"stv_name":"Uncletopia | San Francisco | 1 | All Maps | STV","players":[{"user_id":469,"name":"Flomnp","steam_id":76561199206749843,"connected_time":639000000000,"state":"active","ping":70},{"user_id":480,"name":"Cipher5656","steam_id":76561198027847388,"connected_time":85000000000,"state":"active","ping":85},{"user_id":476,"name":"sebasss","steam_id":76561199483725167,"connected_time":194000000000,"state":"active","ping":78},{"user_id":473,"name":"Antifa Supersoldier","steam_id":76561198141816516,"connected_time":250000000000,"state":"active","ping":82},{"user_id":462,"name":"burdllomu (no vac/buy lollichop","steam_id":76561199142477846,"connected_time":1012000000000,"state":"active","ping":79},{"user_id":410,"name":"The Comedian","steam_id":76561198037780226,"connected_time":3867000000000,"state":"active","ping":46},{"user_id":415,"name":"Higuma","steam_id":76561198375229012,"connected_time":3784000000000,"state":"active","ping":59},{"user_id":448,"name":"Ethyl","steam_id":76561198085769406,"connected_time":1966000000000,"state":"active","ping":67},{"user_id":474,"name":"AMONGUS","steam_id":76561199176017593,"connected_time":233000000000,"state":"active","ping":68},{"user_id":454,"name":"chunguspilled","steam_id":76561198263122601,"connected_time":1895000000000,"state":"active","ping":99},{"user_id":475,"name":"raduski","steam_id":76561198795699119,"connected_time":232000000000,"state":"active","ping":87},{"user_id":484,"name":"spurious george","steam_id":76561198043558709,"connected_time":35000000000,"state":"active","ping":62},{"user_id":451,"name":"wiwwow","steam_id":76561198380504981,"connected_time":1931000000000,"state":"active","ping":77},{"user_id":478,"name":"spec","steam_id":76561199078179827,"connected_time":169000000000,"state":"active","ping":67},{"user_id":481,"name":"Choco Cat","steam_id":76561198328744864,"connected_time":61000000000,"state":"active","ping":50},{"user_id":477,"name":"hosewater","steam_id":76561198023383126,"connected_time":175000000000,"state":"active","ping":70},{"user_id":479,"name":"Slippy","steam_id":76561198334059206,"connected_time":169000000000,"state":"active","ping":56},{"user_id":482,"name":"don't get mad","steam_id":76561198064662875,"connected_time":52000000000,"state":"active","ping":48},{"user_id":455,"name":"Hotdoggiest","steam_id":76561198049420141,"connected_time":1886000000000,"state":"active","ping":52},{"user_id":483,"name":"dansal","steam_id":76561197997042510,"connected_time":42000000000,"state":"active","ping":96},{"user_id":423,"name":"EdxTheFig","steam_id":76561198108650109,"connected_time":3178000000000,"state":"active","ping":56},{"user_id":420,"name":"Madcows","steam_id":76561198021695614,"connected_time":3748000000000,"state":"active","ping":51},{"user_id":461,"name":"Quibits","steam_id":76561198032944405,"connected_time":1048000000000,"state":"active","ping":52}]},{"server_id":18,"name":"Uncletopia | San Francisco | 2 | All Maps","name_short":"sfo-2","host":"sfo-1.us.uncletopia.com","port":27025,"enabled":true,"region":"us-west","cc":"us","latitude":37.77397,"longitude":-122.4313,"reserved":0,"last_update":"0001-01-01T00:00:00Z","name_a2s":"Uncletopia | San Francisco | 2 | All Maps","protocol":17,"map":"koth_viaduct","folder":"tf","game":"Team Fortress","app_id":440,"player_count":0,"max_players":24,"Bots":0,"server_type":"Dedicated","server_os":"Linux","password":true,"vac":true,"version":"7961495","steam_id":85568392924470000,"keywords":["cp","nocrits","nodmgspread","uncletopia"],"game_id":440,"stv_port":27026,"stv_name":"Uncletopia | San Francisco | 2 | All Maps | STV","players":null},{"server_id":19,"name":"Uncletopia | San Francisco | 3 | Stopwatch Beta","name_short":"sfo-3","host":"sfo-1.us.uncletopia.com","port":27035,"enabled":true,"region":"us-west","cc":"us","latitude":37.77397,"longitude":-122.4313,"reserved":0,"last_update":"0001-01-01T00:00:00Z","name_a2s":"Uncletopia | San Francisco | 3 | Stopwatch Beta","protocol":17,"map":"pl_borneo","folder":"tf","game":"Team Fortress","app_id":440,"player_count":0,"max_players":24,"Bots":0,"server_type":"Dedicated","server_os":"Linux","password":true,"vac":true,"version":"7961495","steam_id":85568392924742824,"keywords":["nocrits","nodmgspread","payload","uncletopia"],"game_id":440,"stv_port":27036,"stv_name":"Uncletopia | San Francisco | 3 | Stopwatch Beta | STV","players":null},{"server_id":20,"name":"Uncletopia | San Francisco | 4 | Community","name_short":"sfo-4","host":"sfo-1.us.uncletopia.com","port":27045,"enabled":true,"region":"us-west","cc":"us","latitude":37.77397,"longitude":-122.4313,"reserved":0,"last_update":"0001-01-01T00:00:00Z","name_a2s":"Uncletopia | San Francisco | 4 | Community","protocol":17,"map":"workshop/cp_glacier_rc6.ugc2905735376","folder":"tf","game":"Team Fortress","app_id":440,"player_count":0,"max_players":24,"Bots":0,"server_type":"Dedicated","server_os":"Linux","password":true,"vac":true,"version":"7961495","steam_id":85568392924742826,"keywords":["cp","nocrits","nodmgspread","uncletopia"],"game_id":440,"stv_port":27046,"stv_name":"Uncletopia | San Francisco | 4 | Community | STV","players":null},{"server_id":141,"name":"Uncletopia | Sydney | 1 | All Maps","name_short":"syd-1","host":"syd-1.au.uncletopia.com","port":27015,"enabled":true,"region":"au","cc":"au","latitude":-33.865143,"longitude":151.2099,"reserved":0,"last_update":"0001-01-01T00:00:00Z","name_a2s":"Uncletopia | Sydney | 1 | All Maps","protocol":17,"map":"koth_viaduct","folder":"tf","game":"Team Fortress","app_id":440,"player_count":0,"max_players":24,"Bots":0,"server_type":"Dedicated","server_os":"Linux","password":true,"vac":true,"version":"7961495","steam_id":85568392924470001,"keywords":["cp","nocrits","nodmgspread","uncletopia"],"game_id":440,"stv_port":27016,"stv_name":"Uncletopia | Sydney | 1 | All Maps | STV","players":null},{"server_id":123,"name":"Uncletopia | Sydney | 2 | All Maps","name_short":"syd-2","host":"syd-1.au.uncletopia.com","port":27025,"enabled":true,"region":"au","cc":"au","latitude":-33.865143,"longitude":151.2099,"reserved":0,"last_update":"0001-01-01T00:00:00Z","name_a2s":"Uncletopia | Sydney | 2 | All Maps","protocol":17,"map":"cp_snakewater_final1","folder":"tf","game":"Team Fortress","app_id":440,"player_count":0,"max_players":24,"Bots":0,"server_type":"Dedicated","server_os":"Linux","password":true,"vac":true,"version":"7961495","steam_id":85568392924470002,"keywords":["cp","nocrits","nodmgspread","uncletopia"],"game_id":440,"stv_port":27026,"stv_name":"Uncletopia | Sydney | 2 | All Maps | STV","players":null},{"server_id":395,"name":"Uncletopia | Sydney | 3 | All Maps","name_short":"syd-3","host":"syd-1.au.uncletopia.com","port":27035,"enabled":true,"region":"au","cc":"au","latitude":-33.865143,"longitude":151.2099,"reserved":0,"last_update":"0001-01-01T00:00:00Z","name_a2s":"Uncletopia | Sydney | 3 | All Maps","protocol":17,"map":"cp_dustbowl","folder":"tf","game":"Team Fortress","app_id":440,"player_count":0,"max_players":24,"Bots":0,"server_type":"Dedicated","server_os":"Linux","password":true,"vac":true,"version":"7961495","steam_id":85568392925194467,"keywords":["cp","nocrits","nodmgspread","uncletopia"],"game_id":440,"stv_port":27036,"stv_name":"Uncletopia | Sydney | 3 | All Maps | STV","players":null},{"server_id":396,"name":"Uncletopia | Sydney | 4 | All Maps","name_short":"syd-4","host":"syd-1.au.uncletopia.com","port":27045,"enabled":true,"region":"au","cc":"au","latitude":-33.865143,"longitude":151.2099,"reserved":0,"last_update":"0001-01-01T00:00:00Z","name_a2s":"Uncletopia | Sydney | 4 | All Maps","protocol":17,"map":"cp_sunshine","folder":"tf","game":"Team Fortress","app_id":440,"player_count":0,"max_players":24,"Bots":0,"server_type":"Dedicated","server_os":"Linux","password":true,"vac":true,"version":"7961495","steam_id":85568392925397958,"keywords":["cp","nocrits","nodmgspread","uncletopia"],"game_id":440,"stv_port":27046,"stv_name":"Uncletopia | Sydney | 4 | All Maps | STV","players":null},{"server_id":58,"name":"Uncletopia | Sydney | 5 | Stopwatch Beta","name_short":"syd-5","host":"syd-1.au.uncletopia.com","port":27055,"enabled":true,"region":"au","cc":"au","latitude":-33.865143,"longitude":151.2099,"reserved":0,"last_update":"0001-01-01T00:00:00Z","name_a2s":"Uncletopia | Sydney | 5 | Stopwatch Beta","protocol":17,"map":"koth_viaduct","folder":"tf","game":"Team Fortress","app_id":440,"player_count":0,"max_players":24,"Bots":0,"server_type":"Dedicated","server_os":"Linux","password":true,"vac":true,"version":"7961495","steam_id":85568392925397959,"keywords":["cp","nocrits","nodmgspread","uncletopia"],"game_id":440,"stv_port":27056,"stv_name":"Uncletopia | Sydney | 5 | Stopwatch Beta | STV","players":null},{"server_id":59,"name":"Uncletopia | Sydney | 6 | Community","name_short":"syd-6","host":"syd-1.au.uncletopia.com","port":27065,"enabled":true,"region":"au","cc":"au","latitude":-33.865143,"longitude":151.2099,"reserved":0,"last_update":"0001-01-01T00:00:00Z","name_a2s":"Uncletopia | Sydney | 6 | Community","protocol":17,"map":"koth_cascade","folder":"tf","game":"Team Fortress","app_id":440,"player_count":0,"max_players":24,"Bots":0,"server_type":"Dedicated","server_os":"Linux","password":true,"vac":true,"version":"7961495","steam_id":85568392925397960,"keywords":["cp","nocrits","nodmgspread","uncletopia"],"game_id":440,"stv_port":27066,"stv_name":"Uncletopia | Sydney | 6 | Community | STV","players":null},{"server_id":49,"name":"Uncletopia | Warsaw | 1 | All Maps","name_short":"waw-1","host":"waw-1.pl.uncletopia.com","port":27015,"enabled":true,"region":"eu","cc":"pl","latitude":52.2297,"longitude":21.017532,"reserved":0,"last_update":"0001-01-01T00:00:00Z","name_a2s":"","protocol":0,"map":"","folder":"","game":"","app_id":0,"player_count":0,"max_players":0,"Bots":0,"server_type":"","server_os":"","password":false,"vac":false,"version":"","steam_id":0,"keywords":null,"game_id":0,"stv_port":0,"stv_name":"","players":null},{"server_id":50,"name":"Uncletopia | Warsaw | 2 | All Maps","name_short":"waw-2","host":"waw-1.pl.uncletopia.com","port":27025,"enabled":true,"region":"eu","cc":"pl","latitude":52.2297,"longitude":21.017532,"reserved":0,"last_update":"0001-01-01T00:00:00Z","name_a2s":"","protocol":0,"map":"","folder":"","game":"","app_id":0,"player_count":0,"max_players":0,"Bots":0,"server_type":"","server_os":"","password":false,"vac":false,"version":"","steam_id":0,"keywords":null,"game_id":0,"stv_port":0,"stv_name":"","players":null},{"server_id":51,"name":"Uncletopia | Warsaw | 3 | All Maps","name_short":"waw-3","host":"waw-1.pl.uncletopia.com","port":27035,"enabled":true,"region":"eu","cc":"pl","latitude":52.2297,"longitude":21.017532,"reserved":0,"last_update":"0001-01-01T00:00:00Z","name_a2s":"","protocol":0,"map":"","folder":"","game":"","app_id":0,"player_count":0,"max_players":0,"Bots":0,"server_type":"","server_os":"","password":false,"vac":false,"version":"","steam_id":0,"keywords":null,"game_id":0,"stv_port":0,"stv_name":"","players":null},{"server_id":52,"name":"Uncletopia | Warsaw | 4 | All Maps","name_short":"waw-4","host":"waw-1.pl.uncletopia.com","port":27045,"enabled":true,"region":"eu","cc":"pl","latitude":52.2297,"longitude":21.017532,"reserved":0,"last_update":"0001-01-01T00:00:00Z","name_a2s":"","protocol":0,"map":"","folder":"","game":"","app_id":0,"player_count":0,"max_players":0,"Bots":0,"server_type":"","server_os":"","password":false,"vac":false,"version":"","steam_id":0,"keywords":null,"game_id":0,"stv_port":0,"stv_name":"","players":null},{"server_id":53,"name":"Uncletopia | Warsaw | 5 | No Payload","name_short":"waw-5","host":"waw-1.pl.uncletopia.com","port":27055,"enabled":true,"region":"eu","cc":"pl","latitude":52.2297,"longitude":21.017532,"reserved":0,"last_update":"0001-01-01T00:00:00Z","name_a2s":"","protocol":0,"map":"","folder":"","game":"","app_id":0,"player_count":0,"max_players":0,"Bots":0,"server_type":"","server_os":"","password":false,"vac":false,"version":"","steam_id":0,"keywords":null,"game_id":0,"stv_port":0,"stv_name":"","players":null},{"server_id":54,"name":"Uncletopia | Warsaw | 6 | Community","name_short":"waw-6","host":"waw-1.pl.uncletopia.com","port":27065,"enabled":true,"region":"eu","cc":"pl","latitude":52.2297,"longitude":21.017532,"reserved":0,"last_update":"0001-01-01T00:00:00Z","name_a2s":"","protocol":0,"map":"","folder":"","game":"","app_id":0,"player_count":0,"max_players":0,"Bots":0,"server_type":"","server_os":"","password":false,"vac":false,"version":"","steam_id":0,"keywords":null,"game_id":0,"stv_port":0,"stv_name":"","players":null}]}