{"status":true,"message":"","result":[{"server_id":9,"name":"Uncletopia | Atlanta | 1 | All Maps","name_short":"atl-1","host":"atl-1.us.uncletopia.com","port":27015,"enabled":true,"region":"us-east","cc":"us","latitude":33.753746,"longitude":-84.38633,"reserved":0,"last_update":"0001-01-01T00:00:00Z","name_a2s":"Uncletopia | Atlanta | 1 | All Maps","protocol":17,"map":"pl_frontier_final","folder":"tf","game":"Team Fortress","app_id":440,"player_count":24,"max_players":24,"Bots":0,"server_type":"Dedicated","server_os":"Linux","password":true,"vac":true,"version":"7757534","steam_id":85568392924469982,"keywords":["nocrits","nodmgspread","payload","uncletopia"],"game_id":440,"stv_port":27016,"stv_name":"Uncletopia | Atlanta | 1 | All Maps | STV","players":[{"user_id":400,"name":"Pie‚Ñ¢","steam_id":76561198158312625,"connected_time":699000000000,"state":"active","ping":109},{"user_id":286,"name":"ATL1 | on my hunting trip","steam_id":76561198315341646,"connected_time":8146000000000,"state":"active","ping":74},{"user_id":392,"name":"an inebriated newt fancier","steam_id":76561197985428155,"connected_time":1305000000000,"state":"active","ping":72},{"user_id":360,"name":"ATL1 | Vee (very cool)","steam_id":76561198330432889,"connected_time":3191000000000,"state":"active","ping":62},{"user_id":395,"name":"ATL1 | Lancer Fan Club","steam_id":76561198355495948,"connected_time":923000000000,"state":"active","ping":63},{"user_id":335,"name":"Intro Bonito","steam_id":76561198119478838,"connected_time":5092000000000,"state":"active","ping":45},{"user_id":341,"name":"PunchTrees 7","steam_id":76561198054328901,"connected_time":4593000000000,"state":"active","ping":61},{"user_id":357,"name":"Bali","steam_id":76561198038693845,"connected_time":3287000000000,"state":"active","ping":71},{"user_id":397,"name":"Honeybunch","steam_id":76561198014850580,"connected_time":893000000000,"state":"active","ping":104},{"user_id":396,"name":"Mr. Soupman","steam_id":76561198021649598,"connected_time":919000000000,"state":"active","ping":62},{"user_id":401,"name":"Boop","steam_id":76561198376703875,"connected_time":519000000000,"state":"active","ping":71},{"user_id":394,"name":"Onyx","steam_id":76561198275349640,"connected_time":1006000000000,"state":"active","ping":74},{"user_id":388,"name":"eish","steam_id":76561198089463603,"connected_time":1534000000000,"state":"active","ping":109},{"user_id":375,"name":"ATL1 | Pango","steam_id":76561198069811545,"connected_time":2596000000000,"state":"active","ping":47},{"user_id":370,"name":"shaderoses","steam_id":76561198070800500,"connected_time":2695000000000,"state":"active","ping":77},{"user_id":406,"name":"lil hog","steam_id":76561199230929836,"connected_time":385000000000,"state":"active","ping":78},{"user_id":362,"name":"Mage","steam_id":76561198285026879,"connected_time":2954000000000,"state":"active","ping":82},{"user_id":326,"name":"Dr.Zarann","steam_id":76561198163952958,"connected_time":5520000000000,"state":"active","ping":61},{"user_id":398,"name":"mousejumper","steam_id":76561198220181353,"connected_time":871000000000,"state":"active","ping":73},{"user_id":405,"name":"Tugs","steam_id":76561198123426505,"connected_time":395000000000,"state":"active","ping":89},{"user_id":376,"name":"Big Man","steam_id":76561198353366625,"connected_time":2452000000000,"state":"active","ping":74},{"user_id":349,"name":"Darkdrake","steam_id":76561198107200600,"connected_time":4329000000000,"state":"active","ping":64},{"user_id":399,"name":"floofy","steam_id":76561198389769098,"connected_time":861000000000,"state":"active","ping":88},{"user_id":377,"name":"ATL1 | Crystron","steam_id":76561198880437428,"connected_time":2380000000000,"state":"active","ping":86}]},{"server_id":104,"name":"Uncletopia | Atlanta | 2 | All Maps","name_short":"atl-2","host":"atl-1.us.uncletopia.com","port":27025,"enabled":true,"region":"us-east","cc":"us","latitude":33.753746,"longitude":-84.38633,"reserved":0,"last_update":"0001-01-01T00:00:00Z","name_a2s":"Uncletopia | Atlanta | 2 | All Maps","protocol":17,"map":"pl_pier","folder":"tf","game":"Team Fortress","app_id":440,"player_count":24,"max_players":24,"Bots":0,"server_type":"Dedicated","server_os":"Linux","password":true,"vac":true,"version":"7757534","steam_id":85568392924469983,"keywords":["nocrits","nodmgspread","payload","uncletopia"],"game_id":440,"stv_port":27026,"stv_name":"Uncletopia | Atlanta | 2 | All Maps | STV","players":[{"user_id":240,"name":"Lovedaddy","steam_id":76561198006569710,"connected_time":1399000000000,"state":"active","ping":85},{"user_id":253,"name":"tesagi","steam_id":76561198026664629,"connected_time":709000000000,"state":"active","ping":59},{"user_id":249,"name":"Elpipiribao","steam_id":76561198825371499,"connected_time":855000000000,"state":"active","ping":116},{"user_id":192,"name":"B)","steam_id":76561198093921290,"connected_time":4614000000000,"state":"active","ping":60},{"user_id":250,"name":"High Tier Mortal","steam_id":76561198138347045,"connected_time":846000000000,"state":"active","ping":61},{"user_id":251,"name":"GaleForce","steam_id":76561198196531122,"connected_time":830000000000,"state":"active","ping":68},{"user_id":241,"name":"henryphant","steam_id":76561198035703910,"connected_time":1354000000000,"state":"active","ping":100},{"user_id":255,"name":"kametro4","steam_id":76561198835430429,"connected_time":487000000000,"state":"active","ping":103},{"user_id":223,"name":"Gustavo Fring","steam_id":76561198132807405,"connected_time":2847000000000,"state":"active","ping":92},{"user_id":248,"name":"eman","steam_id":76561198204395721,"connected_time":1025000000000,"state":"active","ping":107},{"user_id":237,"name":"–ØawrFatcat","steam_id":76561198017698926,"connected_time":1723000000000,"state":"active","ping":83},{"user_id":189,"name":"flappyflap2","steam_id":76561198285048973,"connected_time":4846000000000,"state":"active","ping":72},{"user_id":225,"name":"ly","steam_id":76561198062922146,"connected_time":2776000000000,"state":"active","ping":64},{"user_id":252,"name":"captjosh22","steam_id":76561199092650499,"connected_time":821000000000,"state":"active","ping":69},{"user_id":234,"name":"Restricted_Files","steam_id":76561199448121007,"connected_time":1772000000000,"state":"active","ping":118},{"user_id":235,"name":"\u003e\u003e=","steam_id":76561198337705174,"connected_time":1758000000000,"state":"active","ping":78},{"user_id":219,"name":"strep!","steam_id":76561199437511713,"connected_time":3334000000000,"state":"active","ping":63},{"user_id":256,"name":"Shrakn3l","steam_id":76561198131675625,"connected_time":74000000000,"state":"active","ping":85},{"user_id":238,"name":"Walter White","steam_id":76561198875469297,"connected_time":1666000000000,"state":"active","ping":93},{"user_id":243,"name":"LazyDoll","steam_id":76561198053186338,"connected_time":1308000000000,"state":"active","ping":105},{"user_id":246,"name":"Hydro","steam_id":76561199060627243,"connected_time":1198000000000,"state":"active","ping":73},{"user_id":208,"name":"10KO!","steam_id":76561199134895220,"connected_time":3819000000000,"state":"active","ping":81},{"user_id":209,"name":"Thomas Goblin-man Yorke","steam_id":76561197999658755,"connected_time":3800000000000,"state":"active","ping":70},{"user_id":210,"name":"Bern","steam_id":76561198294032289,"connected_time":3798000000000,"state":"active","ping":61}]},{"server_id":400,"name":"Uncletopia | Atlanta | 3 | Community","name_short":"atl-3","host":"atl-1.us.uncletopia.com","port":27035,"enabled":true,"region":"us-east","cc":"us","latitude":33.753746,"longitude":-84.38633,"reserved":0,"last_update":"0001-01-01T00:00:00Z","name_a2s":"Uncletopia | Atlanta | 3 | Community","protocol":17,"map":"workshop/koth_kemptown_rc1.ugc767410655","folder":"tf","game":"Team Fortress","app_id":440,"player_count":0,"max_players":24,"Bots":0,"server_type":"Dedicated","server_os":"Linux","password":true,"vac":true,"version":"7757534","steam_id":85568392924515187,"keywords":["cp","nocrits","nodmgspread","uncletopia"],"game_id":440,"stv_port":27036,"stv_name":"Uncletopia | Atlanta | 3 | Community | STV","players":null},{"server_id":401,"name":"Uncletopia | Atlanta | 4 | No Payload","name_short":"atl-4","host":"atl-1.us.uncletopia.com","port":27045,"enabled":true,"region":"us-east","cc":"us","latitude":33.753746,"longitude":-84.38633,"reserved":0,"last_update":"0001-01-01T00:00:00Z","name_a2s":"","protocol":0,"map":"","folder":"","game":"","app_id":0,"player_count":0,"max_players":0,"Bots":0,"server_type":"","server_os":"","password":false,"vac":false,"version":"","steam_id":0,"keywords":null,"game_id":0,"stv_port":0,"stv_name":"","players":null},{"server_id":2,"name":"Uncletopia | Chicago | 1 | All Maps","name_short":"chi-1","host":"chi-1.us.uncletopia.com","port":27015,"enabled":true,"region":"us-central","cc":"us","latitude":41.881832,"longitude":-87.62318,"reserved":0,"last_update":"0001-01-01T00:00:00Z","name_a2s":"Uncletopia | Chicago | 1 | All Maps","protocol":17,"map":"koth_harvest_final","folder":"tf","game":"Team Fortress","app_id":440,"player_count":24,"max_players":24,"Bots":0,"server_type":"Dedicated","server_os":"Linux","password":true,"vac":true,"version":"7757534","steam_id":85568392924469984,"keywords":["cp","nocrits","nodmgspread","uncletopia"],"game_id":440,"stv_port":27016,"stv_name":"Uncletopia | Chicago | 1 | All Maps | STV","players":[{"user_id":378,"name":"BusterScruggs","steam_id":76561198891626233,"connected_time":1175000000000,"state":"active","ping":60},{"user_id":379,"name":"bachphong760","steam_id":76561199433780443,"connected_time":1123000000000,"state":"active","ping":83},{"user_id":408,"name":"dmlookinviolent","steam_id":76561198125863174,"connected_time":463000000000,"state":"active","ping":81},{"user_id":381,"name":"Drewey","steam_id":76561199258609863,"connected_time":924000000000,"state":"active","ping":50},{"user_id":382,"name":"Joshua31704","steam_id":76561198125898714,"connected_time":907000000000,"state":"active","ping":76},{"user_id":388,"name":"Tri-Dot","steam_id":76561199075186597,"connected_time":762000000000,"state":"active","ping":61},{"user_id":397,"name":"cactus eater","steam_id":76561199107499844,"connected_time":636000000000,"state":"active","ping":117},{"user_id":409,"name":"TI-83 Plus","steam_id":76561198316134443,"connected_time":428000000000,"state":"active","ping":81},{"user_id":386,"name":"coolguy","steam_id":76561199079292596,"connected_time":813000000000,"state":"active","ping":82},{"user_id":389,"name":"Lucille_Bluth","steam_id":76561198206133916,"connected_time":731000000000,"state":"active","ping":76},{"user_id":402,"name":"Mr.E","steam_id":76561198018670251,"connected_time":596000000000,"state":"active","ping":87},{"user_id":392,"name":"Delightful MadCat","steam_id":76561198086178426,"connected_time":690000000000,"state":"active","ping":74},{"user_id":410,"name":"Bluedot","steam_id":76561198019909639,"connected_time":172000000000,"state":"active","ping":63},{"user_id":394,"name":"Scoron","steam_id":76561198062099305,"connected_time":672000000000,"state":"active","ping":108},{"user_id":395,"name":"MRVN","steam_id":76561199103120314,"connected_time":666000000000,"state":"active","ping":112},{"user_id":396,"name":"Weakest Dwarf Enjoyer","steam_id":76561197993227472,"connected_time":663000000000,"state":"active","ping":94},{"user_id":398,"name":"MEDIC!","steam_id":76561199111430580,"connected_time":620000000000,"state":"active","ping":71},{"user_id":399,"name":"Nespreco","steam_id":76561198252035336,"connected_time":611000000000,"state":"active","ping":64},{"user_id":400,"name":"Unwavering Flavor","steam_id":76561198053306065,"connected_time":609000000000,"state":"active","ping":84},{"user_id":403,"name":"Ehttri","steam_id":76561198170138667,"connected_time":587000000000,"state":"active","ping":92},{"user_id":404,"name":"Dongus","steam_id":76561197979056451,"connected_time":587000000000,"state":"active","ping":91},{"user_id":405,"name":"[El Fail] MR.BadassMCLee","steam_id":76561198043787818,"connected_time":561000000000,"state":"active","ping":108},{"user_id":406,"name":"Katy | Synr.gg","steam_id":76561198079395814,"connected_time":550000000000,"state":"active","ping":65},{"user_id":407,"name":"CrazyShawnsPvz","steam_id":76561198350691501,"connected_time":538000000000,"state":"active","ping":114}]},{"server_id":106,"name":"Uncletopia | Chicago | 2 | All Maps","name_short":"chi-2","host":"chi-1.us.uncletopia.com","port":27025,"enabled":true,"region":"us-central","cc":"us","latitude":41.881832,"longitude":-87.62318,"reserved":0,"last_update":"0001-01-01T00:00:00Z","name_a2s":"Uncletopia | Chicago | 2 | All Maps","protocol":17,"map":"pl_borneo","folder":"tf","game":"Team Fortress","app_id":440,"player_count":24,"max_players":24,"Bots":0,"server_type":"Dedicated","server_os":"Linux","password":true,"vac":true,"version":"7757534","steam_id":85568392924469985,"keywords":["nocrits","nodmgspread","payload","uncletopia"],"game_id":440,"stv_port":27026,"stv_name":"Uncletopia | Chicago | 2 | All Maps | STV","players":[{"user_id":28,"name":"Gummie","steam_id":76561198807069433,"connected_time":5202000000000,"state":"active","ping":90},{"user_id":30,"name":"Transfem Furry \u003c3","steam_id":76561198288036403,"connected_time":4879000000000,"state":"active","ping":120},{"user_id":32,"name":"I need COCK medic","steam_id":76561198451638173,"connected_time":4517000000000,"state":"active","ping":145},{"user_id":105,"name":"Banks","steam_id":76561198276505537,"connected_time":135000000000,"state":"active","ping":71},{"user_id":85,"name":"Ojen","steam_id":76561197998414482,"connected_time":2352000000000,"state":"active","ping":71},{"user_id":104,"name":"Propaniac Gaming ‚òë","steam_id":76561198133963270,"connected_time":505000000000,"state":"active","ping":60},{"user_id":83,"name":"b√ºddeh","steam_id":76561198070735936,"connected_time":2374000000000,"state":"active","ping":58},{"user_id":80,"name":"Basilowu","steam_id":76561199169785337,"connected_time":2632000000000,"state":"active","ping":112},{"user_id":103,"name":"BOTBOT","steam_id":76561198271928618,"connected_time":603000000000,"state":"active","ping":98},{"user_id":42,"name":"I Am Alpharius","steam_id":76561198799197135,"connected_time":4022000000000,"state":"active","ping":57},{"user_id":94,"name":"jubb","steam_id":76561198186865526,"connected_time":1273000000000,"state":"active","ping":117},{"user_id":44,"name":"Coolpotato9","steam_id":76561199047814020,"connected_time":3931000000000,"state":"active","ping":74},{"user_id":45,"name":"NickoliDiffy","steam_id":76561198375769352,"connected_time":3921000000000,"state":"active","ping":80},{"user_id":76,"name":"Eve","steam_id":76561198206690007,"connected_time":2874000000000,"state":"active","ping":87},{"user_id":95,"name":"IamTHEpyroniac","steam_id":76561199006347033,"connected_time":1268000000000,"state":"active","ping":116},{"user_id":81,"name":"Snorty","steam_id":76561198114304454,"connected_time":2526000000000,"state":"active","ping":83},{"user_id":102,"name":"Yonker","steam_id":76561198079473397,"connected_time":662000000000,"state":"active","ping":61},{"user_id":78,"name":"Drizzle","steam_id":76561198152143806,"connected_time":2792000000000,"state":"active","ping":49},{"user_id":90,"name":"KSupes","steam_id":76561199131995067,"connected_time":1888000000000,"state":"active","ping":45},{"user_id":99,"name":"Ash40000","steam_id":76561198092841526,"connected_time":995000000000,"state":"active","ping":71},{"user_id":79,"name":"Tweedlefame","steam_id":76561198066867150,"connected_time":2688000000000,"state":"active","ping":72},{"user_id":100,"name":"Formic","steam_id":76561198019636346,"connected_time":994000000000,"state":"active","ping":58},{"user_id":62,"name":"Jak(i)","steam_id":76561198076823144,"connected_time":3398000000000,"state":"active","ping":63},{"user_id":106,"name":"Takumi Fujiwara","steam_id":76561198146281101,"connected_time":115000000000,"state":"active","ping":73}]},{"server_id":402,"name":"Uncletopia | Chicago | 3 | All Maps","name_short":"chi-3","host":"chi-1.us.uncletopia.com","port":27035,"enabled":true,"region":"us-central","cc":"us","latitude":41.881832,"longitude":-87.62318,"reserved":0,"last_update":"0001-01-01T00:00:00Z","name_a2s":"Uncletopia | Chicago | 3 | All Maps","protocol":17,"map":"pl_snowycoast","folder":"tf","game":"Team Fortress","app_id":440,"player_count":0,"max_players":24,"Bots":0,"server_type":"Dedicated","server_os":"Linux","password":true,"vac":true,"version":"7757534","steam_id":85568392924515191,"keywords":["nocrits","nodmgspread","payload","uncletopia"],"game_id":440,"stv_port":27036,"stv_name":"Uncletopia | Chicago | 3 | All Maps | STV","players":null},{"server_id":403,"name":"Uncletopia | Chicago | 4 | All Maps","name_short":"chi-4","host":"chi-1.us.uncletopia.com","port":27045,"enabled":true,"region":"us-central","cc":"us","latitude":41.881832,"longitude":-87.62318,"reserved":0,"last_update":"0001-01-01T00:00:00Z","name_a2s":"Uncletopia | Chicago | 4 | All Maps","protocol":17,"map":"pl_barnblitz","folder":"tf","game":"Team Fortress","app_id":440,"player_count":24,"max_players":24,"Bots":0,"server_type":"Dedicated","server_os":"Linux","password":true,"vac":true,"version":"7757534","steam_id":85568392924515193,"keywords":["nocrits","nodmgspread","payload","uncletopia"],"game_id":440,"stv_port":27046,"stv_name":"Uncletopia | Chicago | 4 | All Maps | STV","players":[{"user_id":49,"name":"Kerpal45","steam_id":76561198153340350,"connected_time":159000000000,"state":"active","ping":85},{"user_id":50,"name":"Wool","steam_id":76561198332704108,"connected_time":145000000000,"state":"active","ping":55},{"user_id":44,"name":"magickxanadu","steam_id":76561199117360103,"connected_time":765000000000,"state":"active","ping":84},{"user_id":28,"name":"wùëíùëívil","steam_id":76561198081260791,"connected_time":1328000000000,"state":"active","ping":128},{"user_id":12,"name":"Doggo","steam_id":76561198313355373,"connected_time":2013000000000,"state":"active","ping":108},{"user_id":17,"name":"Snap","steam_id":76561199188504569,"connected_time":1812000000000,"state":"active","ping":87},{"user_id":45,"name":"emctwo","steam_id":76561198095082517,"connected_time":758000000000,"state":"active","ping":61},{"user_id":46,"name":"Lipo","steam_id":76561198295702119,"connected_time":663000000000,"state":"active","ping":42},{"user_id":24,"name":"sharia compliant gamer","steam_id":76561198005884261,"connected_time":1477000000000,"state":"active","ping":58},{"user_id":40,"name":"THE UNDERTAKER","steam_id":76561198089852954,"connected_time":1057000000000,"state":"active","ping":82},{"user_id":48,"name":"the_rustydoornob","steam_id":76561198371655306,"connected_time":172000000000,"state":"active","ping":121},{"user_id":25,"name":"Achy_Blitz","steam_id":76561198090433209,"connected_time":1427000000000,"state":"active","ping":88},{"user_id":26,"name":"Goofy Goober","steam_id":76561198065361279,"connected_time":1360000000000,"state":"active","ping":91},{"user_id":27,"name":"fumblom","steam_id":76561199389283507,"connected_time":1340000000000,"state":"active","ping":66},{"user_id":29,"name":"Natsuki the Scunt","steam_id":76561199175922684,"connected_time":1317000000000,"state":"active","ping":105},{"user_id":30,"name":"merge without looking","steam_id":76561198056702628,"connected_time":1299000000000,"state":"active","ping":60},{"user_id":32,"name":"Jill the Owl","steam_id":76561197999210583,"connected_time":1201000000000,"state":"active","ping":74},{"user_id":33,"name":"Gaming Gaming","steam_id":76561198989717627,"connected_time":1194000000000,"state":"active","ping":59},{"user_id":34,"name":"VioletInferno","steam_id":76561199096964288,"connected_time":1191000000000,"state":"active","ping":39},{"user_id":35,"name":"Bad Rollout","steam_id":76561197971948876,"connected_time":1187000000000,"state":"active","ping":74},{"user_id":42,"name":"Vacc Onetrick","steam_id":76561198207987376,"connected_time":792000000000,"state":"active","ping":83},{"user_id":37,"name":"You Know What You Did","steam_id":76561198218558897,"connected_time":1179000000000,"state":"active","ping":114},{"user_id":38,"name":"Raltor","steam_id":76561198050754735,"connected_time":1175000000000,"state":"active","ping":83},{"user_id":39,"name":"habib_g6ix_God","steam_id":76561198053621664,"connected_time":1087000000000,"state":"active","ping":49}]},{"server_id":36,"name":"Uncletopia | Chicago | 5 | All Maps","name_short":"chi-5","host":"chi-2.us.uncletopia.com","port":27015,"enabled":true,"region":"us-central","cc":"us","latitude":41.881832,"longitude":-87.62318,"reserved":0,"last_update":"0001-01-01T00:00:00Z","name_a2s":"Uncletopia | Chicago | 5 | All Maps","protocol":17,"map":"pl_pier","folder":"tf","game":"Team Fortress","app_id":440,"player_count":25,"max_players":24,"Bots":0,"server_type":"Dedicated","server_os":"Linux","password":true,"vac":true,"version":"7757534","steam_id":85568392924866362,"keywords":["nocrits","nodmgspread","payload","uncletopia"],"game_id":440,"stv_port":27016,"stv_name":"Uncletopia | Chicago | 5 | All Maps | STV","players":[{"user_id":682,"name":"hoboways","steam_id":76561198168035195,"connected_time":447000000000,"state":"active","ping":77},{"user_id":652,"name":"O.o","steam_id":76561198056871257,"connected_time":2320000000000,"state":"active","ping":61},{"user_id":605,"name":"Fudgely","steam_id":76561198039425862,"connected_time":5642000000000,"state":"active","ping":68},{"user_id":653,"name":"phone","steam_id":76561198029268743,"connected_time":2302000000000,"state":"active","ping":60},{"user_id":636,"name":"omyy","steam_id":76561198334751997,"connected_time":3183000000000,"state":"active","ping":78},{"user_id":681,"name":"SirJellyRolls","steam_id":76561198119277244,"connected_time":463000000000,"state":"active","ping":79},{"user_id":683,"name":"haadis55555","steam_id":76561199117504724,"connected_time":444000000000,"state":"active","ping":85},{"user_id":654,"name":"big fish","steam_id":76561198186479818,"connected_time":2254000000000,"state":"active","ping":114},{"user_id":671,"name":"Sqackles","steam_id":76561198062885446,"connected_time":957000000000,"state":"active","ping":69},{"user_id":672,"name":"pinkissocool {f2p}","steam_id":76561198989599828,"connected_time":955000000000,"state":"active","ping":62},{"user_id":399,"name":"uhooter","steam_id":76561198007829078,"connected_time":16975000000000,"state":"active","ping":47},{"user_id":685,"name":"GRONT","steam_id":76561198040464533,"connected_time":184000000000,"state":"active","ping":70},{"user_id":673,"name":"footoftheday","steam_id":76561198052712449,"connected_time":944000000000,"state":"active","ping":69},{"user_id":656,"name":"Awenova","steam_id":76561198322928940,"connected_time":2205000000000,"state":"active","ping":70},{"user_id":665,"name":"Chunkle_Norris","steam_id":76561199454818993,"connected_time":1767000000000,"state":"active","ping":111},{"user_id":669,"name":"Shylo","steam_id":76561199276858045,"connected_time":1329000000000,"state":"active","ping":85},{"user_id":633,"name":"Nyx-Nul","steam_id":76561198026943694,"connected_time":3516000000000,"state":"active","ping":60},{"user_id":666,"name":"Henry Ota-Clay","steam_id":76561198053232470,"connected_time":1766000000000,"state":"active","ping":57},{"user_id":674,"name":"the","steam_id":76561199209073877,"connected_time":937000000000,"state":"active","ping":78},{"user_id":650,"name":"StormForce","steam_id":76561198343451685,"connected_time":2528000000000,"state":"active","ping":81},{"user_id":659,"name":"MEATBALL","steam_id":76561198028499312,"connected_time":2123000000000,"state":"active","ping":65},{"user_id":676,"name":"juhg, koop","steam_id":76561198388955908,"connected_time":773000000000,"state":"active","ping":65},{"user_id":684,"name":"test","steam_id":76561198197388678,"connected_time":399000000000,"state":"active","ping":92},{"user_id":686,"name":"Stormz64","steam_id":76561198239036482,"connected_time":49000000000,"state":"active","ping":52},{"user_id":687,"name":"MAXIMUM OVERDRIVE","steam_id":76561198113992547,"connected_time":5000000000,"state":"spawning","ping":60}]},{"server_id":37,"name":"Uncletopia | Chicago | 6 | All Maps","name_short":"chi-6","host":"chi-2.us.uncletopia.com","port":27025,"enabled":true,"region":"us-central","cc":"us","latitude":41.881832,"longitude":-87.62318,"reserved":0,"last_update":"0001-01-01T00:00:00Z","name_a2s":"Uncletopia | Chicago | 6 | All Maps","protocol":17,"map":"pl_pier","folder":"tf","game":"Team Fortress","app_id":440,"player_count":24,"max_players":24,"Bots":0,"server_type":"Dedicated","server_os":"Linux","password":true,"vac":true,"version":"7757534","steam_id":85568392924866363,"keywords":["nocrits","nodmgspread","payload","uncletopia"],"game_id":440,"stv_port":27026,"stv_name":"Uncletopia | Chicago | 6 | All Maps | STV","players":[{"user_id":142,"name":"rhsiegetank","steam_id":76561198359829118,"connected_time":2273000000000,"state":"active","ping":99},{"user_id":156,"name":"Stars And Stripes","steam_id":76561199052057754,"connected_time":1174000000000,"state":"active","ping":188},{"user_id":155,"name":"Raine","steam_id":76561198098860903,"connected_time":1230000000000,"state":"active","ping":162},{"user_id":151,"name":"volta","steam_id":76561199214283884,"connected_time":1677000000000,"state":"active","ping":106},{"user_id":121,"name":"washy","steam_id":76561198046622670,"connected_time":3274000000000,"state":"active","ping":68},{"user_id":170,"name":"Big Jon","steam_id":76561198402285099,"connected_time":205000000000,"state":"active","ping":106},{"user_id":161,"name":"GoldtoothFour","steam_id":76561198055529332,"connected_time":1039000000000,"state":"active","ping":53},{"user_id":143,"name":"a crystal lizard","steam_id":76561197997661928,"connected_time":2254000000000,"state":"active","ping":68},{"user_id":115,"name":"Chief Diggery K.","steam_id":76561198066629137,"connected_time":3433000000000,"state":"active","ping":90},{"user_id":158,"name":"Yimberly","steam_id":76561199206923109,"connected_time":1138000000000,"state":"active","ping":77},{"user_id":159,"name":"comfy and cozy","steam_id":76561198860068961,"connected_time":1134000000000,"state":"active","ping":83},{"user_id":137,"name":"BatBoyBruce","steam_id":76561198070760110,"connected_time":2736000000000,"state":"active","ping":126},{"user_id":131,"name":"-‚Åß‚Åß Rin „É™„É≥","steam_id":76561198155841915,"connected_time":2878000000000,"state":"active","ping":71},{"user_id":168,"name":"pp","steam_id":76561198030291655,"connected_time":468000000000,"state":"active","ping":45},{"user_id":146,"name":"LerN","steam_id":76561198083463877,"connected_time":2112000000000,"state":"active","ping":57},{"user_id":108,"name":"chipperguy","steam_id":76561199060302023,"connected_time":3642000000000,"state":"active","ping":95},{"user_id":114,"name":"Rodentmancer","steam_id":76561198011675372,"connected_time":3510000000000,"state":"active","ping":107},{"user_id":172,"name":"CaptainK","steam_id":76561198018979695,"connected_time":125000000000,"state":"active","ping":85},{"user_id":171,"name":"caberknight tf2","steam_id":76561199273882768,"connected_time":201000000000,"state":"active","ping":70},{"user_id":169,"name":"Blue-Lobster-Gaming","steam_id":76561199220578772,"connected_time":464000000000,"state":"active","ping":77},{"user_id":160,"name":"TREE | ToeHairHater97","steam_id":76561198083926038,"connected_time":1103000000000,"state":"active","ping":77},{"user_id":166,"name":"discord kitten","steam_id":76561197997961542,"connected_time":661000000000,"state":"active","ping":62},{"user_id":163,"name":"Donut1007rol (master of sex)","steam_id":76561198840560174,"connected_time":1022000000000,"state":"active","ping":64},{"user_id":165,"name":"dave strider","steam_id":76561198065112186,"connected_time":832000000000,"state":"active","ping":87}]},{"server_id":38,"name":"Uncletopia | Chicago | 7 | Stopwatch Beta","name_short":"chi-7","host":"chi-2.us.uncletopia.com","port":27035,"enabled":true,"region":"us-central","cc":"us","latitude":41.881832,"longitude":-87.62318,"reserved":0,"last_update":"0001-01-01T00:00:00Z","name_a2s":"Uncletopia | Chicago | 7 | Stopwatch Beta","protocol":17,"map":"pl_barnblitz","folder":"tf","game":"Team Fortress","app_id":440,"player_count":0,"max_players":24,"Bots":0,"server_type":"Dedicated","server_os":"Linux","password":true,"vac":true,"version":"7757534","steam_id":85568392924866364,"keywords":["nocrits","nodmgspread","payload","uncletopia"],"game_id":440,"stv_port":27036,"stv_name":"Uncletopia | Chicago | 7 | Stopwatch Beta | STV","players":null},{"server_id":39,"name":"Uncletopia | Chicago | 8 | Community","name_short":"chi-8","host":"chi-2.us.uncletopia.com","port":27045,"enabled":true,"region":"us-central","cc":"us","latitude":41.881832,"longitude":-87.62318,"reserved":0,"last_update":"0001-01-01T00:00:00Z","name_a2s":"Uncletopia | Chicago | 8 | Community","protocol":17,"map":"koth_cascade","folder":"tf","game":"Team Fortress","app_id":440,"player_count":0,"max_players":24,"Bots":0,"server_type":"Dedicated","server_os":"Linux","password":true,"vac":true,"version":"7757534","steam_id":85568392924866365,"keywords":["cp","nocrits","nodmgspread","uncletopia"],"game_id":440,"stv_port":27046,"stv_name":"Uncletopia | Chicago | 8 | Community | STV","players":null},{"server_id":8,"name":"Uncletopia | Dallas | 1 | All Maps","name_short":"dal-1","host":"dal-1.us.uncletopia.com","port":27015,"enabled":true,"region":"us-central","cc":"us","latitude":32.779167,"longitude":-96.80889,"reserved":0,"last_update":"0001-01-01T00:00:00Z","name_a2s":"Uncletopia | Dallas | 1 | All Maps","protocol":17,"map":"pl_borneo","folder":"tf","game":"Team Fortress","app_id":440,"player_count":24,"max_players":24,"Bots":0,"server_type":"Dedicated","server_os":"Linux","password":true,"vac":true,"version":"7757534","steam_id":85568392924469986,"keywords":["nocrits","nodmgspread","payload","uncletopia"],"game_id":440,"stv_port":27016,"stv_name":"Uncletopia | Dallas | 1 | All Maps | STV","players":[{"user_id":187,"name":"Slingwolf","steam_id":76561198132720460,"connected_time":2391000000000,"state":"active","ping":99},{"user_id":217,"name":"gentuu","steam_id":76561199063550279,"connected_time":64000000000,"state":"active","ping":76},{"user_id":206,"name":"Joe Swanson","steam_id":76561199089907740,"connected_time":863000000000,"state":"active","ping":60},{"user_id":214,"name":"Sup m8","steam_id":76561198081659121,"connected_time":82000000000,"state":"active","ping":35},{"user_id":219,"name":"Dark Lord","steam_id":76561198044199150,"connected_time":28000000000,"state":"active","ping":122},{"user_id":161,"name":"pastas","steam_id":76561198154774351,"connected_time":4569000000000,"state":"active","ping":88},{"user_id":181,"name":"MintyPawz","steam_id":76561198111430103,"connected_time":3035000000000,"state":"active","ping":86},{"user_id":212,"name":"izzydex","steam_id":76561199101531034,"connected_time":628000000000,"state":"active","ping":82},{"user_id":188,"name":"Goblin Merchant (50 OFF)","steam_id":76561199323707429,"connected_time":2348000000000,"state":"active","ping":65},{"user_id":213,"name":"Flooph_","steam_id":76561199213806498,"connected_time":508000000000,"state":"active","ping":85},{"user_id":200,"name":"Ros","steam_id":76561199055963822,"connected_time":1904000000000,"state":"active","ping":60},{"user_id":204,"name":"armpit fetishist","steam_id":76561199008452637,"connected_time":1022000000000,"state":"active","ping":90},{"user_id":210,"name":"‚ô• thedittoguy ‚ô•","steam_id":76561199013129784,"connected_time":713000000000,"state":"active","ping":59},{"user_id":216,"name":"Reduxxtion","steam_id":76561199029162443,"connected_time":74000000000,"state":"active","ping":75},{"user_id":218,"name":"cat","steam_id":76561198158123530,"connected_time":56000000000,"state":"active","ping":60},{"user_id":194,"name":"brothax laptop","steam_id":76561197996713526,"connected_time":2161000000000,"state":"active","ping":67},{"user_id":202,"name":"4 life","steam_id":76561198175961598,"connected_time":1048000000000,"state":"active","ping":90},{"user_id":207,"name":"Piss Champion","steam_id":76561198059362878,"connected_time":812000000000,"state":"active","ping":75},{"user_id":199,"name":"rumford sweep","steam_id":76561198991982630,"connected_time":2011000000000,"state":"active","ping":76},{"user_id":122,"name":"plink","steam_id":76561198057829889,"connected_time":7056000000000,"state":"active","ping":105},{"user_id":215,"name":"mago","steam_id":76561198880309324,"connected_time":82000000000,"state":"active","ping":75},{"user_id":203,"name":"Silvermace","steam_id":76561198090696843,"connected_time":1046000000000,"state":"active","ping":60},{"user_id":197,"name":"British Zoner","steam_id":76561198977330214,"connected_time":2104000000000,"state":"active","ping":75},{"user_id":208,"name":"Temp","steam_id":76561198166713043,"connected_time":794000000000,"state":"active","ping":112}]},{"server_id":108,"name":"Uncletopia | Dallas | 2 | All Maps","name_short":"dal-2","host":"dal-1.us.uncletopia.com","port":27025,"enabled":true,"region":"us-central","cc":"us","latitude":32.779167,"longitude":-96.80889,"reserved":0,"last_update":"0001-01-01T00:00:00Z","name_a2s":"Uncletopia | Dallas | 2 | All Maps","protocol":17,"map":"cp_dustbowl","folder":"tf","game":"Team Fortress","app_id":440,"player_count":21,"max_players":24,"Bots":0,"server_type":"Dedicated","server_os":"Linux","password":true,"vac":true,"version":"7757534","steam_id":85568392924469988,"keywords":["cp","nocrits","nodmgspread","uncletopia"],"game_id":440,"stv_port":27026,"stv_name":"Uncletopia | Dallas | 2 | All Maps | STV","players":[{"user_id":66,"name":"Glomm08","steam_id":76561199213005758,"connected_time":235000000000,"state":"active","ping":89},{"user_id":67,"name":"ham man","steam_id":76561199185880170,"connected_time":185000000000,"state":"active","ping":87},{"user_id":63,"name":"TechnoBear2099","steam_id":76561198238863596,"connected_time":852000000000,"state":"active","ping":45},{"user_id":68,"name":"[LC] Roadkill!","steam_id":76561198124511937,"connected_time":140000000000,"state":"active","ping":90},{"user_id":20,"name":"Goodboish","steam_id":76561198170403119,"connected_time":3540000000000,"state":"active","ping":90},{"user_id":70,"name":"Sea raider","steam_id":76561198123982355,"connected_time":125000000000,"state":"active","ping":89},{"user_id":22,"name":"‚ô°ùöÇùö¢ùöïùöüùöíùöä‚ô°","steam_id":76561198327386698,"connected_time":3534000000000,"state":"active","ping":95},{"user_id":58,"name":"Bludgeon","steam_id":76561198272009412,"connected_time":1202000000000,"state":"active","ping":84},{"user_id":64,"name":"Boasta' Berry","steam_id":76561198029015179,"connected_time":822000000000,"state":"active","ping":86},{"user_id":25,"name":"Karma","steam_id":76561199112057184,"connected_time":3347000000000,"state":"active","ping":60},{"user_id":72,"name":"danny d","steam_id":76561198110834357,"connected_time":36000000000,"state":"active","ping":70},{"user_id":48,"name":"Kid B8","steam_id":76561198086764710,"connected_time":2054000000000,"state":"active","ping":63},{"user_id":44,"name":"Alkimia","steam_id":76561198385763137,"connected_time":2666000000000,"state":"active","ping":114},{"user_id":54,"name":"‚ù§‚ô°ÔΩ•ÔæüBubblesÔΩ•Ôæü‚ô°‚ù§","steam_id":76561198041057042,"connected_time":1908000000000,"state":"active","ping":89},{"user_id":61,"name":"Dolphin","steam_id":76561198068437955,"connected_time":1125000000000,"state":"active","ping":76},{"user_id":33,"name":"Guavaz!","steam_id":76561198282290924,"connected_time":3064000000000,"state":"active","ping":80},{"user_id":56,"name":"bo scrungulus","steam_id":76561198038036122,"connected_time":1217000000000,"state":"active","ping":71},{"user_id":49,"name":"squid","steam_id":76561199001656196,"connected_time":2029000000000,"state":"active","ping":78},{"user_id":65,"name":"xrt","steam_id":76561199015775231,"connected_time":312000000000,"state":"active","ping":96},{"user_id":38,"name":"Pyro410","steam_id":76561199241277109,"connected_time":3007000000000,"state":"active","ping":79},{"user_id":57,"name":"Mellou","steam_id":76561198212048740,"connected_time":1213000000000,"state":"active","ping":478}]},{"server_id":5,"name":"Uncletopia | Frankfurt | 1 | All Maps","name_short":"frk-1","host":"frk-1.de.uncletopia.com","port":27015,"enabled":true,"region":"eu","cc":"de","latitude":50.110924,"longitude":8.682127,"reserved":0,"last_update":"0001-01-01T00:00:00Z","name_a2s":"Uncletopia | Frankfurt | 1 | All Maps","protocol":17,"map":"cp_dustbowl","folder":"tf","game":"Team Fortress","app_id":440,"player_count":23,"max_players":24,"Bots":0,"server_type":"Dedicated","server_os":"Linux","password":true,"vac":true,"version":"7757534","steam_id":85568392924469989,"keywords":["cp","nocrits","nodmgspread","uncletopia"],"game_id":440,"stv_port":27016,"stv_name":"Uncletopia | Frankfurt | 1 | All Maps | STV","players":[{"user_id":508,"name":"Flyffmario","steam_id":76561198044770177,"connected_time":460000000000,"state":"active","ping":94},{"user_id":484,"name":"The Irish Eejit","steam_id":76561198027738057,"connected_time":1274000000000,"state":"active","ping":94},{"user_id":504,"name":"Harpenden, Harpenden, Harpenden","steam_id":76561198118138546,"connected_time":593000000000,"state":"active","ping":57},{"user_id":486,"name":"chalupa","steam_id":76561199072435724,"connected_time":1225000000000,"state":"active","ping":153},{"user_id":491,"name":"randompixel","steam_id":76561198003941207,"connected_time":970000000000,"state":"active","ping":73},{"user_id":482,"name":"Denton","steam_id":76561198367991717,"connected_time":1390000000000,"state":"active","ping":66},{"user_id":483,"name":"tm`","steam_id":76561197993580412,"connected_time":1379000000000,"state":"active","ping":53},{"user_id":473,"name":"THE TUNNEL IS INCOMPLETE","steam_id":76561198183949987,"connected_time":2063000000000,"state":"active","ping":67},{"user_id":516,"name":"weSt","steam_id":76561198000913325,"connected_time":251000000000,"state":"active","ping":57},{"user_id":517,"name":"Demonic Cipher","steam_id":76561198066082088,"connected_time":243000000000,"state":"active","ping":152},{"user_id":500,"name":"Bob Burger","steam_id":76561197996149548,"connected_time":723000000000,"state":"active","ping":67},{"user_id":489,"name":"Flostro","steam_id":76561198259793697,"connected_time":1064000000000,"state":"active","ping":73},{"user_id":521,"name":"Diplom√©  de Zouglou","steam_id":76561198962808454,"connected_time":9000000000,"state":"spawning","ping":59},{"user_id":511,"name":"lun4tic","steam_id":76561198850496647,"connected_time":386000000000,"state":"active","ping":60},{"user_id":518,"name":"XavierSweet","steam_id":76561198091781913,"connected_time":237000000000,"state":"active","ping":82},{"user_id":505,"name":"katana on the trains","steam_id":76561198202464032,"connected_time":524000000000,"state":"active","ping":83},{"user_id":514,"name":"Youssef S Ahmed","steam_id":76561199435139103,"connected_time":360000000000,"state":"active","ping":107},{"user_id":519,"name":"Doctor Livesey","steam_id":76561199176869878,"connected_time":205000000000,"state":"active","ping":198},{"user_id":506,"name":"degu","steam_id":76561198180823942,"connected_time":511000000000,"state":"active","ping":91},{"user_id":515,"name":"Oxy:*","steam_id":76561198275120049,"connected_time":352000000000,"state":"active","ping":75},{"user_id":430,"name":"‚ú™ qua ‚ú™","steam_id":76561198066408333,"connected_time":6325000000000,"state":"active","ping":60},{"user_id":502,"name":"wamw","steam_id":76561199206660048,"connected_time":690000000000,"state":"active","ping":74},{"user_id":503,"name":"justgvbe","steam_id":76561199193230375,"connected_time":674000000000,"state":"active","ping":55}]},{"server_id":110,"name":"Uncletopia | Frankfurt | 2 | All Maps","name_short":"frk-2","host":"frk-1.de.uncletopia.com","port":27025,"enabled":true,"region":"eu","cc":"de","latitude":50.110924,"longitude":8.682127,"reserved":0,"last_update":"0001-01-01T00:00:00Z","name_a2s":"Uncletopia | Frankfurt | 2 | All Maps","protocol":17,"map":"pl_goldrush","folder":"tf","game":"Team Fortress","app_id":440,"player_count":20,"max_players":24,"Bots":0,"server_type":"Dedicated","server_os":"Linux","password":true,"vac":true,"version":"7757534","steam_id":85568392924469990,"keywords":["nocrits","nodmgspread","payload","uncletopia"],"game_id":440,"stv_port":27026,"stv_name":"Uncletopia | Frankfurt | 2 | All Maps | STV","players":[{"user_id":652,"name":"Real Sugar","steam_id":76561198016726107,"connected_time":4921000000000,"state":"active","ping":77},{"user_id":716,"name":"KillerQueen (he/they/she)","steam_id":76561199019399725,"connected_time":663000000000,"state":"active","ping":69},{"user_id":719,"name":"HilldogGaming","steam_id":76561198082209322,"connected_time":615000000000,"state":"active","ping":97},{"user_id":729,"name":"venckter3","steam_id":76561198342187149,"connected_time":439000000000,"state":"active","ping":174},{"user_id":724,"name":"il","steam_id":76561198122662610,"connected_time":562000000000,"state":"active","ping":74},{"user_id":735,"name":"NOM","steam_id":76561199059006203,"connected_time":254000000000,"state":"active","ping":185},{"user_id":739,"name":"Jacojacojaco","steam_id":76561198800659270,"connected_time":119000000000,"state":"active","ping":63},{"user_id":738,"name":"JugoTopia","steam_id":76561197996067209,"connected_time":125000000000,"state":"active","ping":111},{"user_id":698,"name":"I can't stop loving you","steam_id":76561198020035960,"connected_time":1388000000000,"state":"active","ping":63},{"user_id":693,"name":"godmodule","steam_id":76561198165995444,"connected_time":1455000000000,"state":"active","ping":70},{"user_id":725,"name":"tapeworms!","steam_id":76561198069649097,"connected_time":510000000000,"state":"active","ping":62},{"user_id":726,"name":"Zelmor","steam_id":76561197997708311,"connected_time":474000000000,"state":"active","ping":51},{"user_id":727,"name":"DarthMurloc_OW","steam_id":76561198075577711,"connected_time":464000000000,"state":"active","ping":75},{"user_id":728,"name":"Phalcon","steam_id":76561197987051394,"connected_time":463000000000,"state":"active","ping":75},{"user_id":683,"name":"Der_Milchmann","steam_id":76561198001417748,"connected_time":1610000000000,"state":"active","ping":56},{"user_id":732,"name":"Blaxxun","steam_id":76561198035090697,"connected_time":307000000000,"state":"active","ping":70},{"user_id":734,"name":"bot","steam_id":76561198274105878,"connected_time":276000000000,"state":"active","ping":91},{"user_id":647,"name":"Levood","steam_id":76561198088461401,"connected_time":5239000000000,"state":"active","ping":73},{"user_id":701,"name":"roby","steam_id":76561198044660393,"connected_time":1341000000000,"state":"active","ping":57},{"user_id":667,"name":"Rick Makakezzz","steam_id":76561198057495653,"connected_time":3258000000000,"state":"active","ping":70}]},{"server_id":308,"name":"Uncletopia | Frankfurt | 3 | All Maps","name_short":"frk-3","host":"frk-1.de.uncletopia.com","port":27035,"enabled":true,"region":"eu","cc":"de","latitude":50.110924,"longitude":8.682127,"reserved":0,"last_update":"0001-01-01T00:00:00Z","name_a2s":"Uncletopia | Frankfurt | 3 | All Maps","protocol":17,"map":"cp_dustbowl","folder":"tf","game":"Team Fortress","app_id":440,"player_count":0,"max_players":24,"Bots":0,"server_type":"Dedicated","server_os":"Linux","password":true,"vac":true,"version":"7757534","steam_id":85568392924504274,"keywords":["cp","nocrits","nodmgspread","uncletopia"],"game_id":440,"stv_port":27036,"stv_name":"Uncletopia | Frankfurt | 3 | All Maps | STV","players":null},{"server_id":309,"name":"Uncletopia | Frankfurt | 4 | All Maps","name_short":"frk-4","host":"frk-1.de.uncletopia.com","port":27045,"enabled":true,"region":"eu","cc":"de","latitude":50.110924,"longitude":8.682127,"reserved":0,"last_update":"0001-01-01T00:00:00Z","name_a2s":"Uncletopia | Frankfurt | 4 | All Maps","protocol":17,"map":"cp_process_final","folder":"tf","game":"Team Fortress","app_id":440,"player_count":24,"max_players":24,"Bots":0,"server_type":"Dedicated","server_os":"Linux","password":true,"vac":true,"version":"7757534","steam_id":85568392924504275,"keywords":["cp","nocrits","nodmgspread","uncletopia"],"game_id":440,"stv_port":27046,"stv_name":"Uncletopia | Frankfurt | 4 | All Maps | STV","players":[{"user_id":552,"name":"BAPHOMET","steam_id":76561198160069534,"connected_time":2645000000000,"state":"active","ping":112},{"user_id":532,"name":"mespe","steam_id":76561198121530649,"connected_time":4121000000000,"state":"active","ping":62},{"user_id":550,"name":"Soyboy","steam_id":76561198053885716,"connected_time":2693000000000,"state":"active","ping":85},{"user_id":570,"name":"The Sunnyshot","steam_id":76561198086787499,"connected_time":1770000000000,"state":"active","ping":93},{"user_id":576,"name":"Pico","steam_id":76561198063552545,"connected_time":1656000000000,"state":"active","ping":95},{"user_id":562,"name":"nedilya","steam_id":76561198039692077,"connected_time":2044000000000,"state":"active","ping":56},{"user_id":574,"name":"If I top 3 my team sucks","steam_id":76561198147668373,"connected_time":1670000000000,"state":"active","ping":58},{"user_id":563,"name":"rhost","steam_id":76561199230709660,"connected_time":2043000000000,"state":"active","ping":47},{"user_id":591,"name":"Superiumentarius","steam_id":76561198081642249,"connected_time":61000000000,"state":"active","ping":45},{"user_id":582,"name":"marceline ‚ô°","steam_id":76561198159593026,"connected_time":894000000000,"state":"active","ping":59},{"user_id":589,"name":"Baba Sraka","steam_id":76561198128292318,"connected_time":530000000000,"state":"active","ping":119},{"user_id":581,"name":"Purps","steam_id":76561198053886680,"connected_time":911000000000,"state":"active","ping":62},{"user_id":580,"name":"Solima","steam_id":76561198045349099,"connected_time":926000000000,"state":"active","ping":48},{"user_id":446,"name":"Fat Pigeon","steam_id":76561198817940142,"connected_time":12671000000000,"state":"active","ping":47},{"user_id":565,"name":"–ü–µ—Å –ü–∞—Ç—Ä–æ–Ω","steam_id":76561198273199378,"connected_time":2003000000000,"state":"active","ping":61},{"user_id":590,"name":"modavak","steam_id":76561198946290908,"connected_time":338000000000,"state":"active","ping":93},{"user_id":584,"name":"sloppy transgirl toppy","steam_id":76561198057092208,"connected_time":801000000000,"state":"active","ping":63},{"user_id":572,"name":"Charles Darwin","steam_id":76561197973496139,"connected_time":1708000000000,"state":"active","ping":61},{"user_id":573,"name":"CumbustiblePunda","steam_id":76561197974274677,"connected_time":1687000000000,"state":"active","ping":57},{"user_id":527,"name":"Rogue Biscuit","steam_id":76561198086447685,"connected_time":4791000000000,"state":"active","ping":116},{"user_id":587,"name":"Nox Equites","steam_id":76561198115438449,"connected_time":733000000000,"state":"active","ping":101},{"user_id":549,"name":"Raymus","steam_id":76561198021330407,"connected_time":2756000000000,"state":"active","ping":45},{"user_id":490,"name":"PizzaPete123","steam_id":76561198089478290,"connected_time":9548000000000,"state":"active","ping":54},{"user_id":588,"name":"Tails8521","steam_id":76561198051747164,"connected_time":733000000000,"state":"active","ping":58}]},{"server_id":310,"name":"Uncletopia | Frankfurt | 5 | All Maps","name_short":"frk-5","host":"frk-1.de.uncletopia.com","port":27055,"enabled":true,"region":"eu","cc":"de","latitude":50.110924,"longitude":8.682127,"reserved":0,"last_update":"0001-01-01T00:00:00Z","name_a2s":"Uncletopia | Frankfurt | 5 | All Maps","protocol":17,"map":"pl_upward","folder":"tf","game":"Team Fortress","app_id":440,"player_count":24,"max_players":24,"Bots":0,"server_type":"Dedicated","server_os":"Linux","password":true,"vac":true,"version":"7757534","steam_id":85568392924504277,"keywords":["nocrits","nodmgspread","payload","uncletopia"],"game_id":440,"stv_port":27056,"stv_name":"Uncletopia | Frankfurt | 5 | All Maps | STV","players":[{"user_id":413,"name":"M31K4","steam_id":76561198079446133,"connected_time":11927000000000,"state":"active","ping":89},{"user_id":494,"name":"Gnaisse","steam_id":76561198010560642,"connected_time":3596000000000,"state":"active","ping":89},{"user_id":534,"name":"B4R10N","steam_id":76561198047167954,"connected_time":262000000000,"state":"active","ping":47},{"user_id":526,"name":"S_ApplePie","steam_id":76561198106947669,"connected_time":625000000000,"state":"active","ping":88},{"user_id":506,"name":"senior pomidor","steam_id":76561198123659806,"connected_time":2588000000000,"state":"active","ping":82},{"user_id":496,"name":"The Stupid Fucking Gamer","steam_id":76561198068213670,"connected_time":3516000000000,"state":"active","ping":46},{"user_id":523,"name":"pfydo","steam_id":76561198122426122,"connected_time":1585000000000,"state":"active","ping":162},{"user_id":493,"name":"Yelowchy","steam_id":76561198199416121,"connected_time":4027000000000,"state":"active","ping":67},{"user_id":508,"name":"ja","steam_id":76561199228540618,"connected_time":2498000000000,"state":"active","ping":82},{"user_id":497,"name":"medic appreciator","steam_id":76561198055389492,"connected_time":3422000000000,"state":"active","ping":57},{"user_id":518,"name":"scroted sigma freud","steam_id":76561198162462063,"connected_time":2095000000000,"state":"active","ping":67},{"user_id":426,"name":"Mr_Pulse_","steam_id":76561198095001602,"connected_time":10407000000000,"state":"active","ping":88},{"user_id":489,"name":"astigmatic","steam_id":76561199103959197,"connected_time":4662000000000,"state":"active","ping":94},{"user_id":530,"name":"Penis Contortionist","steam_id":76561198073663784,"connected_time":584000000000,"state":"active","ping":40},{"user_id":512,"name":"Sirzen","steam_id":76561198170155434,"connected_time":2355000000000,"state":"active","ping":51},{"user_id":406,"name":"kektuse","steam_id":76561198088426580,"connected_time":12140000000000,"state":"active","ping":60},{"user_id":516,"name":"Glasta","steam_id":76561198176669382,"connected_time":2148000000000,"state":"active","ping":60},{"user_id":459,"name":"Daga","steam_id":76561198055450219,"connected_time":7339000000000,"state":"active","ping":54},{"user_id":531,"name":"Milosz52","steam_id":76561199060940204,"connected_time":583000000000,"state":"active","ping":79},{"user_id":524,"name":"TheEventGuy","steam_id":76561197972797744,"connected_time":1263000000000,"state":"active","ping":62},{"user_id":478,"name":"Randy I love You","steam_id":76561197999421201,"connected_time":5332000000000,"state":"active","ping":67},{"user_id":504,"name":"E-Girls or I-Ladies","steam_id":76561198012351470,"connected_time":3039000000000,"state":"active","ping":57},{"user_id":501,"name":"[T]aKer","steam_id":76561198001778013,"connected_time":3282000000000,"state":"active","ping":59},{"user_id":533,"name":"a Regurar Barroon","steam_id":76561198834913692,"connected_time":292000000000,"state":"active","ping":74}]},{"server_id":311,"name":"Uncletopia | Frankfurt | 6 | All Maps","name_short":"frk-6","host":"frk-1.de.uncletopia.com","port":27065,"enabled":true,"region":"eu","cc":"de","latitude":50.110924,"longitude":8.682127,"reserved":0,"last_update":"0001-01-01T00:00:00Z","name_a2s":"Uncletopia | Frankfurt | 6 | All Maps","protocol":17,"map":"koth_lakeside_final","folder":"tf","game":"Team Fortress","app_id":440,"player_count":0,"max_players":24,"Bots":0,"server_type":"Dedicated","server_os":"Linux","password":true,"vac":true,"version":"7757534","steam_id":85568392924504278,"keywords":["cp","nocrits","nodmgspread","uncletopia"],"game_id":440,"stv_port":27066,"stv_name":"Uncletopia | Frankfurt | 6 | All Maps | STV","players":null},{"server_id":23,"name":"Uncletopia | Frankfurt | 7 | Stopwatch Beta","name_short":"frk-7","host":"frk-1.de.uncletopia.com","port":27075,"enabled":true,"region":"eu","cc":"de","latitude":50.110924,"longitude":8.682127,"reserved":0,"last_update":"0001-01-01T00:00:00Z","name_a2s":"Uncletopia | Frankfurt | 7 | Stopwatch Beta","protocol":17,"map":"koth_highpass","folder":"tf","game":"Team Fortress","app_id":440,"player_count":0,"max_players":24,"Bots":0,"server_type":"Dedicated","server_os":"Linux","password":true,"vac":true,"version":"7757534","steam_id":85568392924742827,"keywords":["cp","nocrits","nodmgspread","uncletopia"],"game_id":440,"stv_port":27076,"stv_name":"Uncletopia | Frankfurt | 7 | Stopwatch Beta | STV","players":null},{"server_id":24,"name":"Uncletopia | Frankfurt | 8 | Community","name_short":"frk-8","host":"frk-1.de.uncletopia.com","port":27085,"enabled":true,"region":"eu","cc":"de","latitude":50.110924,"longitude":8.682127,"reserved":0,"last_update":"0001-01-01T00:00:00Z","name_a2s":"Uncletopia | Frankfurt | 8 | Community","protocol":17,"map":"workshop/pl_vigil_rc9.ugc1266210012","folder":"tf","game":"Team Fortress","app_id":440,"player_count":3,"max_players":24,"Bots":0,"server_type":"Dedicated","server_os":"Linux","password":true,"vac":true,"version":"7757534","steam_id":85568392924742828,"keywords":["nocrits","nodmgspread","payload","uncletopia"],"game_id":440,"stv_port":27086,"stv_name":"Uncletopia | Frankfurt | 8 | Community | STV","players":[{"user_id":20,"name":"Kiz","steam_id":76561198811732820,"connected_time":176000000000,"state":"active","ping":81},{"user_id":14,"name":"DicyPicky","steam_id":76561198078873335,"connected_time":3001000000000,"state":"active","ping":69},{"user_id":19,"name":"TheFox.tf","steam_id":76561197996851702,"connected_time":1153000000000,"state":"active","ping":73}]},{"server_id":202,"name":"Uncletopia | Hong Kong | 1 | All Maps","name_short":"hgk-1","host":"hgk-1.hk.uncletopia.com","port":27015,"enabled":true,"region":"asia","cc":"hk","latitude":22.302711,"longitude":114.177216,"reserved":0,"last_update":"0001-01-01T00:00:00Z","name_a2s":"Uncletopia | Hong Kong | 1 | All Maps","protocol":17,"map":"pl_borneo","folder":"tf","game":"Team Fortress","app_id":440,"player_count":0,"max_players":24,"Bots":0,"server_type":"Dedicated","server_os":"Linux","password":true,"vac":true,"version":"7757534","steam_id":85568392924494504,"keywords":["nocrits","nodmgspread","payload","uncletopia"],"game_id":440,"stv_port":27016,"stv_name":"Uncletopia | Hong Kong | 1 | All Maps | STV","players":null},{"server_id":1,"name":"Uncletopia | Los Angeles | 1 | All Maps","name_short":"lax-1","host":"lax-1.us.uncletopia.com","port":27015,"enabled":true,"region":"us-west","cc":"us","latitude":33.94279,"longitude":-118.41004,"reserved":0,"last_update":"0001-01-01T00:00:00Z","name_a2s":"Uncletopia | Los Angeles | 1 | All Maps","protocol":17,"map":"koth_highpass","folder":"tf","game":"Team Fortress","app_id":440,"player_count":3,"max_players":24,"Bots":0,"server_type":"Dedicated","server_os":"Linux","password":true,"vac":true,"version":"7757534","steam_id":85568392924469991,"keywords":["cp","nocrits","nodmgspread","uncletopia"],"game_id":440,"stv_port":27016,"stv_name":"Uncletopia | Los Angeles | 1 | All Maps | STV","players":[{"user_id":13,"name":"Wackydavo","steam_id":76561197990094209,"connected_time":1223000000000,"state":"active","ping":86},{"user_id":14,"name":"Shalom","steam_id":76561198410005222,"connected_time":992000000000,"state":"active","ping":80},{"user_id":17,"name":"bookreader","steam_id":76561198978568007,"connected_time":302000000000,"state":"active","ping":95}]},{"server_id":112,"name":"Uncletopia | Los Angeles | 2 | All Maps","name_short":"lax-2","host":"lax-1.us.uncletopia.com","port":27025,"enabled":true,"region":"us-west","cc":"us","latitude":33.94279,"longitude":-118.41004,"reserved":0,"last_update":"0001-01-01T00:00:00Z","name_a2s":"Uncletopia | Los Angeles | 2 | All Maps","protocol":17,"map":"pl_pier","folder":"tf","game":"Team Fortress","app_id":440,"player_count":24,"max_players":24,"Bots":0,"server_type":"Dedicated","server_os":"Linux","password":true,"vac":true,"version":"7757534","steam_id":85568392924469992,"keywords":["nocrits","nodmgspread","payload","uncletopia"],"game_id":440,"stv_port":27026,"stv_name":"Uncletopia | Los Angeles | 2 | All Maps | STV","players":[{"user_id":219,"name":"Happy whale","steam_id":76561199026039153,"connected_time":4107000000000,"state":"active","ping":110},{"user_id":272,"name":"Zykron","steam_id":76561199056400800,"connected_time":176000000000,"state":"active","ping":54},{"user_id":269,"name":"hakken","steam_id":76561199102391736,"connected_time":194000000000,"state":"active","ping":46},{"user_id":231,"name":"Pie","steam_id":76561198054721133,"connected_time":3302000000000,"state":"active","ping":47},{"user_id":264,"name":"Eden","steam_id":76561198081284664,"connected_time":526000000000,"state":"active","ping":48},{"user_id":243,"name":"Nibotshooter","steam_id":76561199284825579,"connected_time":2471000000000,"state":"active","ping":75},{"user_id":258,"name":"viciousbeatmaker","steam_id":76561198086876652,"connected_time":1629000000000,"state":"active","ping":53},{"user_id":214,"name":"how do i control my guy?","steam_id":76561198158855211,"connected_time":4734000000000,"state":"active","ping":69},{"user_id":266,"name":"plz talk about dogs","steam_id":76561198062924973,"connected_time":219000000000,"state":"active","ping":60},{"user_id":206,"name":"blank","steam_id":76561198105529673,"connected_time":5460000000000,"state":"active","ping":45},{"user_id":263,"name":"nefarious evil sorcerer pack","steam_id":76561198150406851,"connected_time":1221000000000,"state":"active","ping":60},{"user_id":270,"name":"‚ô°a femboy‚ô°","steam_id":76561199212971864,"connected_time":194000000000,"state":"active","ping":128},{"user_id":205,"name":"‚Ä∫‚Ä∫ SpyMaster","steam_id":76561198218719943,"connected_time":5501000000000,"state":"active","ping":45},{"user_id":222,"name":"Poseidon","steam_id":76561198093983903,"connected_time":3595000000000,"state":"active","ping":114},{"user_id":267,"name":"mao zedong","steam_id":76561199060687332,"connected_time":206000000000,"state":"active","ping":45},{"user_id":265,"name":"yrrejyay","steam_id":76561198311004039,"connected_time":481000000000,"state":"active","ping":120},{"user_id":250,"name":"‚Ö£ E√∂l Hater","steam_id":76561198056377621,"connected_time":2018000000000,"state":"active","ping":69},{"user_id":268,"name":"fortzei","steam_id":76561198210920541,"connected_time":201000000000,"state":"active","ping":71},{"user_id":178,"name":"‚úöBreloom‚úö","steam_id":76561198155081179,"connected_time":7345000000000,"state":"active","ping":79},{"user_id":261,"name":"Notation","steam_id":76561198119509319,"connected_time":1453000000000,"state":"active","ping":94},{"user_id":271,"name":"full of joy and whimsy","steam_id":76561198042271448,"connected_time":194000000000,"state":"active","ping":110},{"user_id":168,"name":"king of cobbler","steam_id":76561198116829392,"connected_time":7765000000000,"state":"active","ping":85},{"user_id":257,"name":"BucketofIce","steam_id":76561199108563726,"connected_time":1812000000000,"state":"active","ping":55},{"user_id":238,"name":"cardboardwarrior1","steam_id":76561199145044693,"connected_time":3132000000000,"state":"active","ping":235}]},{"server_id":324,"name":"Uncletopia | Los Angeles | 3 | All Maps","name_short":"lax-3","host":"lax-1.us.uncletopia.com","port":27035,"enabled":true,"region":"us-west","cc":"us","latitude":33.94279,"longitude":-118.41004,"reserved":0,"last_update":"0001-01-01T00:00:00Z","name_a2s":"Uncletopia | Los Angeles | 3 | All Maps","protocol":17,"map":"pl_badwater","folder":"tf","game":"Team Fortress","app_id":440,"player_count":1,"max_players":24,"Bots":0,"server_type":"Dedicated","server_os":"Linux","password":true,"vac":true,"version":"7757534","steam_id":85568392924510198,"keywords":["nocrits","nodmgspread","payload","uncletopia"],"game_id":440,"stv_port":27036,"stv_name":"Uncletopia | Los Angeles | 3 | All Maps | STV","players":[{"user_id":4,"name":"green234isfine","steam_id":76561199205223152,"connected_time":156000000000,"state":"active","ping":127}]},{"server_id":25,"name":"Uncletopia | Los Angeles | 4 | Stopwatch Beta","name_short":"lax-4","host":"lax-1.us.uncletopia.com","port":27045,"enabled":true,"region":"us-west","cc":"us","latitude":33.94279,"longitude":-118.41004,"reserved":0,"last_update":"0001-01-01T00:00:00Z","name_a2s":"Uncletopia | Los Angeles | 4 | Stopwatch Beta","protocol":17,"map":"pl_swiftwater_final1","folder":"tf","game":"Team Fortress","app_id":440,"player_count":0,"max_players":24,"Bots":0,"server_type":"Dedicated","server_os":"Linux","password":true,"vac":true,"version":"7757534","steam_id":85568392924510199,"keywords":["nocrits","nodmgspread","payload","uncletopia"],"game_id":440,"stv_port":27046,"stv_name":"Uncletopia | Los Angeles | 4 | Stopwatch Beta | STV","players":null},{"server_id":11,"name":"Uncletopia | London | 1 | All Maps","name_short":"lon-1","host":"lon-1.uk.uncletopia.com","port":27015,"enabled":true,"region":"eu","cc":"gb","latitude":51.509865,"longitude":-0.118092,"reserved":0,"last_update":"0001-01-01T00:00:00Z","name_a2s":"Uncletopia | London | 1 | All Maps","protocol":17,"map":"pl_snowycoast","folder":"tf","game":"Team Fortress","app_id":440,"player_count":24,"max_players":24,"Bots":0,"server_type":"Dedicated","server_os":"Linux","password":true,"vac":true,"version":"7757534","steam_id":85568392924367362,"keywords":["nocrits","nodmgspread","payload","uncletopia"],"game_id":440,"stv_port":27016,"stv_name":"Uncletopia | London | 1 | All Maps | STV","players":[{"user_id":530,"name":"Tom","steam_id":76561198008519979,"connected_time":1900000000000,"state":"active","ping":55},{"user_id":496,"name":"JeanCorben","steam_id":76561197965133561,"connected_time":3888000000000,"state":"active","ping":38},{"user_id":492,"name":"silly","steam_id":76561198096547662,"connected_time":4295000000000,"state":"active","ping":48},{"user_id":544,"name":"Morisan","steam_id":76561198043153528,"connected_time":576000000000,"state":"active","ping":43},{"user_id":541,"name":"beep!","steam_id":76561198111674607,"connected_time":630000000000,"state":"active","ping":42},{"user_id":535,"name":"Buk Lau","steam_id":76561197993573576,"connected_time":737000000000,"state":"active","ping":95},{"user_id":546,"name":"vug","steam_id":76561198042227249,"connected_time":275000000000,"state":"active","ping":45},{"user_id":508,"name":"player","steam_id":76561198054474684,"connected_time":3173000000000,"state":"active","ping":87},{"user_id":525,"name":"‚ú™ Danny","steam_id":76561198104483241,"connected_time":2362000000000,"state":"active","ping":59},{"user_id":510,"name":"SuperBob103","steam_id":76561199175360012,"connected_time":3092000000000,"state":"active","ping":54},{"user_id":520,"name":"Princess Fluffy Butt","steam_id":76561198060033696,"connected_time":2776000000000,"state":"active","ping":45},{"user_id":531,"name":"Space Rimmer","steam_id":76561198069243201,"connected_time":1251000000000,"state":"active","ping":59},{"user_id":523,"name":"Fwebbie","steam_id":76561199006875621,"connected_time":2497000000000,"state":"active","ping":60},{"user_id":524,"name":"Roger Slippers","steam_id":76561198188642265,"connected_time":2465000000000,"state":"active","ping":53},{"user_id":534,"name":"Ash","steam_id":76561198110133179,"connected_time":748000000000,"state":"active","ping":60},{"user_id":540,"name":"He could be any one of us","steam_id":76561198320506848,"connected_time":661000000000,"state":"active","ping":44},{"user_id":543,"name":"snozg","steam_id":76561199013197652,"connected_time":581000000000,"state":"active","ping":62},{"user_id":545,"name":"jimmy bob","steam_id":76561198319583692,"connected_time":462000000000,"state":"active","ping":70},{"user_id":505,"name":"Hermitcrack","steam_id":76561198149216441,"connected_time":3319000000000,"state":"active","ping":74},{"user_id":538,"name":"SEX","steam_id":76561198941142018,"connected_time":722000000000,"state":"active","ping":71},{"user_id":516,"name":"LIGHTWEIGHT BABY","steam_id":76561198002761980,"connected_time":2907000000000,"state":"active","ping":55},{"user_id":529,"name":"Aaron","steam_id":76561197990046953,"connected_time":1995000000000,"state":"active","ping":65},{"user_id":536,"name":"Fred","steam_id":76561198107137362,"connected_time":735000000000,"state":"active","ping":60},{"user_id":473,"name":"Prome","steam_id":76561199050383942,"connected_time":6472000000000,"state":"active","ping":57}]},{"server_id":114,"name":"Uncletopia | London | 2 | All Maps","name_short":"lon-2","host":"lon-1.uk.uncletopia.com","port":27025,"enabled":true,"region":"eu","cc":"gb","latitude":51.509865,"longitude":-0.118092,"reserved":0,"last_update":"0001-01-01T00:00:00Z","name_a2s":"Uncletopia | London | 2 | All Maps","protocol":17,"map":"koth_viaduct","folder":"tf","game":"Team Fortress","app_id":440,"player_count":0,"max_players":24,"Bots":0,"server_type":"Dedicated","server_os":"Linux","password":true,"vac":true,"version":"7757534","steam_id":85568392924470941,"keywords":["cp","nocrits","nodmgspread","uncletopia"],"game_id":440,"stv_port":27026,"stv_name":"Uncletopia | London | 2 | All Maps | STV","players":null},{"server_id":320,"name":"Uncletopia | London | 3 | All Maps","name_short":"lon-3","host":"lon-1.uk.uncletopia.com","port":27035,"enabled":true,"region":"eu","cc":"gb","latitude":51.509865,"longitude":-0.118092,"reserved":0,"last_update":"0001-01-01T00:00:00Z","name_a2s":"Uncletopia | London | 3 | All Maps","protocol":17,"map":"cp_altitude","folder":"tf","game":"Team Fortress","app_id":440,"player_count":0,"max_players":24,"Bots":0,"server_type":"Dedicated","server_os":"Linux","password":true,"vac":true,"version":"7757534","steam_id":85568392924510192,"keywords":["cp","nocrits","nodmgspread","uncletopia"],"game_id":440,"stv_port":27036,"stv_name":"Uncletopia | London | 3 | All Maps | STV","players":null},{"server_id":321,"name":"Uncletopia | London | 4 | All Maps","name_short":"lon-4","host":"lon-1.uk.uncletopia.com","port":27045,"enabled":true,"region":"eu","cc":"gb","latitude":51.509865,"longitude":-0.118092,"reserved":0,"last_update":"0001-01-01T00:00:00Z","name_a2s":"Uncletopia | London | 4 | All Maps","protocol":17,"map":"koth_viaduct","folder":"tf","game":"Team Fortress","app_id":440,"player_count":0,"max_players":24,"Bots":0,"server_type":"Dedicated","server_os":"Linux","password":true,"vac":true,"version":"7757534","steam_id":85568392924510193,"keywords":["cp","nocrits","nodmgspread","uncletopia"],"game_id":440,"stv_port":27046,"stv_name":"Uncletopia | London | 4 | All Maps | STV","players":null},{"server_id":21,"name":"Uncletopia | London | 5 | All Maps","name_short":"lon-5","host":"lon-1.uk.uncletopia.com","port":27055,"enabled":true,"region":"eu","cc":"gb","latitude":51.509865,"longitude":-0.118092,"reserved":0,"last_update":"0001-01-01T00:00:00Z","name_a2s":"Uncletopia | London | 5 | All Maps","protocol":17,"map":"pl_upward","folder":"tf","game":"Team Fortress","app_id":440,"player_count":0,"max_players":24,"Bots":0,"server_type":"Dedicated","server_os":"Linux","password":true,"vac":true,"version":"7757534","steam_id":85568392924742829,"keywords":["nocrits","nodmgspread","payload","uncletopia"],"game_id":440,"stv_port":27056,"stv_name":"Uncletopia | London | 5 | All Maps | STV","players":null},{"server_id":22,"name":"Uncletopia | London | 6 | All Maps","name_short":"lon-6","host":"lon-1.uk.uncletopia.com","port":27065,"enabled":true,"region":"eu","cc":"gb","latitude":51.509865,"longitude":-0.118092,"reserved":0,"last_update":"0001-01-01T00:00:00Z","name_a2s":"Uncletopia | London | 6 | All Maps","protocol":17,"map":"koth_viaduct","folder":"tf","game":"Team Fortress","app_id":440,"player_count":0,"max_players":24,"Bots":0,"server_type":"Dedicated","server_os":"Linux","password":true,"vac":true,"version":"7757534","steam_id":85568392924742830,"keywords":["cp","nocrits","nodmgspread","uncletopia"],"game_id":440,"stv_port":27066,"stv_name":"Uncletopia | London | 6 | All Maps | STV","players":null},{"server_id":40,"name":"Uncletopia | London | 7 | No Payload","name_short":"lon-7","host":"lon-1.uk.uncletopia.com","port":27075,"enabled":true,"region":"eu","cc":"gb","latitude":51.509865,"longitude":-0.118092,"reserved":0,"last_update":"0001-01-01T00:00:00Z","name_a2s":"Uncletopia | London | 7 | No Payload","protocol":17,"map":"cp_foundry","folder":"tf","game":"Team Fortress","app_id":440,"player_count":0,"max_players":24,"Bots":0,"server_type":"Dedicated","server_os":"Linux","password":true,"vac":true,"version":"7757534","steam_id":85568392924964314,"keywords":["cp","nocrits","nodmgspread","uncletopia"],"game_id":440,"stv_port":27076,"stv_name":"Uncletopia | London | 7 | No Payload | STV","players":null},{"server_id":41,"name":"Uncletopia | London | 8 | Community","name_short":"lon-8","host":"lon-1.uk.uncletopia.com","port":27085,"enabled":true,"region":"eu","cc":"gb","latitude":51.509865,"longitude":-0.118092,"reserved":0,"last_update":"0001-01-01T00:00:00Z","name_a2s":"Uncletopia | London | 8 | Community","protocol":17,"map":"workshop/koth_synthetic_rc6a.ugc1549817316","folder":"tf","game":"Team Fortress","app_id":440,"player_count":0,"max_players":24,"Bots":0,"server_type":"Dedicated","server_os":"Linux","password":true,"vac":true,"version":"7757534","steam_id":85568392924964315,"keywords":["cp","nocrits","nodmgspread","uncletopia"],"game_id":440,"stv_port":27086,"stv_name":"Uncletopia | London | 8 | Community | STV","players":null},{"server_id":300,"name":"Uncletopia | Montr√©al | 1 | All Maps","name_short":"mtl-1","host":"mtl-1.ca.uncletopia.com","port":27015,"enabled":true,"region":"us-east","cc":"ca","latitude":45.50889,"longitude":-73.56167,"reserved":0,"last_update":"0001-01-01T00:00:00Z","name_a2s":"Uncletopia | Montr√©al | 1 | All Maps","protocol":17,"map":"koth_viaduct","folder":"tf","game":"Team Fortress","app_id":440,"player_count":0,"max_players":24,"Bots":0,"server_type":"Dedicated","server_os":"Linux","password":true,"vac":true,"version":"7757534","steam_id":85568392924500087,"keywords":["cp","nocrits","nodmgspread","uncletopia"],"game_id":440,"stv_port":27016,"stv_name":"Uncletopia | Montr√©al | 1 | All Maps | STV","players":null},{"server_id":301,"name":"Uncletopia | Montr√©al | 2 | All Maps","name_short":"mtl-2","host":"mtl-1.ca.uncletopia.com","port":27025,"enabled":true,"region":"us-east","cc":"ca","latitude":45.50889,"longitude":-73.56167,"reserved":0,"last_update":"0001-01-01T00:00:00Z","name_a2s":"Uncletopia | Montr√©al | 2 | All Maps","protocol":17,"map":"pl_snowycoast","folder":"tf","game":"Team Fortress","app_id":440,"player_count":0,"max_players":24,"Bots":0,"server_type":"Dedicated","server_os":"Linux","password":true,"vac":true,"version":"7757534","steam_id":85568392924500088,"keywords":["nocrits","nodmgspread","payload","uncletopia"],"game_id":440,"stv_port":27026,"stv_name":"Uncletopia | Montr√©al | 2 | All Maps | STV","players":null},{"server_id":302,"name":"Uncletopia | Montr√©al | 3 | All Maps","name_short":"mtl-3","host":"mtl-1.ca.uncletopia.com","port":27035,"enabled":true,"region":"us-east","cc":"ca","latitude":45.50889,"longitude":-73.56167,"reserved":0,"last_update":"0001-01-01T00:00:00Z","name_a2s":"Uncletopia | Montr√©al | 3 | All Maps","protocol":17,"map":"pl_swiftwater_final1","folder":"tf","game":"Team Fortress","app_id":440,"player_count":0,"max_players":24,"Bots":0,"server_type":"Dedicated","server_os":"Linux","password":true,"vac":true,"version":"7757534","steam_id":85568392924500089,"keywords":["nocrits","nodmgspread","payload","uncletopia"],"game_id":440,"stv_port":27036,"stv_name":"Uncletopia | Montr√©al | 3 | All Maps | STV","players":null},{"server_id":303,"name":"Uncletopia | Montr√©al | 4 | No Payload","name_short":"mtl-4","host":"mtl-1.ca.uncletopia.com","port":27045,"enabled":true,"region":"us-east","cc":"ca","latitude":45.50889,"longitude":-73.56167,"reserved":0,"last_update":"0001-01-01T00:00:00Z","name_a2s":"Uncletopia | Montr√©al | 4 | No Payload","protocol":17,"map":"pl_pier","folder":"tf","game":"Team Fortress","app_id":440,"player_count":0,"max_players":24,"Bots":0,"server_type":"Dedicated","server_os":"Linux","password":true,"vac":true,"version":"7757534","steam_id":85568392924500090,"keywords":["nocrits","nodmgspread","payload","uncletopia"],"game_id":440,"stv_port":27046,"stv_name":"Uncletopia | Montr√©al | 4 | No Payload | STV","players":null},{"server_id":13,"name":"Uncletopia | New York City | 1 | All Maps","name_short":"nyc-1","host":"nyc-1.us.uncletopia.com","port":27015,"enabled":true,"region":"us-east","cc":"us","latitude":40.73061,"longitude":-73.93524,"reserved":0,"last_update":"0001-01-01T00:00:00Z","name_a2s":"Uncletopia | New York City | 1 | All Maps","protocol":17,"map":"pl_badwater","folder":"tf","game":"Team Fortress","app_id":440,"player_count":23,"max_players":24,"Bots":0,"server_type":"Dedicated","server_os":"Linux","password":true,"vac":true,"version":"7757534","steam_id":85568392924469993,"keywords":["nocrits","nodmgspread","payload","uncletopia"],"game_id":440,"stv_port":27016,"stv_name":"Uncletopia | New York City | 1 | All Maps | STV","players":[{"user_id":147,"name":"4d4","steam_id":76561198402360789,"connected_time":2216000000000,"state":"active","ping":68},{"user_id":180,"name":"Festive Webber","steam_id":76561199137318666,"connected_time":484000000000,"state":"active","ping":70},{"user_id":179,"name":"alex","steam_id":76561198095203229,"connected_time":726000000000,"state":"active","ping":63},{"user_id":154,"name":"ZodiacThundaga","steam_id":76561199025117814,"connected_time":1792000000000,"state":"active","ping":80},{"user_id":109,"name":"A Puppy","steam_id":76561198828184456,"connected_time":5000000000000,"state":"active","ping":45},{"user_id":169,"name":"Argo","steam_id":76561198353725622,"connected_time":1065000000000,"state":"active","ping":74},{"user_id":171,"name":"Syzygy","steam_id":76561198173455463,"connected_time":1049000000000,"state":"active","ping":43},{"user_id":181,"name":"you forgot the sauce","steam_id":76561198387016713,"connected_time":326000000000,"state":"active","ping":68},{"user_id":165,"name":"Some Stupid Name","steam_id":76561198065575548,"connected_time":1353000000000,"state":"active","ping":123},{"user_id":82,"name":"LunarrD","steam_id":76561198811220107,"connected_time":7354000000000,"state":"active","ping":62},{"user_id":162,"name":"a_person_159","steam_id":76561199024416326,"connected_time":1372000000000,"state":"active","ping":63},{"user_id":172,"name":"THE BURGER","steam_id":76561198311704368,"connected_time":1039000000000,"state":"active","ping":49},{"user_id":85,"name":"A Shiny Meat Bicycle","steam_id":76561198358757709,"connected_time":7311000000000,"state":"active","ping":91},{"user_id":163,"name":"GamingGod (real)","steam_id":76561199103766971,"connected_time":1366000000000,"state":"active","ping":73},{"user_id":173,"name":"grind","steam_id":76561198801214349,"connected_time":1026000000000,"state":"active","ping":65},{"user_id":164,"name":"Duk","steam_id":76561198450692568,"connected_time":1364000000000,"state":"active","ping":67},{"user_id":178,"name":"cannibalistic rival archetype.","steam_id":76561198294013916,"connected_time":827000000000,"state":"active","ping":45},{"user_id":182,"name":"WibbyOne","steam_id":76561198052843846,"connected_time":11000000000,"state":"active","ping":23},{"user_id":153,"name":"Goose Pyro","steam_id":76561198994984332,"connected_time":1802000000000,"state":"active","ping":121},{"user_id":175,"name":"The Official Arby's ¬Æ","steam_id":76561198093036361,"connected_time":966000000000,"state":"active","ping":82},{"user_id":177,"name":"Washington","steam_id":76561198121595112,"connected_time":950000000000,"state":"active","ping":229},{"user_id":158,"name":"doodlenoodles","steam_id":76561199345823430,"connected_time":1535000000000,"state":"active","ping":42},{"user_id":167,"name":"BasilBird037","steam_id":76561198325406086,"connected_time":1130000000000,"state":"active","ping":56}]},{"server_id":14,"name":"Uncletopia | New York City | 2 | All Maps","name_short":"nyc-2","host":"nyc-1.us.uncletopia.com","port":27025,"enabled":true,"region":"us-east","cc":"us","latitude":40.73061,"longitude":-73.93524,"reserved":0,"last_update":"0001-01-01T00:00:00Z","name_a2s":"Uncletopia | New York City | 2 | All Maps","protocol":17,"map":"pl_swiftwater_final1","folder":"tf","game":"Team Fortress","app_id":440,"player_count":24,"max_players":24,"Bots":0,"server_type":"Dedicated","server_os":"Linux","password":true,"vac":true,"version":"7757534","steam_id":85568392924469994,"keywords":["nocrits","nodmgspread","payload","uncletopia"],"game_id":440,"stv_port":27026,"stv_name":"Uncletopia | New York City | 2 | All Maps | STV","players":[{"user_id":236,"name":"Squiliam Fancyson","steam_id":76561199029458936,"connected_time":2920000000000,"state":"active","ping":74},{"user_id":268,"name":"Sone","steam_id":76561198069601032,"connected_time":294000000000,"state":"active","ping":57},{"user_id":249,"name":"NovaSc6ut","steam_id":76561198277163301,"connected_time":1924000000000,"state":"active","ping":85},{"user_id":250,"name":"Moonkey","steam_id":76561199013741389,"connected_time":1834000000000,"state":"active","ping":43},{"user_id":231,"name":"Aviyarn","steam_id":76561199074194652,"connected_time":3018000000000,"state":"active","ping":71},{"user_id":215,"name":"amby","steam_id":76561198143569935,"connected_time":4630000000000,"state":"active","ping":116},{"user_id":232,"name":"ttv/Muenstier","steam_id":76561198312153623,"connected_time":2996000000000,"state":"active","ping":79},{"user_id":259,"name":"xen","steam_id":76561198048568188,"connected_time":1068000000000,"state":"active","ping":48},{"user_id":255,"name":"Soundwave Gaming","steam_id":76561199013299586,"connected_time":1178000000000,"state":"active","ping":58},{"user_id":267,"name":"shibaba bababool","steam_id":76561197972601902,"connected_time":336000000000,"state":"active","ping":104},{"user_id":206,"name":"sydthesock","steam_id":76561199478564380,"connected_time":4705000000000,"state":"active","ping":71},{"user_id":266,"name":"ic","steam_id":76561198009288860,"connected_time":391000000000,"state":"active","ping":88},{"user_id":251,"name":"Azreal the Imperial Soldier","steam_id":76561198321340506,"connected_time":1814000000000,"state":"active","ping":65},{"user_id":269,"name":"jarby","steam_id":76561198130689358,"connected_time":237000000000,"state":"active","ping":95},{"user_id":217,"name":"Raptortastic","steam_id":76561198105613110,"connected_time":4559000000000,"state":"active","ping":63},{"user_id":227,"name":"GayRichThug17","steam_id":76561198880396651,"connected_time":3406000000000,"state":"active","ping":78},{"user_id":272,"name":"Defiant Statement.","steam_id":76561199101373436,"connected_time":29000000000,"state":"active","ping":71},{"user_id":210,"name":"xbox turn off","steam_id":76561198040912048,"connected_time":4672000000000,"state":"active","ping":60},{"user_id":155,"name":"WeegeePJ","steam_id":76561199383362382,"connected_time":8666000000000,"state":"active","ping":51},{"user_id":271,"name":"--_Cook_--","steam_id":76561198080855748,"connected_time":93000000000,"state":"active","ping":54},{"user_id":244,"name":"Chocoflakes15","steam_id":76561198184714901,"connected_time":2078000000000,"state":"active","ping":74},{"user_id":240,"name":"nilftb","steam_id":76561198161952186,"connected_time":2669000000000,"state":"active","ping":56},{"user_id":247,"name":"you should recycle","steam_id":76561198119478199,"connected_time":2036000000000,"state":"active","ping":37},{"user_id":213,"name":"Esteban Delsin","steam_id":76561198433519639,"connected_time":4639000000000,"state":"active","ping":153}]},{"server_id":15,"name":"Uncletopia | New York City | 3 | Stopwatch Beta","name_short":"nyc-3","host":"nyc-1.us.uncletopia.com","port":27035,"enabled":true,"region":"us-east","cc":"us","latitude":40.73061,"longitude":-73.93524,"reserved":0,"last_update":"0001-01-01T00:00:00Z","name_a2s":"Uncletopia | New York City | 3 | Stopwatch Beta","protocol":17,"map":"pl_upward","folder":"tf","game":"Team Fortress","app_id":440,"player_count":0,"max_players":24,"Bots":0,"server_type":"Dedicated","server_os":"Linux","password":true,"vac":true,"version":"7757534","steam_id":85568392924742820,"keywords":["nocrits","nodmgspread","payload","uncletopia"],"game_id":440,"stv_port":27036,"stv_name":"Uncletopia | New York City | 3 | Stopwatch Beta | STV","players":null},{"server_id":16,"name":"Uncletopia | New York City | 4 | Community","name_short":"nyc-4","host":"nyc-1.us.uncletopia.com","port":27045,"enabled":true,"region":"us-east","cc":"us","latitude":40.73061,"longitude":-73.93524,"reserved":0,"last_update":"0001-01-01T00:00:00Z","name_a2s":"Uncletopia | New York City | 4 | Community","protocol":17,"map":"workshop/cp_croissant_final.ugc458840209","folder":"tf","game":"Team Fortress","app_id":440,"player_count":9,"max_players":24,"Bots":0,"server_type":"Dedicated","server_os":"Linux","password":true,"vac":true,"version":"7757534","steam_id":85568392924742821,"keywords":["cp","nocrits","nodmgspread","uncletopia"],"game_id":440,"stv_port":27046,"stv_name":"Uncletopia | New York City | 4 | Community | STV","players":[{"user_id":250,"name":"quadapalozle","steam_id":76561198327686110,"connected_time":1980000000000,"state":"active","ping":60},{"user_id":260,"name":"Dark Saturday","steam_id":76561198152056777,"connected_time":258000000000,"state":"active","ping":63},{"user_id":254,"name":"malicious uber driver","steam_id":76561198981319328,"connected_time":801000000000,"state":"active","ping":61},{"user_id":255,"name":"Jos!","steam_id":76561198361335001,"connected_time":777000000000,"state":"active","ping":72},{"user_id":261,"name":"tamara_s42","steam_id":76561198995039584,"connected_time":135000000000,"state":"active","ping":68},{"user_id":257,"name":"Se_Rious","steam_id":76561198040671133,"connected_time":342000000000,"state":"active","ping":42},{"user_id":258,"name":"A Very Confused Gentleman","steam_id":76561198051686391,"connected_time":325000000000,"state":"active","ping":75},{"user_id":259,"name":"MrDragadon","steam_id":76561199058815749,"connected_time":313000000000,"state":"active","ping":135},{"user_id":262,"name":"Hemiphix","steam_id":76561198329316429,"connected_time":81000000000,"state":"active","ping":54}]},{"server_id":142,"name":"Uncletopia | S√£o Paulo | 1 | All Maps","name_short":"sao-1","host":"sao-1.br.uncletopia.com","port":27015,"enabled":true,"region":"sa","cc":"br","latitude":-23.533773,"longitude":-46.62529,"reserved":0,"last_update":"0001-01-01T00:00:00Z","name_a2s":"Uncletopia | S√£o Paulo | 1 | All Maps","protocol":17,"map":"koth_lakeside_final","folder":"tf","game":"Team Fortress","app_id":440,"player_count":0,"max_players":24,"Bots":0,"server_type":"Dedicated","server_os":"Linux","password":true,"vac":true,"version":"7757534","steam_id":85568392924469996,"keywords":["cp","nocrits","nodmgspread","uncletopia"],"game_id":440,"stv_port":27016,"stv_name":"Uncletopia | S√£o Paulo | 1 | All Maps | STV","players":null},{"server_id":143,"name":"Uncletopia | S√£o Paulo | 2 | All Maps","name_short":"sao-2","host":"sao-2.br.uncletopia.com","port":27015,"enabled":true,"region":"sa","cc":"br","latitude":-23.533773,"longitude":-46.62529,"reserved":0,"last_update":"0001-01-01T00:00:00Z","name_a2s":"Uncletopia | S√£o Paulo | 2 | All Maps","protocol":17,"map":"pl_barnblitz","folder":"tf","game":"Team Fortress","app_id":440,"player_count":0,"max_players":24,"Bots":0,"server_type":"Dedicated","server_os":"Linux","password":true,"vac":true,"version":"7757534","steam_id":85568392924485349,"keywords":["nocrits","nodmgspread","payload","uncletopia"],"game_id":440,"stv_port":27016,"stv_name":"Uncletopia | S√£o Paulo | 2 | All Maps | STV","players":null},{"server_id":7,"name":"Uncletopia | Seattle | 1 | All Maps","name_short":"sea-1","host":"sea-1.us.uncletopia.com","port":27015,"enabled":true,"region":"us-west","cc":"us","latitude":47.608013,"longitude":-122.33517,"reserved":0,"last_update":"0001-01-01T00:00:00Z","name_a2s":"Uncletopia | Seattle | 1 | All Maps","protocol":17,"map":"workshop/pl_cooler_badwater_a3.ugc2044302450","folder":"tf","game":"Team Fortress","app_id":440,"player_count":26,"max_players":24,"Bots":0,"server_type":"Dedicated","server_os":"Linux","password":true,"vac":true,"version":"7757534","steam_id":85568392924469997,"keywords":["nocrits","nodmgspread","payload","uncletopia"],"game_id":440,"stv_port":27016,"stv_name":"Uncletopia | Seattle | 1 | All Maps | STV","players":[{"user_id":484,"name":"catgirl giantess in heat","steam_id":76561198439042583,"connected_time":3618000000000,"state":"active","ping":112},{"user_id":483,"name":"rock gaming","steam_id":76561199402868311,"connected_time":3721000000000,"state":"active","ping":85},{"user_id":582,"name":"Themasterman75","steam_id":76561199385573293,"connected_time":121000000000,"state":"active","ping":70},{"user_id":511,"name":"Morse","steam_id":76561198039944542,"connected_time":2441000000000,"state":"active","ping":47},{"user_id":488,"name":"crunchy obama","steam_id":76561198044485217,"connected_time":3523000000000,"state":"active","ping":72},{"user_id":506,"name":"dust | she/it","steam_id":76561198045218909,"connected_time":2711000000000,"state":"active","ping":43},{"user_id":513,"name":"Cob","steam_id":76561198042518365,"connected_time":1541000000000,"state":"active","ping":61},{"user_id":490,"name":"c0wmanglr","steam_id":76561198025342064,"connected_time":3456000000000,"state":"active","ping":84},{"user_id":514,"name":"SnailYT","steam_id":76561198332040385,"connected_time":1446000000000,"state":"active","ping":61},{"user_id":517,"name":"fish enthusiast","steam_id":76561198160609198,"connected_time":1360000000000,"state":"active","ping":52},{"user_id":559,"name":"Wilhelmktx","steam_id":76561198158102295,"connected_time":641000000000,"state":"active","ping":100},{"user_id":509,"name":"Korbi.","steam_id":76561198355711373,"connected_time":2659000000000,"state":"active","ping":70},{"user_id":515,"name":"Grify","steam_id":76561198012292317,"connected_time":1446000000000,"state":"active","ping":144},{"user_id":576,"name":"takeshi_","steam_id":76561198148797456,"connected_time":222000000000,"state":"active","ping":69},{"user_id":516,"name":"help","steam_id":76561199056338917,"connected_time":1381000000000,"state":"active","ping":130},{"user_id":478,"name":"Superbacon24","steam_id":76561198121223443,"connected_time":4021000000000,"state":"active","ping":70},{"user_id":584,"name":"Monkey Gaming","steam_id":76561198232461944,"connected_time":92000000000,"state":"connecting","ping":0},{"user_id":497,"name":"rlty","steam_id":76561198009395055,"connected_time":3301000000000,"state":"active","ping":118},{"user_id":498,"name":"‡∏∏","steam_id":76561198084134025,"connected_time":3301000000000,"state":"active","ping":62},{"user_id":456,"name":"LesserAce","steam_id":76561198153258132,"connected_time":5781000000000,"state":"active","ping":122},{"user_id":531,"name":"DK360","steam_id":76561198796783094,"connected_time":1125000000000,"state":"active","ping":44},{"user_id":563,"name":"lili","steam_id":76561199391478575,"connected_time":616000000000,"state":"active","ping":72},{"user_id":512,"name":"Icy","steam_id":76561198125015366,"connected_time":2221000000000,"state":"active","ping":106},{"user_id":544,"name":"Fish Lambert","steam_id":76561198098279668,"connected_time":847000000000,"state":"active","ping":89},{"user_id":528,"name":"lightning","steam_id":76561198432444690,"connected_time":1227000000000,"state":"active","ping":47},{"user_id":586,"name":"Fh","steam_id":76561198000903511,"connected_time":13000000000,"state":"spawning","ping":165}]},{"server_id":119,"name":"Uncletopia | Seattle | 2 | All Maps","name_short":"sea-2","host":"sea-1.us.uncletopia.com","port":27025,"enabled":true,"region":"us-west","cc":"us","latitude":47.608013,"longitude":-122.33517,"reserved":0,"last_update":"0001-01-01T00:00:00Z","name_a2s":"Uncletopia | Seattle | 2 | All Maps","protocol":17,"map":"pl_barnblitz","folder":"tf","game":"Team Fortress","app_id":440,"player_count":24,"max_players":24,"Bots":0,"server_type":"Dedicated","server_os":"Linux","password":true,"vac":true,"version":"7757534","steam_id":85568392924469998,"keywords":["nocrits","nodmgspread","payload","uncletopia"],"game_id":440,"stv_port":27026,"stv_name":"Uncletopia | Seattle | 2 | All Maps | STV","players":[{"user_id":470,"name":"Karl Wheezer","steam_id":76561198848722936,"connected_time":112000000000,"state":"active","ping":52},{"user_id":458,"name":"Pneumo.","steam_id":76561197987911883,"connected_time":1622000000000,"state":"active","ping":71},{"user_id":460,"name":"--)YawgMoss(-- \"The Salt\"","steam_id":76561198072971649,"connected_time":893000000000,"state":"active","ping":66},{"user_id":468,"name":"iphone 7 plus","steam_id":76561198335836405,"connected_time":178000000000,"state":"active","ping":69},{"user_id":435,"name":"LWebb","steam_id":76561199162936929,"connected_time":3640000000000,"state":"active","ping":98},{"user_id":425,"name":"moose","steam_id":76561198134923092,"connected_time":4070000000000,"state":"active","ping":73},{"user_id":469,"name":"090-nsalih","steam_id":76561199467467873,"connected_time":124000000000,"state":"active","ping":171},{"user_id":436,"name":"Aircraft Carrier Princess","steam_id":76561198348354629,"connected_time":3616000000000,"state":"active","ping":62},{"user_id":456,"name":"boulder","steam_id":76561198347225801,"connected_time":1749000000000,"state":"active","ping":48},{"user_id":454,"name":"The Super Mario Bros. Movie","steam_id":76561198871692156,"connected_time":1914000000000,"state":"active","ping":49},{"user_id":471,"name":"Quietsharp","steam_id":76561198277968438,"connected_time":100000000000,"state":"active","ping":82},{"user_id":472,"name":"Training Arc","steam_id":76561198038832034,"connected_time":85000000000,"state":"active","ping":60},{"user_id":405,"name":"Cave Spider","steam_id":76561198090419068,"connected_time":5131000000000,"state":"active","ping":71},{"user_id":465,"name":"Bige Rone","steam_id":76561198066718191,"connected_time":616000000000,"state":"active","ping":47},{"user_id":473,"name":"AC3S Spade","steam_id":76561198266913930,"connected_time":64000000000,"state":"active","ping":62},{"user_id":475,"name":"Monkey Gaming","steam_id":76561198232461944,"connected_time":42000000000,"state":"spawning","ping":65},{"user_id":448,"name":"Sadodere Grimace","steam_id":76561198008332028,"connected_time":2517000000000,"state":"active","ping":87},{"user_id":466,"name":"Natalie","steam_id":76561198048848289,"connected_time":361000000000,"state":"active","ping":87},{"user_id":462,"name":"yaboismitty","steam_id":76561199130187442,"connected_time":846000000000,"state":"active","ping":88},{"user_id":453,"name":"John Smith","steam_id":76561198185776555,"connected_time":2030000000000,"state":"active","ping":36},{"user_id":428,"name":"Hector Salamanca","steam_id":76561199103213955,"connected_time":3984000000000,"state":"active","ping":82},{"user_id":383,"name":"mentos14","steam_id":76561198097993629,"connected_time":6036000000000,"state":"active","ping":88},{"user_id":464,"name":"gloobern","steam_id":76561198341190679,"connected_time":637000000000,"state":"active","ping":67},{"user_id":451,"name":"A Duck With Socks","steam_id":76561198018844227,"connected_time":2436000000000,"state":"active","ping":61}]},{"server_id":406,"name":"Uncletopia | Seattle | 3 | Stopwatch Beta","name_short":"sea-3","host":"sea-1.us.uncletopia.com","port":27035,"enabled":true,"region":"us-west","cc":"us","latitude":47.608013,"longitude":-122.33517,"reserved":0,"last_update":"0001-01-01T00:00:00Z","name_a2s":"Uncletopia | Seattle | 3 | Stopwatch Beta","protocol":17,"map":"cp_dustbowl","folder":"tf","game":"Team Fortress","app_id":440,"player_count":2,"max_players":24,"Bots":0,"server_type":"Dedicated","server_os":"Linux","password":true,"vac":true,"version":"7757534","steam_id":85568392924515217,"keywords":["cp","nocrits","nodmgspread","uncletopia"],"game_id":440,"stv_port":27036,"stv_name":"Uncletopia | Seattle | 3 | Stopwatch Beta | STV","players":[{"user_id":6,"name":"Buzz Buzz","steam_id":76561198294101501,"connected_time":221000000000,"state":"active","ping":75},{"user_id":8,"name":"yatagarasuwu","steam_id":76561198875080418,"connected_time":110000000000,"state":"active","ping":63}]},{"server_id":17,"name":"Uncletopia | San Francisco | 1 | All Maps","name_short":"sfo-1","host":"sfo-1.us.uncletopia.com","port":27015,"enabled":true,"region":"us-west","cc":"us","latitude":37.77397,"longitude":-122.4313,"reserved":0,"last_update":"0001-01-01T00:00:00Z","name_a2s":"Uncletopia | San Francisco | 1 | All Maps","protocol":17,"map":"pl_pier","folder":"tf","game":"Team Fortress","app_id":440,"player_count":0,"max_players":24,"Bots":0,"server_type":"Dedicated","server_os":"Linux","password":true,"vac":true,"version":"7757534","steam_id":85568392924469999,"keywords":["nocrits","nodmgspread","payload","uncletopia"],"game_id":440,"stv_port":27016,"stv_name":"Uncletopia | San Francisco | 1 | All Maps | STV","players":null},{"server_id":18,"name":"Uncletopia | San Francisco | 2 | All Maps","name_short":"sfo-2","host":"sfo-1.us.uncletopia.com","port":27025,"enabled":true,"region":"us-west","cc":"us","latitude":37.77397,"longitude":-122.4313,"reserved":0,"last_update":"0001-01-01T00:00:00Z","name_a2s":"Uncletopia | San Francisco | 2 | All Maps","protocol":17,"map":"koth_highpass","folder":"tf","game":"Team Fortress","app_id":440,"player_count":0,"max_players":24,"Bots":0,"server_type":"Dedicated","server_os":"Linux","password":true,"vac":true,"version":"7757534","steam_id":85568392924470000,"keywords":["cp","nocrits","nodmgspread","uncletopia"],"game_id":440,"stv_port":27026,"stv_name":"Uncletopia | San Francisco | 2 | All Maps | STV","players":null},{"server_id":19,"name":"Uncletopia | San Francisco | 3 | Stopwatch Beta","name_short":"sfo-3","host":"sfo-1.us.uncletopia.com","port":27035,"enabled":true,"region":"us-west","cc":"us","latitude":37.77397,"longitude":-122.4313,"reserved":0,"last_update":"0001-01-01T00:00:00Z","name_a2s":"Uncletopia | San Francisco | 3 | Stopwatch Beta","protocol":17,"map":"koth_highpass","folder":"tf","game":"Team Fortress","app_id":440,"player_count":0,"max_players":24,"Bots":0,"server_type":"Dedicated","server_os":"Linux","password":true,"vac":true,"version":"7757534","steam_id":85568392924742824,"keywords":["cp","nocrits","nodmgspread","uncletopia"],"game_id":440,"stv_port":27036,"stv_name":"Uncletopia | San Francisco | 3 | Stopwatch Beta | STV","players":null},{"server_id":20,"name":"Uncletopia | San Francisco | 4 | Community","name_short":"sfo-4","host":"sfo-1.us.uncletopia.com","port":27045,"enabled":true,"region":"us-west","cc":"us","latitude":37.77397,"longitude":-122.4313,"reserved":0,"last_update":"0001-01-01T00:00:00Z","name_a2s":"Uncletopia | San Francisco | 4 | Community","protocol":17,"map":"cp_altitude","folder":"tf","game":"Team Fortress","app_id":440,"player_count":0,"max_players":24,"Bots":0,"server_type":"Dedicated","server_os":"Linux","password":true,"vac":true,"version":"7757534","steam_id":85568392924742826,"keywords":["cp","nocrits","nodmgspread","uncletopia"],"game_id":440,"stv_port":27046,"stv_name":"Uncletopia | San Francisco | 4 | Community | STV","players":null},{"server_id":141,"name":"Uncletopia | Sydney | 1 | All Maps","name_short":"syd-1","host":"syd-1.au.uncletopia.com","port":27015,"enabled":true,"region":"au","cc":"au","latitude":-33.865143,"longitude":151.2099,"reserved":0,"last_update":"0001-01-01T00:00:00Z","name_a2s":"Uncletopia | Sydney | 1 | All Maps","protocol":17,"map":"koth_viaduct","folder":"tf","game":"Team Fortress","app_id":440,"player_count":0,"max_players":24,"Bots":0,"server_type":"Dedicated","server_os":"Linux","password":true,"vac":true,"version":"7757534","steam_id":85568392924470001,"keywords":["cp","nocrits","nodmgspread","uncletopia"],"game_id":440,"stv_port":27016,"stv_name":"Uncletopia | Sydney | 1 | All Maps | STV","players":null},{"server_id":123,"name":"Uncletopia | Sydney | 2 | All Maps","name_short":"syd-2","host":"syd-1.au.uncletopia.com","port":27025,"enabled":true,"region":"au","cc":"au","latitude":-33.865143,"longitude":151.2099,"reserved":0,"last_update":"0001-01-01T00:00:00Z","name_a2s":"Uncletopia | Sydney | 2 | All Maps","protocol":17,"map":"cp_sunshine","folder":"tf","game":"Team Fortress","app_id":440,"player_count":0,"max_players":24,"Bots":0,"server_type":"Dedicated","server_os":"Linux","password":true,"vac":true,"version":"7757534","steam_id":85568392924470002,"keywords":["cp","nocrits","nodmgspread","uncletopia"],"game_id":440,"stv_port":27026,"stv_name":"Uncletopia | Sydney | 2 | All Maps | STV","players":null},{"server_id":395,"name":"Uncletopia | Sydney | 3 | All Maps","name_short":"syd-3","host":"syd-1.au.uncletopia.com","port":27035,"enabled":true,"region":"au","cc":"au","latitude":-33.865143,"longitude":151.2099,"reserved":0,"last_update":"0001-01-01T00:00:00Z","name_a2s":"Uncletopia | Sydney | 3 | All Maps","protocol":17,"map":"pl_swiftwater_final1","folder":"tf","game":"Team Fortress","app_id":440,"player_count":0,"max_players":24,"Bots":0,"server_type":"Dedicated","server_os":"Linux","password":true,"vac":true,"version":"7757534","steam_id":85568392925194467,"keywords":["nocrits","nodmgspread","payload","uncletopia"],"game_id":440,"stv_port":27036,"stv_name":"Uncletopia | Sydney | 3 | All Maps | STV","players":null},{"server_id":396,"name":"Uncletopia | Sydney | 4 | All Maps","name_short":"syd-4","host":"syd-1.au.uncletopia.com","port":27045,"enabled":true,"region":"au","cc":"au","latitude":-33.865143,"longitude":151.2099,"reserved":0,"last_update":"0001-01-01T00:00:00Z","name_a2s":"Uncletopia | Sydney | 4 | All Maps","protocol":17,"map":"koth_highpass","folder":"tf","game":"Team Fortress","app_id":440,"player_count":0,"max_players":24,"Bots":0,"server_type":"Dedicated","server_os":"Linux","password":true,"vac":true,"version":"7757534","steam_id":85568392925397958,"keywords":["cp","nocrits","nodmgspread","uncletopia"],"game_id":440,"stv_port":27046,"stv_name":"Uncletopia | Sydney | 4 | All Maps | STV","players":null},{"server_id":58,"name":"Uncletopia | Sydney | 5 | Stopwatch Beta","name_short":"syd-5","host":"syd-1.au.uncletopia.com","port":27055,"enabled":true,"region":"au","cc":"au","latitude":-33.865143,"longitude":151.2099,"reserved":0,"last_update":"0001-01-01T00:00:00Z","name_a2s":"Uncletopia | Sydney | 5 | Stopwatch Beta","protocol":17,"map":"koth_cascade","folder":"tf","game":"Team Fortress","app_id":440,"player_count":0,"max_players":24,"Bots":0,"server_type":"Dedicated","server_os":"Linux","password":true,"vac":true,"version":"7757534","steam_id":85568392925397959,"keywords":["cp","nocrits","nodmgspread","uncletopia"],"game_id":440,"stv_port":27056,"stv_name":"Uncletopia | Sydney | 5 | Stopwatch Beta | STV","players":null},{"server_id":59,"name":"Uncletopia | Sydney | 6 | Community","name_short":"syd-6","host":"syd-1.au.uncletopia.com","port":27065,"enabled":true,"region":"au","cc":"au","latitude":-33.865143,"longitude":151.2099,"reserved":0,"last_update":"0001-01-01T00:00:00Z","name_a2s":"Uncletopia | Sydney | 6 | Community","protocol":17,"map":"workshop/cp_glassworks_rc6a.ugc454118349","folder":"tf","game":"Team Fortress","app_id":440,"player_count":0,"max_players":24,"Bots":0,"server_type":"Dedicated","server_os":"Linux","password":true,"vac":true,"version":"7757534","steam_id":85568392925397960,"keywords":["cp","nocrits","nodmgspread","uncletopia"],"game_id":440,"stv_port":27066,"stv_name":"Uncletopia | Sydney | 6 | Community | STV","players":null},{"server_id":49,"name":"Uncletopia | Warsaw | 1 | All Maps","name_short":"waw-1","host":"waw-1.pl.uncletopia.com","port":27015,"enabled":true,"region":"eu","cc":"pl","latitude":52.2297,"longitude":21.017532,"reserved":0,"last_update":"0001-01-01T00:00:00Z","name_a2s":"","protocol":0,"map":"","folder":"","game":"","app_id":0,"player_count":0,"max_players":0,"Bots":0,"server_type":"","server_os":"","password":false,"vac":false,"version":"","steam_id":0,"keywords":null,"game_id":0,"stv_port":0,"stv_name":"","players":null},{"server_id":50,"name":"Uncletopia | Warsaw | 2 | All Maps","name_short":"waw-2","host":"waw-1.pl.uncletopia.com","port":27025,"enabled":true,"region":"eu","cc":"pl","latitude":52.2297,"longitude":21.017532,"reserved":0,"last_update":"0001-01-01T00:00:00Z","name_a2s":"Uncletopia | Warsaw | 2 | All Maps","protocol":17,"map":"koth_viaduct","folder":"tf","game":"Team Fortress","app_id":440,"player_count":0,"max_players":24,"Bots":0,"server_type":"Dedicated","server_os":"Linux","password":true,"vac":true,"version":"7757534","steam_id":85568392925397851,"keywords":["cp","nocrits","nodmgspread","uncletopia"],"game_id":440,"stv_port":27026,"stv_name":"Uncletopia | Warsaw | 2 | All Maps | STV","players":null},{"server_id":51,"name":"Uncletopia | Warsaw | 3 | All Maps","name_short":"waw-3","host":"waw-1.pl.uncletopia.com","port":27035,"enabled":true,"region":"eu","cc":"pl","latitude":52.2297,"longitude":21.017532,"reserved":0,"last_update":"0001-01-01T00:00:00Z","name_a2s":"Uncletopia | Warsaw | 3 | All Maps","protocol":17,"map":"pl_frontier_final","folder":"tf","game":"Team Fortress","app_id":440,"player_count":0,"max_players":24,"Bots":0,"server_type":"Dedicated","server_os":"Linux","password":true,"vac":true,"version":"7757534","steam_id":85568392925397852,"keywords":["nocrits","nodmgspread","payload","uncletopia"],"game_id":440,"stv_port":27036,"stv_name":"Uncletopia | Warsaw | 3 | All Maps | STV","players":null},{"server_id":52,"name":"Uncletopia | Warsaw | 4 | All Maps","name_short":"waw-4","host":"waw-1.pl.uncletopia.com","port":27045,"enabled":true,"region":"eu","cc":"pl","latitude":52.2297,"longitude":21.017532,"reserved":0,"last_update":"0001-01-01T00:00:00Z","name_a2s":"Uncletopia | Warsaw | 4 | All Maps","protocol":17,"map":"cp_snakewater_final1","folder":"tf","game":"Team Fortress","app_id":440,"player_count":0,"max_players":24,"Bots":0,"server_type":"Dedicated","server_os":"Linux","password":true,"vac":true,"version":"7757534","steam_id":85568392925397853,"keywords":["cp","nocrits","nodmgspread","uncletopia"],"game_id":440,"stv_port":27046,"stv_name":"Uncletopia | Warsaw | 4 | All Maps | STV","players":null},{"server_id":53,"name":"Uncletopia | Warsaw | 5 | Stopwatch Beta","name_short":"waw-5","host":"waw-1.pl.uncletopia.com","port":27055,"enabled":true,"region":"eu","cc":"pl","latitude":52.2297,"longitude":21.017532,"reserved":0,"last_update":"0001-01-01T00:00:00Z","name_a2s":"Uncletopia | Warsaw | 5 | Stopwatch Beta","protocol":17,"map":"workshop/pl_vigil_rc9.ugc1266210012","folder":"tf","game":"Team Fortress","app_id":440,"player_count":0,"max_players":24,"Bots":0,"server_type":"Dedicated","server_os":"Linux","password":true,"vac":true,"version":"7757534","steam_id":85568392925397854,"keywords":["nocrits","nodmgspread","payload","uncletopia"],"game_id":440,"stv_port":27056,"stv_name":"Uncletopia | Warsaw | 5 | Stopwatch Beta | STV","players":null},{"server_id":54,"name":"Uncletopia | Warsaw | 6 | Community","name_short":"waw-6","host":"waw-1.pl.uncletopia.com","port":27065,"enabled":true,"region":"eu","cc":"pl","latitude":52.2297,"longitude":21.017532,"reserved":0,"last_update":"0001-01-01T00:00:00Z","name_a2s":"Uncletopia | Warsaw | 6 | Community","protocol":17,"map":"koth_lakeside_final","folder":"tf","game":"Team Fortress","app_id":440,"player_count":0,"max_players":24,"Bots":0,"server_type":"Dedicated","server_os":"Linux","password":true,"vac":true,"version":"7757534","steam_id":85568392925397856,"keywords":["cp","nocrits","nodmgspread","uncletopia"],"game_id":440,"stv_port":27066,"stv_name":"Uncletopia | Warsaw | 6 | Community | STV","players":null}]}