{"status":true,"message":"","result":[{"server_id":9,"name":"Uncletopia | Atlanta | 1 | All Maps","name_short":"atl-1","host":"atl-1.us.uncletopia.com","port":27015,"enabled":true,"region":"us-east","cc":"us","latitude":33.753746,"longitude":-84.38633,"reserved":0,"last_update":"0001-01-01T00:00:00Z","name_a2s":"Uncletopia | Atlanta | 1 | All Maps","protocol":17,"map":"pl_upward","folder":"tf","game":"Team Fortress","app_id":440,"player_count":23,"max_players":24,"Bots":0,"server_type":"Dedicated","server_os":"Linux","password":true,"vac":true,"version":"7882260","steam_id":85568392924469982,"keywords":["nocrits","nodmgspread","payload","uncletopia"],"game_id":440,"stv_port":27016,"stv_name":"Uncletopia | Atlanta | 1 | All Maps | STV","players":[{"user_id":219,"name":"KCritical","steam_id":76561198036988728,"connected_time":715000000000,"state":"active","ping":79},{"user_id":221,"name":"DeathByToaster33","steam_id":76561198215259385,"connected_time":696000000000,"state":"active","ping":54},{"user_id":189,"name":"SleepyT","steam_id":76561198042272576,"connected_time":2191000000000,"state":"active","ping":59},{"user_id":176,"name":"Oopsie Daisy ❋","steam_id":76561198042144492,"connected_time":3405000000000,"state":"active","ping":45},{"user_id":238,"name":"Jt","steam_id":76561198049853548,"connected_time":371000000000,"state":"active","ping":63},{"user_id":264,"name":"Pumbloom","steam_id":76561198024481281,"connected_time":2000000000,"state":"spawning","ping":34},{"user_id":178,"name":"William Wallace","steam_id":76561199343316814,"connected_time":3254000000000,"state":"active","ping":57},{"user_id":236,"name":"St. Bobson Q Dugnutt III Esq Sr","steam_id":76561197993459985,"connected_time":440000000000,"state":"active","ping":72},{"user_id":152,"name":"basil smoking weed","steam_id":76561198119590214,"connected_time":5083000000000,"state":"active","ping":46},{"user_id":198,"name":"thebob16","steam_id":76561199005310059,"connected_time":1308000000000,"state":"active","ping":76},{"user_id":233,"name":"Serenue","steam_id":76561199040361250,"connected_time":492000000000,"state":"active","ping":83},{"user_id":79,"name":"metalfan666|bday tmrw|","steam_id":76561198386344068,"connected_time":10286000000000,"state":"active","ping":64},{"user_id":226,"name":"mop","steam_id":76561198083853538,"connected_time":578000000000,"state":"active","ping":69},{"user_id":46,"name":"meow'd for your sins","steam_id":76561198092135570,"connected_time":12383000000000,"state":"active","ping":59},{"user_id":263,"name":"Solar","steam_id":76561198070121486,"connected_time":11000000000,"state":"active","ping":114},{"user_id":192,"name":"player of the black lagoon","steam_id":76561198354990729,"connected_time":1510000000000,"state":"active","ping":74},{"user_id":190,"name":"saib","steam_id":76561198966980576,"connected_time":1807000000000,"state":"active","ping":60},{"user_id":184,"name":"emily","steam_id":76561198148132163,"connected_time":2659000000000,"state":"active","ping":78},{"user_id":187,"name":"Wheat Box","steam_id":76561198203443358,"connected_time":2357000000000,"state":"active","ping":75},{"user_id":231,"name":"King Baldski","steam_id":76561198359568400,"connected_time":505000000000,"state":"active","ping":127},{"user_id":196,"name":"smoking on 100crits 2fort pack","steam_id":76561198079416036,"connected_time":1314000000000,"state":"active","ping":75},{"user_id":131,"name":"map tr_ctap_practice","steam_id":76561198249206656,"connected_time":6462000000000,"state":"active","ping":80},{"user_id":261,"name":"jstn","steam_id":76561198845283665,"connected_time":65000000000,"state":"active","ping":133}]},{"server_id":104,"name":"Uncletopia | Atlanta | 2 | All Maps","name_short":"atl-2","host":"atl-1.us.uncletopia.com","port":27025,"enabled":true,"region":"us-east","cc":"us","latitude":33.753746,"longitude":-84.38633,"reserved":0,"last_update":"0001-01-01T00:00:00Z","name_a2s":"Uncletopia | Atlanta | 2 | All Maps","protocol":17,"map":"koth_highpass","folder":"tf","game":"Team Fortress","app_id":440,"player_count":0,"max_players":24,"Bots":0,"server_type":"Dedicated","server_os":"Linux","password":true,"vac":true,"version":"7882260","steam_id":85568392924469983,"keywords":["cp","nocrits","nodmgspread","uncletopia"],"game_id":440,"stv_port":27026,"stv_name":"Uncletopia | Atlanta | 2 | All Maps | STV","players":null},{"server_id":400,"name":"Uncletopia | Atlanta | 3 | Community","name_short":"atl-3","host":"atl-1.us.uncletopia.com","port":27035,"enabled":true,"region":"us-east","cc":"us","latitude":33.753746,"longitude":-84.38633,"reserved":0,"last_update":"0001-01-01T00:00:00Z","name_a2s":"Uncletopia | Atlanta | 3 | Community","protocol":17,"map":"workshop/cp_logjam_rc12.ugc454812035","folder":"tf","game":"Team Fortress","app_id":440,"player_count":0,"max_players":24,"Bots":0,"server_type":"Dedicated","server_os":"Linux","password":true,"vac":true,"version":"7882260","steam_id":85568392924515187,"keywords":["cp","nocrits","nodmgspread","uncletopia"],"game_id":440,"stv_port":27036,"stv_name":"Uncletopia | Atlanta | 3 | Community | STV","players":null},{"server_id":401,"name":"Uncletopia | Atlanta | 4 | No Payload","name_short":"atl-4","host":"atl-1.us.uncletopia.com","port":27045,"enabled":true,"region":"us-east","cc":"us","latitude":33.753746,"longitude":-84.38633,"reserved":0,"last_update":"0001-01-01T00:00:00Z","name_a2s":"","protocol":0,"map":"","folder":"","game":"","app_id":0,"player_count":0,"max_players":0,"Bots":0,"server_type":"","server_os":"","password":false,"vac":false,"version":"","steam_id":0,"keywords":null,"game_id":0,"stv_port":0,"stv_name":"","players":null},{"server_id":2,"name":"Uncletopia | Chicago | 1 | All Maps","name_short":"chi-1","host":"chi-1.us.uncletopia.com","port":27015,"enabled":true,"region":"us-central","cc":"us","latitude":41.881832,"longitude":-87.62318,"reserved":0,"last_update":"0001-01-01T00:00:00Z","name_a2s":"Uncletopia | Chicago | 1 | All Maps","protocol":17,"map":"cp_process_final","folder":"tf","game":"Team Fortress","app_id":440,"player_count":23,"max_players":24,"Bots":0,"server_type":"Dedicated","server_os":"Linux","password":true,"vac":true,"version":"7882260","steam_id":85568392924469984,"keywords":["cp","nocrits","nodmgspread","uncletopia"],"game_id":440,"stv_port":27016,"stv_name":"Uncletopia | Chicago | 1 | All Maps | STV","players":[{"user_id":319,"name":"his flatulence","steam_id":76561198799404824,"connected_time":4195000000000,"state":"active","ping":71},{"user_id":343,"name":"maritalfuture36","steam_id":76561198272718247,"connected_time":2072000000000,"state":"active","ping":161},{"user_id":346,"name":"LeadHickory","steam_id":76561198219756521,"connected_time":2064000000000,"state":"active","ping":84},{"user_id":368,"name":"kallerannar","steam_id":76561199095701143,"connected_time":724000000000,"state":"active","ping":159},{"user_id":367,"name":"Akulio","steam_id":76561198271891906,"connected_time":845000000000,"state":"active","ping":87},{"user_id":369,"name":"Also Known As Assteeth","steam_id":76561198049837377,"connected_time":508000000000,"state":"active","ping":49},{"user_id":358,"name":"0","steam_id":76561198046055673,"connected_time":1283000000000,"state":"active","ping":67},{"user_id":355,"name":"The Eyeball Man","steam_id":76561198013534207,"connected_time":1694000000000,"state":"active","ping":65},{"user_id":353,"name":"SnazzyCelestial","steam_id":76561198328763813,"connected_time":1962000000000,"state":"active","ping":87},{"user_id":361,"name":"dubspol","steam_id":76561198114845137,"connected_time":1087000000000,"state":"active","ping":60},{"user_id":354,"name":"Jakey Boi","steam_id":76561198254354847,"connected_time":1960000000000,"state":"active","ping":114},{"user_id":371,"name":"old_gus","steam_id":76561197964214993,"connected_time":224000000000,"state":"active","ping":90},{"user_id":324,"name":"ewp","steam_id":76561199148289271,"connected_time":4038000000000,"state":"active","ping":106},{"user_id":347,"name":"Acehay14","steam_id":76561198052373291,"connected_time":2064000000000,"state":"active","ping":60},{"user_id":342,"name":"Maverick","steam_id":76561198322829814,"connected_time":2300000000000,"state":"active","ping":77},{"user_id":326,"name":"tide*･ﾟ✧","steam_id":76561198092224185,"connected_time":3999000000000,"state":"active","ping":58},{"user_id":332,"name":"Pyromaniac","steam_id":76561198101042701,"connected_time":3358000000000,"state":"active","ping":69},{"user_id":365,"name":"Coup de Grass","steam_id":76561198011643226,"connected_time":915000000000,"state":"active","ping":75},{"user_id":242,"name":"177013","steam_id":76561198072303290,"connected_time":10250000000000,"state":"active","ping":60},{"user_id":372,"name":"waltuh","steam_id":76561198363541736,"connected_time":114000000000,"state":"active","ping":86},{"user_id":370,"name":"Snom","steam_id":76561198333827920,"connected_time":283000000000,"state":"active","ping":97},{"user_id":328,"name":"LavishLad","steam_id":76561199117799002,"connected_time":3951000000000,"state":"active","ping":83},{"user_id":363,"name":"Shaby_Frost","steam_id":76561198401334563,"connected_time":1040000000000,"state":"active","ping":46}]},{"server_id":106,"name":"Uncletopia | Chicago | 2 | All Maps","name_short":"chi-2","host":"chi-1.us.uncletopia.com","port":27025,"enabled":true,"region":"us-central","cc":"us","latitude":41.881832,"longitude":-87.62318,"reserved":0,"last_update":"0001-01-01T00:00:00Z","name_a2s":"Uncletopia | Chicago | 2 | All Maps","protocol":17,"map":"pl_snowycoast","folder":"tf","game":"Team Fortress","app_id":440,"player_count":24,"max_players":24,"Bots":0,"server_type":"Dedicated","server_os":"Linux","password":true,"vac":true,"version":"7882260","steam_id":85568392924469985,"keywords":["nocrits","nodmgspread","payload","uncletopia"],"game_id":440,"stv_port":27026,"stv_name":"Uncletopia | Chicago | 2 | All Maps | STV","players":[{"user_id":77,"name":"Swifz","steam_id":76561199074464840,"connected_time":4291000000000,"state":"active","ping":74},{"user_id":126,"name":"Wan Shi Tong","steam_id":76561198076441225,"connected_time":696000000000,"state":"active","ping":67},{"user_id":132,"name":"coolkid","steam_id":76561198072600034,"connected_time":227000000000,"state":"active","ping":139},{"user_id":130,"name":"tasty","steam_id":76561198083839061,"connected_time":489000000000,"state":"active","ping":69},{"user_id":122,"name":"ipodnova-Aura","steam_id":76561198272353485,"connected_time":970000000000,"state":"active","ping":69},{"user_id":133,"name":"Corpse01","steam_id":76561198153671643,"connected_time":216000000000,"state":"active","ping":60},{"user_id":134,"name":"MankTKO","steam_id":76561198189421005,"connected_time":213000000000,"state":"active","ping":45},{"user_id":135,"name":"Mr.Bady","steam_id":76561199094651706,"connected_time":210000000000,"state":"active","ping":80},{"user_id":123,"name":"AstroVulpes","steam_id":76561198384277161,"connected_time":732000000000,"state":"active","ping":157},{"user_id":94,"name":"Big Dick Swinging","steam_id":76561198053819929,"connected_time":3022000000000,"state":"active","ping":80},{"user_id":127,"name":"Charlie","steam_id":76561198798127908,"connected_time":696000000000,"state":"active","ping":71},{"user_id":129,"name":"M@verick","steam_id":76561198006363519,"connected_time":574000000000,"state":"active","ping":77},{"user_id":142,"name":"The Doc K","steam_id":76561198035695029,"connected_time":3000000000,"state":"spawning","ping":91},{"user_id":116,"name":"gnome_Chompski","steam_id":76561198962543984,"connected_time":1989000000000,"state":"active","ping":106},{"user_id":128,"name":"☆Nebula-Belt☆","steam_id":76561198151250806,"connected_time":671000000000,"state":"active","ping":73},{"user_id":136,"name":"How my blood boils","steam_id":76561199195104977,"connected_time":193000000000,"state":"active","ping":76},{"user_id":137,"name":"MattJettskie","steam_id":76561199229493583,"connected_time":186000000000,"state":"active","ping":93},{"user_id":113,"name":"LeTonzy","steam_id":76561198005806699,"connected_time":2143000000000,"state":"active","ping":120},{"user_id":117,"name":"Lim","steam_id":76561198082820168,"connected_time":1905000000000,"state":"active","ping":100},{"user_id":138,"name":"hestia-sm0ker","steam_id":76561198051881047,"connected_time":175000000000,"state":"active","ping":42},{"user_id":62,"name":"Moomin","steam_id":76561198072726213,"connected_time":5379000000000,"state":"active","ping":105},{"user_id":124,"name":"Pastel","steam_id":76561198147847673,"connected_time":726000000000,"state":"active","ping":104},{"user_id":139,"name":"TonyStewartFan03","steam_id":76561198271629958,"connected_time":166000000000,"state":"active","ping":60},{"user_id":141,"name":"pharmacist","steam_id":76561198274424248,"connected_time":47000000000,"state":"spawning","ping":192}]},{"server_id":402,"name":"Uncletopia | Chicago | 3 | All Maps","name_short":"chi-3","host":"chi-1.us.uncletopia.com","port":27035,"enabled":true,"region":"us-central","cc":"us","latitude":41.881832,"longitude":-87.62318,"reserved":0,"last_update":"0001-01-01T00:00:00Z","name_a2s":"Uncletopia | Chicago | 3 | All Maps","protocol":17,"map":"pl_barnblitz","folder":"tf","game":"Team Fortress","app_id":440,"player_count":24,"max_players":24,"Bots":0,"server_type":"Dedicated","server_os":"Linux","password":true,"vac":true,"version":"7882260","steam_id":85568392924515191,"keywords":["nocrits","nodmgspread","payload","uncletopia"],"game_id":440,"stv_port":27036,"stv_name":"Uncletopia | Chicago | 3 | All Maps | STV","players":[{"user_id":242,"name":"Rafl","steam_id":76561198055222756,"connected_time":1516000000000,"state":"active","ping":66},{"user_id":246,"name":"OHGODBEES!","steam_id":76561198000653374,"connected_time":828000000000,"state":"active","ping":148},{"user_id":175,"name":"Truly Cryo","steam_id":76561198347497484,"connected_time":6541000000000,"state":"active","ping":87},{"user_id":131,"name":"Sprit ♥","steam_id":76561198268780781,"connected_time":9564000000000,"state":"active","ping":47},{"user_id":244,"name":"battle clown","steam_id":76561198045788371,"connected_time":1003000000000,"state":"active","ping":68},{"user_id":245,"name":"chloe when she","steam_id":76561198128537564,"connected_time":846000000000,"state":"active","ping":47},{"user_id":225,"name":"Rubber Pineapple","steam_id":76561198048574958,"connected_time":2486000000000,"state":"active","ping":115},{"user_id":171,"name":"Green Icicle","steam_id":76561198069624529,"connected_time":6781000000000,"state":"active","ping":84},{"user_id":228,"name":"GrimFate","steam_id":76561199011948330,"connected_time":2107000000000,"state":"active","ping":97},{"user_id":203,"name":"Elroy Spark - DJ- Roro","steam_id":76561198071776428,"connected_time":3677000000000,"state":"active","ping":107},{"user_id":226,"name":"Missical","steam_id":76561198261007627,"connected_time":2425000000000,"state":"active","ping":69},{"user_id":247,"name":"Ludography","steam_id":76561198046354069,"connected_time":821000000000,"state":"active","ping":80},{"user_id":243,"name":"s a d b o y s","steam_id":76561198037481669,"connected_time":1297000000000,"state":"active","ping":54},{"user_id":230,"name":"Foreskin Reattachment service","steam_id":76561198060342804,"connected_time":2066000000000,"state":"active","ping":79},{"user_id":193,"name":"D","steam_id":76561198292908619,"connected_time":4440000000000,"state":"active","ping":69},{"user_id":143,"name":"Goldensliv","steam_id":76561198161673891,"connected_time":8521000000000,"state":"active","ping":138},{"user_id":235,"name":"MetalTao","steam_id":76561198189408110,"connected_time":1913000000000,"state":"active","ping":86},{"user_id":249,"name":"The Loveable CHI.I.BI.","steam_id":76561198039262228,"connected_time":332000000000,"state":"active","ping":89},{"user_id":239,"name":"Psychotic Personality Core","steam_id":76561198254853528,"connected_time":1806000000000,"state":"active","ping":47},{"user_id":223,"name":"EchoReplayz","steam_id":76561198229366892,"connected_time":2583000000000,"state":"active","ping":54},{"user_id":222,"name":"Quark","steam_id":76561198328155605,"connected_time":2661000000000,"state":"active","ping":54},{"user_id":214,"name":"Temujin","steam_id":76561198030936583,"connected_time":3420000000000,"state":"active","ping":52},{"user_id":212,"name":"DiscoTraveler","steam_id":76561199240168088,"connected_time":3540000000000,"state":"active","ping":48},{"user_id":248,"name":"worst tf2 player ever","steam_id":76561198330205913,"connected_time":713000000000,"state":"active","ping":79}]},{"server_id":403,"name":"Uncletopia | Chicago | 4 | All Maps","name_short":"chi-4","host":"chi-1.us.uncletopia.com","port":27045,"enabled":true,"region":"us-central","cc":"us","latitude":41.881832,"longitude":-87.62318,"reserved":0,"last_update":"0001-01-01T00:00:00Z","name_a2s":"Uncletopia | Chicago | 4 | All Maps","protocol":17,"map":"pl_frontier_final","folder":"tf","game":"Team Fortress","app_id":440,"player_count":24,"max_players":24,"Bots":0,"server_type":"Dedicated","server_os":"Linux","password":true,"vac":true,"version":"7882260","steam_id":85568392924515193,"keywords":["nocrits","nodmgspread","payload","uncletopia"],"game_id":440,"stv_port":27046,"stv_name":"Uncletopia | Chicago | 4 | All Maps | STV","players":[{"user_id":392,"name":"Riff III","steam_id":76561198066921423,"connected_time":593000000000,"state":"active","ping":71},{"user_id":393,"name":"stall","steam_id":76561199152861652,"connected_time":590000000000,"state":"active","ping":49},{"user_id":398,"name":"Blargian Snagglebeast","steam_id":76561198115831507,"connected_time":98000000000,"state":"active","ping":54},{"user_id":338,"name":"goose","steam_id":76561198367551668,"connected_time":4775000000000,"state":"active","ping":47},{"user_id":394,"name":"Big Russ","steam_id":76561198122943559,"connected_time":582000000000,"state":"active","ping":51},{"user_id":379,"name":"KennytheHedgehog","steam_id":76561198094607721,"connected_time":1735000000000,"state":"active","ping":72},{"user_id":390,"name":"LightBulbGlue #SaveTF2","steam_id":76561198329573529,"connected_time":1131000000000,"state":"active","ping":65},{"user_id":395,"name":"gabaghoulio","steam_id":76561198013650292,"connected_time":576000000000,"state":"active","ping":112},{"user_id":381,"name":"Doctor Bear ʕ •ᴥ•ʔ","steam_id":76561197968103161,"connected_time":1598000000000,"state":"active","ping":60},{"user_id":342,"name":"Whoa","steam_id":76561197970353496,"connected_time":4221000000000,"state":"active","ping":74},{"user_id":396,"name":"seeyouauntie","steam_id":76561198045852999,"connected_time":552000000000,"state":"active","ping":53},{"user_id":378,"name":"NarcolepticRock","steam_id":76561199123103642,"connected_time":1778000000000,"state":"active","ping":87},{"user_id":400,"name":"Dallas","steam_id":76561198066542919,"connected_time":64000000000,"state":"active","ping":99},{"user_id":368,"name":"Downie Dan","steam_id":76561198098400520,"connected_time":2163000000000,"state":"active","ping":81},{"user_id":383,"name":"Lusty","steam_id":76561198446378419,"connected_time":1589000000000,"state":"active","ping":81},{"user_id":357,"name":"faka","steam_id":76561199093280815,"connected_time":2821000000000,"state":"active","ping":110},{"user_id":167,"name":"Horrizan","steam_id":76561197965028480,"connected_time":17456000000000,"state":"active","ping":77},{"user_id":401,"name":"@man","steam_id":76561198068324749,"connected_time":14000000000,"state":"spawning","ping":74},{"user_id":272,"name":"DarkEmpireOne","steam_id":76561198106849547,"connected_time":9277000000000,"state":"active","ping":45},{"user_id":385,"name":"rikoDLC","steam_id":76561197999187973,"connected_time":1541000000000,"state":"active","ping":94},{"user_id":388,"name":"Toast","steam_id":76561198401995265,"connected_time":1486000000000,"state":"active","ping":53},{"user_id":391,"name":"LVL 4 Dispenser Gaming","steam_id":76561198044244547,"connected_time":697000000000,"state":"active","ping":80},{"user_id":399,"name":"mammoth!?","steam_id":76561198066881911,"connected_time":94000000000,"state":"active","ping":60},{"user_id":321,"name":"Spazz","steam_id":76561198036167494,"connected_time":6394000000000,"state":"active","ping":28}]},{"server_id":36,"name":"Uncletopia | Chicago | 5 | All Maps","name_short":"chi-5","host":"chi-2.us.uncletopia.com","port":27015,"enabled":true,"region":"us-central","cc":"us","latitude":41.881832,"longitude":-87.62318,"reserved":0,"last_update":"0001-01-01T00:00:00Z","name_a2s":"Uncletopia | Chicago | 5 | All Maps","protocol":17,"map":"koth_viaduct","folder":"tf","game":"Team Fortress","app_id":440,"player_count":0,"max_players":24,"Bots":0,"server_type":"Dedicated","server_os":"Linux","password":true,"vac":true,"version":"7882260","steam_id":85568392924866362,"keywords":["cp","nocrits","nodmgspread","uncletopia"],"game_id":440,"stv_port":27016,"stv_name":"Uncletopia | Chicago | 5 | All Maps | STV","players":null},{"server_id":37,"name":"Uncletopia | Chicago | 6 | All Maps","name_short":"chi-6","host":"chi-2.us.uncletopia.com","port":27025,"enabled":true,"region":"us-central","cc":"us","latitude":41.881832,"longitude":-87.62318,"reserved":0,"last_update":"0001-01-01T00:00:00Z","name_a2s":"Uncletopia | Chicago | 6 | All Maps","protocol":17,"map":"koth_cascade","folder":"tf","game":"Team Fortress","app_id":440,"player_count":0,"max_players":24,"Bots":0,"server_type":"Dedicated","server_os":"Linux","password":true,"vac":true,"version":"7882260","steam_id":85568392924866363,"keywords":["cp","nocrits","nodmgspread","uncletopia"],"game_id":440,"stv_port":27026,"stv_name":"Uncletopia | Chicago | 6 | All Maps | STV","players":null},{"server_id":38,"name":"Uncletopia | Chicago | 7 | Stopwatch Beta","name_short":"chi-7","host":"chi-2.us.uncletopia.com","port":27035,"enabled":true,"region":"us-central","cc":"us","latitude":41.881832,"longitude":-87.62318,"reserved":0,"last_update":"0001-01-01T00:00:00Z","name_a2s":"Uncletopia | Chicago | 7 | Stopwatch Beta","protocol":17,"map":"pl_borneo","folder":"tf","game":"Team Fortress","app_id":440,"player_count":0,"max_players":24,"Bots":0,"server_type":"Dedicated","server_os":"Linux","password":true,"vac":true,"version":"7882260","steam_id":85568392924866364,"keywords":["nocrits","nodmgspread","payload","uncletopia"],"game_id":440,"stv_port":27036,"stv_name":"Uncletopia | Chicago | 7 | Stopwatch Beta | STV","players":null},{"server_id":39,"name":"Uncletopia | Chicago | 8 | Community","name_short":"chi-8","host":"chi-2.us.uncletopia.com","port":27045,"enabled":true,"region":"us-central","cc":"us","latitude":41.881832,"longitude":-87.62318,"reserved":0,"last_update":"0001-01-01T00:00:00Z","name_a2s":"Uncletopia | Chicago | 8 | Community","protocol":17,"map":"cp_snakewater_final1","folder":"tf","game":"Team Fortress","app_id":440,"player_count":0,"max_players":24,"Bots":0,"server_type":"Dedicated","server_os":"Linux","password":true,"vac":true,"version":"7882260","steam_id":85568392924866365,"keywords":["cp","nocrits","nodmgspread","uncletopia"],"game_id":440,"stv_port":27046,"stv_name":"Uncletopia | Chicago | 8 | Community | STV","players":null},{"server_id":8,"name":"Uncletopia | Dallas | 1 | All Maps","name_short":"dal-1","host":"dal-1.us.uncletopia.com","port":27015,"enabled":true,"region":"us-central","cc":"us","latitude":32.779167,"longitude":-96.80889,"reserved":0,"last_update":"0001-01-01T00:00:00Z","name_a2s":"Uncletopia | Dallas | 1 | All Maps","protocol":17,"map":"koth_harvest_final","folder":"tf","game":"Team Fortress","app_id":440,"player_count":23,"max_players":24,"Bots":0,"server_type":"Dedicated","server_os":"Linux","password":true,"vac":true,"version":"7882260","steam_id":85568392924469986,"keywords":["cp","nocrits","nodmgspread","uncletopia"],"game_id":440,"stv_port":27016,"stv_name":"Uncletopia | Dallas | 1 | All Maps | STV","players":[{"user_id":164,"name":"Ko - こ - 코","steam_id":76561198035726982,"connected_time":196000000000,"state":"active","ping":69},{"user_id":144,"name":"Jango","steam_id":76561198084589742,"connected_time":2232000000000,"state":"active","ping":73},{"user_id":135,"name":"sentry bustah","steam_id":76561198161824724,"connected_time":2493000000000,"state":"active","ping":88},{"user_id":157,"name":"LV.5 Crook","steam_id":76561198068799033,"connected_time":1135000000000,"state":"active","ping":59},{"user_id":136,"name":"sky walker","steam_id":76561198937717599,"connected_time":2481000000000,"state":"active","ping":42},{"user_id":165,"name":"LucentOwl","steam_id":76561198140978957,"connected_time":12000000000,"state":"spawning","ping":90},{"user_id":153,"name":"deb","steam_id":76561198414336279,"connected_time":1370000000000,"state":"active","ping":60},{"user_id":158,"name":"ThePizzaMaster3","steam_id":76561199137307151,"connected_time":935000000000,"state":"active","ping":73},{"user_id":17,"name":"Atlas (Skylar)","steam_id":76561198041531774,"connected_time":8751000000000,"state":"active","ping":73},{"user_id":122,"name":"The Collective","steam_id":76561198170423483,"connected_time":3413000000000,"state":"active","ping":76},{"user_id":163,"name":"✩BONGO✩","steam_id":76561198018040930,"connected_time":299000000000,"state":"active","ping":44},{"user_id":44,"name":"atari jaguar","steam_id":76561198084849541,"connected_time":7661000000000,"state":"active","ping":45},{"user_id":117,"name":"Emgee","steam_id":76561198096429333,"connected_time":3723000000000,"state":"active","ping":80},{"user_id":53,"name":"MagicMuffinman","steam_id":76561198149255313,"connected_time":7223000000000,"state":"active","ping":82},{"user_id":160,"name":"i heard a gun","steam_id":76561198858155238,"connected_time":784000000000,"state":"active","ping":121},{"user_id":139,"name":"guac","steam_id":76561198070305720,"connected_time":2377000000000,"state":"active","ping":56},{"user_id":161,"name":"Anonymous Redneck","steam_id":76561198006140954,"connected_time":622000000000,"state":"active","ping":90},{"user_id":162,"name":"Cube","steam_id":76561199021614213,"connected_time":472000000000,"state":"active","ping":174},{"user_id":147,"name":"Moonflower ✦","steam_id":76561198191782483,"connected_time":1850000000000,"state":"active","ping":49},{"user_id":130,"name":"EightySix","steam_id":76561198186678831,"connected_time":2576000000000,"state":"active","ping":89},{"user_id":145,"name":"Pasta","steam_id":76561198170042173,"connected_time":2225000000000,"state":"active","ping":77},{"user_id":151,"name":"eletric_blue","steam_id":76561198821187816,"connected_time":1642000000000,"state":"active","ping":37},{"user_id":159,"name":"go play rimworld","steam_id":76561199397932924,"connected_time":929000000000,"state":"active","ping":179}]},{"server_id":108,"name":"Uncletopia | Dallas | 2 | All Maps","name_short":"dal-2","host":"dal-1.us.uncletopia.com","port":27025,"enabled":true,"region":"us-central","cc":"us","latitude":32.779167,"longitude":-96.80889,"reserved":0,"last_update":"0001-01-01T00:00:00Z","name_a2s":"Uncletopia | Dallas | 2 | All Maps","protocol":17,"map":"koth_lakeside_final","folder":"tf","game":"Team Fortress","app_id":440,"player_count":0,"max_players":24,"Bots":0,"server_type":"Dedicated","server_os":"Linux","password":true,"vac":true,"version":"7882260","steam_id":85568392924469988,"keywords":["cp","nocrits","nodmgspread","uncletopia"],"game_id":440,"stv_port":27026,"stv_name":"Uncletopia | Dallas | 2 | All Maps | STV","players":null},{"server_id":5,"name":"Uncletopia | Frankfurt | 1 | All Maps","name_short":"frk-1","host":"frk-1.de.uncletopia.com","port":27015,"enabled":true,"region":"eu","cc":"de","latitude":50.110924,"longitude":8.682127,"reserved":0,"last_update":"0001-01-01T00:00:00Z","name_a2s":"Uncletopia | Frankfurt | 1 | All Maps","protocol":17,"map":"cp_dustbowl","folder":"tf","game":"Team Fortress","app_id":440,"player_count":24,"max_players":24,"Bots":0,"server_type":"Dedicated","server_os":"Linux","password":true,"vac":true,"version":"7882260","steam_id":85568392924469989,"keywords":["cp","nocrits","nodmgspread","uncletopia"],"game_id":440,"stv_port":27016,"stv_name":"Uncletopia | Frankfurt | 1 | All Maps | STV","players":[{"user_id":572,"name":"CAMON ENGELAND","steam_id":76561198054301125,"connected_time":2556000000000,"state":"active","ping":93},{"user_id":587,"name":"Litag0","steam_id":76561199040995788,"connected_time":2137000000000,"state":"active","ping":72},{"user_id":601,"name":"alice","steam_id":76561198269200388,"connected_time":1501000000000,"state":"active","ping":72},{"user_id":607,"name":"Marty™","steam_id":76561198060073673,"connected_time":1290000000000,"state":"active","ping":60},{"user_id":610,"name":"The Daniella","steam_id":76561198023075547,"connected_time":1129000000000,"state":"active","ping":63},{"user_id":532,"name":"killbind irl","steam_id":76561198180637374,"connected_time":4132000000000,"state":"active","ping":87},{"user_id":615,"name":"screenshot2020-25-09","steam_id":76561198255275650,"connected_time":211000000000,"state":"active","ping":59},{"user_id":613,"name":"Maridor","steam_id":76561199094592508,"connected_time":372000000000,"state":"active","ping":60},{"user_id":612,"name":"GabGame","steam_id":76561198105631808,"connected_time":786000000000,"state":"active","ping":73},{"user_id":554,"name":"powej","steam_id":76561198056381418,"connected_time":3052000000000,"state":"active","ping":45},{"user_id":598,"name":"half life 3 berserk","steam_id":76561199085624224,"connected_time":1544000000000,"state":"active","ping":71},{"user_id":599,"name":"Idzik","steam_id":76561197985337065,"connected_time":1542000000000,"state":"active","ping":70},{"user_id":614,"name":"doopsuiker","steam_id":76561198025916703,"connected_time":352000000000,"state":"active","ping":78},{"user_id":602,"name":"L1RG0","steam_id":76561198329274068,"connected_time":1497000000000,"state":"active","ping":61},{"user_id":541,"name":"FlameTheGame","steam_id":76561198841108519,"connected_time":3950000000000,"state":"active","ping":102},{"user_id":576,"name":"Marinka","steam_id":76561198013147161,"connected_time":2497000000000,"state":"active","ping":105},{"user_id":557,"name":"Sh1n","steam_id":76561199012155377,"connected_time":3026000000000,"state":"active","ping":45},{"user_id":569,"name":"zvekan","steam_id":76561198381101196,"connected_time":2669000000000,"state":"active","ping":63},{"user_id":603,"name":"jerry (:","steam_id":76561198205668108,"connected_time":1490000000000,"state":"active","ping":44},{"user_id":591,"name":"alan","steam_id":76561198306947435,"connected_time":1998000000000,"state":"active","ping":73},{"user_id":586,"name":"テイルス","steam_id":76561198022403271,"connected_time":2191000000000,"state":"active","ping":45},{"user_id":609,"name":"Mr.Duck","steam_id":76561197983710667,"connected_time":1241000000000,"state":"active","ping":75},{"user_id":604,"name":"Artificial.Ignorance","steam_id":76561198453090180,"connected_time":1477000000000,"state":"active","ping":174},{"user_id":605,"name":"Amandus","steam_id":76561198036281079,"connected_time":1436000000000,"state":"active","ping":60}]},{"server_id":110,"name":"Uncletopia | Frankfurt | 2 | All Maps","name_short":"frk-2","host":"frk-1.de.uncletopia.com","port":27025,"enabled":true,"region":"eu","cc":"de","latitude":50.110924,"longitude":8.682127,"reserved":0,"last_update":"0001-01-01T00:00:00Z","name_a2s":"Uncletopia | Frankfurt | 2 | All Maps","protocol":17,"map":"cp_process_final","folder":"tf","game":"Team Fortress","app_id":440,"player_count":24,"max_players":24,"Bots":0,"server_type":"Dedicated","server_os":"Linux","password":true,"vac":true,"version":"7882260","steam_id":85568392924469990,"keywords":["cp","nocrits","nodmgspread","uncletopia"],"game_id":440,"stv_port":27026,"stv_name":"Uncletopia | Frankfurt | 2 | All Maps | STV","players":[{"user_id":372,"name":"Olvustin","steam_id":76561198272011453,"connected_time":1810000000000,"state":"active","ping":119},{"user_id":355,"name":"Battle_Pass90","steam_id":76561199367142516,"connected_time":3277000000000,"state":"active","ping":67},{"user_id":310,"name":"Lord of Beans","steam_id":76561198283379801,"connected_time":6586000000000,"state":"active","ping":106},{"user_id":360,"name":"Kocham Wode z Filtra","steam_id":76561198016042113,"connected_time":2576000000000,"state":"active","ping":81},{"user_id":332,"name":"MEDiUM","steam_id":76561198112328561,"connected_time":5509000000000,"state":"active","ping":74},{"user_id":380,"name":"THE Grosser","steam_id":76561197995530666,"connected_time":707000000000,"state":"active","ping":53},{"user_id":324,"name":"Fat Pigeon","steam_id":76561198817940142,"connected_time":5595000000000,"state":"active","ping":59},{"user_id":378,"name":"cov","steam_id":76561198328047855,"connected_time":1047000000000,"state":"active","ping":75},{"user_id":344,"name":":P","steam_id":76561198106399430,"connected_time":4551000000000,"state":"active","ping":60},{"user_id":311,"name":"Mustekala1","steam_id":76561198044468928,"connected_time":6034000000000,"state":"active","ping":60},{"user_id":345,"name":"deadbeat dad","steam_id":76561198380267081,"connected_time":4538000000000,"state":"active","ping":73},{"user_id":370,"name":"DeCypher \u003c3","steam_id":76561198171992619,"connected_time":1930000000000,"state":"active","ping":79},{"user_id":335,"name":"Egor Pomidor","steam_id":76561199175688390,"connected_time":5391000000000,"state":"active","ping":75},{"user_id":373,"name":"Nithle","steam_id":76561198025372740,"connected_time":1722000000000,"state":"active","ping":45},{"user_id":379,"name":"fénix","steam_id":76561198083199151,"connected_time":992000000000,"state":"active","ping":63},{"user_id":349,"name":"static","steam_id":76561198836825741,"connected_time":4024000000000,"state":"active","ping":44},{"user_id":323,"name":"X-tis","steam_id":76561198043837480,"connected_time":5607000000000,"state":"active","ping":63},{"user_id":353,"name":"Tekky","steam_id":76561197990987315,"connected_time":3688000000000,"state":"active","ping":51},{"user_id":376,"name":"RedFog","steam_id":76561198284713081,"connected_time":1269000000000,"state":"active","ping":42},{"user_id":359,"name":"Mr.O #deletesniper","steam_id":76561198039567498,"connected_time":2581000000000,"state":"active","ping":62},{"user_id":371,"name":"Rai","steam_id":76561199408923294,"connected_time":1863000000000,"state":"active","ping":78},{"user_id":329,"name":"☞LaZe☜","steam_id":76561198202191400,"connected_time":5548000000000,"state":"active","ping":60},{"user_id":377,"name":"christoph","steam_id":76561198862617811,"connected_time":1234000000000,"state":"active","ping":69},{"user_id":354,"name":"Jonathan","steam_id":76561198087988880,"connected_time":3341000000000,"state":"active","ping":51}]},{"server_id":308,"name":"Uncletopia | Frankfurt | 3 | All Maps","name_short":"frk-3","host":"frk-1.de.uncletopia.com","port":27035,"enabled":true,"region":"eu","cc":"de","latitude":50.110924,"longitude":8.682127,"reserved":0,"last_update":"0001-01-01T00:00:00Z","name_a2s":"Uncletopia | Frankfurt | 3 | All Maps","protocol":17,"map":"pl_snowycoast","folder":"tf","game":"Team Fortress","app_id":440,"player_count":24,"max_players":24,"Bots":0,"server_type":"Dedicated","server_os":"Linux","password":true,"vac":true,"version":"7882260","steam_id":85568392924504274,"keywords":["nocrits","nodmgspread","payload","uncletopia"],"game_id":440,"stv_port":27036,"stv_name":"Uncletopia | Frankfurt | 3 | All Maps | STV","players":[{"user_id":225,"name":"Toasty5050","steam_id":76561198073540881,"connected_time":631000000000,"state":"active","ping":45},{"user_id":178,"name":"Uber","steam_id":76561198036528206,"connected_time":3315000000000,"state":"active","ping":69},{"user_id":210,"name":"Malai","steam_id":76561198062537014,"connected_time":1574000000000,"state":"active","ping":54},{"user_id":199,"name":"Acid","steam_id":76561198029047079,"connected_time":2350000000000,"state":"active","ping":49},{"user_id":236,"name":"nikfilaaaaaayyyyyyyyyyy","steam_id":76561198071525492,"connected_time":264000000000,"state":"active","ping":44},{"user_id":235,"name":"Grim","steam_id":76561198141464555,"connected_time":271000000000,"state":"active","ping":73},{"user_id":179,"name":"Meff","steam_id":76561197970610839,"connected_time":3287000000000,"state":"active","ping":53},{"user_id":221,"name":"boofing prozac","steam_id":76561198851157897,"connected_time":1010000000000,"state":"active","ping":76},{"user_id":208,"name":"Proud Jojo Fan #TF2SP","steam_id":76561198847327216,"connected_time":1591000000000,"state":"active","ping":77},{"user_id":237,"name":"VoV","steam_id":76561198094615674,"connected_time":263000000000,"state":"active","ping":120},{"user_id":227,"name":"Cookies and Bakies","steam_id":76561198017442928,"connected_time":615000000000,"state":"active","ping":60},{"user_id":224,"name":"Rimx","steam_id":76561198053034840,"connected_time":762000000000,"state":"active","ping":94},{"user_id":233,"name":"pako","steam_id":76561198429046379,"connected_time":347000000000,"state":"active","ping":47},{"user_id":239,"name":"chocolate flavoured femboy","steam_id":76561198819353867,"connected_time":220000000000,"state":"active","ping":50},{"user_id":215,"name":"Tegnerud","steam_id":76561198214185612,"connected_time":1528000000000,"state":"active","ping":71},{"user_id":238,"name":"Stümpy","steam_id":76561198255904077,"connected_time":261000000000,"state":"active","ping":68},{"user_id":240,"name":"MaRo","steam_id":76561198992286676,"connected_time":218000000000,"state":"active","ping":67},{"user_id":244,"name":"L4gman","steam_id":76561198048227040,"connected_time":146000000000,"state":"active","ping":109},{"user_id":204,"name":"Purpurea","steam_id":76561198075376419,"connected_time":2186000000000,"state":"active","ping":71},{"user_id":217,"name":"LateLJ","steam_id":76561197970349476,"connected_time":1311000000000,"state":"active","ping":95},{"user_id":243,"name":"YaG-10 (29-K)","steam_id":76561198112012468,"connected_time":162000000000,"state":"active","ping":71},{"user_id":213,"name":"Myrmodion","steam_id":76561198054746247,"connected_time":1537000000000,"state":"active","ping":66},{"user_id":228,"name":"vurtun","steam_id":76561198857395274,"connected_time":600000000000,"state":"active","ping":56},{"user_id":230,"name":"Platform666","steam_id":76561198314266851,"connected_time":472000000000,"state":"active","ping":103}]},{"server_id":309,"name":"Uncletopia | Frankfurt | 4 | All Maps","name_short":"frk-4","host":"frk-1.de.uncletopia.com","port":27045,"enabled":true,"region":"eu","cc":"de","latitude":50.110924,"longitude":8.682127,"reserved":0,"last_update":"0001-01-01T00:00:00Z","name_a2s":"Uncletopia | Frankfurt | 4 | All Maps","protocol":17,"map":"pl_barnblitz","folder":"tf","game":"Team Fortress","app_id":440,"player_count":24,"max_players":24,"Bots":0,"server_type":"Dedicated","server_os":"Linux","password":true,"vac":true,"version":"7882260","steam_id":85568392924504275,"keywords":["nocrits","nodmgspread","payload","uncletopia"],"game_id":440,"stv_port":27046,"stv_name":"Uncletopia | Frankfurt | 4 | All Maps | STV","players":[{"user_id":630,"name":"FishNachoz","steam_id":76561198026519426,"connected_time":133000000000,"state":"active","ping":61},{"user_id":568,"name":"AftiksPL","steam_id":76561198875182686,"connected_time":5151000000000,"state":"active","ping":87},{"user_id":616,"name":"boneez","steam_id":76561198186800982,"connected_time":1232000000000,"state":"active","ping":51},{"user_id":601,"name":"Creamy","steam_id":76561198063907478,"connected_time":1968000000000,"state":"active","ping":80},{"user_id":588,"name":"Watson","steam_id":76561198815648445,"connected_time":2615000000000,"state":"active","ping":66},{"user_id":610,"name":"Remyie","steam_id":76561198131031404,"connected_time":1555000000000,"state":"active","ping":103},{"user_id":618,"name":"Feylo","steam_id":76561199149815448,"connected_time":1181000000000,"state":"active","ping":58},{"user_id":633,"name":"Seri","steam_id":76561198017135441,"connected_time":5000000000,"state":"spawning","ping":48},{"user_id":589,"name":"FoOzTV","steam_id":76561197998636728,"connected_time":2568000000000,"state":"active","ping":71},{"user_id":626,"name":"-Boomer-","steam_id":76561197970798571,"connected_time":178000000000,"state":"active","ping":74},{"user_id":529,"name":"Portal79","steam_id":76561198095499584,"connected_time":8273000000000,"state":"active","ping":65},{"user_id":586,"name":"stefanbejenari","steam_id":76561199466718294,"connected_time":2819000000000,"state":"active","ping":75},{"user_id":598,"name":"bunglar","steam_id":76561198027374166,"connected_time":2086000000000,"state":"active","ping":51},{"user_id":621,"name":"Solymr ibn Wali Barad","steam_id":76561198044008976,"connected_time":272000000000,"state":"active","ping":60},{"user_id":561,"name":"wobber","steam_id":76561198111134021,"connected_time":5925000000000,"state":"active","ping":84},{"user_id":581,"name":"Sarah Obama Michella","steam_id":76561198078996559,"connected_time":4164000000000,"state":"active","ping":74},{"user_id":603,"name":"howabe","steam_id":76561197996486818,"connected_time":1933000000000,"state":"active","ping":53},{"user_id":611,"name":"Agartha Dweller","steam_id":76561198076881381,"connected_time":1547000000000,"state":"active","ping":67},{"user_id":623,"name":"Banzar1","steam_id":76561198170325423,"connected_time":251000000000,"state":"active","ping":128},{"user_id":628,"name":"birb","steam_id":76561198084891833,"connected_time":146000000000,"state":"active","ping":54},{"user_id":632,"name":"Koby","steam_id":76561198118554071,"connected_time":19000000000,"state":"active","ping":72},{"user_id":629,"name":"Jack The Racc","steam_id":76561198044762365,"connected_time":144000000000,"state":"active","ping":185},{"user_id":619,"name":"Jackriz","steam_id":76561198024882111,"connected_time":397000000000,"state":"active","ping":75},{"user_id":594,"name":"WolfmanCZ","steam_id":76561199157141414,"connected_time":2504000000000,"state":"active","ping":70}]},{"server_id":310,"name":"Uncletopia | Frankfurt | 5 | All Maps","name_short":"frk-5","host":"frk-1.de.uncletopia.com","port":27055,"enabled":true,"region":"eu","cc":"de","latitude":50.110924,"longitude":8.682127,"reserved":0,"last_update":"0001-01-01T00:00:00Z","name_a2s":"Uncletopia | Frankfurt | 5 | All Maps","protocol":17,"map":"pl_borneo","folder":"tf","game":"Team Fortress","app_id":440,"player_count":20,"max_players":24,"Bots":0,"server_type":"Dedicated","server_os":"Linux","password":true,"vac":true,"version":"7882260","steam_id":85568392924504277,"keywords":["nocrits","nodmgspread","payload","uncletopia"],"game_id":440,"stv_port":27056,"stv_name":"Uncletopia | Frankfurt | 5 | All Maps | STV","players":[{"user_id":544,"name":"deflox","steam_id":76561198087450635,"connected_time":1000000000,"state":"connecting","ping":133},{"user_id":521,"name":"誰かが見ている","steam_id":76561198834913692,"connected_time":2210000000000,"state":"connecting","ping":74},{"user_id":494,"name":"citronous","steam_id":76561198093290934,"connected_time":3583000000000,"state":"connecting","ping":75},{"user_id":532,"name":"miiq130","steam_id":76561198188010666,"connected_time":1033000000000,"state":"connecting","ping":102},{"user_id":527,"name":"Vidrox #savetf2","steam_id":76561199217854983,"connected_time":1625000000000,"state":"connecting","ping":94},{"user_id":539,"name":"BOB","steam_id":76561198797287684,"connected_time":413000000000,"state":"connecting","ping":58},{"user_id":528,"name":"E","steam_id":76561198414106145,"connected_time":1459000000000,"state":"connecting","ping":133},{"user_id":523,"name":"DonD","steam_id":76561198061496731,"connected_time":2138000000000,"state":"connecting","ping":81},{"user_id":520,"name":"BobbyHill","steam_id":76561198116475046,"connected_time":2317000000000,"state":"connecting","ping":73},{"user_id":507,"name":"Wolframen","steam_id":76561198074103958,"connected_time":2961000000000,"state":"connecting","ping":75},{"user_id":513,"name":"skatie","steam_id":76561198169487380,"connected_time":2706000000000,"state":"connecting","ping":103},{"user_id":510,"name":"Ratatatatatatouille","steam_id":76561198182267098,"connected_time":2824000000000,"state":"connecting","ping":106},{"user_id":535,"name":"JohnTraveltime","steam_id":76561199244281754,"connected_time":882000000000,"state":"connecting","ping":72},{"user_id":518,"name":"MoinMaX40K","steam_id":76561199137983269,"connected_time":2555000000000,"state":"connecting","ping":79},{"user_id":538,"name":"Chad","steam_id":76561198037309490,"connected_time":587000000000,"state":"connecting","ping":84},{"user_id":519,"name":"Yunker","steam_id":76561198339576891,"connected_time":2493000000000,"state":"connecting","ping":175},{"user_id":540,"name":"Acanda","steam_id":76561198123246537,"connected_time":106000000000,"state":"connecting","ping":44},{"user_id":525,"name":"Michael","steam_id":76561198003146906,"connected_time":2111000000000,"state":"connecting","ping":80}]},{"server_id":311,"name":"Uncletopia | Frankfurt | 6 | All Maps","name_short":"frk-6","host":"frk-1.de.uncletopia.com","port":27065,"enabled":true,"region":"eu","cc":"de","latitude":50.110924,"longitude":8.682127,"reserved":0,"last_update":"0001-01-01T00:00:00Z","name_a2s":"Uncletopia | Frankfurt | 6 | All Maps","protocol":17,"map":"pl_snowycoast","folder":"tf","game":"Team Fortress","app_id":440,"player_count":24,"max_players":24,"Bots":0,"server_type":"Dedicated","server_os":"Linux","password":true,"vac":true,"version":"7882260","steam_id":85568392924504278,"keywords":["nocrits","nodmgspread","payload","uncletopia"],"game_id":440,"stv_port":27066,"stv_name":"Uncletopia | Frankfurt | 6 | All Maps | STV","players":[{"user_id":10,"name":"Spectre","steam_id":76561198163819482,"connected_time":6285000000000,"state":"active","ping":76},{"user_id":116,"name":"goblinninja110","steam_id":76561198269159354,"connected_time":416000000000,"state":"active","ping":66},{"user_id":122,"name":"O4W P1N tf2hard.com","steam_id":76561198382749493,"connected_time":84000000000,"state":"active","ping":90},{"user_id":50,"name":"rob","steam_id":76561198122211848,"connected_time":4415000000000,"state":"active","ping":104},{"user_id":104,"name":"im tha every woman fantasy.,,.","steam_id":76561198063925704,"connected_time":1297000000000,"state":"active","ping":45},{"user_id":107,"name":"Turret","steam_id":76561199231598017,"connected_time":994000000000,"state":"active","ping":84},{"user_id":119,"name":"Plow cheese","steam_id":76561198142478067,"connected_time":250000000000,"state":"active","ping":75},{"user_id":87,"name":"OTP DynamoDM","steam_id":76561198150755391,"connected_time":1637000000000,"state":"active","ping":46},{"user_id":79,"name":"British Disapproval","steam_id":76561198001375260,"connected_time":2423000000000,"state":"active","ping":70},{"user_id":118,"name":"dakkafex","steam_id":76561198020254869,"connected_time":282000000000,"state":"active","ping":47},{"user_id":82,"name":"Saint","steam_id":76561198003296382,"connected_time":1986000000000,"state":"active","ping":69},{"user_id":97,"name":"wee woo","steam_id":76561198147277460,"connected_time":1343000000000,"state":"active","ping":56},{"user_id":98,"name":"dino jr nuggies","steam_id":76561198256619964,"connected_time":1337000000000,"state":"active","ping":75},{"user_id":120,"name":"LOBZIK","steam_id":76561198114830120,"connected_time":241000000000,"state":"active","ping":79},{"user_id":30,"name":"Slifer the Sky Dragon","steam_id":76561198062255803,"connected_time":4995000000000,"state":"active","ping":60},{"user_id":99,"name":"la cucaracha","steam_id":76561198163244605,"connected_time":1334000000000,"state":"active","ping":67},{"user_id":117,"name":"Remembrancer","steam_id":76561198049983016,"connected_time":301000000000,"state":"active","ping":90},{"user_id":101,"name":"hello hi","steam_id":76561198148074472,"connected_time":1328000000000,"state":"active","ping":45},{"user_id":85,"name":"Derp","steam_id":76561198197901062,"connected_time":1818000000000,"state":"active","ping":50},{"user_id":102,"name":"Alpha","steam_id":76561198133229149,"connected_time":1322000000000,"state":"active","ping":95},{"user_id":103,"name":"zap 0.94","steam_id":76561198023211417,"connected_time":1321000000000,"state":"active","ping":60},{"user_id":114,"name":"Vezage","steam_id":76561198064916164,"connected_time":466000000000,"state":"active","ping":67},{"user_id":121,"name":"OTP °Roticher","steam_id":76561198194559879,"connected_time":139000000000,"state":"active","ping":50},{"user_id":66,"name":"Distinguished Gentlemann","steam_id":76561198064734905,"connected_time":3575000000000,"state":"active","ping":94}]},{"server_id":23,"name":"Uncletopia | Frankfurt | 7 | Stopwatch Beta","name_short":"frk-7","host":"frk-1.de.uncletopia.com","port":27075,"enabled":true,"region":"eu","cc":"de","latitude":50.110924,"longitude":8.682127,"reserved":0,"last_update":"0001-01-01T00:00:00Z","name_a2s":"Uncletopia | Frankfurt | 7 | Stopwatch Beta","protocol":17,"map":"workshop/pl_badwater_pro_v12.ugc2142942074","folder":"tf","game":"Team Fortress","app_id":440,"player_count":0,"max_players":24,"Bots":0,"server_type":"Dedicated","server_os":"Linux","password":true,"vac":true,"version":"7882260","steam_id":85568392924742827,"keywords":["nocrits","nodmgspread","payload","uncletopia"],"game_id":440,"stv_port":27076,"stv_name":"Uncletopia | Frankfurt | 7 | Stopwatch Beta | STV","players":null},{"server_id":24,"name":"Uncletopia | Frankfurt | 8 | Community","name_short":"frk-8","host":"frk-1.de.uncletopia.com","port":27085,"enabled":true,"region":"eu","cc":"de","latitude":50.110924,"longitude":8.682127,"reserved":0,"last_update":"0001-01-01T00:00:00Z","name_a2s":"Uncletopia | Frankfurt | 8 | Community","protocol":17,"map":"workshop/koth_bagel_rc6.ugc2514036946","folder":"tf","game":"Team Fortress","app_id":440,"player_count":0,"max_players":24,"Bots":0,"server_type":"Dedicated","server_os":"Linux","password":true,"vac":true,"version":"7882260","steam_id":85568392924742828,"keywords":["cp","nocrits","nodmgspread","uncletopia"],"game_id":440,"stv_port":27086,"stv_name":"Uncletopia | Frankfurt | 8 | Community | STV","players":null},{"server_id":202,"name":"Uncletopia | Hong Kong | 1 | All Maps","name_short":"hgk-1","host":"hgk-1.hk.uncletopia.com","port":27015,"enabled":true,"region":"asia","cc":"hk","latitude":22.302711,"longitude":114.177216,"reserved":0,"last_update":"0001-01-01T00:00:00Z","name_a2s":"Uncletopia | Hong Kong | 1 | All Maps","protocol":17,"map":"koth_viaduct","folder":"tf","game":"Team Fortress","app_id":440,"player_count":2,"max_players":24,"Bots":0,"server_type":"Dedicated","server_os":"Linux","password":true,"vac":true,"version":"7882260","steam_id":85568392924494504,"keywords":["cp","nocrits","nodmgspread","uncletopia"],"game_id":440,"stv_port":27016,"stv_name":"Uncletopia | Hong Kong | 1 | All Maps | STV","players":[{"user_id":408,"name":"Fish.","steam_id":76561198115231462,"connected_time":522000000000,"state":"active","ping":256},{"user_id":406,"name":"killman47","steam_id":76561198348487408,"connected_time":661000000000,"state":"active","ping":36}]},{"server_id":1,"name":"Uncletopia | Los Angeles | 1 | All Maps","name_short":"lax-1","host":"lax-1.us.uncletopia.com","port":27015,"enabled":true,"region":"us-west","cc":"us","latitude":33.94279,"longitude":-118.41004,"reserved":0,"last_update":"0001-01-01T00:00:00Z","name_a2s":"Uncletopia | Los Angeles | 1 | All Maps","protocol":17,"map":"pl_borneo","folder":"tf","game":"Team Fortress","app_id":440,"player_count":22,"max_players":24,"Bots":0,"server_type":"Dedicated","server_os":"Linux","password":true,"vac":true,"version":"7882260","steam_id":85568392924469991,"keywords":["nocrits","nodmgspread","payload","uncletopia"],"game_id":440,"stv_port":27016,"stv_name":"Uncletopia | Los Angeles | 1 | All Maps | STV","players":[{"user_id":4,"name":"Pfizer™","steam_id":76561198072879485,"connected_time":2946000000000,"state":"active","ping":58},{"user_id":5,"name":"Petrivus","steam_id":76561198202152453,"connected_time":2627000000000,"state":"active","ping":72},{"user_id":7,"name":"sleck","steam_id":76561197993068585,"connected_time":2085000000000,"state":"active","ping":46},{"user_id":22,"name":"rainbow sonic","steam_id":76561198015123424,"connected_time":774000000000,"state":"active","ping":161},{"user_id":11,"name":"ATATDRIVER","steam_id":76561198262816771,"connected_time":1725000000000,"state":"active","ping":67},{"user_id":14,"name":"SolarusD","steam_id":76561198029279861,"connected_time":1261000000000,"state":"active","ping":46},{"user_id":42,"name":"sauce","steam_id":76561198155481540,"connected_time":191000000000,"state":"active","ping":46},{"user_id":18,"name":"ElElliot","steam_id":76561198842278840,"connected_time":873000000000,"state":"active","ping":117},{"user_id":32,"name":"GojoPreto","steam_id":76561198979348045,"connected_time":515000000000,"state":"active","ping":119},{"user_id":43,"name":"DrStarBucksCoffee","steam_id":76561198037372470,"connected_time":152000000000,"state":"active","ping":74},{"user_id":21,"name":"Za Zombie","steam_id":76561198055545262,"connected_time":818000000000,"state":"active","ping":114},{"user_id":29,"name":"Re:Lie","steam_id":76561198125401588,"connected_time":638000000000,"state":"active","ping":57},{"user_id":24,"name":"GLXy","steam_id":76561198207551544,"connected_time":764000000000,"state":"active","ping":83},{"user_id":28,"name":"a cat plushie","steam_id":76561198080046542,"connected_time":655000000000,"state":"active","ping":67},{"user_id":27,"name":"Shamrock Shake Oct.10.2020 @8pm","steam_id":76561198833313201,"connected_time":670000000000,"state":"active","ping":56},{"user_id":45,"name":"Ypuoi","steam_id":76561198170203261,"connected_time":68000000000,"state":"active","ping":58},{"user_id":47,"name":"Manticore","steam_id":76561198044664093,"connected_time":20000000000,"state":"active","ping":193},{"user_id":34,"name":"Steve Jobs' cousin Hand Jobs","steam_id":76561198282766831,"connected_time":470000000000,"state":"active","ping":108},{"user_id":37,"name":"Mr. Skully","steam_id":76561199040190981,"connected_time":374000000000,"state":"active","ping":58},{"user_id":48,"name":"the meat man","steam_id":76561198037921140,"connected_time":18000000000,"state":"spawning","ping":78},{"user_id":39,"name":"booty jiggae","steam_id":76561198089026129,"connected_time":334000000000,"state":"active","ping":103},{"user_id":40,"name":"Ice","steam_id":76561198045076794,"connected_time":327000000000,"state":"active","ping":90}]},{"server_id":112,"name":"Uncletopia | Los Angeles | 2 | All Maps","name_short":"lax-2","host":"lax-1.us.uncletopia.com","port":27025,"enabled":true,"region":"us-west","cc":"us","latitude":33.94279,"longitude":-118.41004,"reserved":0,"last_update":"0001-01-01T00:00:00Z","name_a2s":"Uncletopia | Los Angeles | 2 | All Maps","protocol":17,"map":"cp_sunshine","folder":"tf","game":"Team Fortress","app_id":440,"player_count":0,"max_players":24,"Bots":0,"server_type":"Dedicated","server_os":"Linux","password":true,"vac":true,"version":"7882260","steam_id":85568392924469992,"keywords":["cp","nocrits","nodmgspread","uncletopia"],"game_id":440,"stv_port":27026,"stv_name":"Uncletopia | Los Angeles | 2 | All Maps | STV","players":null},{"server_id":324,"name":"Uncletopia | Los Angeles | 3 | All Maps","name_short":"lax-3","host":"lax-1.us.uncletopia.com","port":27035,"enabled":true,"region":"us-west","cc":"us","latitude":33.94279,"longitude":-118.41004,"reserved":0,"last_update":"0001-01-01T00:00:00Z","name_a2s":"Uncletopia | Los Angeles | 3 | All Maps","protocol":17,"map":"cp_sunshine","folder":"tf","game":"Team Fortress","app_id":440,"player_count":0,"max_players":24,"Bots":0,"server_type":"Dedicated","server_os":"Linux","password":true,"vac":true,"version":"7882260","steam_id":85568392924510198,"keywords":["cp","nocrits","nodmgspread","uncletopia"],"game_id":440,"stv_port":27036,"stv_name":"Uncletopia | Los Angeles | 3 | All Maps | STV","players":null},{"server_id":25,"name":"Uncletopia | Los Angeles | 4 | Stopwatch Beta","name_short":"lax-4","host":"lax-1.us.uncletopia.com","port":27045,"enabled":true,"region":"us-west","cc":"us","latitude":33.94279,"longitude":-118.41004,"reserved":0,"last_update":"0001-01-01T00:00:00Z","name_a2s":"Uncletopia | Los Angeles | 4 | Stopwatch Beta","protocol":17,"map":"workshop/koth_bagel_rc6.ugc2514036946","folder":"tf","game":"Team Fortress","app_id":440,"player_count":0,"max_players":24,"Bots":0,"server_type":"Dedicated","server_os":"Linux","password":true,"vac":true,"version":"7882260","steam_id":85568392924510199,"keywords":["cp","nocrits","nodmgspread","uncletopia"],"game_id":440,"stv_port":27046,"stv_name":"Uncletopia | Los Angeles | 4 | Stopwatch Beta | STV","players":null},{"server_id":11,"name":"Uncletopia | London | 1 | All Maps","name_short":"lon-1","host":"lon-1.uk.uncletopia.com","port":27015,"enabled":true,"region":"eu","cc":"gb","latitude":51.509865,"longitude":-0.118092,"reserved":0,"last_update":"0001-01-01T00:00:00Z","name_a2s":"Uncletopia | London | 1 | All Maps","protocol":17,"map":"pl_upward","folder":"tf","game":"Team Fortress","app_id":440,"player_count":24,"max_players":24,"Bots":0,"server_type":"Dedicated","server_os":"Linux","password":true,"vac":true,"version":"7882260","steam_id":85568392924367362,"keywords":["nocrits","nodmgspread","payload","uncletopia"],"game_id":440,"stv_port":27016,"stv_name":"Uncletopia | London | 1 | All Maps | STV","players":[{"user_id":280,"name":"megamash","steam_id":76561198042672341,"connected_time":85000000000,"state":"active","ping":44},{"user_id":184,"name":"shooer! :D \u003e\u003c(((º\u003e","steam_id":76561198110531281,"connected_time":7663000000000,"state":"active","ping":62},{"user_id":274,"name":"Peppsy","steam_id":76561198074018528,"connected_time":780000000000,"state":"active","ping":66},{"user_id":208,"name":"Plep","steam_id":76561198840259819,"connected_time":5405000000000,"state":"active","ping":58},{"user_id":272,"name":"Jinx my beloved","steam_id":76561198819986745,"connected_time":1128000000000,"state":"active","ping":98},{"user_id":246,"name":"gub","steam_id":76561198171178427,"connected_time":2372000000000,"state":"active","ping":92},{"user_id":273,"name":"IP Man #SaveTF2","steam_id":76561198051594969,"connected_time":1121000000000,"state":"active","ping":62},{"user_id":250,"name":"Jofiah/TTV","steam_id":76561197977233962,"connected_time":2051000000000,"state":"active","ping":48},{"user_id":161,"name":"Aroo","steam_id":76561198132601368,"connected_time":8749000000000,"state":"active","ping":75},{"user_id":281,"name":"wurlmon","steam_id":76561198113052745,"connected_time":70000000000,"state":"active","ping":66},{"user_id":239,"name":"One Hop Dis Time *BWRAB*","steam_id":76561198146081601,"connected_time":3270000000000,"state":"active","ping":45},{"user_id":266,"name":"Pinkchup","steam_id":76561198106802803,"connected_time":1550000000000,"state":"active","ping":68},{"user_id":193,"name":"RLCrazyCat3","steam_id":76561197983757878,"connected_time":6869000000000,"state":"active","ping":66},{"user_id":277,"name":"dongus","steam_id":76561198042774930,"connected_time":175000000000,"state":"active","ping":57},{"user_id":228,"name":"Ark-e","steam_id":76561198261870909,"connected_time":4099000000000,"state":"active","ping":33},{"user_id":230,"name":"cazador","steam_id":76561198123096922,"connected_time":3860000000000,"state":"active","ping":102},{"user_id":214,"name":"After8","steam_id":76561198090750865,"connected_time":5336000000000,"state":"active","ping":60},{"user_id":278,"name":"Cosmetic brain","steam_id":76561198055936410,"connected_time":119000000000,"state":"active","ping":76},{"user_id":201,"name":"peruna","steam_id":76561198000721196,"connected_time":6173000000000,"state":"active","ping":74},{"user_id":252,"name":"Minimi","steam_id":76561198873850443,"connected_time":1866000000000,"state":"active","ping":46},{"user_id":232,"name":"gman borat","steam_id":76561198041051148,"connected_time":3448000000000,"state":"active","ping":48},{"user_id":282,"name":"fröga","steam_id":76561198412559828,"connected_time":58000000000,"state":"active","ping":109},{"user_id":283,"name":"Wujek Cacek","steam_id":76561198010267943,"connected_time":57000000000,"state":"active","ping":75},{"user_id":275,"name":"Meddler","steam_id":76561198033001402,"connected_time":605000000000,"state":"active","ping":42}]},{"server_id":114,"name":"Uncletopia | London | 2 | All Maps","name_short":"lon-2","host":"lon-1.uk.uncletopia.com","port":27025,"enabled":true,"region":"eu","cc":"gb","latitude":51.509865,"longitude":-0.118092,"reserved":0,"last_update":"0001-01-01T00:00:00Z","name_a2s":"Uncletopia | London | 2 | All Maps","protocol":17,"map":"koth_harvest_final","folder":"tf","game":"Team Fortress","app_id":440,"player_count":22,"max_players":24,"Bots":0,"server_type":"Dedicated","server_os":"Linux","password":true,"vac":true,"version":"7882260","steam_id":85568392924470941,"keywords":["cp","nocrits","nodmgspread","uncletopia"],"game_id":440,"stv_port":27026,"stv_name":"Uncletopia | London | 2 | All Maps | STV","players":[{"user_id":188,"name":"Kiha","steam_id":76561198031408608,"connected_time":1872000000000,"state":"active","ping":70},{"user_id":214,"name":"Providence","steam_id":76561198003920270,"connected_time":756000000000,"state":"active","ping":70},{"user_id":235,"name":"Purplish","steam_id":76561198006393993,"connected_time":136000000000,"state":"active","ping":33},{"user_id":174,"name":"Engi-Nearing","steam_id":76561199221172552,"connected_time":2609000000000,"state":"active","ping":54},{"user_id":218,"name":"Monara12th","steam_id":76561199478607360,"connected_time":428000000000,"state":"active","ping":61},{"user_id":220,"name":"tanyathsus","steam_id":76561198089522447,"connected_time":412000000000,"state":"active","ping":61},{"user_id":228,"name":"miev","steam_id":76561198078278737,"connected_time":274000000000,"state":"active","ping":70},{"user_id":208,"name":"Breizbuc","steam_id":76561198118220633,"connected_time":1149000000000,"state":"active","ping":56},{"user_id":231,"name":"Nikcha","steam_id":76561198253300222,"connected_time":203000000000,"state":"active","ping":95},{"user_id":193,"name":"VanillaWoof","steam_id":76561198158343951,"connected_time":1577000000000,"state":"active","ping":62},{"user_id":198,"name":"jijiklidrop","steam_id":76561198042328253,"connected_time":1528000000000,"state":"active","ping":68},{"user_id":227,"name":"lil pimp","steam_id":76561198179324075,"connected_time":315000000000,"state":"active","ping":70},{"user_id":230,"name":"trans werewolf","steam_id":76561198107235989,"connected_time":238000000000,"state":"active","ping":69},{"user_id":223,"name":"L4","steam_id":76561198168270939,"connected_time":400000000000,"state":"active","ping":72},{"user_id":211,"name":"Der_Milchmann","steam_id":76561198001417748,"connected_time":910000000000,"state":"active","ping":60},{"user_id":166,"name":"hmscole09","steam_id":76561198811362788,"connected_time":2838000000000,"state":"active","ping":57},{"user_id":232,"name":"SooS","steam_id":76561198058943929,"connected_time":190000000000,"state":"active","ping":70},{"user_id":158,"name":"Goober","steam_id":76561198054795379,"connected_time":3572000000000,"state":"active","ping":60},{"user_id":213,"name":"One-Face","steam_id":76561197999384826,"connected_time":877000000000,"state":"active","ping":61},{"user_id":225,"name":"Arecibo","steam_id":76561198014359615,"connected_time":367000000000,"state":"active","ping":60},{"user_id":226,"name":"captain","steam_id":76561198072765192,"connected_time":365000000000,"state":"active","ping":56},{"user_id":234,"name":"elio","steam_id":76561198142662131,"connected_time":165000000000,"state":"active","ping":67}]},{"server_id":320,"name":"Uncletopia | London | 3 | All Maps","name_short":"lon-3","host":"lon-1.uk.uncletopia.com","port":27035,"enabled":true,"region":"eu","cc":"gb","latitude":51.509865,"longitude":-0.118092,"reserved":0,"last_update":"0001-01-01T00:00:00Z","name_a2s":"Uncletopia | London | 3 | All Maps","protocol":17,"map":"koth_highpass","folder":"tf","game":"Team Fortress","app_id":440,"player_count":9,"max_players":24,"Bots":0,"server_type":"Dedicated","server_os":"Linux","password":true,"vac":true,"version":"7882260","steam_id":85568392924510192,"keywords":["cp","nocrits","nodmgspread","uncletopia"],"game_id":440,"stv_port":27036,"stv_name":"Uncletopia | London | 3 | All Maps | STV","players":[{"user_id":22,"name":"meatsoupcube","steam_id":76561198276802249,"connected_time":186000000000,"state":"active","ping":104},{"user_id":15,"name":"ToxyTero","steam_id":76561198413359724,"connected_time":487000000000,"state":"active","ping":72},{"user_id":16,"name":"B52 stealth bomber","steam_id":76561198878274997,"connected_time":470000000000,"state":"active","ping":83},{"user_id":17,"name":"F","steam_id":76561199149462792,"connected_time":444000000000,"state":"active","ping":69},{"user_id":18,"name":"Voyvoda","steam_id":76561198168514180,"connected_time":438000000000,"state":"active","ping":94},{"user_id":20,"name":"ja","steam_id":76561199228540618,"connected_time":287000000000,"state":"active","ping":83},{"user_id":21,"name":"Ajetoo!","steam_id":76561198043838474,"connected_time":271000000000,"state":"active","ping":67},{"user_id":26,"name":"Dmitri Mendeleev","steam_id":76561198116168271,"connected_time":9000000000,"state":"spawning","ping":73},{"user_id":25,"name":"Qui-Gon Jinn","steam_id":76561198853214333,"connected_time":117000000000,"state":"active","ping":60}]},{"server_id":321,"name":"Uncletopia | London | 4 | All Maps","name_short":"lon-4","host":"lon-1.uk.uncletopia.com","port":27045,"enabled":true,"region":"eu","cc":"gb","latitude":51.509865,"longitude":-0.118092,"reserved":0,"last_update":"0001-01-01T00:00:00Z","name_a2s":"Uncletopia | London | 4 | All Maps","protocol":17,"map":"pl_snowycoast","folder":"tf","game":"Team Fortress","app_id":440,"player_count":24,"max_players":24,"Bots":0,"server_type":"Dedicated","server_os":"Linux","password":true,"vac":true,"version":"7882260","steam_id":85568392924510193,"keywords":["nocrits","nodmgspread","payload","uncletopia"],"game_id":440,"stv_port":27046,"stv_name":"Uncletopia | London | 4 | All Maps | STV","players":[{"user_id":192,"name":"lego obi-wan kenobi","steam_id":76561198103336739,"connected_time":1535000000000,"state":"active","ping":73},{"user_id":155,"name":"Buddy","steam_id":76561198050185582,"connected_time":2986000000000,"state":"active","ping":54},{"user_id":199,"name":"Hedge Knight","steam_id":76561198989449047,"connected_time":1080000000000,"state":"active","ping":123},{"user_id":186,"name":"Magic1L","steam_id":76561198831787182,"connected_time":1705000000000,"state":"active","ping":74},{"user_id":184,"name":"anti vaxxer","steam_id":76561198129806658,"connected_time":1895000000000,"state":"active","ping":55},{"user_id":182,"name":"crashfault","steam_id":76561197994450944,"connected_time":1957000000000,"state":"active","ping":88},{"user_id":99,"name":"TJ1212","steam_id":76561199013575313,"connected_time":5105000000000,"state":"active","ping":78},{"user_id":187,"name":"dafydd","steam_id":76561198052200325,"connected_time":1686000000000,"state":"active","ping":82},{"user_id":204,"name":"Boomer Shooter Consoomer","steam_id":76561198079752648,"connected_time":204000000000,"state":"active","ping":71},{"user_id":201,"name":"randompixel","steam_id":76561198003941207,"connected_time":830000000000,"state":"active","ping":58},{"user_id":171,"name":"Mike","steam_id":76561198228455736,"connected_time":2676000000000,"state":"active","ping":54},{"user_id":188,"name":"Gufie","steam_id":76561199403752637,"connected_time":1671000000000,"state":"active","ping":49},{"user_id":163,"name":"azzy","steam_id":76561198061293740,"connected_time":2824000000000,"state":"active","ping":76},{"user_id":200,"name":"ufomaster1111111","steam_id":76561198837347666,"connected_time":1007000000000,"state":"active","ping":52},{"user_id":196,"name":"KeTlEr","steam_id":76561198100957443,"connected_time":1373000000000,"state":"active","ping":74},{"user_id":189,"name":"I pocket u for 10 ref/hour","steam_id":76561198126179060,"connected_time":1654000000000,"state":"active","ping":71},{"user_id":51,"name":"wasto-/-™","steam_id":76561198102888038,"connected_time":6796000000000,"state":"active","ping":59},{"user_id":202,"name":"Furrybuttsniffer","steam_id":76561198369227367,"connected_time":827000000000,"state":"active","ping":97},{"user_id":180,"name":"on1on (fried)","steam_id":76561197995304137,"connected_time":2053000000000,"state":"active","ping":75},{"user_id":203,"name":"hlug2340","steam_id":76561198087970118,"connected_time":733000000000,"state":"active","ping":76},{"user_id":185,"name":"Syd","steam_id":76561198020515027,"connected_time":1738000000000,"state":"active","ping":89},{"user_id":197,"name":"Hey, I´m Andy!","steam_id":76561198060337777,"connected_time":1359000000000,"state":"active","ping":78},{"user_id":198,"name":"Lubrsi","steam_id":76561198040208195,"connected_time":1276000000000,"state":"active","ping":46},{"user_id":69,"name":"vadim_kotler","steam_id":76561199016634369,"connected_time":6115000000000,"state":"active","ping":113}]},{"server_id":21,"name":"Uncletopia | London | 5 | All Maps","name_short":"lon-5","host":"lon-1.uk.uncletopia.com","port":27055,"enabled":true,"region":"eu","cc":"gb","latitude":51.509865,"longitude":-0.118092,"reserved":0,"last_update":"0001-01-01T00:00:00Z","name_a2s":"Uncletopia | London | 5 | All Maps","protocol":17,"map":"koth_cascade","folder":"tf","game":"Team Fortress","app_id":440,"player_count":0,"max_players":24,"Bots":0,"server_type":"Dedicated","server_os":"Linux","password":true,"vac":true,"version":"7882260","steam_id":85568392924742829,"keywords":["cp","nocrits","nodmgspread","uncletopia"],"game_id":440,"stv_port":27056,"stv_name":"Uncletopia | London | 5 | All Maps | STV","players":null},{"server_id":22,"name":"Uncletopia | London | 6 | All Maps","name_short":"lon-6","host":"lon-1.uk.uncletopia.com","port":27065,"enabled":true,"region":"eu","cc":"gb","latitude":51.509865,"longitude":-0.118092,"reserved":0,"last_update":"0001-01-01T00:00:00Z","name_a2s":"Uncletopia | London | 6 | All Maps","protocol":17,"map":"pl_badwater","folder":"tf","game":"Team Fortress","app_id":440,"player_count":24,"max_players":24,"Bots":0,"server_type":"Dedicated","server_os":"Linux","password":true,"vac":true,"version":"7882260","steam_id":85568392924742830,"keywords":["nocrits","nodmgspread","payload","uncletopia"],"game_id":440,"stv_port":27066,"stv_name":"Uncletopia | London | 6 | All Maps | STV","players":[{"user_id":400,"name":"Mercedes nuts","steam_id":76561198202392276,"connected_time":1708000000000,"state":"active","ping":69},{"user_id":383,"name":"swallowed 10 pennies please hel","steam_id":76561198055816412,"connected_time":2145000000000,"state":"active","ping":47},{"user_id":422,"name":"GoatLord1","steam_id":76561198157964544,"connected_time":754000000000,"state":"active","ping":47},{"user_id":409,"name":"dunduu","steam_id":76561198875240717,"connected_time":1520000000000,"state":"active","ping":76},{"user_id":387,"name":"in3ga","steam_id":76561198037810091,"connected_time":1963000000000,"state":"active","ping":106},{"user_id":381,"name":"Spinyapickle","steam_id":76561198086653667,"connected_time":2255000000000,"state":"active","ping":59},{"user_id":371,"name":"Silent","steam_id":76561198344588858,"connected_time":3039000000000,"state":"active","ping":47},{"user_id":424,"name":"dum","steam_id":76561198053386482,"connected_time":488000000000,"state":"active","ping":142},{"user_id":388,"name":"Flying skyhigh","steam_id":76561198372971096,"connected_time":1933000000000,"state":"active","ping":67},{"user_id":401,"name":"dopamine enjoyer","steam_id":76561198140591983,"connected_time":1687000000000,"state":"active","ping":81},{"user_id":389,"name":"mud","steam_id":76561198141497461,"connected_time":1924000000000,"state":"active","ping":70},{"user_id":390,"name":"Unfunny Clown","steam_id":76561198276770761,"connected_time":1920000000000,"state":"active","ping":56},{"user_id":410,"name":"ohio.lottery.contestant4004","steam_id":76561198051852765,"connected_time":1516000000000,"state":"active","ping":75},{"user_id":417,"name":"Stille Willem","steam_id":76561198093579428,"connected_time":1023000000000,"state":"active","ping":56},{"user_id":411,"name":"Asda","steam_id":76561198210348121,"connected_time":1422000000000,"state":"active","ping":59},{"user_id":421,"name":"Core2Duo","steam_id":76561199484297625,"connected_time":768000000000,"state":"active","ping":69},{"user_id":419,"name":"burgz","steam_id":76561198109955787,"connected_time":788000000000,"state":"active","ping":54},{"user_id":408,"name":"Watermelon","steam_id":76561198078349914,"connected_time":1555000000000,"state":"active","ping":45},{"user_id":423,"name":"xiiski","steam_id":76561198152387747,"connected_time":736000000000,"state":"active","ping":140},{"user_id":420,"name":"Spotmonkey","steam_id":76561198003994092,"connected_time":786000000000,"state":"active","ping":61},{"user_id":363,"name":"Jonno","steam_id":76561198023443744,"connected_time":3468000000000,"state":"active","ping":55},{"user_id":412,"name":"Zakk","steam_id":76561199217826681,"connected_time":1415000000000,"state":"active","ping":86},{"user_id":425,"name":"Fish 'n' Chips","steam_id":76561198033476886,"connected_time":482000000000,"state":"active","ping":55},{"user_id":413,"name":"twitch/auratf2","steam_id":76561197988085026,"connected_time":1409000000000,"state":"active","ping":75}]},{"server_id":40,"name":"Uncletopia | London | 7 | No Payload","name_short":"lon-7","host":"lon-1.uk.uncletopia.com","port":27075,"enabled":true,"region":"eu","cc":"gb","latitude":51.509865,"longitude":-0.118092,"reserved":0,"last_update":"0001-01-01T00:00:00Z","name_a2s":"Uncletopia | London | 7 | No Payload","protocol":17,"map":"ctf_2fort","folder":"tf","game":"Team Fortress","app_id":440,"player_count":0,"max_players":24,"Bots":0,"server_type":"Dedicated","server_os":"Linux","password":true,"vac":true,"version":"7882260","steam_id":85568392924964314,"keywords":["ctf","nocrits","nodmgspread","uncletopia"],"game_id":440,"stv_port":27076,"stv_name":"Uncletopia | London | 7 | No Payload | STV","players":null},{"server_id":41,"name":"Uncletopia | London | 8 | Community","name_short":"lon-8","host":"lon-1.uk.uncletopia.com","port":27085,"enabled":true,"region":"eu","cc":"gb","latitude":51.509865,"longitude":-0.118092,"reserved":0,"last_update":"0001-01-01T00:00:00Z","name_a2s":"Uncletopia | London | 8 | Community","protocol":17,"map":"workshop/koth_kemptown_rc1.ugc767410655","folder":"tf","game":"Team Fortress","app_id":440,"player_count":0,"max_players":24,"Bots":0,"server_type":"Dedicated","server_os":"Linux","password":true,"vac":true,"version":"7882260","steam_id":85568392924964315,"keywords":["cp","nocrits","nodmgspread","uncletopia"],"game_id":440,"stv_port":27086,"stv_name":"Uncletopia | London | 8 | Community | STV","players":null},{"server_id":300,"name":"Uncletopia | Montréal | 1 | All Maps","name_short":"mtl-1","host":"mtl-1.ca.uncletopia.com","port":27015,"enabled":true,"region":"us-east","cc":"ca","latitude":45.50889,"longitude":-73.56167,"reserved":0,"last_update":"0001-01-01T00:00:00Z","name_a2s":"Uncletopia | Montréal | 1 | All Maps","protocol":17,"map":"koth_viaduct","folder":"tf","game":"Team Fortress","app_id":440,"player_count":0,"max_players":24,"Bots":0,"server_type":"Dedicated","server_os":"Linux","password":true,"vac":true,"version":"7882260","steam_id":85568392924500087,"keywords":["cp","nocrits","nodmgspread","uncletopia"],"game_id":440,"stv_port":27016,"stv_name":"Uncletopia | Montréal | 1 | All Maps | STV","players":null},{"server_id":301,"name":"Uncletopia | Montréal | 2 | All Maps","name_short":"mtl-2","host":"mtl-1.ca.uncletopia.com","port":27025,"enabled":true,"region":"us-east","cc":"ca","latitude":45.50889,"longitude":-73.56167,"reserved":0,"last_update":"0001-01-01T00:00:00Z","name_a2s":"Uncletopia | Montréal | 2 | All Maps","protocol":17,"map":"cp_sunshine","folder":"tf","game":"Team Fortress","app_id":440,"player_count":0,"max_players":24,"Bots":0,"server_type":"Dedicated","server_os":"Linux","password":true,"vac":true,"version":"7882260","steam_id":85568392924500088,"keywords":["cp","nocrits","nodmgspread","uncletopia"],"game_id":440,"stv_port":27026,"stv_name":"Uncletopia | Montréal | 2 | All Maps | STV","players":null},{"server_id":302,"name":"Uncletopia | Montréal | 3 | All Maps","name_short":"mtl-3","host":"mtl-1.ca.uncletopia.com","port":27035,"enabled":true,"region":"us-east","cc":"ca","latitude":45.50889,"longitude":-73.56167,"reserved":0,"last_update":"0001-01-01T00:00:00Z","name_a2s":"Uncletopia | Montréal | 3 | All Maps","protocol":17,"map":"pl_frontier_final","folder":"tf","game":"Team Fortress","app_id":440,"player_count":0,"max_players":24,"Bots":0,"server_type":"Dedicated","server_os":"Linux","password":true,"vac":true,"version":"7882260","steam_id":85568392924500089,"keywords":["nocrits","nodmgspread","payload","uncletopia"],"game_id":440,"stv_port":27036,"stv_name":"Uncletopia | Montréal | 3 | All Maps | STV","players":null},{"server_id":303,"name":"Uncletopia | Montréal | 4 | No Payload","name_short":"mtl-4","host":"mtl-1.ca.uncletopia.com","port":27045,"enabled":true,"region":"us-east","cc":"ca","latitude":45.50889,"longitude":-73.56167,"reserved":0,"last_update":"0001-01-01T00:00:00Z","name_a2s":"Uncletopia | Montréal | 4 | No Payload","protocol":17,"map":"cp_altitude","folder":"tf","game":"Team Fortress","app_id":440,"player_count":0,"max_players":24,"Bots":0,"server_type":"Dedicated","server_os":"Linux","password":true,"vac":true,"version":"7882260","steam_id":85568392924500090,"keywords":["cp","nocrits","nodmgspread","uncletopia"],"game_id":440,"stv_port":27046,"stv_name":"Uncletopia | Montréal | 4 | No Payload | STV","players":null},{"server_id":13,"name":"Uncletopia | New York City | 1 | All Maps","name_short":"nyc-1","host":"nyc-1.us.uncletopia.com","port":27015,"enabled":true,"region":"us-east","cc":"us","latitude":40.73061,"longitude":-73.93524,"reserved":0,"last_update":"0001-01-01T00:00:00Z","name_a2s":"Uncletopia | New York City | 1 | All Maps","protocol":17,"map":"koth_highpass","folder":"tf","game":"Team Fortress","app_id":440,"player_count":0,"max_players":24,"Bots":0,"server_type":"Dedicated","server_os":"Linux","password":true,"vac":true,"version":"7882260","steam_id":85568392924469993,"keywords":["cp","nocrits","nodmgspread","uncletopia"],"game_id":440,"stv_port":27016,"stv_name":"Uncletopia | New York City | 1 | All Maps | STV","players":null},{"server_id":14,"name":"Uncletopia | New York City | 2 | All Maps","name_short":"nyc-2","host":"nyc-1.us.uncletopia.com","port":27025,"enabled":true,"region":"us-east","cc":"us","latitude":40.73061,"longitude":-73.93524,"reserved":0,"last_update":"0001-01-01T00:00:00Z","name_a2s":"Uncletopia | New York City | 2 | All Maps","protocol":17,"map":"pl_swiftwater_final1","folder":"tf","game":"Team Fortress","app_id":440,"player_count":0,"max_players":24,"Bots":0,"server_type":"Dedicated","server_os":"Linux","password":true,"vac":true,"version":"7882260","steam_id":85568392924469994,"keywords":["nocrits","nodmgspread","payload","uncletopia"],"game_id":440,"stv_port":27026,"stv_name":"Uncletopia | New York City | 2 | All Maps | STV","players":null},{"server_id":15,"name":"Uncletopia | New York City | 3 | Stopwatch Beta","name_short":"nyc-3","host":"nyc-1.us.uncletopia.com","port":27035,"enabled":true,"region":"us-east","cc":"us","latitude":40.73061,"longitude":-73.93524,"reserved":0,"last_update":"0001-01-01T00:00:00Z","name_a2s":"Uncletopia | New York City | 3 | Stopwatch Beta","protocol":17,"map":"koth_lakeside_final","folder":"tf","game":"Team Fortress","app_id":440,"player_count":0,"max_players":24,"Bots":0,"server_type":"Dedicated","server_os":"Linux","password":true,"vac":true,"version":"7882260","steam_id":85568392924742820,"keywords":["cp","nocrits","nodmgspread","uncletopia"],"game_id":440,"stv_port":27036,"stv_name":"Uncletopia | New York City | 3 | Stopwatch Beta | STV","players":null},{"server_id":16,"name":"Uncletopia | New York City | 4 | Community","name_short":"nyc-4","host":"nyc-1.us.uncletopia.com","port":27045,"enabled":true,"region":"us-east","cc":"us","latitude":40.73061,"longitude":-73.93524,"reserved":0,"last_update":"0001-01-01T00:00:00Z","name_a2s":"Uncletopia | New York City | 4 | Community","protocol":17,"map":"pl_badwater","folder":"tf","game":"Team Fortress","app_id":440,"player_count":0,"max_players":24,"Bots":0,"server_type":"Dedicated","server_os":"Linux","password":true,"vac":true,"version":"7882260","steam_id":85568392924742821,"keywords":["nocrits","nodmgspread","payload","uncletopia"],"game_id":440,"stv_port":27046,"stv_name":"Uncletopia | New York City | 4 | Community | STV","players":null},{"server_id":142,"name":"Uncletopia | São Paulo | 1 | All Maps","name_short":"sao-1","host":"sao-1.br.uncletopia.com","port":27015,"enabled":true,"region":"sa","cc":"br","latitude":-23.533773,"longitude":-46.62529,"reserved":0,"last_update":"0001-01-01T00:00:00Z","name_a2s":"Uncletopia | São Paulo | 1 | All Maps","protocol":17,"map":"koth_viaduct","folder":"tf","game":"Team Fortress","app_id":440,"player_count":0,"max_players":24,"Bots":0,"server_type":"Dedicated","server_os":"Linux","password":true,"vac":true,"version":"7882260","steam_id":85568392924469996,"keywords":["cp","nocrits","nodmgspread","uncletopia"],"game_id":440,"stv_port":27016,"stv_name":"Uncletopia | São Paulo | 1 | All Maps | STV","players":null},{"server_id":143,"name":"Uncletopia | São Paulo | 2 | All Maps","name_short":"sao-2","host":"sao-2.br.uncletopia.com","port":27015,"enabled":true,"region":"sa","cc":"br","latitude":-23.533773,"longitude":-46.62529,"reserved":0,"last_update":"0001-01-01T00:00:00Z","name_a2s":"Uncletopia | São Paulo | 2 | All Maps","protocol":17,"map":"pl_badwater","folder":"tf","game":"Team Fortress","app_id":440,"player_count":0,"max_players":24,"Bots":0,"server_type":"Dedicated","server_os":"Linux","password":true,"vac":true,"version":"7882260","steam_id":85568392924485349,"keywords":["nocrits","nodmgspread","payload","uncletopia"],"game_id":440,"stv_port":27016,"stv_name":"Uncletopia | São Paulo | 2 | All Maps | STV","players":null},{"server_id":7,"name":"Uncletopia | Seattle | 1 | All Maps","name_short":"sea-1","host":"sea-1.us.uncletopia.com","port":27015,"enabled":true,"region":"us-west","cc":"us","latitude":47.608013,"longitude":-122.33517,"reserved":0,"last_update":"0001-01-01T00:00:00Z","name_a2s":"Uncletopia | Seattle | 1 | All Maps","protocol":17,"map":"cp_dustbowl","folder":"tf","game":"Team Fortress","app_id":440,"player_count":22,"max_players":24,"Bots":0,"server_type":"Dedicated","server_os":"Linux","password":true,"vac":true,"version":"7882260","steam_id":85568392924469997,"keywords":["cp","nocrits","nodmgspread","uncletopia"],"game_id":440,"stv_port":27016,"stv_name":"Uncletopia | Seattle | 1 | All Maps | STV","players":[{"user_id":158,"name":"ふわふわ毛布","steam_id":76561198088403016,"connected_time":11528000000000,"state":"active","ping":177},{"user_id":239,"name":"Homura Simp","steam_id":76561198246080762,"connected_time":3743000000000,"state":"active","ping":117},{"user_id":267,"name":"bunny girl bimbo!","steam_id":76561198122027532,"connected_time":126000000000,"state":"active","ping":130},{"user_id":259,"name":"Stick Drift","steam_id":76561199019675078,"connected_time":1545000000000,"state":"active","ping":103},{"user_id":254,"name":"LightningBlitz47","steam_id":76561198310971283,"connected_time":1767000000000,"state":"active","ping":71},{"user_id":268,"name":"justpixels","steam_id":76561198143717568,"connected_time":57000000000,"state":"spawning","ping":266},{"user_id":205,"name":"Y2K","steam_id":76561199191855486,"connected_time":5672000000000,"state":"active","ping":48},{"user_id":269,"name":"Legalize it","steam_id":76561197988578244,"connected_time":14000000000,"state":"active","ping":222},{"user_id":252,"name":"I have a $20 Target Gift Card","steam_id":76561198986862889,"connected_time":1816000000000,"state":"active","ping":64},{"user_id":227,"name":"jayeskae","steam_id":76561198144220801,"connected_time":4401000000000,"state":"active","ping":44},{"user_id":265,"name":"Cartwright","steam_id":76561197975491705,"connected_time":235000000000,"state":"active","ping":65},{"user_id":246,"name":"Daz","steam_id":76561198041431938,"connected_time":3076000000000,"state":"active","ping":48},{"user_id":206,"name":"pt","steam_id":76561198143023330,"connected_time":5663000000000,"state":"active","ping":75},{"user_id":237,"name":"Darkgaming579","steam_id":76561199121435004,"connected_time":3824000000000,"state":"active","ping":59},{"user_id":244,"name":"Little Linguine","steam_id":76561198816986370,"connected_time":3471000000000,"state":"active","ping":114},{"user_id":232,"name":"greenpeace","steam_id":76561197983221708,"connected_time":4340000000000,"state":"active","ping":70},{"user_id":190,"name":"Pre Pissed Pants","steam_id":76561198042143837,"connected_time":8010000000000,"state":"active","ping":66},{"user_id":264,"name":"Kiwi Bird(Furry)","steam_id":76561198998492815,"connected_time":476000000000,"state":"active","ping":133},{"user_id":128,"name":"M4 Sherman","steam_id":76561198126990820,"connected_time":13324000000000,"state":"active","ping":94},{"user_id":257,"name":"daBigBoss","steam_id":76561198120428029,"connected_time":1654000000000,"state":"active","ping":73},{"user_id":266,"name":"Peppy","steam_id":76561198866629645,"connected_time":183000000000,"state":"active","ping":58},{"user_id":261,"name":"Wise Egg","steam_id":76561198388755604,"connected_time":1509000000000,"state":"active","ping":73}]},{"server_id":119,"name":"Uncletopia | Seattle | 2 | All Maps","name_short":"sea-2","host":"sea-1.us.uncletopia.com","port":27025,"enabled":true,"region":"us-west","cc":"us","latitude":47.608013,"longitude":-122.33517,"reserved":0,"last_update":"0001-01-01T00:00:00Z","name_a2s":"Uncletopia | Seattle | 2 | All Maps","protocol":17,"map":"cp_process_final","folder":"tf","game":"Team Fortress","app_id":440,"player_count":24,"max_players":24,"Bots":0,"server_type":"Dedicated","server_os":"Linux","password":true,"vac":true,"version":"7882260","steam_id":85568392924469998,"keywords":["cp","nocrits","nodmgspread","uncletopia"],"game_id":440,"stv_port":27026,"stv_name":"Uncletopia | Seattle | 2 | All Maps | STV","players":[{"user_id":51,"name":"Scuttle","steam_id":76561198276310307,"connected_time":3241000000000,"state":"active","ping":76},{"user_id":82,"name":"Feldspaten","steam_id":76561199122059102,"connected_time":1524000000000,"state":"active","ping":79},{"user_id":28,"name":"Tibetan Pop Star","steam_id":76561198844903984,"connected_time":4250000000000,"state":"active","ping":79},{"user_id":99,"name":"DanceBunny","steam_id":76561198243610560,"connected_time":413000000000,"state":"active","ping":75},{"user_id":31,"name":"Lesbian Futa Mommy","steam_id":76561198130479030,"connected_time":3951000000000,"state":"active","ping":57},{"user_id":92,"name":"Jacob Hornberger 2016","steam_id":76561198204549723,"connected_time":920000000000,"state":"active","ping":105},{"user_id":84,"name":"cupnoodles","steam_id":76561198076137957,"connected_time":1462000000000,"state":"active","ping":80},{"user_id":101,"name":"J.G. Klaus","steam_id":76561198001111196,"connected_time":273000000000,"state":"active","ping":90},{"user_id":89,"name":"Baked Beans","steam_id":76561198090419068,"connected_time":1224000000000,"state":"active","ping":81},{"user_id":73,"name":"Random","steam_id":76561199116602799,"connected_time":2040000000000,"state":"active","ping":178},{"user_id":63,"name":"Orb of Macaroni","steam_id":76561198080851298,"connected_time":2697000000000,"state":"active","ping":67},{"user_id":100,"name":"Dr. Dingus PhD","steam_id":76561199209834538,"connected_time":408000000000,"state":"active","ping":78},{"user_id":104,"name":"Kamin","steam_id":76561198255299559,"connected_time":58000000000,"state":"active","ping":135},{"user_id":96,"name":"Retard","steam_id":76561199241541416,"connected_time":636000000000,"state":"active","ping":71},{"user_id":39,"name":"CranAppleGaming","steam_id":76561198398206209,"connected_time":3556000000000,"state":"active","ping":108},{"user_id":54,"name":"MEOW!MEOW!MEOW!OORAH!","steam_id":76561198105359319,"connected_time":3215000000000,"state":"active","ping":73},{"user_id":77,"name":"Bloblobbob","steam_id":76561199135937774,"connected_time":1838000000000,"state":"active","ping":71},{"user_id":86,"name":"Cosmo","steam_id":76561199085643398,"connected_time":1392000000000,"state":"active","ping":77},{"user_id":70,"name":"Sploonbabagoosecooties","steam_id":76561198139972201,"connected_time":2267000000000,"state":"active","ping":56},{"user_id":93,"name":"doomshroom","steam_id":76561198092827250,"connected_time":768000000000,"state":"active","ping":55},{"user_id":97,"name":"Penguin Master","steam_id":76561198838779388,"connected_time":593000000000,"state":"active","ping":107},{"user_id":98,"name":"greenbean","steam_id":76561199150785954,"connected_time":581000000000,"state":"active","ping":115},{"user_id":52,"name":"K.A.R.M.A.","steam_id":76561198240750142,"connected_time":3234000000000,"state":"active","ping":67},{"user_id":103,"name":"the trollining","steam_id":76561199160884713,"connected_time":262000000000,"state":"active","ping":82}]},{"server_id":406,"name":"Uncletopia | Seattle | 3 | Stopwatch Beta","name_short":"sea-3","host":"sea-1.us.uncletopia.com","port":27035,"enabled":true,"region":"us-west","cc":"us","latitude":47.608013,"longitude":-122.33517,"reserved":0,"last_update":"0001-01-01T00:00:00Z","name_a2s":"Uncletopia | Seattle | 3 | Stopwatch Beta","protocol":17,"map":"workshop/pl_badwater_pro_v12.ugc2142942074","folder":"tf","game":"Team Fortress","app_id":440,"player_count":0,"max_players":24,"Bots":0,"server_type":"Dedicated","server_os":"Linux","password":true,"vac":true,"version":"7882260","steam_id":85568392924515217,"keywords":["nocrits","nodmgspread","payload","uncletopia"],"game_id":440,"stv_port":27036,"stv_name":"Uncletopia | Seattle | 3 | Stopwatch Beta | STV","players":null},{"server_id":17,"name":"Uncletopia | San Francisco | 1 | All Maps","name_short":"sfo-1","host":"sfo-1.us.uncletopia.com","port":27015,"enabled":true,"region":"us-west","cc":"us","latitude":37.77397,"longitude":-122.4313,"reserved":0,"last_update":"0001-01-01T00:00:00Z","name_a2s":"Uncletopia | San Francisco | 1 | All Maps","protocol":17,"map":"cp_process_final","folder":"tf","game":"Team Fortress","app_id":440,"player_count":0,"max_players":24,"Bots":0,"server_type":"Dedicated","server_os":"Linux","password":true,"vac":true,"version":"7757534","steam_id":85568392924469999,"keywords":["cp","nocrits","nodmgspread","uncletopia"],"game_id":440,"stv_port":27016,"stv_name":"Uncletopia | San Francisco | 1 | All Maps | STV","players":null},{"server_id":18,"name":"Uncletopia | San Francisco | 2 | All Maps","name_short":"sfo-2","host":"sfo-1.us.uncletopia.com","port":27025,"enabled":true,"region":"us-west","cc":"us","latitude":37.77397,"longitude":-122.4313,"reserved":0,"last_update":"0001-01-01T00:00:00Z","name_a2s":"Uncletopia | San Francisco | 2 | All Maps","protocol":17,"map":"koth_highpass","folder":"tf","game":"Team Fortress","app_id":440,"player_count":0,"max_players":24,"Bots":0,"server_type":"Dedicated","server_os":"Linux","password":true,"vac":true,"version":"7757534","steam_id":85568392924470000,"keywords":["cp","nocrits","nodmgspread","uncletopia"],"game_id":440,"stv_port":27026,"stv_name":"Uncletopia | San Francisco | 2 | All Maps | STV","players":null},{"server_id":19,"name":"Uncletopia | San Francisco | 3 | Stopwatch Beta","name_short":"sfo-3","host":"sfo-1.us.uncletopia.com","port":27035,"enabled":true,"region":"us-west","cc":"us","latitude":37.77397,"longitude":-122.4313,"reserved":0,"last_update":"0001-01-01T00:00:00Z","name_a2s":"Uncletopia | San Francisco | 3 | Stopwatch Beta","protocol":17,"map":"koth_lakeside_final","folder":"tf","game":"Team Fortress","app_id":440,"player_count":0,"max_players":24,"Bots":0,"server_type":"Dedicated","server_os":"Linux","password":true,"vac":true,"version":"7757534","steam_id":85568392924742824,"keywords":["cp","nocrits","nodmgspread","uncletopia"],"game_id":440,"stv_port":27036,"stv_name":"Uncletopia | San Francisco | 3 | Stopwatch Beta | STV","players":null},{"server_id":20,"name":"Uncletopia | San Francisco | 4 | Community","name_short":"sfo-4","host":"sfo-1.us.uncletopia.com","port":27045,"enabled":true,"region":"us-west","cc":"us","latitude":37.77397,"longitude":-122.4313,"reserved":0,"last_update":"0001-01-01T00:00:00Z","name_a2s":"Uncletopia | San Francisco | 4 | Community","protocol":17,"map":"cp_altitude","folder":"tf","game":"Team Fortress","app_id":440,"player_count":0,"max_players":24,"Bots":0,"server_type":"Dedicated","server_os":"Linux","password":true,"vac":true,"version":"7757534","steam_id":85568392924742826,"keywords":["cp","nocrits","nodmgspread","uncletopia"],"game_id":440,"stv_port":27046,"stv_name":"Uncletopia | San Francisco | 4 | Community | STV","players":null},{"server_id":141,"name":"Uncletopia | Sydney | 1 | All Maps","name_short":"syd-1","host":"syd-1.au.uncletopia.com","port":27015,"enabled":true,"region":"au","cc":"au","latitude":-33.865143,"longitude":151.2099,"reserved":0,"last_update":"0001-01-01T00:00:00Z","name_a2s":"Uncletopia | Sydney | 1 | All Maps","protocol":17,"map":"cp_snakewater_final1","folder":"tf","game":"Team Fortress","app_id":440,"player_count":0,"max_players":24,"Bots":0,"server_type":"Dedicated","server_os":"Linux","password":true,"vac":true,"version":"7882260","steam_id":85568392924470001,"keywords":["cp","nocrits","nodmgspread","uncletopia"],"game_id":440,"stv_port":27016,"stv_name":"Uncletopia | Sydney | 1 | All Maps | STV","players":null},{"server_id":123,"name":"Uncletopia | Sydney | 2 | All Maps","name_short":"syd-2","host":"syd-1.au.uncletopia.com","port":27025,"enabled":true,"region":"au","cc":"au","latitude":-33.865143,"longitude":151.2099,"reserved":0,"last_update":"0001-01-01T00:00:00Z","name_a2s":"Uncletopia | Sydney | 2 | All Maps","protocol":17,"map":"pl_barnblitz","folder":"tf","game":"Team Fortress","app_id":440,"player_count":0,"max_players":24,"Bots":0,"server_type":"Dedicated","server_os":"Linux","password":true,"vac":true,"version":"7882260","steam_id":85568392924470002,"keywords":["nocrits","nodmgspread","payload","uncletopia"],"game_id":440,"stv_port":27026,"stv_name":"Uncletopia | Sydney | 2 | All Maps | STV","players":null},{"server_id":395,"name":"Uncletopia | Sydney | 3 | All Maps","name_short":"syd-3","host":"syd-1.au.uncletopia.com","port":27035,"enabled":true,"region":"au","cc":"au","latitude":-33.865143,"longitude":151.2099,"reserved":0,"last_update":"0001-01-01T00:00:00Z","name_a2s":"Uncletopia | Sydney | 3 | All Maps","protocol":17,"map":"pl_badwater","folder":"tf","game":"Team Fortress","app_id":440,"player_count":0,"max_players":24,"Bots":0,"server_type":"Dedicated","server_os":"Linux","password":true,"vac":true,"version":"7882260","steam_id":85568392925194467,"keywords":["nocrits","nodmgspread","payload","uncletopia"],"game_id":440,"stv_port":27036,"stv_name":"Uncletopia | Sydney | 3 | All Maps | STV","players":null},{"server_id":396,"name":"Uncletopia | Sydney | 4 | All Maps","name_short":"syd-4","host":"syd-1.au.uncletopia.com","port":27045,"enabled":true,"region":"au","cc":"au","latitude":-33.865143,"longitude":151.2099,"reserved":0,"last_update":"0001-01-01T00:00:00Z","name_a2s":"Uncletopia | Sydney | 4 | All Maps","protocol":17,"map":"cp_dustbowl","folder":"tf","game":"Team Fortress","app_id":440,"player_count":0,"max_players":24,"Bots":0,"server_type":"Dedicated","server_os":"Linux","password":true,"vac":true,"version":"7882260","steam_id":85568392925397958,"keywords":["cp","nocrits","nodmgspread","uncletopia"],"game_id":440,"stv_port":27046,"stv_name":"Uncletopia | Sydney | 4 | All Maps | STV","players":null},{"server_id":58,"name":"Uncletopia | Sydney | 5 | Stopwatch Beta","name_short":"syd-5","host":"syd-1.au.uncletopia.com","port":27055,"enabled":true,"region":"au","cc":"au","latitude":-33.865143,"longitude":151.2099,"reserved":0,"last_update":"0001-01-01T00:00:00Z","name_a2s":"Uncletopia | Sydney | 5 | Stopwatch Beta","protocol":17,"map":"cp_snakewater_final1","folder":"tf","game":"Team Fortress","app_id":440,"player_count":0,"max_players":24,"Bots":0,"server_type":"Dedicated","server_os":"Linux","password":true,"vac":true,"version":"7882260","steam_id":85568392925397959,"keywords":["cp","nocrits","nodmgspread","uncletopia"],"game_id":440,"stv_port":27056,"stv_name":"Uncletopia | Sydney | 5 | Stopwatch Beta | STV","players":null},{"server_id":59,"name":"Uncletopia | Sydney | 6 | Community","name_short":"syd-6","host":"syd-1.au.uncletopia.com","port":27065,"enabled":true,"region":"au","cc":"au","latitude":-33.865143,"longitude":151.2099,"reserved":0,"last_update":"0001-01-01T00:00:00Z","name_a2s":"Uncletopia | Sydney | 6 | Community","protocol":17,"map":"pl_snowycoast","folder":"tf","game":"Team Fortress","app_id":440,"player_count":0,"max_players":24,"Bots":0,"server_type":"Dedicated","server_os":"Linux","password":true,"vac":true,"version":"7882260","steam_id":85568392925397960,"keywords":["nocrits","nodmgspread","payload","uncletopia"],"game_id":440,"stv_port":27066,"stv_name":"Uncletopia | Sydney | 6 | Community | STV","players":null},{"server_id":49,"name":"Uncletopia | Warsaw | 1 | All Maps","name_short":"waw-1","host":"waw-1.pl.uncletopia.com","port":27015,"enabled":true,"region":"eu","cc":"pl","latitude":52.2297,"longitude":21.017532,"reserved":0,"last_update":"0001-01-01T00:00:00Z","name_a2s":"","protocol":0,"map":"","folder":"","game":"","app_id":0,"player_count":0,"max_players":0,"Bots":0,"server_type":"","server_os":"","password":false,"vac":false,"version":"","steam_id":0,"keywords":null,"game_id":0,"stv_port":0,"stv_name":"","players":null},{"server_id":50,"name":"Uncletopia | Warsaw | 2 | All Maps","name_short":"waw-2","host":"waw-1.pl.uncletopia.com","port":27025,"enabled":true,"region":"eu","cc":"pl","latitude":52.2297,"longitude":21.017532,"reserved":0,"last_update":"0001-01-01T00:00:00Z","name_a2s":"Uncletopia | Warsaw | 2 | All Maps","protocol":17,"map":"pl_swiftwater_final1","folder":"tf","game":"Team Fortress","app_id":440,"player_count":0,"max_players":24,"Bots":0,"server_type":"Dedicated","server_os":"Linux","password":true,"vac":true,"version":"7882260","steam_id":85568392925397851,"keywords":["nocrits","nodmgspread","payload","uncletopia"],"game_id":440,"stv_port":27026,"stv_name":"Uncletopia | Warsaw | 2 | All Maps | STV","players":null},{"server_id":51,"name":"Uncletopia | Warsaw | 3 | All Maps","name_short":"waw-3","host":"waw-1.pl.uncletopia.com","port":27035,"enabled":true,"region":"eu","cc":"pl","latitude":52.2297,"longitude":21.017532,"reserved":0,"last_update":"0001-01-01T00:00:00Z","name_a2s":"Uncletopia | Warsaw | 3 | All Maps","protocol":17,"map":"koth_lakeside_final","folder":"tf","game":"Team Fortress","app_id":440,"player_count":0,"max_players":24,"Bots":0,"server_type":"Dedicated","server_os":"Linux","password":true,"vac":true,"version":"7882260","steam_id":85568392925397852,"keywords":["cp","nocrits","nodmgspread","uncletopia"],"game_id":440,"stv_port":27036,"stv_name":"Uncletopia | Warsaw | 3 | All Maps | STV","players":null},{"server_id":52,"name":"Uncletopia | Warsaw | 4 | All Maps","name_short":"waw-4","host":"waw-1.pl.uncletopia.com","port":27045,"enabled":true,"region":"eu","cc":"pl","latitude":52.2297,"longitude":21.017532,"reserved":0,"last_update":"0001-01-01T00:00:00Z","name_a2s":"Uncletopia | Warsaw | 4 | All Maps","protocol":17,"map":"koth_highpass","folder":"tf","game":"Team Fortress","app_id":440,"player_count":0,"max_players":24,"Bots":0,"server_type":"Dedicated","server_os":"Linux","password":true,"vac":true,"version":"7882260","steam_id":85568392925397853,"keywords":["cp","nocrits","nodmgspread","uncletopia"],"game_id":440,"stv_port":27046,"stv_name":"Uncletopia | Warsaw | 4 | All Maps | STV","players":null},{"server_id":53,"name":"Uncletopia | Warsaw | 5 | Stopwatch Beta","name_short":"waw-5","host":"waw-1.pl.uncletopia.com","port":27055,"enabled":true,"region":"eu","cc":"pl","latitude":52.2297,"longitude":21.017532,"reserved":0,"last_update":"0001-01-01T00:00:00Z","name_a2s":"Uncletopia | Warsaw | 5 | Stopwatch Beta","protocol":17,"map":"cp_mountainlab","folder":"tf","game":"Team Fortress","app_id":440,"player_count":0,"max_players":24,"Bots":0,"server_type":"Dedicated","server_os":"Linux","password":true,"vac":true,"version":"7882260","steam_id":85568392925397854,"keywords":["cp","nocrits","nodmgspread","uncletopia"],"game_id":440,"stv_port":27056,"stv_name":"Uncletopia | Warsaw | 5 | Stopwatch Beta | STV","players":null},{"server_id":54,"name":"Uncletopia | Warsaw | 6 | Community","name_short":"waw-6","host":"waw-1.pl.uncletopia.com","port":27065,"enabled":true,"region":"eu","cc":"pl","latitude":52.2297,"longitude":21.017532,"reserved":0,"last_update":"0001-01-01T00:00:00Z","name_a2s":"Uncletopia | Warsaw | 6 | Community","protocol":17,"map":"workshop/cp_mannbase_rc2a.ugc1900737467","folder":"tf","game":"Team Fortress","app_id":440,"player_count":0,"max_players":24,"Bots":0,"server_type":"Dedicated","server_os":"Linux","password":true,"vac":true,"version":"7882260","steam_id":85568392925397856,"keywords":["cp","nocrits","nodmgspread","uncletopia"],"game_id":440,"stv_port":27066,"stv_name":"Uncletopia | Warsaw | 6 | Community | STV","players":null}]}