{"status":true,"message":"","result":[{"server_id":9,"name":"Uncletopia | Atlanta | 1 | All Maps","name_short":"atl-1","host":"atl-1.us.uncletopia.com","port":27015,"enabled":true,"region":"us-east","cc":"us","latitude":33.753746,"longitude":-84.38633,"reserved":0,"last_update":"0001-01-01T00:00:00Z","name_a2s":"Uncletopia | Atlanta | 1 | All Maps","protocol":17,"map":"pl_swiftwater_final1","folder":"tf","game":"Team Fortress","app_id":440,"player_count":24,"max_players":24,"Bots":0,"server_type":"Dedicated","server_os":"Linux","password":true,"vac":true,"version":"7757534","steam_id":85568392924469982,"keywords":["nocrits","nodmgspread","payload","uncletopia"],"game_id":440,"stv_port":27016,"stv_name":"Uncletopia | Atlanta | 1 | All Maps | STV","players":[{"user_id":140,"name":"lemon","steam_id":76561198329179651,"connected_time":1728000000000,"state":"active","ping":91},{"user_id":142,"name":"God im so badas.............","steam_id":76561199037497493,"connected_time":1526000000000,"state":"active","ping":75},{"user_id":148,"name":"tlm","steam_id":76561198178457461,"connected_time":1172000000000,"state":"active","ping":60},{"user_id":96,"name":"A Man Named Pancho","steam_id":76561197984895522,"connected_time":5533000000000,"state":"active","ping":126},{"user_id":153,"name":"BLU1 | Shame","steam_id":76561198100490994,"connected_time":874000000000,"state":"active","ping":52},{"user_id":141,"name":"Vision Spiya","steam_id":76561198095923905,"connected_time":1720000000000,"state":"active","ping":71},{"user_id":159,"name":"Brother Garland","steam_id":76561198108026255,"connected_time":437000000000,"state":"active","ping":56},{"user_id":125,"name":"Thatboy1958","steam_id":76561199007045946,"connected_time":3091000000000,"state":"active","ping":107},{"user_id":143,"name":"bendera","steam_id":76561197965486503,"connected_time":1473000000000,"state":"active","ping":80},{"user_id":150,"name":"PLATYPUS","steam_id":76561198255796625,"connected_time":1099000000000,"state":"active","ping":105},{"user_id":19,"name":"MEDIC!","steam_id":76561198149344029,"connected_time":11925000000000,"state":"active","ping":71},{"user_id":155,"name":"the-willy12","steam_id":76561199145029672,"connected_time":454000000000,"state":"active","ping":90},{"user_id":156,"name":"Spy_Is_Pye","steam_id":76561199439622967,"connected_time":451000000000,"state":"active","ping":70},{"user_id":158,"name":"kurai","steam_id":76561198077902438,"connected_time":441000000000,"state":"active","ping":67},{"user_id":78,"name":"Ashes!","steam_id":76561197998475441,"connected_time":6655000000000,"state":"active","ping":93},{"user_id":135,"name":"Tyrone","steam_id":76561198189429665,"connected_time":2057000000000,"state":"active","ping":52},{"user_id":64,"name":"bhop","steam_id":76561198064885639,"connected_time":8064000000000,"state":"active","ping":74},{"user_id":115,"name":"airballer","steam_id":76561198165899125,"connected_time":4105000000000,"state":"active","ping":62},{"user_id":116,"name":"luxin","steam_id":76561198399383047,"connected_time":4100000000000,"state":"active","ping":50},{"user_id":157,"name":"bad player","steam_id":76561198397009880,"connected_time":450000000000,"state":"active","ping":50},{"user_id":147,"name":"Do Moose go Moo?","steam_id":76561198073550620,"connected_time":1385000000000,"state":"active","ping":61},{"user_id":161,"name":"lil hog","steam_id":76561199230929836,"connected_time":49000000000,"state":"active","ping":90},{"user_id":119,"name":"Chris Pratt's pocket spaghetti","steam_id":76561198138347045,"connected_time":4017000000000,"state":"active","ping":62},{"user_id":151,"name":"FellowGamer","steam_id":76561198089600392,"connected_time":1082000000000,"state":"active","ping":76}]},{"server_id":400,"name":"Uncletopia | Atlanta | 3 | Stopwatch Beta","name_short":"atl-3","host":"atl-1.us.uncletopia.com","port":27035,"enabled":true,"region":"us-east","cc":"us","latitude":33.753746,"longitude":-84.38633,"reserved":0,"last_update":"0001-01-01T00:00:00Z","name_a2s":"Uncletopia | Atlanta | 3 | Stopwatch Beta","protocol":17,"map":"pl_upward","folder":"tf","game":"Team Fortress","app_id":440,"player_count":0,"max_players":24,"Bots":0,"server_type":"Dedicated","server_os":"Linux","password":true,"vac":true,"version":"7757534","steam_id":85568392924515187,"keywords":["nocrits","nodmgspread","payload","uncletopia"],"game_id":440,"stv_port":27036,"stv_name":"Uncletopia | Atlanta | 3 | Stopwatch Beta | STV","players":null},{"server_id":401,"name":"Uncletopia | Atlanta | 4 | No Payload","name_short":"atl-4","host":"atl-1.us.uncletopia.com","port":27045,"enabled":true,"region":"us-east","cc":"us","latitude":33.753746,"longitude":-84.38633,"reserved":0,"last_update":"0001-01-01T00:00:00Z","name_a2s":"Uncletopia | Atlanta | 4 | No Payload","protocol":17,"map":"pl_pier","folder":"tf","game":"Team Fortress","app_id":440,"player_count":0,"max_players":24,"Bots":0,"server_type":"Dedicated","server_os":"Linux","password":true,"vac":true,"version":"7723704","steam_id":85568392924515188,"keywords":["nocrits","nodmgspread","payload","uncletopia"],"game_id":440,"stv_port":27046,"stv_name":"Uncletopia | Atlanta | 4 | No Payload | STV","players":null},{"server_id":2,"name":"Uncletopia | Chicago | 1 | All Maps","name_short":"chi-1","host":"chi-1.us.uncletopia.com","port":27015,"enabled":true,"region":"us-central","cc":"us","latitude":41.881832,"longitude":-87.62318,"reserved":0,"last_update":"0001-01-01T00:00:00Z","name_a2s":"Uncletopia | Chicago | 1 | All Maps","protocol":17,"map":"pl_barnblitz","folder":"tf","game":"Team Fortress","app_id":440,"player_count":22,"max_players":24,"Bots":0,"server_type":"Dedicated","server_os":"Linux","password":true,"vac":true,"version":"7757534","steam_id":85568392924469984,"keywords":["nocrits","nodmgspread","payload","uncletopia"],"game_id":440,"stv_port":27016,"stv_name":"Uncletopia | Chicago | 1 | All Maps | STV","players":[{"user_id":130,"name":"ConsumedRat1455","steam_id":76561198800349530,"connected_time":485000000000,"state":"active","ping":70},{"user_id":133,"name":"pepsibobby","steam_id":76561198853864511,"connected_time":103000000000,"state":"active","ping":74},{"user_id":122,"name":"Female Gamer","steam_id":76561199366482682,"connected_time":1946000000000,"state":"active","ping":99},{"user_id":46,"name":"Sloppy Joe (Extra Sauce)","steam_id":76561198359703432,"connected_time":8134000000000,"state":"active","ping":91},{"user_id":128,"name":"Michaelpc1","steam_id":76561198088365519,"connected_time":794000000000,"state":"active","ping":60},{"user_id":135,"name":"Tony Del Monaco","steam_id":76561198050912837,"connected_time":74000000000,"state":"active","ping":87},{"user_id":77,"name":"tA.CHRONIC","steam_id":76561197960760990,"connected_time":6095000000000,"state":"active","ping":49},{"user_id":123,"name":"Jw. www.vaticancatholic.com","steam_id":76561198190170075,"connected_time":1364000000000,"state":"active","ping":60},{"user_id":132,"name":"Gen. Skull Krasher","steam_id":76561198045420823,"connected_time":114000000000,"state":"active","ping":96},{"user_id":104,"name":"Smeller","steam_id":76561198041767882,"connected_time":3675000000000,"state":"active","ping":59},{"user_id":97,"name":"Yukon Cornelius","steam_id":76561198261512781,"connected_time":3980000000000,"state":"active","ping":89},{"user_id":129,"name":"Ender w","steam_id":76561198160747515,"connected_time":650000000000,"state":"active","ping":164},{"user_id":112,"name":"-flagellum","steam_id":76561198006297974,"connected_time":2879000000000,"state":"active","ping":48},{"user_id":81,"name":"Ras","steam_id":76561198123546775,"connected_time":5513000000000,"state":"active","ping":75},{"user_id":100,"name":"Mr.Poopy Pants","steam_id":76561199037703635,"connected_time":3798000000000,"state":"active","ping":70},{"user_id":126,"name":"morbissey","steam_id":76561198072592880,"connected_time":1088000000000,"state":"active","ping":44},{"user_id":117,"name":"Crab Rangoon","steam_id":76561198059310510,"connected_time":2212000000000,"state":"active","ping":68},{"user_id":115,"name":"pelt","steam_id":76561197993593754,"connected_time":2671000000000,"state":"active","ping":48},{"user_id":88,"name":"dtnk","steam_id":76561199007189876,"connected_time":4896000000000,"state":"active","ping":59},{"user_id":127,"name":"ShitsandGiggles™","steam_id":76561198058708019,"connected_time":950000000000,"state":"active","ping":54},{"user_id":109,"name":"dwippy_","steam_id":76561198010602479,"connected_time":3127000000000,"state":"active","ping":85},{"user_id":139,"name":"7 000","steam_id":76561198171951847,"connected_time":29000000000,"state":"active","ping":61}]},{"server_id":106,"name":"Uncletopia | Chicago | 2 | All Maps","name_short":"chi-2","host":"chi-1.us.uncletopia.com","port":27025,"enabled":true,"region":"us-central","cc":"us","latitude":41.881832,"longitude":-87.62318,"reserved":0,"last_update":"0001-01-01T00:00:00Z","name_a2s":"Uncletopia | Chicago | 2 | All Maps","protocol":17,"map":"cp_altitude","folder":"tf","game":"Team Fortress","app_id":440,"player_count":24,"max_players":24,"Bots":0,"server_type":"Dedicated","server_os":"Linux","password":true,"vac":true,"version":"7757534","steam_id":85568392924469985,"keywords":["cp","nocrits","nodmgspread","uncletopia"],"game_id":440,"stv_port":27026,"stv_name":"Uncletopia | Chicago | 2 | All Maps | STV","players":[{"user_id":82,"name":"Cmellz","steam_id":76561198047577806,"connected_time":1336000000000,"state":"active","ping":95},{"user_id":98,"name":"WhoIsFrosty","steam_id":76561198880588117,"connected_time":600000000000,"state":"active","ping":49},{"user_id":60,"name":"Critical","steam_id":76561198442729982,"connected_time":3188000000000,"state":"active","ping":74},{"user_id":96,"name":"Try Gardening","steam_id":76561198120311340,"connected_time":648000000000,"state":"active","ping":46},{"user_id":79,"name":"Lain","steam_id":76561198252784944,"connected_time":2010000000000,"state":"active","ping":92},{"user_id":57,"name":"YHH COZY","steam_id":76561198310880776,"connected_time":3391000000000,"state":"active","ping":70},{"user_id":94,"name":"Sunvaar","steam_id":76561198852679851,"connected_time":707000000000,"state":"active","ping":62},{"user_id":97,"name":"dragggg","steam_id":76561198222386220,"connected_time":615000000000,"state":"active","ping":98},{"user_id":101,"name":"turn around","steam_id":76561198046526036,"connected_time":548000000000,"state":"active","ping":96},{"user_id":93,"name":"Pepsiman","steam_id":76561198436946165,"connected_time":776000000000,"state":"active","ping":69},{"user_id":100,"name":"109258","steam_id":76561198102538699,"connected_time":582000000000,"state":"active","ping":92},{"user_id":69,"name":"K2f","steam_id":76561198049600563,"connected_time":2452000000000,"state":"active","ping":102},{"user_id":48,"name":"Ϫ.averted","steam_id":76561198067784310,"connected_time":3697000000000,"state":"active","ping":66},{"user_id":109,"name":"Critscare","steam_id":76561198087712508,"connected_time":422000000000,"state":"active","ping":46},{"user_id":102,"name":"Tyrfang, The Poultry Knight","steam_id":76561198044001262,"connected_time":534000000000,"state":"active","ping":75},{"user_id":38,"name":"Dr. Jigglebones","steam_id":76561197995352645,"connected_time":4176000000000,"state":"active","ping":70},{"user_id":103,"name":"Draco6257","steam_id":76561199147322448,"connected_time":515000000000,"state":"active","ping":50},{"user_id":110,"name":"Over5core","steam_id":76561198029668732,"connected_time":417000000000,"state":"active","ping":62},{"user_id":111,"name":"HATEWORK.","steam_id":76561198286792807,"connected_time":387000000000,"state":"active","ping":84},{"user_id":78,"name":"LitlToast","steam_id":76561198353473171,"connected_time":2044000000000,"state":"active","ping":76},{"user_id":106,"name":"『Jesman101』","steam_id":76561198038295051,"connected_time":494000000000,"state":"active","ping":74},{"user_id":108,"name":"Stormz64 (no longer festive)","steam_id":76561198239036482,"connected_time":466000000000,"state":"active","ping":55},{"user_id":112,"name":"Mr.Pickles","steam_id":76561199111314281,"connected_time":386000000000,"state":"active","ping":59},{"user_id":86,"name":"Quietsharp","steam_id":76561198277968438,"connected_time":1126000000000,"state":"active","ping":105}]},{"server_id":402,"name":"Uncletopia | Chicago | 3 | All Maps","name_short":"chi-3","host":"chi-1.us.uncletopia.com","port":27035,"enabled":true,"region":"us-central","cc":"us","latitude":41.881832,"longitude":-87.62318,"reserved":0,"last_update":"0001-01-01T00:00:00Z","name_a2s":"Uncletopia | Chicago | 3 | All Maps","protocol":17,"map":"pl_badwater","folder":"tf","game":"Team Fortress","app_id":440,"player_count":0,"max_players":24,"Bots":0,"server_type":"Dedicated","server_os":"Linux","password":true,"vac":true,"version":"7757534","steam_id":85568392924515191,"keywords":["nocrits","nodmgspread","payload","uncletopia"],"game_id":440,"stv_port":27036,"stv_name":"Uncletopia | Chicago | 3 | All Maps | STV","players":null},{"server_id":403,"name":"Uncletopia | Chicago | 4 | All Maps","name_short":"chi-4","host":"chi-1.us.uncletopia.com","port":27045,"enabled":true,"region":"us-central","cc":"us","latitude":41.881832,"longitude":-87.62318,"reserved":0,"last_update":"0001-01-01T00:00:00Z","name_a2s":"Uncletopia | Chicago | 4 | All Maps","protocol":17,"map":"pl_borneo","folder":"tf","game":"Team Fortress","app_id":440,"player_count":24,"max_players":24,"Bots":0,"server_type":"Dedicated","server_os":"Linux","password":true,"vac":true,"version":"7757534","steam_id":85568392924515193,"keywords":["nocrits","nodmgspread","payload","uncletopia"],"game_id":440,"stv_port":27046,"stv_name":"Uncletopia | Chicago | 4 | All Maps | STV","players":[{"user_id":444,"name":"Coupon","steam_id":76561198111947598,"connected_time":1378000000000,"state":"active","ping":82},{"user_id":471,"name":"Banana","steam_id":76561198996230924,"connected_time":205000000000,"state":"active","ping":80},{"user_id":438,"name":"Gigabars","steam_id":76561198119267479,"connected_time":1762000000000,"state":"active","ping":64},{"user_id":462,"name":"scrapheap","steam_id":76561198202407087,"connected_time":372000000000,"state":"active","ping":76},{"user_id":458,"name":"John16Mark","steam_id":76561198119445407,"connected_time":695000000000,"state":"active","ping":87},{"user_id":460,"name":"evannewman123tpt","steam_id":76561199203503233,"connected_time":412000000000,"state":"active","ping":59},{"user_id":451,"name":"R0","steam_id":76561198136861017,"connected_time":1000000000000,"state":"active","ping":71},{"user_id":423,"name":"i'm a fireball","steam_id":76561198138221795,"connected_time":2522000000000,"state":"active","ping":71},{"user_id":385,"name":"{[F.H]} Hydroida","steam_id":76561197999797274,"connected_time":4545000000000,"state":"active","ping":84},{"user_id":463,"name":"drinkos","steam_id":76561198261556166,"connected_time":363000000000,"state":"active","ping":50},{"user_id":465,"name":"RipHunter77","steam_id":76561198272973014,"connected_time":355000000000,"state":"active","ping":122},{"user_id":448,"name":"lost in spaaaaace","steam_id":76561199085974120,"connected_time":1167000000000,"state":"active","ping":72},{"user_id":449,"name":"coffeeghost","steam_id":76561198155142385,"connected_time":1089000000000,"state":"active","ping":83},{"user_id":396,"name":"Frаnk","steam_id":76561198150754556,"connected_time":4201000000000,"state":"active","ping":40},{"user_id":472,"name":"nines","steam_id":76561198078992548,"connected_time":191000000000,"state":"active","ping":75},{"user_id":417,"name":"hashmap","steam_id":76561198043794014,"connected_time":3035000000000,"state":"active","ping":49},{"user_id":467,"name":"watermelon","steam_id":76561198041770884,"connected_time":275000000000,"state":"active","ping":98},{"user_id":418,"name":"Deep Blue Day","steam_id":76561197991910828,"connected_time":3022000000000,"state":"active","ping":48},{"user_id":453,"name":"name420","steam_id":76561198129374525,"connected_time":988000000000,"state":"active","ping":77},{"user_id":475,"name":"FrostyPollux","steam_id":76561198374158595,"connected_time":112000000000,"state":"active","ping":95},{"user_id":468,"name":"San. www.vaticanhospital.org","steam_id":76561199238923581,"connected_time":275000000000,"state":"active","ping":114},{"user_id":469,"name":"Slim Mimosa","steam_id":76561198051194667,"connected_time":264000000000,"state":"active","ping":76},{"user_id":437,"name":"Dispenser (Twan)","steam_id":76561197991064908,"connected_time":1826000000000,"state":"active","ping":61},{"user_id":474,"name":"Lullaby","steam_id":76561198061103166,"connected_time":151000000000,"state":"active","ping":59}]},{"server_id":36,"name":"Uncletopia | Chicago | 5 | All Maps","name_short":"chi-5","host":"chi-2.us.uncletopia.com","port":27015,"enabled":true,"region":"us-central","cc":"us","latitude":41.881832,"longitude":-87.62318,"reserved":0,"last_update":"0001-01-01T00:00:00Z","name_a2s":"Uncletopia | Chicago | 5 | All Maps","protocol":17,"map":"koth_cascade","folder":"tf","game":"Team Fortress","app_id":440,"player_count":0,"max_players":24,"Bots":0,"server_type":"Dedicated","server_os":"Linux","password":true,"vac":true,"version":"7757534","steam_id":85568392924866362,"keywords":["cp","nocrits","nodmgspread","uncletopia"],"game_id":440,"stv_port":27016,"stv_name":"Uncletopia | Chicago | 5 | All Maps | STV","players":null},{"server_id":37,"name":"Uncletopia | Chicago | 6 | All Maps","name_short":"chi-6","host":"chi-2.us.uncletopia.com","port":27025,"enabled":true,"region":"us-central","cc":"us","latitude":41.881832,"longitude":-87.62318,"reserved":0,"last_update":"0001-01-01T00:00:00Z","name_a2s":"Uncletopia | Chicago | 6 | All Maps","protocol":17,"map":"cp_altitude","folder":"tf","game":"Team Fortress","app_id":440,"player_count":0,"max_players":24,"Bots":0,"server_type":"Dedicated","server_os":"Linux","password":true,"vac":true,"version":"7757534","steam_id":85568392924866363,"keywords":["cp","nocrits","nodmgspread","uncletopia"],"game_id":440,"stv_port":27026,"stv_name":"Uncletopia | Chicago | 6 | All Maps | STV","players":null},{"server_id":38,"name":"Uncletopia | Chicago | 7 | Stopwatch Beta","name_short":"chi-7","host":"chi-2.us.uncletopia.com","port":27035,"enabled":true,"region":"us-central","cc":"us","latitude":41.881832,"longitude":-87.62318,"reserved":0,"last_update":"0001-01-01T00:00:00Z","name_a2s":"Uncletopia | Chicago | 7 | Stopwatch Beta","protocol":17,"map":"pl_borneo","folder":"tf","game":"Team Fortress","app_id":440,"player_count":0,"max_players":24,"Bots":0,"server_type":"Dedicated","server_os":"Linux","password":true,"vac":true,"version":"7757534","steam_id":85568392924866364,"keywords":["nocrits","nodmgspread","payload","uncletopia"],"game_id":440,"stv_port":27036,"stv_name":"Uncletopia | Chicago | 7 | Stopwatch Beta | STV","players":null},{"server_id":39,"name":"Uncletopia | Chicago | 8 | Community","name_short":"chi-8","host":"chi-2.us.uncletopia.com","port":27045,"enabled":true,"region":"us-central","cc":"us","latitude":41.881832,"longitude":-87.62318,"reserved":0,"last_update":"0001-01-01T00:00:00Z","name_a2s":"Uncletopia | Chicago | 8 | Community","protocol":17,"map":"workshop/koth_synthetic_rc6a.ugc1549817316","folder":"tf","game":"Team Fortress","app_id":440,"player_count":0,"max_players":24,"Bots":0,"server_type":"Dedicated","server_os":"Linux","password":true,"vac":true,"version":"7757534","steam_id":85568392924866365,"keywords":["cp","nocrits","nodmgspread","uncletopia"],"game_id":440,"stv_port":27046,"stv_name":"Uncletopia | Chicago | 8 | Community | STV","players":null},{"server_id":8,"name":"Uncletopia | Dallas | 1 | All Maps","name_short":"dal-1","host":"dal-1.us.uncletopia.com","port":27015,"enabled":true,"region":"us-central","cc":"us","latitude":32.779167,"longitude":-96.80889,"reserved":0,"last_update":"0001-01-01T00:00:00Z","name_a2s":"Uncletopia | Dallas | 1 | All Maps","protocol":17,"map":"cp_dustbowl","folder":"tf","game":"Team Fortress","app_id":440,"player_count":24,"max_players":24,"Bots":0,"server_type":"Dedicated","server_os":"Linux","password":true,"vac":true,"version":"7757534","steam_id":85568392924469986,"keywords":["cp","nocrits","nodmgspread","uncletopia"],"game_id":440,"stv_port":27016,"stv_name":"Uncletopia | Dallas | 1 | All Maps | STV","players":[{"user_id":150,"name":"benson","steam_id":76561198105075752,"connected_time":6362000000000,"state":"active","ping":82},{"user_id":264,"name":"chanoc","steam_id":76561198026734746,"connected_time":411000000000,"state":"active","ping":87},{"user_id":268,"name":"Weerk","steam_id":76561199209543551,"connected_time":276000000000,"state":"active","ping":78},{"user_id":235,"name":"Flaurosa | twitch.tv","steam_id":76561198193606823,"connected_time":2268000000000,"state":"active","ping":60},{"user_id":179,"name":"bolainassr0","steam_id":76561199079078845,"connected_time":5266000000000,"state":"active","ping":97},{"user_id":215,"name":"joethefool","steam_id":76561199015436319,"connected_time":3368000000000,"state":"active","ping":100},{"user_id":257,"name":"Pumpkin Hugger","steam_id":76561198834875100,"connected_time":1147000000000,"state":"active","ping":47},{"user_id":269,"name":"Moonflower ✦","steam_id":76561198191782483,"connected_time":257000000000,"state":"active","ping":49},{"user_id":251,"name":"Soycel","steam_id":76561198353171475,"connected_time":1815000000000,"state":"active","ping":89},{"user_id":249,"name":"The Foolish Samurai","steam_id":76561198094494945,"connected_time":2021000000000,"state":"active","ping":89},{"user_id":253,"name":"Protoshake","steam_id":76561198840276176,"connected_time":1620000000000,"state":"active","ping":40},{"user_id":239,"name":"Mrcheesey","steam_id":76561199078252493,"connected_time":2220000000000,"state":"active","ping":81},{"user_id":204,"name":"Oomitch","steam_id":76561198071702759,"connected_time":4451000000000,"state":"active","ping":108},{"user_id":258,"name":"PigeonGirlMera","steam_id":76561198080830664,"connected_time":1126000000000,"state":"active","ping":102},{"user_id":263,"name":"pinglefingle","steam_id":76561198216580197,"connected_time":430000000000,"state":"active","ping":52},{"user_id":219,"name":"Dr. Ludwig","steam_id":76561198110246392,"connected_time":3102000000000,"state":"active","ping":58},{"user_id":261,"name":"Jokergamma","steam_id":76561198807984541,"connected_time":1039000000000,"state":"active","ping":53},{"user_id":252,"name":"vastrobotmax","steam_id":76561198417110724,"connected_time":1768000000000,"state":"active","ping":99},{"user_id":225,"name":"Sleeping_Penguin❤","steam_id":76561198424771117,"connected_time":2625000000000,"state":"active","ping":82},{"user_id":243,"name":"Avem","steam_id":76561198058763710,"connected_time":2170000000000,"state":"active","ping":77},{"user_id":254,"name":"picnicc","steam_id":76561198193322375,"connected_time":1327000000000,"state":"active","ping":86},{"user_id":248,"name":"barbara","steam_id":76561198072417792,"connected_time":2034000000000,"state":"active","ping":90},{"user_id":167,"name":"Nani?","steam_id":76561198130982692,"connected_time":5743000000000,"state":"active","ping":73},{"user_id":265,"name":"Blart","steam_id":76561198101234582,"connected_time":410000000000,"state":"active","ping":68}]},{"server_id":108,"name":"Uncletopia | Dallas | 2 | All Maps","name_short":"dal-2","host":"dal-1.us.uncletopia.com","port":27025,"enabled":true,"region":"us-central","cc":"us","latitude":32.779167,"longitude":-96.80889,"reserved":0,"last_update":"0001-01-01T00:00:00Z","name_a2s":"Uncletopia | Dallas | 2 | All Maps","protocol":17,"map":"pl_rumford_event","folder":"tf","game":"Team Fortress","app_id":440,"player_count":24,"max_players":24,"Bots":0,"server_type":"Dedicated","server_os":"Linux","password":true,"vac":true,"version":"7757534","steam_id":85568392924469988,"keywords":["nocrits","nodmgspread","payload","uncletopia"],"game_id":440,"stv_port":27026,"stv_name":"Uncletopia | Dallas | 2 | All Maps | STV","players":[{"user_id":310,"name":"James","steam_id":76561198149877756,"connected_time":644000000000,"state":"active","ping":85},{"user_id":311,"name":"rob49","steam_id":76561198223567444,"connected_time":595000000000,"state":"active","ping":51},{"user_id":264,"name":"Can You Feel It Mr.Krabs","steam_id":76561198128302414,"connected_time":3151000000000,"state":"active","ping":68},{"user_id":317,"name":"fdsfsdhj","steam_id":76561198127631900,"connected_time":41000000000,"state":"active","ping":81},{"user_id":274,"name":"SuperFresh","steam_id":76561198200723198,"connected_time":2387000000000,"state":"active","ping":66},{"user_id":283,"name":"Chrys","steam_id":76561198371208774,"connected_time":1838000000000,"state":"active","ping":75},{"user_id":319,"name":"Lost","steam_id":76561198025933206,"connected_time":4000000000,"state":"spawning","ping":57},{"user_id":302,"name":"Seru","steam_id":76561199219827214,"connected_time":1094000000000,"state":"active","ping":102},{"user_id":318,"name":"Minegamer105","steam_id":76561198253320644,"connected_time":33000000000,"state":"active","ping":121},{"user_id":303,"name":"Kaluka","steam_id":76561198036861445,"connected_time":1076000000000,"state":"active","ping":82},{"user_id":284,"name":"Hogman","steam_id":76561198088935064,"connected_time":1765000000000,"state":"active","ping":103},{"user_id":316,"name":"TheTruthOfTheCessationOfDukkha","steam_id":76561198214370515,"connected_time":61000000000,"state":"active","ping":75},{"user_id":315,"name":"ly w/ new mouse","steam_id":76561198062922146,"connected_time":415000000000,"state":"active","ping":48},{"user_id":314,"name":"CrazyMush","steam_id":76561198141783855,"connected_time":487000000000,"state":"active","ping":71},{"user_id":252,"name":"Rat Smacker","steam_id":76561199090197628,"connected_time":3918000000000,"state":"active","ping":74},{"user_id":249,"name":"clyde gaming","steam_id":76561198064407564,"connected_time":4126000000000,"state":"active","ping":56},{"user_id":291,"name":"Gull","steam_id":76561198161560332,"connected_time":1347000000000,"state":"active","ping":248},{"user_id":292,"name":"Daz","steam_id":76561198041431938,"connected_time":1304000000000,"state":"active","ping":80},{"user_id":293,"name":"IPlayGamez","steam_id":76561198041387508,"connected_time":1283000000000,"state":"active","ping":85},{"user_id":304,"name":"gretchling","steam_id":76561198046111695,"connected_time":1057000000000,"state":"active","ping":47},{"user_id":280,"name":"evilstuntman","steam_id":76561198056911537,"connected_time":2076000000000,"state":"active","ping":83},{"user_id":294,"name":"Pinto","steam_id":76561199105386998,"connected_time":1276000000000,"state":"active","ping":54},{"user_id":295,"name":"Snonepe","steam_id":76561197985776620,"connected_time":1258000000000,"state":"active","ping":76},{"user_id":299,"name":"bogus","steam_id":76561198377555279,"connected_time":1158000000000,"state":"active","ping":84}]},{"server_id":5,"name":"Uncletopia | Frankfurt | 1 | All Maps","name_short":"frk-1","host":"frk-1.de.uncletopia.com","port":27015,"enabled":true,"region":"eu","cc":"de","latitude":50.110924,"longitude":8.682127,"reserved":0,"last_update":"0001-01-01T00:00:00Z","name_a2s":"Uncletopia | Frankfurt | 1 | All Maps","protocol":17,"map":"pl_frontier_final","folder":"tf","game":"Team Fortress","app_id":440,"player_count":24,"max_players":24,"Bots":0,"server_type":"Dedicated","server_os":"Linux","password":true,"vac":true,"version":"7757534","steam_id":85568392924469989,"keywords":["nocrits","nodmgspread","payload","uncletopia"],"game_id":440,"stv_port":27016,"stv_name":"Uncletopia | Frankfurt | 1 | All Maps | STV","players":[{"user_id":488,"name":"LightBulbGlue #SaveTF2","steam_id":76561198329573529,"connected_time":1067000000000,"state":"active","ping":167},{"user_id":452,"name":"2Dguy","steam_id":76561198272319067,"connected_time":2847000000000,"state":"active","ping":84},{"user_id":459,"name":"Carry Krypl","steam_id":76561198136938121,"connected_time":2379000000000,"state":"active","ping":61},{"user_id":495,"name":"Hyperis","steam_id":76561199048110177,"connected_time":662000000000,"state":"active","ping":55},{"user_id":480,"name":"Eliot/Goddo (Miguel)","steam_id":76561198353751855,"connected_time":1355000000000,"state":"active","ping":86},{"user_id":375,"name":"Heaby Weapons","steam_id":76561198139404261,"connected_time":7818000000000,"state":"active","ping":58},{"user_id":486,"name":"Jag är ett anka","steam_id":76561198059978438,"connected_time":1201000000000,"state":"active","ping":53},{"user_id":445,"name":"dddd","steam_id":76561198120894372,"connected_time":3712000000000,"state":"active","ping":105},{"user_id":482,"name":"Old Man Winter","steam_id":76561198007653168,"connected_time":1305000000000,"state":"active","ping":75},{"user_id":487,"name":"p!ke","steam_id":76561198416081952,"connected_time":1145000000000,"state":"active","ping":60},{"user_id":477,"name":"Atronic","steam_id":76561198354960567,"connected_time":1664000000000,"state":"active","ping":47},{"user_id":490,"name":"BeS","steam_id":76561198045752247,"connected_time":1023000000000,"state":"active","ping":57},{"user_id":500,"name":"ralph62x","steam_id":76561198865294231,"connected_time":593000000000,"state":"active","ping":63},{"user_id":463,"name":"smell_my_cheese","steam_id":76561198008517427,"connected_time":2242000000000,"state":"active","ping":69},{"user_id":464,"name":"Kati","steam_id":76561198007231088,"connected_time":2220000000000,"state":"active","ping":63},{"user_id":478,"name":"Gotta","steam_id":76561198027276027,"connected_time":1640000000000,"state":"active","ping":108},{"user_id":496,"name":"teddyswk","steam_id":76561198404939571,"connected_time":659000000000,"state":"active","ping":86},{"user_id":497,"name":"weasl","steam_id":76561198076388927,"connected_time":641000000000,"state":"active","ping":68},{"user_id":467,"name":"wee nut","steam_id":76561198083288197,"connected_time":2176000000000,"state":"active","ping":74},{"user_id":498,"name":"dubysa","steam_id":76561198079774530,"connected_time":638000000000,"state":"active","ping":70},{"user_id":468,"name":"Aspect","steam_id":76561198238625372,"connected_time":2175000000000,"state":"active","ping":66},{"user_id":499,"name":"SailingSeal","steam_id":76561198965637156,"connected_time":628000000000,"state":"active","ping":79},{"user_id":501,"name":"ムGeRmAn |×UA×ム","steam_id":76561199044754898,"connected_time":507000000000,"state":"active","ping":71},{"user_id":493,"name":"G6 sherlock","steam_id":76561198802967796,"connected_time":859000000000,"state":"active","ping":125}]},{"server_id":110,"name":"Uncletopia | Frankfurt | 2 | All Maps","name_short":"frk-2","host":"frk-1.de.uncletopia.com","port":27025,"enabled":true,"region":"eu","cc":"de","latitude":50.110924,"longitude":8.682127,"reserved":0,"last_update":"0001-01-01T00:00:00Z","name_a2s":"Uncletopia | Frankfurt | 2 | All Maps","protocol":17,"map":"cp_dustbowl","folder":"tf","game":"Team Fortress","app_id":440,"player_count":24,"max_players":24,"Bots":0,"server_type":"Dedicated","server_os":"Linux","password":true,"vac":true,"version":"7757534","steam_id":85568392924469990,"keywords":["cp","nocrits","nodmgspread","uncletopia"],"game_id":440,"stv_port":27026,"stv_name":"Uncletopia | Frankfurt | 2 | All Maps | STV","players":[{"user_id":278,"name":"Mr.TEA","steam_id":76561198014381591,"connected_time":1335000000000,"state":"active","ping":67},{"user_id":269,"name":"Dem","steam_id":76561198421733235,"connected_time":1941000000000,"state":"active","ping":80},{"user_id":275,"name":"RadialMount","steam_id":76561198063002562,"connected_time":1561000000000,"state":"active","ping":60},{"user_id":255,"name":"æ habakuk","steam_id":76561197998623464,"connected_time":2616000000000,"state":"active","ping":74},{"user_id":279,"name":"symbiome","steam_id":76561198047548582,"connected_time":1327000000000,"state":"active","ping":69},{"user_id":267,"name":"Umberto Bossi","steam_id":76561198136150267,"connected_time":2042000000000,"state":"active","ping":52},{"user_id":290,"name":"Turencko.Danila","steam_id":76561199381190549,"connected_time":475000000000,"state":"active","ping":94},{"user_id":258,"name":"Fuvuk","steam_id":76561198044458593,"connected_time":2565000000000,"state":"active","ping":96},{"user_id":280,"name":"PuttePossu","steam_id":76561198350078793,"connected_time":1237000000000,"state":"active","ping":96},{"user_id":259,"name":"BasLutnya","steam_id":76561198050575776,"connected_time":2536000000000,"state":"active","ping":84},{"user_id":288,"name":"TidB","steam_id":76561198055342304,"connected_time":648000000000,"state":"active","ping":56},{"user_id":260,"name":"Paulbraker","steam_id":76561198150162470,"connected_time":2534000000000,"state":"active","ping":82},{"user_id":261,"name":"Ripper","steam_id":76561197977547003,"connected_time":2528000000000,"state":"active","ping":88},{"user_id":291,"name":"fayden","steam_id":76561199088873813,"connected_time":445000000000,"state":"active","ping":67},{"user_id":282,"name":"Psychicpie","steam_id":76561198126065206,"connected_time":1103000000000,"state":"active","ping":55},{"user_id":228,"name":"「◆Raku• 」","steam_id":76561198059283183,"connected_time":4360000000000,"state":"active","ping":75},{"user_id":287,"name":"「K I L L E R  Q U E E N」","steam_id":76561198010269803,"connected_time":810000000000,"state":"active","ping":70},{"user_id":274,"name":"Average Strawberry","steam_id":76561199440451201,"connected_time":1601000000000,"state":"active","ping":91},{"user_id":220,"name":"꧁༒Xenon༒꧂","steam_id":76561198120502313,"connected_time":5239000000000,"state":"active","ping":65},{"user_id":284,"name":"Swift","steam_id":76561197998799889,"connected_time":1055000000000,"state":"active","ping":61},{"user_id":254,"name":"roblan11","steam_id":76561198066839258,"connected_time":2621000000000,"state":"active","ping":59},{"user_id":263,"name":"NotBadli","steam_id":76561199012880172,"connected_time":2511000000000,"state":"active","ping":64},{"user_id":264,"name":"Paulo","steam_id":76561198001386978,"connected_time":2476000000000,"state":"active","ping":60},{"user_id":286,"name":"Blyatwork","steam_id":76561198825379598,"connected_time":1039000000000,"state":"active","ping":44}]},{"server_id":308,"name":"Uncletopia | Frankfurt | 3 | All Maps","name_short":"frk-3","host":"frk-1.de.uncletopia.com","port":27035,"enabled":true,"region":"eu","cc":"de","latitude":50.110924,"longitude":8.682127,"reserved":0,"last_update":"0001-01-01T00:00:00Z","name_a2s":"Uncletopia | Frankfurt | 3 | All Maps","protocol":17,"map":"pl_thundermountain","folder":"tf","game":"Team Fortress","app_id":440,"player_count":23,"max_players":24,"Bots":0,"server_type":"Dedicated","server_os":"Linux","password":true,"vac":true,"version":"7757534","steam_id":85568392924504274,"keywords":["nocrits","nodmgspread","payload","uncletopia"],"game_id":440,"stv_port":27036,"stv_name":"Uncletopia | Frankfurt | 3 | All Maps | STV","players":[{"user_id":543,"name":"Noodle","steam_id":76561198306486695,"connected_time":2387000000000,"state":"active","ping":60},{"user_id":529,"name":"Kira","steam_id":76561198204168909,"connected_time":3122000000000,"state":"active","ping":97},{"user_id":552,"name":"ArikMor","steam_id":76561199124472513,"connected_time":1378000000000,"state":"active","ping":120},{"user_id":562,"name":"Newax","steam_id":76561198020758511,"connected_time":547000000000,"state":"active","ping":63},{"user_id":557,"name":"Yuval","steam_id":76561198241802390,"connected_time":588000000000,"state":"active","ping":126},{"user_id":565,"name":"Hexanik","steam_id":76561198283303637,"connected_time":518000000000,"state":"active","ping":99},{"user_id":549,"name":"German Prick","steam_id":76561198181410637,"connected_time":1672000000000,"state":"active","ping":55},{"user_id":566,"name":"Sylbar","steam_id":76561198065379590,"connected_time":505000000000,"state":"active","ping":59},{"user_id":558,"name":"Bell","steam_id":76561199454586928,"connected_time":588000000000,"state":"active","ping":152},{"user_id":534,"name":"khan bram","steam_id":76561198034596820,"connected_time":3023000000000,"state":"active","ping":46},{"user_id":568,"name":"s҉o҉u҉l҉y҉  ᵈᵉᵈ","steam_id":76561198176432247,"connected_time":127000000000,"state":"active","ping":115},{"user_id":559,"name":"Drakey Fenix","steam_id":76561197988896585,"connected_time":568000000000,"state":"active","ping":60},{"user_id":563,"name":"Seven","steam_id":76561197979013064,"connected_time":532000000000,"state":"active","ping":45},{"user_id":561,"name":"Seail_M","steam_id":76561198002405605,"connected_time":565000000000,"state":"active","ping":59},{"user_id":530,"name":"hitman's hatemaker","steam_id":76561198093605066,"connected_time":3114000000000,"state":"active","ping":85},{"user_id":491,"name":"Octoblue64","steam_id":76561198388997283,"connected_time":7246000000000,"state":"active","ping":69},{"user_id":516,"name":"Goblin (level-5)","steam_id":76561198058211873,"connected_time":4942000000000,"state":"active","ping":50},{"user_id":523,"name":"Skeletros","steam_id":76561198130969152,"connected_time":4473000000000,"state":"active","ping":135},{"user_id":524,"name":"ChesseKnight","steam_id":76561198102476339,"connected_time":4462000000000,"state":"active","ping":87},{"user_id":517,"name":"SIR MEPHEDRONE","steam_id":76561198302623594,"connected_time":4693000000000,"state":"active","ping":94},{"user_id":537,"name":"Leah","steam_id":76561198064681443,"connected_time":2826000000000,"state":"active","ping":77},{"user_id":564,"name":"Faust","steam_id":76561198035793065,"connected_time":527000000000,"state":"active","ping":146},{"user_id":551,"name":"lawrencefishdom","steam_id":76561199190918059,"connected_time":1562000000000,"state":"active","ping":73}]},{"server_id":309,"name":"Uncletopia | Frankfurt | 4 | All Maps","name_short":"frk-4","host":"frk-1.de.uncletopia.com","port":27045,"enabled":true,"region":"eu","cc":"de","latitude":50.110924,"longitude":8.682127,"reserved":0,"last_update":"0001-01-01T00:00:00Z","name_a2s":"Uncletopia | Frankfurt | 4 | All Maps","protocol":17,"map":"pl_barnblitz","folder":"tf","game":"Team Fortress","app_id":440,"player_count":23,"max_players":24,"Bots":0,"server_type":"Dedicated","server_os":"Linux","password":true,"vac":true,"version":"7757534","steam_id":85568392924504275,"keywords":["nocrits","nodmgspread","payload","uncletopia"],"game_id":440,"stv_port":27046,"stv_name":"Uncletopia | Frankfurt | 4 | All Maps | STV","players":[{"user_id":142,"name":"AWJ ˆ-ˆ","steam_id":76561198053628243,"connected_time":90000000000,"state":"active","ping":57},{"user_id":143,"name":"Limewere","steam_id":76561198101751967,"connected_time":54000000000,"state":"active","ping":71},{"user_id":144,"name":"Kupusari d.o.o.","steam_id":76561198320880046,"connected_time":52000000000,"state":"active","ping":73},{"user_id":138,"name":"Mr.Man","steam_id":76561199175688390,"connected_time":244000000000,"state":"active","ping":76},{"user_id":96,"name":"Accident","steam_id":76561198115160396,"connected_time":3367000000000,"state":"active","ping":59},{"user_id":141,"name":"profile","steam_id":76561198073562913,"connected_time":104000000000,"state":"active","ping":90},{"user_id":129,"name":"SVT","steam_id":76561198106918084,"connected_time":951000000000,"state":"active","ping":88},{"user_id":145,"name":"Enforcer02","steam_id":76561197966045944,"connected_time":49000000000,"state":"active","ping":39},{"user_id":134,"name":"Empyrean","steam_id":76561198138552502,"connected_time":678000000000,"state":"active","ping":80},{"user_id":146,"name":"Xie Xil Ling","steam_id":76561198053394831,"connected_time":31000000000,"state":"active","ping":65},{"user_id":117,"name":"Whomstr","steam_id":76561198871432675,"connected_time":1583000000000,"state":"active","ping":56},{"user_id":139,"name":"poy","steam_id":76561198114063534,"connected_time":106000000000,"state":"active","ping":45},{"user_id":113,"name":"angel","steam_id":76561198121408313,"connected_time":1626000000000,"state":"active","ping":75},{"user_id":147,"name":"Arcader","steam_id":76561198109860110,"connected_time":24000000000,"state":"active","ping":73},{"user_id":148,"name":"Karma","steam_id":76561198162154135,"connected_time":16000000000,"state":"spawning","ping":335},{"user_id":47,"name":"Hexagon","steam_id":76561198151205758,"connected_time":6509000000000,"state":"active","ping":45},{"user_id":119,"name":"Yolomeus","steam_id":76561198137421279,"connected_time":1505000000000,"state":"active","ping":54},{"user_id":120,"name":"Bieckowiz","steam_id":76561198128290663,"connected_time":1495000000000,"state":"active","ping":55},{"user_id":132,"name":"Bostrash641","steam_id":76561199447225685,"connected_time":715000000000,"state":"active","ping":72},{"user_id":124,"name":"♚ jar","steam_id":76561198156384007,"connected_time":1284000000000,"state":"active","ping":63},{"user_id":137,"name":"Julez","steam_id":76561198045505082,"connected_time":314000000000,"state":"active","ping":117},{"user_id":140,"name":"Cosmic Gamer","steam_id":76561198027357981,"connected_time":106000000000,"state":"active","ping":93},{"user_id":127,"name":"Dr-je-kill","steam_id":76561198890817226,"connected_time":1221000000000,"state":"active","ping":73}]},{"server_id":310,"name":"Uncletopia | Frankfurt | 5 | All Maps","name_short":"frk-5","host":"frk-1.de.uncletopia.com","port":27055,"enabled":true,"region":"eu","cc":"de","latitude":50.110924,"longitude":8.682127,"reserved":0,"last_update":"0001-01-01T00:00:00Z","name_a2s":"Uncletopia | Frankfurt | 5 | All Maps","protocol":17,"map":"koth_lakeside_final","folder":"tf","game":"Team Fortress","app_id":440,"player_count":0,"max_players":24,"Bots":0,"server_type":"Dedicated","server_os":"Linux","password":true,"vac":true,"version":"7757534","steam_id":85568392924504277,"keywords":["cp","nocrits","nodmgspread","uncletopia"],"game_id":440,"stv_port":27056,"stv_name":"Uncletopia | Frankfurt | 5 | All Maps | STV","players":null},{"server_id":311,"name":"Uncletopia | Frankfurt | 6 | All Maps","name_short":"frk-6","host":"frk-1.de.uncletopia.com","port":27065,"enabled":true,"region":"eu","cc":"de","latitude":50.110924,"longitude":8.682127,"reserved":0,"last_update":"0001-01-01T00:00:00Z","name_a2s":"Uncletopia | Frankfurt | 6 | All Maps","protocol":17,"map":"cp_dustbowl","folder":"tf","game":"Team Fortress","app_id":440,"player_count":24,"max_players":24,"Bots":0,"server_type":"Dedicated","server_os":"Linux","password":true,"vac":true,"version":"7757534","steam_id":85568392924504278,"keywords":["cp","nocrits","nodmgspread","uncletopia"],"game_id":440,"stv_port":27066,"stv_name":"Uncletopia | Frankfurt | 6 | All Maps | STV","players":[{"user_id":487,"name":"Soihtu","steam_id":76561198025574278,"connected_time":776000000000,"state":"active","ping":91},{"user_id":484,"name":"DiditoGM","steam_id":76561198153343383,"connected_time":1144000000000,"state":"active","ping":168},{"user_id":471,"name":"sleep","steam_id":76561198034882276,"connected_time":1912000000000,"state":"active","ping":84},{"user_id":485,"name":"minespweper","steam_id":76561199096919345,"connected_time":966000000000,"state":"active","ping":86},{"user_id":472,"name":"Speibsackerl","steam_id":76561198058135257,"connected_time":1907000000000,"state":"active","ping":71},{"user_id":430,"name":"Penis Contortionist","steam_id":76561198073663784,"connected_time":5378000000000,"state":"active","ping":52},{"user_id":489,"name":"Silva_mlon","steam_id":76561199310242047,"connected_time":476000000000,"state":"active","ping":74},{"user_id":490,"name":"antrobot","steam_id":76561198281039672,"connected_time":454000000000,"state":"active","ping":151},{"user_id":456,"name":"Vikep'S","steam_id":76561199002274689,"connected_time":3288000000000,"state":"active","ping":80},{"user_id":464,"name":"Deckard","steam_id":76561198004704647,"connected_time":2858000000000,"state":"active","ping":80},{"user_id":458,"name":"nibs","steam_id":76561198040099538,"connected_time":3258000000000,"state":"active","ping":75},{"user_id":473,"name":"󠀡󠀡","steam_id":76561198015585266,"connected_time":1901000000000,"state":"active","ping":77},{"user_id":469,"name":"Eing","steam_id":76561198253125820,"connected_time":2001000000000,"state":"active","ping":89},{"user_id":480,"name":"I'm high on crack","steam_id":76561198175433731,"connected_time":1636000000000,"state":"active","ping":69},{"user_id":483,"name":"Morgan BullFrog","steam_id":76561198088334623,"connected_time":1439000000000,"state":"active","ping":102},{"user_id":438,"name":"Goodb ye","steam_id":76561198862683773,"connected_time":4595000000000,"state":"active","ping":96},{"user_id":475,"name":"JujuBalu","steam_id":76561198207253071,"connected_time":1845000000000,"state":"active","ping":50},{"user_id":476,"name":"Cathedra","steam_id":76561198430227030,"connected_time":1843000000000,"state":"active","ping":46},{"user_id":488,"name":"rock","steam_id":76561198093488870,"connected_time":543000000000,"state":"active","ping":74},{"user_id":477,"name":"Нікітрон","steam_id":76561198044401080,"connected_time":1832000000000,"state":"active","ping":57},{"user_id":478,"name":"NhouBrane","steam_id":76561198293577735,"connected_time":1823000000000,"state":"active","ping":69},{"user_id":373,"name":"Brass beast heavy","steam_id":76561198274197623,"connected_time":9639000000000,"state":"active","ping":70},{"user_id":479,"name":"SeductiveOctopus","steam_id":76561198011036516,"connected_time":1801000000000,"state":"active","ping":72},{"user_id":449,"name":"Torttu","steam_id":76561198013980029,"connected_time":3959000000000,"state":"active","ping":69}]},{"server_id":23,"name":"Uncletopia | Frankfurt | 7 | Stopwatch Beta","name_short":"frk-7","host":"frk-1.de.uncletopia.com","port":27075,"enabled":true,"region":"eu","cc":"de","latitude":50.110924,"longitude":8.682127,"reserved":0,"last_update":"0001-01-01T00:00:00Z","name_a2s":"Uncletopia | Frankfurt | 7 | Stopwatch Beta","protocol":17,"map":"workshop/koth_product_final.ugc454272353","folder":"tf","game":"Team Fortress","app_id":440,"player_count":8,"max_players":24,"Bots":0,"server_type":"Dedicated","server_os":"Linux","password":true,"vac":true,"version":"7757534","steam_id":85568392924742827,"keywords":["cp","nocrits","nodmgspread","uncletopia"],"game_id":440,"stv_port":27076,"stv_name":"Uncletopia | Frankfurt | 7 | Stopwatch Beta | STV","players":[{"user_id":247,"name":"Derp","steam_id":76561198197901062,"connected_time":60000000000,"state":"connecting","ping":54},{"user_id":237,"name":"Mann At Work","steam_id":76561197993335867,"connected_time":411000000000,"state":"connecting","ping":88},{"user_id":244,"name":"Owl","steam_id":76561198248266580,"connected_time":210000000000,"state":"connecting","ping":78},{"user_id":248,"name":"zxcvbnm","steam_id":76561198812808817,"connected_time":11000000000,"state":"connecting","ping":88},{"user_id":242,"name":"the real lancer from deltarune","steam_id":76561199078505144,"connected_time":346000000000,"state":"connecting","ping":97},{"user_id":245,"name":"Whizzo","steam_id":76561198058762428,"connected_time":208000000000,"state":"connecting","ping":78},{"user_id":246,"name":"isha","steam_id":76561199041566425,"connected_time":161000000000,"state":"connecting","ping":61},{"user_id":129,"name":"Topme","steam_id":76561198091734693,"connected_time":6864000000000,"state":"connecting","ping":99}]},{"server_id":24,"name":"Uncletopia | Frankfurt | 8 | Community","name_short":"frk-8","host":"frk-1.de.uncletopia.com","port":27085,"enabled":true,"region":"eu","cc":"de","latitude":50.110924,"longitude":8.682127,"reserved":0,"last_update":"0001-01-01T00:00:00Z","name_a2s":"Uncletopia | Frankfurt | 8 | Community","protocol":17,"map":"workshop/koth_synthetic_rc6a.ugc1549817316","folder":"tf","game":"Team Fortress","app_id":440,"player_count":2,"max_players":24,"Bots":0,"server_type":"Dedicated","server_os":"Linux","password":true,"vac":true,"version":"7757534","steam_id":85568392924742828,"keywords":["cp","nocrits","nodmgspread","uncletopia"],"game_id":440,"stv_port":27086,"stv_name":"Uncletopia | Frankfurt | 8 | Community | STV","players":[{"user_id":350,"name":"KatTheCookiCat","steam_id":76561199054643392,"connected_time":294000000000,"state":"active","ping":45},{"user_id":351,"name":"Explodingrayman","steam_id":76561198185783005,"connected_time":244000000000,"state":"active","ping":199}]},{"server_id":202,"name":"Uncletopia | Hong Kong | 1 | All Maps","name_short":"hgk-1","host":"hgk-1.hk.uncletopia.com","port":27015,"enabled":true,"region":"asia","cc":"hk","latitude":22.302711,"longitude":114.177216,"reserved":0,"last_update":"0001-01-01T00:00:00Z","name_a2s":"Uncletopia | Hong Kong | 1 | All Maps","protocol":17,"map":"cp_altitude","folder":"tf","game":"Team Fortress","app_id":440,"player_count":0,"max_players":24,"Bots":0,"server_type":"Dedicated","server_os":"Linux","password":true,"vac":true,"version":"7757534","steam_id":85568392924494504,"keywords":["cp","nocrits","nodmgspread","uncletopia"],"game_id":440,"stv_port":27016,"stv_name":"Uncletopia | Hong Kong | 1 | All Maps | STV","players":null},{"server_id":1,"name":"Uncletopia | Los Angeles | 1 | All Maps","name_short":"lax-1","host":"lax-1.us.uncletopia.com","port":27015,"enabled":true,"region":"us-west","cc":"us","latitude":33.94279,"longitude":-118.41004,"reserved":0,"last_update":"0001-01-01T00:00:00Z","name_a2s":"Uncletopia | Los Angeles | 1 | All Maps","protocol":17,"map":"pl_pier","folder":"tf","game":"Team Fortress","app_id":440,"player_count":0,"max_players":24,"Bots":0,"server_type":"Dedicated","server_os":"Linux","password":true,"vac":true,"version":"7757534","steam_id":85568392924469991,"keywords":["nocrits","nodmgspread","payload","uncletopia"],"game_id":440,"stv_port":27016,"stv_name":"Uncletopia | Los Angeles | 1 | All Maps | STV","players":null},{"server_id":112,"name":"Uncletopia | Los Angeles | 2 | All Maps","name_short":"lax-2","host":"lax-1.us.uncletopia.com","port":27025,"enabled":true,"region":"us-west","cc":"us","latitude":33.94279,"longitude":-118.41004,"reserved":0,"last_update":"0001-01-01T00:00:00Z","name_a2s":"Uncletopia | Los Angeles | 2 | All Maps","protocol":17,"map":"cp_mountainlab","folder":"tf","game":"Team Fortress","app_id":440,"player_count":0,"max_players":24,"Bots":0,"server_type":"Dedicated","server_os":"Linux","password":true,"vac":true,"version":"7757534","steam_id":85568392924469992,"keywords":["cp","nocrits","nodmgspread","uncletopia"],"game_id":440,"stv_port":27026,"stv_name":"Uncletopia | Los Angeles | 2 | All Maps | STV","players":null},{"server_id":324,"name":"Uncletopia | Los Angeles | 3 | All Maps","name_short":"lax-3","host":"lax-1.us.uncletopia.com","port":27035,"enabled":true,"region":"us-west","cc":"us","latitude":33.94279,"longitude":-118.41004,"reserved":0,"last_update":"0001-01-01T00:00:00Z","name_a2s":"Uncletopia | Los Angeles | 3 | All Maps","protocol":17,"map":"koth_cascade","folder":"tf","game":"Team Fortress","app_id":440,"player_count":0,"max_players":24,"Bots":0,"server_type":"Dedicated","server_os":"Linux","password":true,"vac":true,"version":"7757534","steam_id":85568392924510198,"keywords":["cp","nocrits","nodmgspread","uncletopia"],"game_id":440,"stv_port":27036,"stv_name":"Uncletopia | Los Angeles | 3 | All Maps | STV","players":null},{"server_id":25,"name":"Uncletopia | Los Angeles | 4 | Stopwatch Beta","name_short":"lax-4","host":"lax-1.us.uncletopia.com","port":27045,"enabled":true,"region":"us-west","cc":"us","latitude":33.94279,"longitude":-118.41004,"reserved":0,"last_update":"0001-01-01T00:00:00Z","name_a2s":"Uncletopia | Los Angeles | 4 | Stopwatch Beta","protocol":17,"map":"koth_viaduct","folder":"tf","game":"Team Fortress","app_id":440,"player_count":0,"max_players":24,"Bots":0,"server_type":"Dedicated","server_os":"Linux","password":true,"vac":true,"version":"7757534","steam_id":85568392924510199,"keywords":["cp","nocrits","nodmgspread","uncletopia"],"game_id":440,"stv_port":27046,"stv_name":"Uncletopia | Los Angeles | 4 | Stopwatch Beta | STV","players":null},{"server_id":11,"name":"Uncletopia | London | 1 | All Maps","name_short":"lon-1","host":"lon-1.uk.uncletopia.com","port":27015,"enabled":true,"region":"eu","cc":"gb","latitude":51.509865,"longitude":-0.118092,"reserved":0,"last_update":"0001-01-01T00:00:00Z","name_a2s":"Uncletopia | London | 1 | All Maps","protocol":17,"map":"cp_dustbowl","folder":"tf","game":"Team Fortress","app_id":440,"player_count":24,"max_players":24,"Bots":0,"server_type":"Dedicated","server_os":"Linux","password":true,"vac":true,"version":"7757534","steam_id":85568392924367362,"keywords":["cp","nocrits","nodmgspread","uncletopia"],"game_id":440,"stv_port":27016,"stv_name":"Uncletopia | London | 1 | All Maps | STV","players":[{"user_id":264,"name":"Spanish Shy Cat","steam_id":76561198808819694,"connected_time":5950000000000,"state":"active","ping":48},{"user_id":266,"name":"zigg","steam_id":76561198149501776,"connected_time":5721000000000,"state":"active","ping":51},{"user_id":324,"name":"gamerweed5","steam_id":76561198087651151,"connected_time":3000000000,"state":"spawning","ping":34},{"user_id":306,"name":"eon","steam_id":76561197971360276,"connected_time":1291000000000,"state":"active","ping":64},{"user_id":319,"name":"McGov","steam_id":76561198211361463,"connected_time":448000000000,"state":"active","ping":62},{"user_id":279,"name":"Vitamin Weee","steam_id":76561199183937747,"connected_time":4344000000000,"state":"active","ping":101},{"user_id":302,"name":"Dirty Joe","steam_id":76561198142418870,"connected_time":2123000000000,"state":"active","ping":44},{"user_id":318,"name":"dec","steam_id":76561198009660168,"connected_time":569000000000,"state":"active","ping":45},{"user_id":230,"name":"✪ J","steam_id":76561198094911581,"connected_time":8860000000000,"state":"active","ping":56},{"user_id":310,"name":"Cosmetic brain","steam_id":76561198055936410,"connected_time":1202000000000,"state":"active","ping":79},{"user_id":320,"name":"RIFT","steam_id":76561198991622379,"connected_time":301000000000,"state":"active","ping":39},{"user_id":267,"name":"Aurora","steam_id":76561199385280253,"connected_time":5715000000000,"state":"active","ping":122},{"user_id":245,"name":"Dom.","steam_id":76561199065917088,"connected_time":8045000000000,"state":"active","ping":59},{"user_id":323,"name":"Yessirskiii","steam_id":76561198179324075,"connected_time":225000000000,"state":"active","ping":63},{"user_id":294,"name":"sex haver","steam_id":76561198798892497,"connected_time":3306000000000,"state":"active","ping":53},{"user_id":293,"name":"ciliorkun18","steam_id":76561198228942500,"connected_time":3404000000000,"state":"active","ping":96},{"user_id":291,"name":"Durham.","steam_id":76561199013125141,"connected_time":3608000000000,"state":"active","ping":62},{"user_id":315,"name":"Nohudi","steam_id":76561198073367240,"connected_time":1040000000000,"state":"active","ping":109},{"user_id":177,"name":"nudjura","steam_id":76561198281986139,"connected_time":13143000000000,"state":"active","ping":47},{"user_id":303,"name":"Pepegi","steam_id":76561198001230113,"connected_time":1693000000000,"state":"active","ping":85},{"user_id":280,"name":"Aaron","steam_id":76561197990046953,"connected_time":4297000000000,"state":"active","ping":72},{"user_id":271,"name":"Jofiah/TTV","steam_id":76561197977233962,"connected_time":4743000000000,"state":"active","ping":45},{"user_id":304,"name":"DropShot","steam_id":76561198042476724,"connected_time":1669000000000,"state":"active","ping":68},{"user_id":307,"name":"Chief Quityourbitchin","steam_id":76561198860065033,"connected_time":1290000000000,"state":"active","ping":57}]},{"server_id":114,"name":"Uncletopia | London | 2 | All Maps","name_short":"lon-2","host":"lon-1.uk.uncletopia.com","port":27025,"enabled":true,"region":"eu","cc":"gb","latitude":51.509865,"longitude":-0.118092,"reserved":0,"last_update":"0001-01-01T00:00:00Z","name_a2s":"Uncletopia | London | 2 | All Maps","protocol":17,"map":"pl_upward","folder":"tf","game":"Team Fortress","app_id":440,"player_count":24,"max_players":24,"Bots":0,"server_type":"Dedicated","server_os":"Linux","password":true,"vac":true,"version":"7757534","steam_id":85568392924470941,"keywords":["nocrits","nodmgspread","payload","uncletopia"],"game_id":440,"stv_port":27026,"stv_name":"Uncletopia | London | 2 | All Maps | STV","players":[{"user_id":589,"name":"medick","steam_id":76561199380849468,"connected_time":828000000000,"state":"active","ping":62},{"user_id":541,"name":"Oak","steam_id":76561198067315672,"connected_time":5161000000000,"state":"active","ping":70},{"user_id":559,"name":"Dr Richard Webber","steam_id":76561198214432667,"connected_time":3174000000000,"state":"active","ping":61},{"user_id":566,"name":"lanzer","steam_id":76561198049983016,"connected_time":2814000000000,"state":"active","ping":106},{"user_id":442,"name":"big retard player","steam_id":76561198342570528,"connected_time":10054000000000,"state":"active","ping":69},{"user_id":588,"name":"AWildTamim","steam_id":76561198048060652,"connected_time":875000000000,"state":"active","ping":22},{"user_id":587,"name":"Spotmonkey","steam_id":76561198003994092,"connected_time":954000000000,"state":"active","ping":58},{"user_id":591,"name":"_Starlight_","steam_id":76561197993885738,"connected_time":822000000000,"state":"active","ping":85},{"user_id":558,"name":"LSKi","steam_id":76561198215470228,"connected_time":3181000000000,"state":"active","ping":54},{"user_id":593,"name":"baijro","steam_id":76561198061001376,"connected_time":770000000000,"state":"active","ping":74},{"user_id":561,"name":"fried","steam_id":76561198307522022,"connected_time":3098000000000,"state":"active","ping":52},{"user_id":576,"name":"VolcanicArts","steam_id":76561198063453246,"connected_time":2321000000000,"state":"active","ping":55},{"user_id":585,"name":"ricky pee pee","steam_id":76561198152620745,"connected_time":1096000000000,"state":"active","ping":48},{"user_id":594,"name":"ducks","steam_id":76561198148378654,"connected_time":50000000000,"state":"active","ping":92},{"user_id":562,"name":"Stabbyratbag","steam_id":76561198119531916,"connected_time":3067000000000,"state":"active","ping":57},{"user_id":574,"name":"eple","steam_id":76561198017686306,"connected_time":2601000000000,"state":"active","ping":58},{"user_id":581,"name":"SteveyWonder","steam_id":76561198168234878,"connected_time":1309000000000,"state":"active","ping":53},{"user_id":564,"name":"Kvicha Kvaratskhelia","steam_id":76561198179339326,"connected_time":3014000000000,"state":"active","ping":87},{"user_id":586,"name":"Dirt Road","steam_id":76561198210372012,"connected_time":992000000000,"state":"active","ping":147},{"user_id":579,"name":"TYRANSIS","steam_id":76561199003614175,"connected_time":1610000000000,"state":"active","ping":40},{"user_id":584,"name":"Sin","steam_id":76561198975489819,"connected_time":1145000000000,"state":"active","ping":64},{"user_id":511,"name":"godmodule","steam_id":76561198165995444,"connected_time":6534000000000,"state":"active","ping":80},{"user_id":554,"name":"Sipsu","steam_id":76561198059424107,"connected_time":3630000000000,"state":"active","ping":76},{"user_id":565,"name":"Shovelhalfrusty","steam_id":76561198346447513,"connected_time":2995000000000,"state":"active","ping":52}]},{"server_id":320,"name":"Uncletopia | London | 3 | All Maps","name_short":"lon-3","host":"lon-1.uk.uncletopia.com","port":27035,"enabled":true,"region":"eu","cc":"gb","latitude":51.509865,"longitude":-0.118092,"reserved":0,"last_update":"0001-01-01T00:00:00Z","name_a2s":"Uncletopia | London | 3 | All Maps","protocol":17,"map":"pl_frontier_final","folder":"tf","game":"Team Fortress","app_id":440,"player_count":3,"max_players":24,"Bots":0,"server_type":"Dedicated","server_os":"Linux","password":true,"vac":true,"version":"7757534","steam_id":85568392924510192,"keywords":["nocrits","nodmgspread","payload","uncletopia"],"game_id":440,"stv_port":27036,"stv_name":"Uncletopia | London | 3 | All Maps | STV","players":[{"user_id":163,"name":"AzureTitan","steam_id":76561198332172994,"connected_time":247000000000,"state":"active","ping":59},{"user_id":164,"name":"Flamboyant Insomniac","steam_id":76561199445896780,"connected_time":226000000000,"state":"active","ping":54},{"user_id":165,"name":"Calypso","steam_id":76561198035844156,"connected_time":213000000000,"state":"active","ping":54}]},{"server_id":321,"name":"Uncletopia | London | 4 | All Maps","name_short":"lon-4","host":"lon-1.uk.uncletopia.com","port":27045,"enabled":true,"region":"eu","cc":"gb","latitude":51.509865,"longitude":-0.118092,"reserved":0,"last_update":"0001-01-01T00:00:00Z","name_a2s":"Uncletopia | London | 4 | All Maps","protocol":17,"map":"cp_steel","folder":"tf","game":"Team Fortress","app_id":440,"player_count":24,"max_players":24,"Bots":0,"server_type":"Dedicated","server_os":"Linux","password":true,"vac":true,"version":"7757534","steam_id":85568392924510193,"keywords":["cp","nocrits","nodmgspread","uncletopia"],"game_id":440,"stv_port":27046,"stv_name":"Uncletopia | London | 4 | All Maps | STV","players":[{"user_id":36,"name":"TSx* Osa__PL","steam_id":76561198027016799,"connected_time":3985000000000,"state":"active","ping":77},{"user_id":76,"name":"Eren Yeager","steam_id":76561198366843249,"connected_time":990000000000,"state":"active","ping":42},{"user_id":31,"name":"Dr. Uberschwein","steam_id":76561198111367431,"connected_time":4182000000000,"state":"active","ping":70},{"user_id":70,"name":"Chucky","steam_id":76561198891579362,"connected_time":1504000000000,"state":"active","ping":62},{"user_id":18,"name":"tactical783","steam_id":76561199051688560,"connected_time":4606000000000,"state":"active","ping":69},{"user_id":87,"name":"Hasamnas","steam_id":76561199125038537,"connected_time":97000000000,"state":"active","ping":59},{"user_id":74,"name":"Adopted?","steam_id":76561198118667043,"connected_time":1048000000000,"state":"active","ping":46},{"user_id":62,"name":"elvïs","steam_id":76561198988496941,"connected_time":2199000000000,"state":"active","ping":73},{"user_id":75,"name":"Memesus","steam_id":76561199362236174,"connected_time":1027000000000,"state":"active","ping":74},{"user_id":66,"name":"Catwire_2","steam_id":76561199227368771,"connected_time":2026000000000,"state":"active","ping":61},{"user_id":32,"name":"nmei lbreen","steam_id":76561198845550388,"connected_time":4164000000000,"state":"active","ping":112},{"user_id":86,"name":"A mischievous Femboy","steam_id":76561198248239796,"connected_time":298000000000,"state":"active","ping":59},{"user_id":54,"name":"Jamir","steam_id":76561198880322262,"connected_time":3050000000000,"state":"active","ping":55},{"user_id":81,"name":"alvinulv","steam_id":76561198024487177,"connected_time":837000000000,"state":"active","ping":59},{"user_id":57,"name":"X45Y","steam_id":76561198112534025,"connected_time":3012000000000,"state":"active","ping":50},{"user_id":83,"name":"Frazzle","steam_id":76561198262577951,"connected_time":457000000000,"state":"active","ping":66},{"user_id":58,"name":"TSx* {Demon-Angel}","steam_id":76561198151486463,"connected_time":2564000000000,"state":"active","ping":86},{"user_id":33,"name":"Jess♥","steam_id":76561198137106459,"connected_time":4156000000000,"state":"active","ping":57},{"user_id":39,"name":"TSx* Naxer","steam_id":76561198011986779,"connected_time":3928000000000,"state":"active","ping":73},{"user_id":49,"name":"davlevan","steam_id":76561198090848620,"connected_time":3574000000000,"state":"active","ping":76},{"user_id":55,"name":"sexo","steam_id":76561199088284199,"connected_time":3033000000000,"state":"active","ping":76},{"user_id":64,"name":"Abaddon","steam_id":76561199205559813,"connected_time":2152000000000,"state":"active","ping":58},{"user_id":80,"name":"logo in the foam","steam_id":76561198188642265,"connected_time":912000000000,"state":"active","ping":53},{"user_id":51,"name":"Melissimas","steam_id":76561198119243627,"connected_time":3487000000000,"state":"active","ping":63}]},{"server_id":21,"name":"Uncletopia | London | 5 | All Maps","name_short":"lon-5","host":"lon-1.uk.uncletopia.com","port":27055,"enabled":true,"region":"eu","cc":"gb","latitude":51.509865,"longitude":-0.118092,"reserved":0,"last_update":"0001-01-01T00:00:00Z","name_a2s":"Uncletopia | London | 5 | All Maps","protocol":17,"map":"cp_sunshine","folder":"tf","game":"Team Fortress","app_id":440,"player_count":24,"max_players":24,"Bots":0,"server_type":"Dedicated","server_os":"Linux","password":true,"vac":true,"version":"7757534","steam_id":85568392924742829,"keywords":["cp","nocrits","nodmgspread","uncletopia"],"game_id":440,"stv_port":27056,"stv_name":"Uncletopia | London | 5 | All Maps | STV","players":[{"user_id":253,"name":"eybroyougay?","steam_id":76561199103877618,"connected_time":638000000000,"state":"active","ping":89},{"user_id":258,"name":"KLAMA  ❤","steam_id":76561198351549661,"connected_time":541000000000,"state":"active","ping":84},{"user_id":245,"name":"[CiC] FU2Max","steam_id":76561197960282327,"connected_time":943000000000,"state":"active","ping":40},{"user_id":268,"name":"important photo","steam_id":76561199042045774,"connected_time":185000000000,"state":"active","ping":56},{"user_id":266,"name":"Flal","steam_id":76561198453819816,"connected_time":274000000000,"state":"active","ping":67},{"user_id":236,"name":"subway vergil","steam_id":76561199110064166,"connected_time":1594000000000,"state":"active","ping":68},{"user_id":249,"name":"HUGE ANIME TITTIES","steam_id":76561198208316165,"connected_time":817000000000,"state":"active","ping":169},{"user_id":204,"name":"walking plane","steam_id":76561198146779559,"connected_time":3761000000000,"state":"active","ping":86},{"user_id":246,"name":"robin","steam_id":76561198273439264,"connected_time":885000000000,"state":"active","ping":46},{"user_id":261,"name":"dotdotdot","steam_id":76561198057628751,"connected_time":496000000000,"state":"active","ping":61},{"user_id":247,"name":"jyrkas","steam_id":76561198008550431,"connected_time":838000000000,"state":"active","ping":60},{"user_id":230,"name":"Senior","steam_id":76561198065014164,"connected_time":2033000000000,"state":"active","ping":45},{"user_id":234,"name":"す LightFlight し","steam_id":76561198079007530,"connected_time":1617000000000,"state":"active","ping":57},{"user_id":254,"name":"Signor_UpB","steam_id":76561199145637231,"connected_time":607000000000,"state":"active","ping":101},{"user_id":255,"name":"Lag","steam_id":76561198159360376,"connected_time":603000000000,"state":"active","ping":40},{"user_id":256,"name":"camion","steam_id":76561198035380064,"connected_time":582000000000,"state":"active","ping":46},{"user_id":257,"name":"onku","steam_id":76561199230709660,"connected_time":580000000000,"state":"active","ping":61},{"user_id":267,"name":"joecalmatt","steam_id":76561198172552015,"connected_time":189000000000,"state":"active","ping":46},{"user_id":262,"name":"[BUFF] Artgrenadier","steam_id":76561198063305359,"connected_time":470000000000,"state":"active","ping":130},{"user_id":235,"name":"Estamie","steam_id":76561198058527691,"connected_time":1609000000000,"state":"active","ping":76},{"user_id":263,"name":"Quack","steam_id":76561198080069237,"connected_time":456000000000,"state":"active","ping":89},{"user_id":264,"name":"joe","steam_id":76561198026484403,"connected_time":435000000000,"state":"active","ping":61},{"user_id":233,"name":"frosty","steam_id":76561198094560834,"connected_time":1926000000000,"state":"active","ping":57},{"user_id":265,"name":"DramiQ","steam_id":76561198826926808,"connected_time":425000000000,"state":"active","ping":85}]},{"server_id":22,"name":"Uncletopia | London | 6 | All Maps","name_short":"lon-6","host":"lon-1.uk.uncletopia.com","port":27065,"enabled":true,"region":"eu","cc":"gb","latitude":51.509865,"longitude":-0.118092,"reserved":0,"last_update":"0001-01-01T00:00:00Z","name_a2s":"Uncletopia | London | 6 | All Maps","protocol":17,"map":"pl_snowycoast","folder":"tf","game":"Team Fortress","app_id":440,"player_count":24,"max_players":24,"Bots":0,"server_type":"Dedicated","server_os":"Linux","password":true,"vac":true,"version":"7757534","steam_id":85568392924742830,"keywords":["nocrits","nodmgspread","payload","uncletopia"],"game_id":440,"stv_port":27066,"stv_name":"Uncletopia | London | 6 | All Maps | STV","players":[{"user_id":700,"name":"Drakehalo1","steam_id":76561198091670687,"connected_time":532000000000,"state":"active","ping":176},{"user_id":708,"name":"chr","steam_id":76561198073016365,"connected_time":127000000000,"state":"active","ping":88},{"user_id":698,"name":"Ama","steam_id":76561198077883218,"connected_time":636000000000,"state":"active","ping":135},{"user_id":674,"name":"punchmypotatoes","steam_id":76561198091255731,"connected_time":2676000000000,"state":"active","ping":54},{"user_id":703,"name":"Marmac","steam_id":76561198120033210,"connected_time":486000000000,"state":"active","ping":71},{"user_id":667,"name":"Swiss-Stone","steam_id":76561198090399998,"connected_time":3557000000000,"state":"active","ping":70},{"user_id":711,"name":"ikc159","steam_id":76561198020559026,"connected_time":13000000000,"state":"spawning","ping":59},{"user_id":709,"name":"SodaKid_7","steam_id":76561198079419485,"connected_time":124000000000,"state":"active","ping":165},{"user_id":689,"name":"kreeekz","steam_id":76561198014431602,"connected_time":794000000000,"state":"active","ping":88},{"user_id":681,"name":"Pedrick Dinwiddie","steam_id":76561198423902979,"connected_time":1803000000000,"state":"active","ping":47},{"user_id":677,"name":"Mikesch2001","steam_id":76561198162945160,"connected_time":2516000000000,"state":"active","ping":69},{"user_id":706,"name":"generic alias","steam_id":76561198271607226,"connected_time":256000000000,"state":"active","ping":94},{"user_id":693,"name":"Up High! Down Low!","steam_id":76561198819871606,"connected_time":770000000000,"state":"active","ping":99},{"user_id":692,"name":"_zipfile","steam_id":76561198066133808,"connected_time":772000000000,"state":"active","ping":85},{"user_id":704,"name":":3","steam_id":76561198301481739,"connected_time":447000000000,"state":"active","ping":57},{"user_id":679,"name":"MAKENTAKEN","steam_id":76561199127359587,"connected_time":1852000000000,"state":"active","ping":100},{"user_id":702,"name":"Shads","steam_id":76561198080817039,"connected_time":523000000000,"state":"active","ping":41},{"user_id":661,"name":".quickfast.","steam_id":76561199438900919,"connected_time":4508000000000,"state":"active","ping":43},{"user_id":710,"name":"Lord.nata69","steam_id":76561198239933094,"connected_time":90000000000,"state":"active","ping":152},{"user_id":697,"name":"chicanery","steam_id":76561198130794936,"connected_time":662000000000,"state":"active","ping":127},{"user_id":684,"name":"Zaf-Zaf","steam_id":76561198192667798,"connected_time":1797000000000,"state":"active","ping":58},{"user_id":707,"name":"Penis Poop","steam_id":76561199360189459,"connected_time":205000000000,"state":"active","ping":69},{"user_id":671,"name":"Cypher","steam_id":76561199023619899,"connected_time":3351000000000,"state":"active","ping":58},{"user_id":607,"name":"The Man of Myriad","steam_id":76561198273702611,"connected_time":8365000000000,"state":"active","ping":79}]},{"server_id":40,"name":"Uncletopia | London | 7 | No Payload","name_short":"lon-7","host":"lon-1.uk.uncletopia.com","port":27075,"enabled":true,"region":"eu","cc":"gb","latitude":51.509865,"longitude":-0.118092,"reserved":0,"last_update":"0001-01-01T00:00:00Z","name_a2s":"Uncletopia | London | 7 | No Payload","protocol":17,"map":"cp_vanguard","folder":"tf","game":"Team Fortress","app_id":440,"player_count":24,"max_players":24,"Bots":0,"server_type":"Dedicated","server_os":"Linux","password":true,"vac":true,"version":"7757534","steam_id":85568392924964314,"keywords":["cp","nocrits","nodmgspread","uncletopia"],"game_id":440,"stv_port":27076,"stv_name":"Uncletopia | London | 7 | No Payload | STV","players":[{"user_id":15,"name":"GezmeRR TF2","steam_id":76561198043814532,"connected_time":3614000000000,"state":"active","ping":66},{"user_id":50,"name":"ginger","steam_id":76561199073723752,"connected_time":1597000000000,"state":"active","ping":58},{"user_id":17,"name":"DragonXneoN","steam_id":76561198005974781,"connected_time":3569000000000,"state":"active","ping":76},{"user_id":18,"name":"Lord Commissar Drac","steam_id":76561198030371218,"connected_time":3568000000000,"state":"active","ping":72},{"user_id":44,"name":"Florua","steam_id":76561198182297846,"connected_time":1940000000000,"state":"active","ping":84},{"user_id":37,"name":"Danse","steam_id":76561198065545203,"connected_time":2330000000000,"state":"active","ping":75},{"user_id":21,"name":"CrowCerca","steam_id":76561198317184463,"connected_time":3542000000000,"state":"active","ping":80},{"user_id":45,"name":"Mr_Spappy","steam_id":76561199106707541,"connected_time":1853000000000,"state":"active","ping":61},{"user_id":66,"name":"Thorpho","steam_id":76561198157173867,"connected_time":545000000000,"state":"active","ping":34},{"user_id":51,"name":"major snags","steam_id":76561198308393015,"connected_time":1570000000000,"state":"active","ping":40},{"user_id":52,"name":"snki","steam_id":76561198324048855,"connected_time":1540000000000,"state":"active","ping":49},{"user_id":72,"name":"NOOBTRON7777","steam_id":76561198115132399,"connected_time":163000000000,"state":"active","ping":79},{"user_id":31,"name":"Stragnov☆","steam_id":76561198074702465,"connected_time":2632000000000,"state":"active","ping":66},{"user_id":32,"name":"SirObi","steam_id":76561198247491650,"connected_time":2627000000000,"state":"active","ping":71},{"user_id":33,"name":"PantsOnMyers","steam_id":76561198948552451,"connected_time":2625000000000,"state":"active","ping":53},{"user_id":34,"name":"Me and 4 Cuties","steam_id":76561198173119214,"connected_time":2607000000000,"state":"active","ping":83},{"user_id":68,"name":"Welder","steam_id":76561198355300561,"connected_time":497000000000,"state":"active","ping":73},{"user_id":63,"name":"Benny the Ball","steam_id":76561198043104532,"connected_time":866000000000,"state":"active","ping":51},{"user_id":69,"name":"Videogamer","steam_id":76561198106012909,"connected_time":481000000000,"state":"active","ping":79},{"user_id":57,"name":"kotamine","steam_id":76561198068907991,"connected_time":1057000000000,"state":"active","ping":74},{"user_id":59,"name":"SuperflameGP","steam_id":76561198256506294,"connected_time":998000000000,"state":"active","ping":55},{"user_id":71,"name":"Red","steam_id":76561199087284519,"connected_time":249000000000,"state":"active","ping":75},{"user_id":61,"name":"AYE","steam_id":76561198181368101,"connected_time":989000000000,"state":"active","ping":60},{"user_id":65,"name":"darkwater","steam_id":76561197986978738,"connected_time":580000000000,"state":"active","ping":55}]},{"server_id":41,"name":"Uncletopia | London | 8 | Community","name_short":"lon-8","host":"lon-1.uk.uncletopia.com","port":27085,"enabled":true,"region":"eu","cc":"gb","latitude":51.509865,"longitude":-0.118092,"reserved":0,"last_update":"0001-01-01T00:00:00Z","name_a2s":"Uncletopia | London | 8 | Community","protocol":17,"map":"workshop/koth_product_final.ugc454272353","folder":"tf","game":"Team Fortress","app_id":440,"player_count":5,"max_players":24,"Bots":0,"server_type":"Dedicated","server_os":"Linux","password":true,"vac":true,"version":"7757534","steam_id":85568392924964315,"keywords":["cp","nocrits","nodmgspread","uncletopia"],"game_id":440,"stv_port":27086,"stv_name":"Uncletopia | London | 8 | Community | STV","players":[{"user_id":18,"name":"President Tarantelloni","steam_id":76561198849447915,"connected_time":541000000000,"state":"active","ping":71},{"user_id":19,"name":"saalvberg","steam_id":76561199409062000,"connected_time":177000000000,"state":"active","ping":60},{"user_id":14,"name":"KingVoker","steam_id":76561198039602539,"connected_time":2710000000000,"state":"active","ping":70},{"user_id":15,"name":"Mata","steam_id":76561198308191713,"connected_time":1334000000000,"state":"active","ping":153},{"user_id":16,"name":"calgall1","steam_id":76561199380222062,"connected_time":1208000000000,"state":"active","ping":55}]},{"server_id":300,"name":"Uncletopia | Montréal | 1 | All Maps","name_short":"mtl-1","host":"mtl-1.ca.uncletopia.com","port":27015,"enabled":true,"region":"us-east","cc":"ca","latitude":45.50889,"longitude":-73.56167,"reserved":0,"last_update":"0001-01-01T00:00:00Z","name_a2s":"Uncletopia | Montréal | 1 | All Maps","protocol":17,"map":"pl_upward","folder":"tf","game":"Team Fortress","app_id":440,"player_count":0,"max_players":24,"Bots":0,"server_type":"Dedicated","server_os":"Linux","password":true,"vac":true,"version":"7757534","steam_id":85568392924500087,"keywords":["nocrits","nodmgspread","payload","uncletopia"],"game_id":440,"stv_port":27016,"stv_name":"Uncletopia | Montréal | 1 | All Maps | STV","players":null},{"server_id":301,"name":"Uncletopia | Montréal | 2 | All Maps","name_short":"mtl-2","host":"mtl-1.ca.uncletopia.com","port":27025,"enabled":true,"region":"us-east","cc":"ca","latitude":45.50889,"longitude":-73.56167,"reserved":0,"last_update":"0001-01-01T00:00:00Z","name_a2s":"Uncletopia | Montréal | 2 | All Maps","protocol":17,"map":"pl_borneo","folder":"tf","game":"Team Fortress","app_id":440,"player_count":0,"max_players":24,"Bots":0,"server_type":"Dedicated","server_os":"Linux","password":true,"vac":true,"version":"7757534","steam_id":85568392924500088,"keywords":["nocrits","nodmgspread","payload","uncletopia"],"game_id":440,"stv_port":27026,"stv_name":"Uncletopia | Montréal | 2 | All Maps | STV","players":null},{"server_id":302,"name":"Uncletopia | Montréal | 3 | All Maps","name_short":"mtl-3","host":"mtl-1.ca.uncletopia.com","port":27035,"enabled":true,"region":"us-east","cc":"ca","latitude":45.50889,"longitude":-73.56167,"reserved":0,"last_update":"0001-01-01T00:00:00Z","name_a2s":"Uncletopia | Montréal | 3 | All Maps","protocol":17,"map":"cp_sunshine","folder":"tf","game":"Team Fortress","app_id":440,"player_count":0,"max_players":24,"Bots":0,"server_type":"Dedicated","server_os":"Linux","password":true,"vac":true,"version":"7757534","steam_id":85568392924500089,"keywords":["cp","nocrits","nodmgspread","uncletopia"],"game_id":440,"stv_port":27036,"stv_name":"Uncletopia | Montréal | 3 | All Maps | STV","players":null},{"server_id":303,"name":"Uncletopia | Montréal | 4 | No Payload","name_short":"mtl-4","host":"mtl-1.ca.uncletopia.com","port":27045,"enabled":true,"region":"us-east","cc":"ca","latitude":45.50889,"longitude":-73.56167,"reserved":0,"last_update":"0001-01-01T00:00:00Z","name_a2s":"Uncletopia | Montréal | 4 | No Payload","protocol":17,"map":"koth_lakeside_final","folder":"tf","game":"Team Fortress","app_id":440,"player_count":0,"max_players":24,"Bots":0,"server_type":"Dedicated","server_os":"Linux","password":true,"vac":true,"version":"7757534","steam_id":85568392924500090,"keywords":["cp","nocrits","nodmgspread","uncletopia"],"game_id":440,"stv_port":27046,"stv_name":"Uncletopia | Montréal | 4 | No Payload | STV","players":null},{"server_id":13,"name":"Uncletopia | New York City | 1 | All Maps","name_short":"nyc-1","host":"nyc-1.us.uncletopia.com","port":27015,"enabled":true,"region":"us-east","cc":"us","latitude":40.73061,"longitude":-73.93524,"reserved":0,"last_update":"0001-01-01T00:00:00Z","name_a2s":"Uncletopia | New York City | 1 | All Maps","protocol":17,"map":"pl_pier","folder":"tf","game":"Team Fortress","app_id":440,"player_count":24,"max_players":24,"Bots":0,"server_type":"Dedicated","server_os":"Linux","password":true,"vac":true,"version":"7757534","steam_id":85568392924469993,"keywords":["nocrits","nodmgspread","payload","uncletopia"],"game_id":440,"stv_port":27016,"stv_name":"Uncletopia | New York City | 1 | All Maps | STV","players":[{"user_id":334,"name":"Society Crusher","steam_id":76561198042059080,"connected_time":2007000000000,"state":"active","ping":78},{"user_id":359,"name":"Goldbug","steam_id":76561198025221202,"connected_time":455000000000,"state":"active","ping":112},{"user_id":310,"name":"Devoid","steam_id":76561198254039012,"connected_time":3046000000000,"state":"active","ping":48},{"user_id":328,"name":"GhostCoffee","steam_id":76561198105228900,"connected_time":2375000000000,"state":"active","ping":41},{"user_id":360,"name":"MoistCurdle","steam_id":76561198126603510,"connected_time":398000000000,"state":"active","ping":52},{"user_id":364,"name":"SAY MY NAME","steam_id":76561198069490260,"connected_time":236000000000,"state":"active","ping":53},{"user_id":269,"name":"It's FoolMoon","steam_id":76561198153344375,"connected_time":5691000000000,"state":"active","ping":43},{"user_id":293,"name":"Kritzburgh","steam_id":76561198149466938,"connected_time":4105000000000,"state":"active","ping":56},{"user_id":362,"name":"ice_fly","steam_id":76561198083790449,"connected_time":390000000000,"state":"active","ping":45},{"user_id":366,"name":"floppy muppet","steam_id":76561198003076261,"connected_time":44000000000,"state":"active","ping":90},{"user_id":355,"name":"Dong-A-Tron 27.0","steam_id":76561198082202698,"connected_time":850000000000,"state":"active","ping":58},{"user_id":354,"name":"mu mu tako time","steam_id":76561198249206656,"connected_time":907000000000,"state":"active","ping":73},{"user_id":365,"name":"Ripley","steam_id":76561198080766916,"connected_time":74000000000,"state":"active","ping":65},{"user_id":343,"name":"Goofshitter","steam_id":76561198416724843,"connected_time":1747000000000,"state":"active","ping":113},{"user_id":341,"name":"mio","steam_id":76561198239286750,"connected_time":1826000000000,"state":"active","ping":53},{"user_id":297,"name":"Visual Depression","steam_id":76561198825918366,"connected_time":3897000000000,"state":"active","ping":101},{"user_id":301,"name":"Chicanery","steam_id":76561198977589038,"connected_time":3703000000000,"state":"active","ping":96},{"user_id":342,"name":"derpcat suppressed+++","steam_id":76561198062539161,"connected_time":1815000000000,"state":"active","ping":120},{"user_id":317,"name":"kefkja","steam_id":76561198283963218,"connected_time":2795000000000,"state":"active","ping":75},{"user_id":347,"name":"Yatso Bagelmenson","steam_id":76561198004329919,"connected_time":1433000000000,"state":"active","ping":83},{"user_id":353,"name":"Moravain","steam_id":76561198154337098,"connected_time":1073000000000,"state":"active","ping":85},{"user_id":333,"name":"Kase","steam_id":76561198055510230,"connected_time":2059000000000,"state":"active","ping":86},{"user_id":319,"name":"kwout","steam_id":76561197997139225,"connected_time":2773000000000,"state":"active","ping":45},{"user_id":358,"name":"Void Catto!!! \u003c3","steam_id":76561198254635861,"connected_time":605000000000,"state":"active","ping":68}]},{"server_id":14,"name":"Uncletopia | New York City | 2 | All Maps","name_short":"nyc-2","host":"nyc-1.us.uncletopia.com","port":27025,"enabled":true,"region":"us-east","cc":"us","latitude":40.73061,"longitude":-73.93524,"reserved":0,"last_update":"0001-01-01T00:00:00Z","name_a2s":"Uncletopia | New York City | 2 | All Maps","protocol":17,"map":"koth_viaduct","folder":"tf","game":"Team Fortress","app_id":440,"player_count":0,"max_players":24,"Bots":0,"server_type":"Dedicated","server_os":"Linux","password":true,"vac":true,"version":"7757534","steam_id":85568392924469994,"keywords":["cp","nocrits","nodmgspread","uncletopia"],"game_id":440,"stv_port":27026,"stv_name":"Uncletopia | New York City | 2 | All Maps | STV","players":null},{"server_id":15,"name":"Uncletopia | New York City | 3 | Stopwatch Beta","name_short":"nyc-3","host":"nyc-1.us.uncletopia.com","port":27035,"enabled":true,"region":"us-east","cc":"us","latitude":40.73061,"longitude":-73.93524,"reserved":0,"last_update":"0001-01-01T00:00:00Z","name_a2s":"Uncletopia | New York City | 3 | Stopwatch Beta","protocol":17,"map":"workshop/koth_clearcut_b15.ugc2107050255","folder":"tf","game":"Team Fortress","app_id":440,"player_count":0,"max_players":24,"Bots":0,"server_type":"Dedicated","server_os":"Linux","password":true,"vac":true,"version":"7757534","steam_id":85568392924742820,"keywords":["cp","nocrits","nodmgspread","uncletopia"],"game_id":440,"stv_port":27036,"stv_name":"Uncletopia | New York City | 3 | Stopwatch Beta | STV","players":null},{"server_id":16,"name":"Uncletopia | New York City | 4 | Community","name_short":"nyc-4","host":"nyc-1.us.uncletopia.com","port":27045,"enabled":true,"region":"us-east","cc":"us","latitude":40.73061,"longitude":-73.93524,"reserved":0,"last_update":"0001-01-01T00:00:00Z","name_a2s":"Uncletopia | New York City | 4 | Community","protocol":17,"map":"pl_borneo","folder":"tf","game":"Team Fortress","app_id":440,"player_count":0,"max_players":24,"Bots":0,"server_type":"Dedicated","server_os":"Linux","password":true,"vac":true,"version":"7757534","steam_id":85568392924742821,"keywords":["nocrits","nodmgspread","payload","uncletopia"],"game_id":440,"stv_port":27046,"stv_name":"Uncletopia | New York City | 4 | Community | STV","players":null},{"server_id":142,"name":"Uncletopia | São Paulo | 1 | All Maps","name_short":"sao-1","host":"sao-1.br.uncletopia.com","port":27015,"enabled":true,"region":"sa","cc":"br","latitude":-23.533773,"longitude":-46.62529,"reserved":0,"last_update":"0001-01-01T00:00:00Z","name_a2s":"Uncletopia | São Paulo | 1 | All Maps","protocol":17,"map":"pl_pier","folder":"tf","game":"Team Fortress","app_id":440,"player_count":7,"max_players":24,"Bots":0,"server_type":"Dedicated","server_os":"Linux","password":true,"vac":true,"version":"7757534","steam_id":85568392924469996,"keywords":["nocrits","nodmgspread","payload","uncletopia"],"game_id":440,"stv_port":27016,"stv_name":"Uncletopia | São Paulo | 1 | All Maps | STV","players":[{"user_id":8,"name":"linux :D","steam_id":76561199187086434,"connected_time":2135000000000,"state":"active","ping":47},{"user_id":9,"name":"Zinliky","steam_id":76561199192314459,"connected_time":2114000000000,"state":"active","ping":58},{"user_id":12,"name":"w6rst","steam_id":76561198170394914,"connected_time":918000000000,"state":"active","ping":55},{"user_id":19,"name":"BallinScout","steam_id":76561198152443697,"connected_time":158000000000,"state":"active","ping":234},{"user_id":16,"name":"Cursed mario","steam_id":76561198971168093,"connected_time":521000000000,"state":"active","ping":44},{"user_id":17,"name":"H_NGM_N","steam_id":76561199427024166,"connected_time":381000000000,"state":"active","ping":160},{"user_id":20,"name":"reminy","steam_id":76561198129520807,"connected_time":157000000000,"state":"active","ping":58}]},{"server_id":143,"name":"Uncletopia | São Paulo | 2 | All Maps","name_short":"sao-2","host":"sao-2.br.uncletopia.com","port":27015,"enabled":true,"region":"sa","cc":"br","latitude":-23.533773,"longitude":-46.62529,"reserved":0,"last_update":"0001-01-01T00:00:00Z","name_a2s":"Uncletopia | São Paulo | 2 | All Maps","protocol":17,"map":"pl_frontier_final","folder":"tf","game":"Team Fortress","app_id":440,"player_count":0,"max_players":24,"Bots":0,"server_type":"Dedicated","server_os":"Linux","password":true,"vac":true,"version":"7757534","steam_id":85568392924485349,"keywords":["nocrits","nodmgspread","payload","uncletopia"],"game_id":440,"stv_port":27016,"stv_name":"Uncletopia | São Paulo | 2 | All Maps | STV","players":null},{"server_id":7,"name":"Uncletopia | Seattle | 1 | All Maps","name_short":"sea-1","host":"sea-1.us.uncletopia.com","port":27015,"enabled":true,"region":"us-west","cc":"us","latitude":47.608013,"longitude":-122.33517,"reserved":0,"last_update":"0001-01-01T00:00:00Z","name_a2s":"Uncletopia | Seattle | 1 | All Maps","protocol":17,"map":"pl_swiftwater_final1","folder":"tf","game":"Team Fortress","app_id":440,"player_count":24,"max_players":24,"Bots":0,"server_type":"Dedicated","server_os":"Linux","password":true,"vac":true,"version":"7757534","steam_id":85568392924469997,"keywords":["nocrits","nodmgspread","payload","uncletopia"],"game_id":440,"stv_port":27016,"stv_name":"Uncletopia | Seattle | 1 | All Maps | STV","players":[{"user_id":133,"name":"laggiest player","steam_id":76561198439899407,"connected_time":493000000000,"state":"active","ping":46},{"user_id":75,"name":"raejena","steam_id":76561199116101968,"connected_time":4992000000000,"state":"active","ping":67},{"user_id":88,"name":"StarGuyVI","steam_id":76561199366304746,"connected_time":3198000000000,"state":"active","ping":140},{"user_id":111,"name":"Red Orbama","steam_id":76561198047002366,"connected_time":1435000000000,"state":"active","ping":46},{"user_id":127,"name":"Julien","steam_id":76561199389584938,"connected_time":569000000000,"state":"active","ping":39},{"user_id":137,"name":"Jac","steam_id":76561199118187089,"connected_time":272000000000,"state":"active","ping":63},{"user_id":65,"name":"Watatsuki no Yorihime","steam_id":76561198063315650,"connected_time":6461000000000,"state":"active","ping":81},{"user_id":134,"name":"PopcornBucketGames","steam_id":76561199089562026,"connected_time":488000000000,"state":"active","ping":59},{"user_id":132,"name":"LENNIALL","steam_id":76561197991333210,"connected_time":520000000000,"state":"active","ping":86},{"user_id":125,"name":"i ate atomic bomb","steam_id":76561198150406851,"connected_time":573000000000,"state":"active","ping":71},{"user_id":136,"name":"booted off da goo","steam_id":76561198118644686,"connected_time":297000000000,"state":"active","ping":77},{"user_id":82,"name":"COOL master_9","steam_id":76561198073041151,"connected_time":4411000000000,"state":"active","ping":101},{"user_id":64,"name":"Satori Komeiji","steam_id":76561198158211423,"connected_time":6625000000000,"state":"active","ping":72},{"user_id":138,"name":"also here","steam_id":76561199122466169,"connected_time":236000000000,"state":"active","ping":126},{"user_id":115,"name":"oil","steam_id":76561198099980149,"connected_time":1121000000000,"state":"active","ping":86},{"user_id":139,"name":"Lily Thorn","steam_id":76561198305488625,"connected_time":215000000000,"state":"active","ping":66},{"user_id":106,"name":"☰vil Ↄood  ⸸💀⸸","steam_id":76561197963666090,"connected_time":1758000000000,"state":"active","ping":74},{"user_id":112,"name":"lukamine","steam_id":76561198166827208,"connected_time":1404000000000,"state":"active","ping":48},{"user_id":117,"name":"AmiableNebula","steam_id":76561198094306627,"connected_time":1029000000000,"state":"active","ping":80},{"user_id":120,"name":"MoopStoop","steam_id":76561198140936620,"connected_time":947000000000,"state":"active","ping":94},{"user_id":107,"name":"Knock on the sky and listen","steam_id":76561198077597130,"connected_time":1742000000000,"state":"active","ping":71},{"user_id":123,"name":"PonYOOOOOOO","steam_id":76561199067424111,"connected_time":774000000000,"state":"active","ping":79},{"user_id":130,"name":"Danny Fentanyl","steam_id":76561197970791798,"connected_time":556000000000,"state":"active","ping":44},{"user_id":119,"name":"EatSomeBEES","steam_id":76561198047334307,"connected_time":994000000000,"state":"active","ping":78}]},{"server_id":119,"name":"Uncletopia | Seattle | 2 | All Maps","name_short":"sea-2","host":"sea-1.us.uncletopia.com","port":27025,"enabled":true,"region":"us-west","cc":"us","latitude":47.608013,"longitude":-122.33517,"reserved":0,"last_update":"0001-01-01T00:00:00Z","name_a2s":"Uncletopia | Seattle | 2 | All Maps","protocol":17,"map":"koth_viaduct","folder":"tf","game":"Team Fortress","app_id":440,"player_count":3,"max_players":24,"Bots":0,"server_type":"Dedicated","server_os":"Linux","password":true,"vac":true,"version":"7757534","steam_id":85568392924469998,"keywords":["cp","nocrits","nodmgspread","uncletopia"],"game_id":440,"stv_port":27026,"stv_name":"Uncletopia | Seattle | 2 | All Maps | STV","players":[{"user_id":3,"name":"Birdman743","steam_id":76561198799636748,"connected_time":4524000000000,"state":"active","ping":52},{"user_id":9,"name":"BillyOneShot242","steam_id":76561199245556843,"connected_time":434000000000,"state":"active","ping":60},{"user_id":10,"name":"Tank2136","steam_id":76561199443947491,"connected_time":410000000000,"state":"active","ping":56}]},{"server_id":406,"name":"Uncletopia | Seattle | 3 | Stopwatch Beta","name_short":"sea-3","host":"sea-1.us.uncletopia.com","port":27035,"enabled":true,"region":"us-west","cc":"us","latitude":47.608013,"longitude":-122.33517,"reserved":0,"last_update":"0001-01-01T00:00:00Z","name_a2s":"Uncletopia | Seattle | 3 | Stopwatch Beta","protocol":17,"map":"cp_sunshine","folder":"tf","game":"Team Fortress","app_id":440,"player_count":0,"max_players":24,"Bots":0,"server_type":"Dedicated","server_os":"Linux","password":true,"vac":true,"version":"7757534","steam_id":85568392924515217,"keywords":["cp","nocrits","nodmgspread","uncletopia"],"game_id":440,"stv_port":27036,"stv_name":"Uncletopia | Seattle | 3 | Stopwatch Beta | STV","players":null},{"server_id":17,"name":"Uncletopia | San Francisco | 1 | All Maps","name_short":"sfo-1","host":"sfo-1.us.uncletopia.com","port":27015,"enabled":true,"region":"us-west","cc":"us","latitude":37.77397,"longitude":-122.4313,"reserved":0,"last_update":"0001-01-01T00:00:00Z","name_a2s":"Uncletopia | San Francisco | 1 | All Maps","protocol":17,"map":"pl_pier","folder":"tf","game":"Team Fortress","app_id":440,"player_count":0,"max_players":24,"Bots":0,"server_type":"Dedicated","server_os":"Linux","password":true,"vac":true,"version":"7757534","steam_id":85568392924469999,"keywords":["nocrits","nodmgspread","payload","uncletopia"],"game_id":440,"stv_port":27016,"stv_name":"Uncletopia | San Francisco | 1 | All Maps | STV","players":null},{"server_id":18,"name":"Uncletopia | San Francisco | 2 | All Maps","name_short":"sfo-2","host":"sfo-1.us.uncletopia.com","port":27025,"enabled":true,"region":"us-west","cc":"us","latitude":37.77397,"longitude":-122.4313,"reserved":0,"last_update":"0001-01-01T00:00:00Z","name_a2s":"Uncletopia | San Francisco | 2 | All Maps","protocol":17,"map":"pl_pier","folder":"tf","game":"Team Fortress","app_id":440,"player_count":0,"max_players":24,"Bots":0,"server_type":"Dedicated","server_os":"Linux","password":true,"vac":true,"version":"7757534","steam_id":85568392924470000,"keywords":["nocrits","nodmgspread","payload","uncletopia"],"game_id":440,"stv_port":27026,"stv_name":"Uncletopia | San Francisco | 2 | All Maps | STV","players":null},{"server_id":19,"name":"Uncletopia | San Francisco | 3 | Stopwatch Beta","name_short":"sfo-3","host":"sfo-1.us.uncletopia.com","port":27035,"enabled":true,"region":"us-west","cc":"us","latitude":37.77397,"longitude":-122.4313,"reserved":0,"last_update":"0001-01-01T00:00:00Z","name_a2s":"Uncletopia | San Francisco | 3 | Stopwatch Beta","protocol":17,"map":"koth_viaduct","folder":"tf","game":"Team Fortress","app_id":440,"player_count":0,"max_players":24,"Bots":0,"server_type":"Dedicated","server_os":"Linux","password":true,"vac":true,"version":"7757534","steam_id":85568392924742824,"keywords":["cp","nocrits","nodmgspread","uncletopia"],"game_id":440,"stv_port":27036,"stv_name":"Uncletopia | San Francisco | 3 | Stopwatch Beta | STV","players":null},{"server_id":20,"name":"Uncletopia | San Francisco | 4 | Community","name_short":"sfo-4","host":"sfo-1.us.uncletopia.com","port":27045,"enabled":true,"region":"us-west","cc":"us","latitude":37.77397,"longitude":-122.4313,"reserved":0,"last_update":"0001-01-01T00:00:00Z","name_a2s":"Uncletopia | San Francisco | 4 | Community","protocol":17,"map":"pl_borneo","folder":"tf","game":"Team Fortress","app_id":440,"player_count":0,"max_players":24,"Bots":0,"server_type":"Dedicated","server_os":"Linux","password":true,"vac":true,"version":"7757534","steam_id":85568392924742826,"keywords":["nocrits","nodmgspread","payload","uncletopia"],"game_id":440,"stv_port":27046,"stv_name":"Uncletopia | San Francisco | 4 | Community | STV","players":null},{"server_id":141,"name":"Uncletopia | Sydney | 1 | All Maps","name_short":"syd-1","host":"syd-1.au.uncletopia.com","port":27015,"enabled":true,"region":"au","cc":"au","latitude":-33.865143,"longitude":151.2099,"reserved":0,"last_update":"0001-01-01T00:00:00Z","name_a2s":"Uncletopia | Sydney | 1 | All Maps","protocol":17,"map":"koth_lakeside_final","folder":"tf","game":"Team Fortress","app_id":440,"player_count":0,"max_players":24,"Bots":0,"server_type":"Dedicated","server_os":"Linux","password":true,"vac":true,"version":"7757534","steam_id":85568392924470001,"keywords":["cp","nocrits","nodmgspread","uncletopia"],"game_id":440,"stv_port":27016,"stv_name":"Uncletopia | Sydney | 1 | All Maps | STV","players":null},{"server_id":123,"name":"Uncletopia | Sydney | 2 | All Maps","name_short":"syd-2","host":"syd-1.au.uncletopia.com","port":27025,"enabled":true,"region":"au","cc":"au","latitude":-33.865143,"longitude":151.2099,"reserved":0,"last_update":"0001-01-01T00:00:00Z","name_a2s":"Uncletopia | Sydney | 2 | All Maps","protocol":17,"map":"koth_viaduct","folder":"tf","game":"Team Fortress","app_id":440,"player_count":0,"max_players":24,"Bots":0,"server_type":"Dedicated","server_os":"Linux","password":true,"vac":true,"version":"7757534","steam_id":85568392924470002,"keywords":["cp","nocrits","nodmgspread","uncletopia"],"game_id":440,"stv_port":27026,"stv_name":"Uncletopia | Sydney | 2 | All Maps | STV","players":null},{"server_id":395,"name":"Uncletopia | Sydney | 3 | All Maps","name_short":"syd-3","host":"syd-1.au.uncletopia.com","port":27035,"enabled":true,"region":"au","cc":"au","latitude":-33.865143,"longitude":151.2099,"reserved":0,"last_update":"0001-01-01T00:00:00Z","name_a2s":"Uncletopia | Sydney | 3 | All Maps","protocol":17,"map":"koth_viaduct","folder":"tf","game":"Team Fortress","app_id":440,"player_count":0,"max_players":24,"Bots":0,"server_type":"Dedicated","server_os":"Linux","password":true,"vac":true,"version":"7757534","steam_id":85568392925194467,"keywords":["cp","nocrits","nodmgspread","uncletopia"],"game_id":440,"stv_port":27036,"stv_name":"Uncletopia | Sydney | 3 | All Maps | STV","players":null},{"server_id":396,"name":"Uncletopia | Sydney | 4 | All Maps","name_short":"syd-4","host":"syd-1.au.uncletopia.com","port":27045,"enabled":true,"region":"au","cc":"au","latitude":-33.865143,"longitude":151.2099,"reserved":0,"last_update":"0001-01-01T00:00:00Z","name_a2s":"Uncletopia | Sydney | 4 | All Maps","protocol":17,"map":"cp_snakewater_final1","folder":"tf","game":"Team Fortress","app_id":440,"player_count":0,"max_players":24,"Bots":0,"server_type":"Dedicated","server_os":"Linux","password":true,"vac":true,"version":"7757534","steam_id":85568392925397958,"keywords":["cp","nocrits","nodmgspread","uncletopia"],"game_id":440,"stv_port":27046,"stv_name":"Uncletopia | Sydney | 4 | All Maps | STV","players":null},{"server_id":58,"name":"Uncletopia | Sydney | 5 | Stopwatch Beta","name_short":"syd-5","host":"syd-1.au.uncletopia.com","port":27055,"enabled":true,"region":"au","cc":"au","latitude":-33.865143,"longitude":151.2099,"reserved":0,"last_update":"0001-01-01T00:00:00Z","name_a2s":"Uncletopia | Sydney | 5 | Stopwatch Beta","protocol":17,"map":"pl_barnblitz","folder":"tf","game":"Team Fortress","app_id":440,"player_count":0,"max_players":24,"Bots":0,"server_type":"Dedicated","server_os":"Linux","password":true,"vac":true,"version":"7757534","steam_id":85568392925397959,"keywords":["nocrits","nodmgspread","payload","uncletopia"],"game_id":440,"stv_port":27056,"stv_name":"Uncletopia | Sydney | 5 | Stopwatch Beta | STV","players":null},{"server_id":59,"name":"Uncletopia | Sydney | 6 | Community","name_short":"syd-6","host":"syd-1.au.uncletopia.com","port":27065,"enabled":true,"region":"au","cc":"au","latitude":-33.865143,"longitude":151.2099,"reserved":0,"last_update":"0001-01-01T00:00:00Z","name_a2s":"Uncletopia | Sydney | 6 | Community","protocol":17,"map":"cp_mountainlab","folder":"tf","game":"Team Fortress","app_id":440,"player_count":0,"max_players":24,"Bots":0,"server_type":"Dedicated","server_os":"Linux","password":true,"vac":true,"version":"7757534","steam_id":85568392925397960,"keywords":["cp","nocrits","nodmgspread","uncletopia"],"game_id":440,"stv_port":27066,"stv_name":"Uncletopia | Sydney | 6 | Community | STV","players":null},{"server_id":49,"name":"Uncletopia | Warsaw | 1 | All Maps","name_short":"waw-1","host":"waw-1.pl.uncletopia.com","port":27015,"enabled":true,"region":"eu","cc":"pl","latitude":52.2297,"longitude":21.017532,"reserved":0,"last_update":"0001-01-01T00:00:00Z","name_a2s":"","protocol":0,"map":"","folder":"","game":"","app_id":0,"player_count":0,"max_players":0,"Bots":0,"server_type":"","server_os":"","password":false,"vac":false,"version":"","steam_id":0,"keywords":null,"game_id":0,"stv_port":0,"stv_name":"","players":null},{"server_id":50,"name":"Uncletopia | Warsaw | 2 | All Maps","name_short":"waw-2","host":"waw-1.pl.uncletopia.com","port":27025,"enabled":true,"region":"eu","cc":"pl","latitude":52.2297,"longitude":21.017532,"reserved":0,"last_update":"0001-01-01T00:00:00Z","name_a2s":"Uncletopia | Warsaw | 2 | All Maps","protocol":17,"map":"koth_harvest_final","folder":"tf","game":"Team Fortress","app_id":440,"player_count":0,"max_players":24,"Bots":0,"server_type":"Dedicated","server_os":"Linux","password":true,"vac":true,"version":"7757534","steam_id":85568392925397851,"keywords":["cp","nocrits","nodmgspread","uncletopia"],"game_id":440,"stv_port":27026,"stv_name":"Uncletopia | Warsaw | 2 | All Maps | STV","players":null},{"server_id":51,"name":"Uncletopia | Warsaw | 3 | All Maps","name_short":"waw-3","host":"waw-1.pl.uncletopia.com","port":27035,"enabled":true,"region":"eu","cc":"pl","latitude":52.2297,"longitude":21.017532,"reserved":0,"last_update":"0001-01-01T00:00:00Z","name_a2s":"Uncletopia | Warsaw | 3 | All Maps","protocol":17,"map":"koth_viaduct","folder":"tf","game":"Team Fortress","app_id":440,"player_count":0,"max_players":24,"Bots":0,"server_type":"Dedicated","server_os":"Linux","password":true,"vac":true,"version":"7757534","steam_id":85568392925397852,"keywords":["cp","nocrits","nodmgspread","uncletopia"],"game_id":440,"stv_port":27036,"stv_name":"Uncletopia | Warsaw | 3 | All Maps | STV","players":null},{"server_id":52,"name":"Uncletopia | Warsaw | 4 | All Maps","name_short":"waw-4","host":"waw-1.pl.uncletopia.com","port":27045,"enabled":true,"region":"eu","cc":"pl","latitude":52.2297,"longitude":21.017532,"reserved":0,"last_update":"0001-01-01T00:00:00Z","name_a2s":"Uncletopia | Warsaw | 4 | All Maps","protocol":17,"map":"koth_cascade","folder":"tf","game":"Team Fortress","app_id":440,"player_count":0,"max_players":24,"Bots":0,"server_type":"Dedicated","server_os":"Linux","password":true,"vac":true,"version":"7757534","steam_id":85568392925397853,"keywords":["cp","nocrits","nodmgspread","uncletopia"],"game_id":440,"stv_port":27046,"stv_name":"Uncletopia | Warsaw | 4 | All Maps | STV","players":null},{"server_id":53,"name":"Uncletopia | Warsaw | 5 | Stopwatch Beta","name_short":"waw-5","host":"waw-1.pl.uncletopia.com","port":27055,"enabled":true,"region":"eu","cc":"pl","latitude":52.2297,"longitude":21.017532,"reserved":0,"last_update":"0001-01-01T00:00:00Z","name_a2s":"Uncletopia | Warsaw | 5 | Stopwatch Beta","protocol":17,"map":"pl_upward","folder":"tf","game":"Team Fortress","app_id":440,"player_count":0,"max_players":24,"Bots":0,"server_type":"Dedicated","server_os":"Linux","password":true,"vac":true,"version":"7757534","steam_id":85568392925397854,"keywords":["nocrits","nodmgspread","payload","uncletopia"],"game_id":440,"stv_port":27056,"stv_name":"Uncletopia | Warsaw | 5 | Stopwatch Beta | STV","players":null},{"server_id":54,"name":"Uncletopia | Warsaw | 6 | Community","name_short":"waw-6","host":"waw-1.pl.uncletopia.com","port":27065,"enabled":true,"region":"eu","cc":"pl","latitude":52.2297,"longitude":21.017532,"reserved":0,"last_update":"0001-01-01T00:00:00Z","name_a2s":"Uncletopia | Warsaw | 6 | Community","protocol":17,"map":"workshop/pl_vigil_rc9.ugc1266210012","folder":"tf","game":"Team Fortress","app_id":440,"player_count":0,"max_players":24,"Bots":0,"server_type":"Dedicated","server_os":"Linux","password":true,"vac":true,"version":"7757534","steam_id":85568392925397856,"keywords":["nocrits","nodmgspread","payload","uncletopia"],"game_id":440,"stv_port":27066,"stv_name":"Uncletopia | Warsaw | 6 | Community | STV","players":null}]}