{"status":true,"message":"","result":[{"server_id":9,"name":"Uncletopia | Atlanta | 1 | All Maps","name_short":"atl-1","host":"atl-1.us.uncletopia.com","port":27015,"enabled":true,"region":"us-east","cc":"us","latitude":33.753746,"longitude":-84.38633,"reserved":0,"last_update":"0001-01-01T00:00:00Z","name_a2s":"Uncletopia | Atlanta | 1 | All Maps","protocol":17,"map":"pl_barnblitz","folder":"tf","game":"Team Fortress","app_id":440,"player_count":24,"max_players":24,"Bots":0,"server_type":"Dedicated","server_os":"Linux","password":true,"vac":true,"version":"7961495","steam_id":85568392924469982,"keywords":["nocrits","nodmgspread","payload","uncletopia"],"game_id":440,"stv_port":27016,"stv_name":"Uncletopia | Atlanta | 1 | All Maps | STV","players":[{"user_id":303,"name":"eeeeeeeenE","steam_id":76561198857793523,"connected_time":3170000000000,"state":"active","ping":150},{"user_id":285,"name":"Ashes!","steam_id":76561197998475441,"connected_time":4653000000000,"state":"active","ping":77},{"user_id":333,"name":"lil hog","steam_id":76561199230929836,"connected_time":537000000000,"state":"active","ping":88},{"user_id":318,"name":"Albino Jellyfish","steam_id":76561198208561097,"connected_time":1726000000000,"state":"active","ping":54},{"user_id":287,"name":"DanielGarka","steam_id":76561198302972656,"connected_time":4643000000000,"state":"active","ping":159},{"user_id":276,"name":"Crystron","steam_id":76561198880437428,"connected_time":5283000000000,"state":"active","ping":80},{"user_id":321,"name":"Try Gardening","steam_id":76561198120311340,"connected_time":1685000000000,"state":"active","ping":67},{"user_id":313,"name":"CoffeeZombee","steam_id":76561198172708053,"connected_time":2305000000000,"state":"active","ping":68},{"user_id":322,"name":"YOU WHAT?!","steam_id":76561198418679471,"connected_time":1673000000000,"state":"active","ping":45},{"user_id":330,"name":"Chuckles","steam_id":76561198340110176,"connected_time":551000000000,"state":"active","ping":88},{"user_id":310,"name":"flwrgrl","steam_id":76561198815644949,"connected_time":3020000000000,"state":"active","ping":40},{"user_id":311,"name":"rose","steam_id":76561198048882285,"connected_time":2918000000000,"state":"active","ping":71},{"user_id":319,"name":"lynt","steam_id":76561198988333976,"connected_time":1724000000000,"state":"active","ping":44},{"user_id":280,"name":"wooby","steam_id":76561198004610133,"connected_time":5127000000000,"state":"active","ping":76},{"user_id":298,"name":"zabloinkus","steam_id":76561198069967245,"connected_time":3686000000000,"state":"active","ping":86},{"user_id":302,"name":"The Twice-Gorped Morp","steam_id":76561198052636352,"connected_time":3189000000000,"state":"active","ping":136},{"user_id":323,"name":"Legit_Jaxer","steam_id":76561198172234053,"connected_time":1574000000000,"state":"active","ping":108},{"user_id":327,"name":"Brown_Dream","steam_id":76561198975766145,"connected_time":805000000000,"state":"active","ping":77},{"user_id":326,"name":"Pugzilla","steam_id":76561198108088960,"connected_time":1539000000000,"state":"active","ping":61},{"user_id":297,"name":"Onyx","steam_id":76561198275349640,"connected_time":4030000000000,"state":"active","ping":76},{"user_id":317,"name":"tgirl swag","steam_id":76561198128164970,"connected_time":1817000000000,"state":"active","ping":107},{"user_id":314,"name":"Toasr","steam_id":76561199106140887,"connected_time":2267000000000,"state":"active","ping":79},{"user_id":329,"name":"Dr.Inkmix(femboy medic!)","steam_id":76561198854070384,"connected_time":564000000000,"state":"active","ping":121},{"user_id":332,"name":"BIG HOG","steam_id":76561198079923652,"connected_time":548000000000,"state":"active","ping":69}]},{"server_id":104,"name":"Uncletopia | Atlanta | 2 | All Maps","name_short":"atl-2","host":"atl-1.us.uncletopia.com","port":27025,"enabled":true,"region":"us-east","cc":"us","latitude":33.753746,"longitude":-84.38633,"reserved":0,"last_update":"0001-01-01T00:00:00Z","name_a2s":"Uncletopia | Atlanta | 2 | All Maps","protocol":17,"map":"koth_cascade","folder":"tf","game":"Team Fortress","app_id":440,"player_count":0,"max_players":24,"Bots":0,"server_type":"Dedicated","server_os":"Linux","password":true,"vac":true,"version":"7961495","steam_id":85568392924469983,"keywords":["cp","nocrits","nodmgspread","uncletopia"],"game_id":440,"stv_port":27026,"stv_name":"Uncletopia | Atlanta | 2 | All Maps | STV","players":null},{"server_id":400,"name":"Uncletopia | Atlanta | 3 | Stopwatch","name_short":"atl-3","host":"atl-1.us.uncletopia.com","port":27035,"enabled":true,"region":"us-east","cc":"us","latitude":33.753746,"longitude":-84.38633,"reserved":0,"last_update":"0001-01-01T00:00:00Z","name_a2s":"Uncletopia | Atlanta | 3 | Stopwatch","protocol":17,"map":"koth_lakeside_final","folder":"tf","game":"Team Fortress","app_id":440,"player_count":1,"max_players":24,"Bots":0,"server_type":"Dedicated","server_os":"Linux","password":true,"vac":true,"version":"7961495","steam_id":85568392924515187,"keywords":["cp","nocrits","nodmgspread","uncletopia"],"game_id":440,"stv_port":27036,"stv_name":"Uncletopia | Atlanta | 3 | Stopwatch | STV","players":[{"user_id":5,"name":"mini-sentry","steam_id":76561198884712155,"connected_time":613000000000,"state":"active","ping":71}]},{"server_id":401,"name":"Uncletopia | Atlanta | 4 | Community","name_short":"atl-4","host":"atl-1.us.uncletopia.com","port":27045,"enabled":true,"region":"us-east","cc":"us","latitude":33.753746,"longitude":-84.38633,"reserved":0,"last_update":"0001-01-01T00:00:00Z","name_a2s":"Uncletopia | Atlanta | 4 | Community","protocol":17,"map":"workshop/koth_ashville_final.ugc2130459942","folder":"tf","game":"Team Fortress","app_id":440,"player_count":0,"max_players":24,"Bots":0,"server_type":"Dedicated","server_os":"Linux","password":true,"vac":true,"version":"7961495","steam_id":85568392924515188,"keywords":["cp","nocrits","nodmgspread","uncletopia"],"game_id":440,"stv_port":27046,"stv_name":"Uncletopia | Atlanta | 4 | Community | STV","players":null},{"server_id":2,"name":"Uncletopia | Chicago | 1 | All Maps","name_short":"chi-1","host":"chi-1.us.uncletopia.com","port":27015,"enabled":true,"region":"us-central","cc":"us","latitude":41.881832,"longitude":-87.62318,"reserved":0,"last_update":"0001-01-01T00:00:00Z","name_a2s":"Uncletopia | Chicago | 1 | All Maps","protocol":17,"map":"pl_swiftwater_final1","folder":"tf","game":"Team Fortress","app_id":440,"player_count":23,"max_players":24,"Bots":0,"server_type":"Dedicated","server_os":"Linux","password":true,"vac":true,"version":"7961495","steam_id":85568392924469984,"keywords":["nocrits","nodmgspread","payload","uncletopia"],"game_id":440,"stv_port":27016,"stv_name":"Uncletopia | Chicago | 1 | All Maps | STV","players":[{"user_id":163,"name":"Fuegisimo","steam_id":76561198033678698,"connected_time":1120000000000,"state":"active","ping":46},{"user_id":174,"name":"Meerkat","steam_id":76561199245435539,"connected_time":425000000000,"state":"active","ping":96},{"user_id":172,"name":"FatSweatyBlackMan","steam_id":76561199020244051,"connected_time":640000000000,"state":"active","ping":95},{"user_id":136,"name":"No√´l610","steam_id":76561198850011631,"connected_time":2774000000000,"state":"active","ping":66},{"user_id":164,"name":"Fercho Mo","steam_id":76561198168935077,"connected_time":1107000000000,"state":"active","ping":89},{"user_id":84,"name":"cannanza * \u003c3 teafy","steam_id":76561198103496593,"connected_time":6096000000000,"state":"active","ping":62},{"user_id":177,"name":"Zesty Zucchini Ziti","steam_id":76561198092494136,"connected_time":161000000000,"state":"active","ping":60},{"user_id":176,"name":"JPSS","steam_id":76561199239530493,"connected_time":202000000000,"state":"active","ping":298},{"user_id":181,"name":"Rein","steam_id":76561198300340427,"connected_time":5000000000,"state":"spawning","ping":63},{"user_id":175,"name":"janitor","steam_id":76561198166433332,"connected_time":225000000000,"state":"active","ping":106},{"user_id":166,"name":"toastman","steam_id":76561198207073088,"connected_time":1096000000000,"state":"active","ping":71},{"user_id":167,"name":"TerracottaP","steam_id":76561199402983168,"connected_time":1090000000000,"state":"active","ping":101},{"user_id":49,"name":"Siz","steam_id":76561198072962154,"connected_time":8990000000000,"state":"active","ping":62},{"user_id":160,"name":"Looge","steam_id":76561198155483586,"connected_time":1150000000000,"state":"active","ping":56},{"user_id":140,"name":"Horrowes","steam_id":76561198318446417,"connected_time":2621000000000,"state":"active","ping":76},{"user_id":153,"name":"Muffin","steam_id":76561198111403028,"connected_time":1899000000000,"state":"active","ping":58},{"user_id":157,"name":"Fred Ott","steam_id":76561198099088693,"connected_time":1414000000000,"state":"active","ping":70},{"user_id":141,"name":"Back from the Grave","steam_id":76561198051003187,"connected_time":2605000000000,"state":"active","ping":84},{"user_id":134,"name":"ncc_42","steam_id":76561198066377700,"connected_time":2843000000000,"state":"active","ping":60},{"user_id":173,"name":"Bomb Squirtle‚Ñ¢","steam_id":76561197998931145,"connected_time":639000000000,"state":"active","ping":93},{"user_id":168,"name":"This is my house, dude.","steam_id":76561198066566813,"connected_time":1058000000000,"state":"active","ping":149},{"user_id":179,"name":"itsPanzerPanda","steam_id":76561199441946346,"connected_time":116000000000,"state":"active","ping":55},{"user_id":180,"name":"Dr Oshawott","steam_id":76561198042021629,"connected_time":28000000000,"state":"active","ping":68}]},{"server_id":106,"name":"Uncletopia | Chicago | 2 | All Maps","name_short":"chi-2","host":"chi-1.us.uncletopia.com","port":27025,"enabled":true,"region":"us-central","cc":"us","latitude":41.881832,"longitude":-87.62318,"reserved":0,"last_update":"0001-01-01T00:00:00Z","name_a2s":"Uncletopia | Chicago | 2 | All Maps","protocol":17,"map":"pl_snowycoast","folder":"tf","game":"Team Fortress","app_id":440,"player_count":24,"max_players":24,"Bots":0,"server_type":"Dedicated","server_os":"Linux","password":true,"vac":true,"version":"7961495","steam_id":85568392924469985,"keywords":["nocrits","nodmgspread","payload","uncletopia"],"game_id":440,"stv_port":27026,"stv_name":"Uncletopia | Chicago | 2 | All Maps | STV","players":[{"user_id":108,"name":"Hunt0rb","steam_id":76561198120527608,"connected_time":2359000000000,"state":"active","ping":69},{"user_id":115,"name":"peace dog","steam_id":76561198267988522,"connected_time":1886000000000,"state":"active","ping":82},{"user_id":107,"name":"fluidity","steam_id":76561198109084485,"connected_time":2401000000000,"state":"active","ping":60},{"user_id":42,"name":"Blargh","steam_id":76561198044095816,"connected_time":7694000000000,"state":"active","ping":58},{"user_id":117,"name":"Lucy Lou!","steam_id":76561198078209088,"connected_time":1838000000000,"state":"active","ping":45},{"user_id":109,"name":"Chicken","steam_id":76561198855273194,"connected_time":2344000000000,"state":"active","ping":64},{"user_id":98,"name":"(Edited)","steam_id":76561198201657342,"connected_time":3272000000000,"state":"active","ping":76},{"user_id":131,"name":"Seaport Hime","steam_id":76561198055914224,"connected_time":342000000000,"state":"active","ping":63},{"user_id":114,"name":"Snivy64","steam_id":76561198423445376,"connected_time":1988000000000,"state":"active","ping":88},{"user_id":101,"name":"Lord Cutler Beckett","steam_id":76561198091356047,"connected_time":3024000000000,"state":"active","ping":60},{"user_id":65,"name":"oyasumi","steam_id":76561198128614882,"connected_time":5082000000000,"state":"active","ping":71},{"user_id":78,"name":"dox","steam_id":76561198838245430,"connected_time":4574000000000,"state":"active","ping":67},{"user_id":110,"name":"Thai","steam_id":76561198302397245,"connected_time":2331000000000,"state":"active","ping":56},{"user_id":102,"name":"Boofenshmirtz","steam_id":76561198071649858,"connected_time":2958000000000,"state":"active","ping":70},{"user_id":129,"name":"Riff III","steam_id":76561198066921423,"connected_time":667000000000,"state":"active","ping":77},{"user_id":103,"name":"loscemo","steam_id":76561197994884609,"connected_time":2790000000000,"state":"active","ping":58},{"user_id":90,"name":"arb1ter","steam_id":76561198042855616,"connected_time":3872000000000,"state":"active","ping":80},{"user_id":126,"name":"Wigl","steam_id":76561198019324464,"connected_time":1068000000000,"state":"active","ping":74},{"user_id":74,"name":"SuperJagops","steam_id":76561198034689716,"connected_time":4889000000000,"state":"active","ping":68},{"user_id":118,"name":"Billyjoe3000","steam_id":76561198306524388,"connected_time":1822000000000,"state":"active","ping":70},{"user_id":130,"name":"TheoLynwood","steam_id":76561198079596878,"connected_time":667000000000,"state":"active","ping":73},{"user_id":106,"name":"La Tabda","steam_id":76561198120364620,"connected_time":2541000000000,"state":"active","ping":90},{"user_id":128,"name":"Xraverz","steam_id":76561198008891628,"connected_time":733000000000,"state":"active","ping":90},{"user_id":127,"name":"imng","steam_id":76561198014988031,"connected_time":930000000000,"state":"active","ping":75}]},{"server_id":402,"name":"Uncletopia | Chicago | 3 | All Maps","name_short":"chi-3","host":"chi-1.us.uncletopia.com","port":27035,"enabled":true,"region":"us-central","cc":"us","latitude":41.881832,"longitude":-87.62318,"reserved":0,"last_update":"0001-01-01T00:00:00Z","name_a2s":"Uncletopia | Chicago | 3 | All Maps","protocol":17,"map":"koth_nucleus","folder":"tf","game":"Team Fortress","app_id":440,"player_count":24,"max_players":24,"Bots":0,"server_type":"Dedicated","server_os":"Linux","password":true,"vac":true,"version":"7961495","steam_id":85568392924515191,"keywords":["cp","nocrits","nodmgspread","uncletopia"],"game_id":440,"stv_port":27036,"stv_name":"Uncletopia | Chicago | 3 | All Maps | STV","players":[{"user_id":508,"name":"Dabbledornk","steam_id":76561198065241300,"connected_time":647000000000,"state":"active","ping":60},{"user_id":479,"name":"Beejamoose","steam_id":76561198083117844,"connected_time":1677000000000,"state":"active","ping":75},{"user_id":509,"name":"what if french people were real","steam_id":76561198012795457,"connected_time":628000000000,"state":"active","ping":84},{"user_id":510,"name":"Omni Monky","steam_id":76561198083975292,"connected_time":618000000000,"state":"active","ping":104},{"user_id":496,"name":"2bcoffee","steam_id":76561198810469767,"connected_time":1099000000000,"state":"active","ping":76},{"user_id":497,"name":"3ggsalad3","steam_id":76561199386969191,"connected_time":1041000000000,"state":"active","ping":45},{"user_id":511,"name":"Dr Sex","steam_id":76561199115766913,"connected_time":603000000000,"state":"active","ping":85},{"user_id":487,"name":"Cereal Killer","steam_id":76561198052368295,"connected_time":1375000000000,"state":"active","ping":87},{"user_id":498,"name":"Inferbruh","steam_id":76561198381636477,"connected_time":1037000000000,"state":"active","ping":92},{"user_id":512,"name":"gooch_masta","steam_id":76561198151578423,"connected_time":593000000000,"state":"active","ping":67},{"user_id":494,"name":"thecal","steam_id":76561198307893384,"connected_time":1250000000000,"state":"active","ping":48},{"user_id":513,"name":"Greatcascade","steam_id":76561198161218812,"connected_time":583000000000,"state":"active","ping":96},{"user_id":493,"name":"‚ô°Mogwr‚ô°","steam_id":76561198124942972,"connected_time":1258000000000,"state":"active","ping":75},{"user_id":478,"name":"[DATS‚û°] Sugar Meowth","steam_id":76561197995251793,"connected_time":1700000000000,"state":"active","ping":89},{"user_id":518,"name":"Captain Malarkey","steam_id":76561198869924281,"connected_time":279000000000,"state":"active","ping":83},{"user_id":476,"name":"blamblam","steam_id":76561198091049434,"connected_time":1865000000000,"state":"active","ping":66},{"user_id":517,"name":"JetZ","steam_id":76561199122488957,"connected_time":539000000000,"state":"active","ping":68},{"user_id":499,"name":"Hepi","steam_id":76561199171919713,"connected_time":1035000000000,"state":"active","ping":62},{"user_id":514,"name":"BOUZENZEL","steam_id":76561198095000722,"connected_time":569000000000,"state":"active","ping":60},{"user_id":489,"name":"Kritzburgh","steam_id":76561198149466938,"connected_time":1347000000000,"state":"active","ping":63},{"user_id":519,"name":"Microsoft Word","steam_id":76561198797633439,"connected_time":261000000000,"state":"active","ping":98},{"user_id":471,"name":"frog from pondAT","steam_id":76561198184900753,"connected_time":2075000000000,"state":"active","ping":48},{"user_id":516,"name":"corntent","steam_id":76561198824847948,"connected_time":550000000000,"state":"active","ping":60},{"user_id":505,"name":"Nephi","steam_id":76561198031525122,"connected_time":687000000000,"state":"active","ping":87}]},{"server_id":403,"name":"Uncletopia | Chicago | 4 | All Maps","name_short":"chi-4","host":"chi-1.us.uncletopia.com","port":27045,"enabled":true,"region":"us-central","cc":"us","latitude":41.881832,"longitude":-87.62318,"reserved":0,"last_update":"0001-01-01T00:00:00Z","name_a2s":"Uncletopia | Chicago | 4 | All Maps","protocol":17,"map":"koth_cascade","folder":"tf","game":"Team Fortress","app_id":440,"player_count":21,"max_players":24,"Bots":0,"server_type":"Dedicated","server_os":"Linux","password":true,"vac":true,"version":"7961495","steam_id":85568392924515193,"keywords":["cp","nocrits","nodmgspread","uncletopia"],"game_id":440,"stv_port":27046,"stv_name":"Uncletopia | Chicago | 4 | All Maps | STV","players":[{"user_id":9,"name":"BugsAreMyWorstEnemy","steam_id":76561199440395505,"connected_time":1675000000000,"state":"active","ping":51},{"user_id":11,"name":"Killua","steam_id":76561198405299137,"connected_time":1382000000000,"state":"active","ping":60},{"user_id":13,"name":"w + m2","steam_id":76561199438893811,"connected_time":821000000000,"state":"active","ping":83},{"user_id":23,"name":"Wingull Enjoyer","steam_id":76561199367211208,"connected_time":287000000000,"state":"active","ping":66},{"user_id":15,"name":"Sneed-poster","steam_id":76561198206198937,"connected_time":732000000000,"state":"active","ping":76},{"user_id":27,"name":"Wescool121","steam_id":76561198351313234,"connected_time":112000000000,"state":"active","ping":89},{"user_id":17,"name":"Ice","steam_id":76561198045076794,"connected_time":696000000000,"state":"active","ping":46},{"user_id":18,"name":"EmeraldCola","steam_id":76561198066663687,"connected_time":554000000000,"state":"active","ping":64},{"user_id":22,"name":"Warbler","steam_id":76561198132094572,"connected_time":355000000000,"state":"active","ping":57},{"user_id":20,"name":"DoxPlaysGames","steam_id":76561198240339332,"connected_time":509000000000,"state":"active","ping":70},{"user_id":21,"name":"Joebobio","steam_id":76561198024442760,"connected_time":506000000000,"state":"active","ping":92},{"user_id":24,"name":"NavyDinosaur","steam_id":76561198088459962,"connected_time":280000000000,"state":"active","ping":103},{"user_id":25,"name":"Mikael_01","steam_id":76561199080253129,"connected_time":272000000000,"state":"active","ping":186},{"user_id":26,"name":"yoodle doodle","steam_id":76561198054897884,"connected_time":137000000000,"state":"active","ping":71},{"user_id":28,"name":"VenANON","steam_id":76561198055676240,"connected_time":109000000000,"state":"active","ping":70},{"user_id":29,"name":"TinyTator","steam_id":76561198799282234,"connected_time":77000000000,"state":"active","ping":75},{"user_id":32,"name":"Walmart Employee","steam_id":76561198840373909,"connected_time":16000000000,"state":"active","ping":74},{"user_id":31,"name":"ryce","steam_id":76561198114572309,"connected_time":55000000000,"state":"active","ping":65},{"user_id":33,"name":"'LaxAttack","steam_id":76561198044129346,"connected_time":12000000000,"state":"active","ping":109},{"user_id":34,"name":"og biden pack cart","steam_id":76561198253731826,"connected_time":11000000000,"state":"spawning","ping":47},{"user_id":35,"name":"Notorious Hume","steam_id":76561198078232724,"connected_time":4000000000,"state":"spawning","ping":68}]},{"server_id":36,"name":"Uncletopia | Chicago | 5 | All Maps","name_short":"chi-5","host":"chi-2.us.uncletopia.com","port":27015,"enabled":true,"region":"us-central","cc":"us","latitude":41.881832,"longitude":-87.62318,"reserved":0,"last_update":"0001-01-01T00:00:00Z","name_a2s":"Uncletopia | Chicago | 5 | All Maps","protocol":17,"map":"koth_viaduct","folder":"tf","game":"Team Fortress","app_id":440,"player_count":0,"max_players":24,"Bots":0,"server_type":"Dedicated","server_os":"Linux","password":true,"vac":true,"version":"7961495","steam_id":85568392924866362,"keywords":["cp","nocrits","nodmgspread","uncletopia"],"game_id":440,"stv_port":27016,"stv_name":"Uncletopia | Chicago | 5 | All Maps | STV","players":null},{"server_id":37,"name":"Uncletopia | Chicago | 6 | All Maps","name_short":"chi-6","host":"chi-2.us.uncletopia.com","port":27025,"enabled":true,"region":"us-central","cc":"us","latitude":41.881832,"longitude":-87.62318,"reserved":0,"last_update":"0001-01-01T00:00:00Z","name_a2s":"Uncletopia | Chicago | 6 | All Maps","protocol":17,"map":"pl_badwater","folder":"tf","game":"Team Fortress","app_id":440,"player_count":0,"max_players":24,"Bots":0,"server_type":"Dedicated","server_os":"Linux","password":true,"vac":true,"version":"7961495","steam_id":85568392924866363,"keywords":["nocrits","nodmgspread","payload","uncletopia"],"game_id":440,"stv_port":27026,"stv_name":"Uncletopia | Chicago | 6 | All Maps | STV","players":null},{"server_id":38,"name":"Uncletopia | Chicago | 7 | Stopwatch","name_short":"chi-7","host":"chi-2.us.uncletopia.com","port":27035,"enabled":true,"region":"us-central","cc":"us","latitude":41.881832,"longitude":-87.62318,"reserved":0,"last_update":"0001-01-01T00:00:00Z","name_a2s":"Uncletopia | Chicago | 7 | Stopwatch","protocol":17,"map":"workshop/koth_bagel_rc6.ugc2514036946","folder":"tf","game":"Team Fortress","app_id":440,"player_count":0,"max_players":24,"Bots":0,"server_type":"Dedicated","server_os":"Linux","password":true,"vac":true,"version":"7961495","steam_id":85568392924866364,"keywords":["cp","nocrits","nodmgspread","uncletopia"],"game_id":440,"stv_port":27036,"stv_name":"Uncletopia | Chicago | 7 | Stopwatch | STV","players":null},{"server_id":39,"name":"Uncletopia | Chicago | 8 | Community","name_short":"chi-8","host":"chi-2.us.uncletopia.com","port":27045,"enabled":true,"region":"us-central","cc":"us","latitude":41.881832,"longitude":-87.62318,"reserved":0,"last_update":"0001-01-01T00:00:00Z","name_a2s":"Uncletopia | Chicago | 8 | Community","protocol":17,"map":"workshop/koth_synthetic_rc6a.ugc1549817316","folder":"tf","game":"Team Fortress","app_id":440,"player_count":0,"max_players":24,"Bots":0,"server_type":"Dedicated","server_os":"Linux","password":true,"vac":true,"version":"7961495","steam_id":85568392924866365,"keywords":["cp","nocrits","nodmgspread","uncletopia"],"game_id":440,"stv_port":27046,"stv_name":"Uncletopia | Chicago | 8 | Community | STV","players":null},{"server_id":8,"name":"Uncletopia | Dallas | 1 | All Maps","name_short":"dal-1","host":"dal-1.us.uncletopia.com","port":27015,"enabled":true,"region":"us-central","cc":"us","latitude":32.779167,"longitude":-96.80889,"reserved":0,"last_update":"0001-01-01T00:00:00Z","name_a2s":"Uncletopia | Dallas | 1 | All Maps","protocol":17,"map":"koth_viaduct","folder":"tf","game":"Team Fortress","app_id":440,"player_count":0,"max_players":24,"Bots":0,"server_type":"Dedicated","server_os":"Linux","password":true,"vac":true,"version":"7961495","steam_id":85568392924469986,"keywords":["cp","nocrits","nodmgspread","uncletopia"],"game_id":440,"stv_port":27016,"stv_name":"Uncletopia | Dallas | 1 | All Maps | STV","players":null},{"server_id":108,"name":"Uncletopia | Dallas | 2 | All Maps","name_short":"dal-2","host":"dal-1.us.uncletopia.com","port":27025,"enabled":true,"region":"us-central","cc":"us","latitude":32.779167,"longitude":-96.80889,"reserved":0,"last_update":"0001-01-01T00:00:00Z","name_a2s":"Uncletopia | Dallas | 2 | All Maps","protocol":17,"map":"pl_borneo","folder":"tf","game":"Team Fortress","app_id":440,"player_count":24,"max_players":24,"Bots":0,"server_type":"Dedicated","server_os":"Linux","password":true,"vac":true,"version":"7961495","steam_id":85568392924469988,"keywords":["nocrits","nodmgspread","payload","uncletopia"],"game_id":440,"stv_port":27026,"stv_name":"Uncletopia | Dallas | 2 | All Maps | STV","players":[{"user_id":268,"name":"Gargathor the Entity Catcher","steam_id":76561198189429665,"connected_time":1270000000000,"state":"active","ping":72},{"user_id":238,"name":"LegendaireNic","steam_id":76561198211753861,"connected_time":4091000000000,"state":"active","ping":101},{"user_id":262,"name":"The Grim Heaper","steam_id":76561197987759101,"connected_time":1845000000000,"state":"active","ping":109},{"user_id":263,"name":"Len","steam_id":76561199141913673,"connected_time":1709000000000,"state":"active","ping":36},{"user_id":254,"name":"Evil little man","steam_id":76561198311053471,"connected_time":3191000000000,"state":"active","ping":54},{"user_id":269,"name":"BL√òRG","steam_id":76561198036126673,"connected_time":1101000000000,"state":"active","ping":74},{"user_id":266,"name":"ZombieSlayer77","steam_id":76561199023974356,"connected_time":1600000000000,"state":"active","ping":89},{"user_id":270,"name":"Fresh Lychee","steam_id":76561198045399559,"connected_time":1095000000000,"state":"active","ping":77},{"user_id":252,"name":"Spud \u003c3","steam_id":76561198208657333,"connected_time":3251000000000,"state":"active","ping":74},{"user_id":255,"name":"johnwayne","steam_id":76561199061380038,"connected_time":3162000000000,"state":"active","ping":75},{"user_id":283,"name":"Dreszerg","steam_id":76561198838757422,"connected_time":481000000000,"state":"active","ping":81},{"user_id":206,"name":"K2f","steam_id":76561198049600563,"connected_time":6689000000000,"state":"active","ping":80},{"user_id":285,"name":"Fyr","steam_id":76561198048507556,"connected_time":258000000000,"state":"active","ping":57},{"user_id":271,"name":"Tony Bananas","steam_id":76561197986081494,"connected_time":1083000000000,"state":"active","ping":69},{"user_id":279,"name":"lol'd","steam_id":76561198856016840,"connected_time":686000000000,"state":"active","ping":110},{"user_id":274,"name":"adam0o0","steam_id":76561198052250279,"connected_time":751000000000,"state":"active","ping":71},{"user_id":203,"name":"mkl","steam_id":76561197986401685,"connected_time":6906000000000,"state":"active","ping":58},{"user_id":272,"name":"somewhat silly","steam_id":76561198010269150,"connected_time":1068000000000,"state":"active","ping":100},{"user_id":280,"name":"non_ai","steam_id":76561198270951938,"connected_time":664000000000,"state":"active","ping":85},{"user_id":276,"name":"TechnoBear2099","steam_id":76561198238863596,"connected_time":729000000000,"state":"active","ping":49},{"user_id":282,"name":"The red spy (real)","steam_id":76561199480448450,"connected_time":635000000000,"state":"active","ping":92},{"user_id":260,"name":"Yam Jazzy Jim","steam_id":76561198000788950,"connected_time":2447000000000,"state":"active","ping":76},{"user_id":232,"name":"CrŒªf227","steam_id":76561198196211121,"connected_time":4782000000000,"state":"active","ping":66},{"user_id":277,"name":"bladees realest, saddest verse","steam_id":76561198098099826,"connected_time":729000000000,"state":"active","ping":66}]},{"server_id":404,"name":"Uncletopia | Dallas | 3 | All Maps","name_short":"dal-3","host":"dal-1.us.uncletopia.com","port":27035,"enabled":true,"region":"us-central","cc":"us","latitude":32.779167,"longitude":-96.80889,"reserved":0,"last_update":"0001-01-01T00:00:00Z","name_a2s":"Uncletopia | Dallas | 3 | All Maps","protocol":17,"map":"cp_dustbowl","folder":"tf","game":"Team Fortress","app_id":440,"player_count":0,"max_players":24,"Bots":0,"server_type":"Dedicated","server_os":"Linux","password":true,"vac":true,"version":"7961495","steam_id":85568392924515219,"keywords":["cp","nocrits","nodmgspread","uncletopia"],"game_id":440,"stv_port":27036,"stv_name":"Uncletopia | Dallas | 3 | All Maps | STV","players":null},{"server_id":405,"name":"Uncletopia | Dallas | 4 | Community","name_short":"dal-4","host":"dal-1.us.uncletopia.com","port":27045,"enabled":true,"region":"us-central","cc":"us","latitude":32.779167,"longitude":-96.80889,"reserved":0,"last_update":"0001-01-01T00:00:00Z","name_a2s":"Uncletopia | Dallas | 4 | Community","protocol":17,"map":"pl_pier","folder":"tf","game":"Team Fortress","app_id":440,"player_count":0,"max_players":24,"Bots":0,"server_type":"Dedicated","server_os":"Linux","password":true,"vac":true,"version":"7961495","steam_id":85568392924515220,"keywords":["nocrits","nodmgspread","payload","uncletopia"],"game_id":440,"stv_port":27046,"stv_name":"Uncletopia | Dallas | 4 | Community | STV","players":null},{"server_id":5,"name":"Uncletopia | Frankfurt | 1 | All Maps","name_short":"frk-1","host":"frk-1.de.uncletopia.com","port":27015,"enabled":true,"region":"eu","cc":"de","latitude":50.110924,"longitude":8.682127,"reserved":0,"last_update":"0001-01-01T00:00:00Z","name_a2s":"Uncletopia | Frankfurt | 1 | All Maps","protocol":17,"map":"cp_process_final","folder":"tf","game":"Team Fortress","app_id":440,"player_count":24,"max_players":24,"Bots":0,"server_type":"Dedicated","server_os":"Linux","password":true,"vac":true,"version":"7961495","steam_id":85568392924469989,"keywords":["cp","nocrits","nodmgspread","uncletopia"],"game_id":440,"stv_port":27016,"stv_name":"Uncletopia | Frankfurt | 1 | All Maps | STV","players":[{"user_id":749,"name":"emer","steam_id":76561198001420975,"connected_time":109000000000,"state":"active","ping":104},{"user_id":617,"name":"Yoshi Island Speedrun","steam_id":76561198046873337,"connected_time":7695000000000,"state":"active","ping":70},{"user_id":743,"name":"MaccyF","steam_id":76561198039214805,"connected_time":659000000000,"state":"active","ping":73},{"user_id":723,"name":"KLAMA  ‚ù§","steam_id":76561198351549661,"connected_time":2153000000000,"state":"active","ping":61},{"user_id":746,"name":"the joy of recycling","steam_id":76561198138509827,"connected_time":412000000000,"state":"active","ping":69},{"user_id":722,"name":"frequeNt_","steam_id":76561198087457220,"connected_time":2555000000000,"state":"active","ping":67},{"user_id":626,"name":"Snd","steam_id":76561198010816408,"connected_time":7583000000000,"state":"active","ping":120},{"user_id":715,"name":"fish","steam_id":76561198092096689,"connected_time":2983000000000,"state":"active","ping":46},{"user_id":750,"name":"emir","steam_id":76561198113089831,"connected_time":94000000000,"state":"active","ping":96},{"user_id":748,"name":"Udinese Dion","steam_id":76561198067931573,"connected_time":209000000000,"state":"active","ping":47},{"user_id":716,"name":"Benito Mussolini","steam_id":76561198362801147,"connected_time":2939000000000,"state":"active","ping":99},{"user_id":745,"name":"God's Goofiest Goober","steam_id":76561198103175187,"connected_time":499000000000,"state":"active","ping":64},{"user_id":739,"name":"miiq130","steam_id":76561198188010666,"connected_time":1246000000000,"state":"active","ping":84},{"user_id":659,"name":"TheDeath","steam_id":76561198265038954,"connected_time":5424000000000,"state":"active","ping":65},{"user_id":733,"name":"Mangophysics","steam_id":76561198328905546,"connected_time":1428000000000,"state":"active","ping":112},{"user_id":598,"name":"collat chris","steam_id":76561198076219289,"connected_time":9292000000000,"state":"active","ping":53},{"user_id":703,"name":"romov","steam_id":76561199182288871,"connected_time":3524000000000,"state":"active","ping":95},{"user_id":741,"name":"Dr.eggman","steam_id":76561198057707263,"connected_time":1144000000000,"state":"active","ping":57},{"user_id":681,"name":"Kenny","steam_id":76561198994898206,"connected_time":4206000000000,"state":"active","ping":73},{"user_id":726,"name":"rob","steam_id":76561198122211848,"connected_time":1791000000000,"state":"active","ping":84},{"user_id":661,"name":"Umme","steam_id":76561198053809566,"connected_time":5385000000000,"state":"active","ping":80},{"user_id":613,"name":"epic_furry_gamer_7","steam_id":76561198010662796,"connected_time":8203000000000,"state":"active","ping":58},{"user_id":738,"name":"F2P Challenge","steam_id":76561199498773639,"connected_time":1285000000000,"state":"active","ping":73},{"user_id":728,"name":"BurningJoke","steam_id":76561199014358707,"connected_time":1708000000000,"state":"active","ping":50}]},{"server_id":110,"name":"Uncletopia | Frankfurt | 2 | All Maps","name_short":"frk-2","host":"frk-1.de.uncletopia.com","port":27025,"enabled":true,"region":"eu","cc":"de","latitude":50.110924,"longitude":8.682127,"reserved":0,"last_update":"0001-01-01T00:00:00Z","name_a2s":"Uncletopia | Frankfurt | 2 | All Maps","protocol":17,"map":"koth_lakeside_final","folder":"tf","game":"Team Fortress","app_id":440,"player_count":24,"max_players":24,"Bots":0,"server_type":"Dedicated","server_os":"Linux","password":true,"vac":true,"version":"7961495","steam_id":85568392924469990,"keywords":["cp","nocrits","nodmgspread","uncletopia"],"game_id":440,"stv_port":27026,"stv_name":"Uncletopia | Frankfurt | 2 | All Maps | STV","players":[{"user_id":489,"name":"Honest Tom's Discount Beef","steam_id":76561198029971392,"connected_time":557000000000,"state":"active","ping":67},{"user_id":494,"name":"Kleiner","steam_id":76561199019740331,"connected_time":301000000000,"state":"active","ping":70},{"user_id":495,"name":"laido riteris","steam_id":76561199098499873,"connected_time":296000000000,"state":"active","ping":57},{"user_id":496,"name":"FilipeLuk","steam_id":76561198150675438,"connected_time":253000000000,"state":"active","ping":62},{"user_id":497,"name":"Literally Roxy's Wife Tsuyu","steam_id":76561198175421763,"connected_time":250000000000,"state":"active","ping":152},{"user_id":492,"name":"bl0x","steam_id":76561199061345151,"connected_time":380000000000,"state":"active","ping":80},{"user_id":491,"name":"lawn","steam_id":76561198001243486,"connected_time":530000000000,"state":"active","ping":60},{"user_id":241,"name":"Gaxkang","steam_id":76561198125768571,"connected_time":19151000000000,"state":"active","ping":68},{"user_id":499,"name":"Nonok","steam_id":76561199480685498,"connected_time":208000000000,"state":"active","ping":65},{"user_id":480,"name":"Bai lan do","steam_id":76561198176442942,"connected_time":1444000000000,"state":"active","ping":68},{"user_id":465,"name":"plazma","steam_id":76561198886594048,"connected_time":2154000000000,"state":"active","ping":97},{"user_id":501,"name":"roblox obby","steam_id":76561199149307190,"connected_time":118000000000,"state":"active","ping":75},{"user_id":389,"name":"CzechMate #SaveTF2","steam_id":76561198012687703,"connected_time":8637000000000,"state":"active","ping":48},{"user_id":493,"name":"Battersüå∏","steam_id":76561198927992205,"connected_time":378000000000,"state":"active","ping":55},{"user_id":458,"name":"Û†Ä°Û†Ä°","steam_id":76561198059375315,"connected_time":3079000000000,"state":"active","ping":53},{"user_id":473,"name":"chrisuu","steam_id":76561198994948011,"connected_time":1767000000000,"state":"active","ping":72},{"user_id":488,"name":"Woman (Real)","steam_id":76561199151823932,"connected_time":696000000000,"state":"active","ping":76},{"user_id":505,"name":"MrRoAndrei","steam_id":76561198205282000,"connected_time":18000000000,"state":"active","ping":109},{"user_id":430,"name":"xavier","steam_id":76561198076494034,"connected_time":6052000000000,"state":"active","ping":55},{"user_id":504,"name":"interface","steam_id":76561198154677956,"connected_time":29000000000,"state":"active","ping":72},{"user_id":502,"name":"Garry_G","steam_id":76561198362834902,"connected_time":116000000000,"state":"active","ping":71},{"user_id":424,"name":"gagalak","steam_id":76561198089979108,"connected_time":6961000000000,"state":"active","ping":121},{"user_id":449,"name":"always go marketplace naked","steam_id":76561198188647690,"connected_time":3988000000000,"state":"active","ping":75},{"user_id":503,"name":"Real (Real)","steam_id":76561198323425034,"connected_time":111000000000,"state":"active","ping":60}]},{"server_id":308,"name":"Uncletopia | Frankfurt | 3 | All Maps","name_short":"frk-3","host":"frk-1.de.uncletopia.com","port":27035,"enabled":true,"region":"eu","cc":"de","latitude":50.110924,"longitude":8.682127,"reserved":0,"last_update":"0001-01-01T00:00:00Z","name_a2s":"Uncletopia | Frankfurt | 3 | All Maps","protocol":17,"map":"cp_dustbowl","folder":"tf","game":"Team Fortress","app_id":440,"player_count":23,"max_players":24,"Bots":0,"server_type":"Dedicated","server_os":"Linux","password":true,"vac":true,"version":"7961495","steam_id":85568392924504274,"keywords":["cp","nocrits","nodmgspread","uncletopia"],"game_id":440,"stv_port":27036,"stv_name":"Uncletopia | Frankfurt | 3 | All Maps | STV","players":[{"user_id":639,"name":"shablool","steam_id":76561199192795613,"connected_time":1243000000000,"state":"active","ping":90},{"user_id":651,"name":"Ixion","steam_id":76561198041660675,"connected_time":418000000000,"state":"active","ping":72},{"user_id":587,"name":"Mr Season","steam_id":76561198014005263,"connected_time":4547000000000,"state":"active","ping":107},{"user_id":640,"name":"Caruzon - Obismal","steam_id":76561198036211170,"connected_time":1227000000000,"state":"active","ping":75},{"user_id":647,"name":"dont K*LL john oliver","steam_id":76561198015918787,"connected_time":926000000000,"state":"active","ping":71},{"user_id":657,"name":"AIEmil","steam_id":76561198013205559,"connected_time":60000000000,"state":"active","ping":62},{"user_id":525,"name":"Lucky Number 13","steam_id":76561198043951279,"connected_time":8762000000000,"state":"active","ping":120},{"user_id":608,"name":"Artemis","steam_id":76561198199091801,"connected_time":3435000000000,"state":"active","ping":46},{"user_id":643,"name":"Michalo","steam_id":76561198195021867,"connected_time":1182000000000,"state":"active","ping":84},{"user_id":644,"name":"DHD - Obismal","steam_id":76561198000356530,"connected_time":1170000000000,"state":"active","ping":75},{"user_id":654,"name":"KatSuu","steam_id":76561197977589337,"connected_time":344000000000,"state":"active","ping":60},{"user_id":648,"name":"Saucisse","steam_id":76561198119955969,"connected_time":925000000000,"state":"active","ping":56},{"user_id":585,"name":"Papa Cheese","steam_id":76561198276351496,"connected_time":4559000000000,"state":"active","ping":56},{"user_id":612,"name":"gaming (official)","steam_id":76561198106012909,"connected_time":3369000000000,"state":"active","ping":66},{"user_id":645,"name":"Caliban","steam_id":76561197999696839,"connected_time":1043000000000,"state":"active","ping":102},{"user_id":634,"name":"kbbq -remove sniper rifles","steam_id":76561198346638308,"connected_time":1661000000000,"state":"active","ping":69},{"user_id":630,"name":"kana","steam_id":76561198002343512,"connected_time":2256000000000,"state":"active","ping":79},{"user_id":652,"name":"N4m3n10s","steam_id":76561198106035153,"connected_time":412000000000,"state":"active","ping":46},{"user_id":658,"name":"bid","steam_id":76561198083863043,"connected_time":55000000000,"state":"active","ping":53},{"user_id":649,"name":"N1xD4","steam_id":76561199047686063,"connected_time":691000000000,"state":"active","ping":65},{"user_id":646,"name":"MR.CRAB","steam_id":76561198329833659,"connected_time":1012000000000,"state":"active","ping":69},{"user_id":638,"name":"Blax","steam_id":76561198377155387,"connected_time":1543000000000,"state":"active","ping":74},{"user_id":636,"name":"rhm","steam_id":76561199438126261,"connected_time":1637000000000,"state":"active","ping":94}]},{"server_id":309,"name":"Uncletopia | Frankfurt | 4 | All Maps","name_short":"frk-4","host":"frk-1.de.uncletopia.com","port":27045,"enabled":true,"region":"eu","cc":"de","latitude":50.110924,"longitude":8.682127,"reserved":0,"last_update":"0001-01-01T00:00:00Z","name_a2s":"Uncletopia | Frankfurt | 4 | All Maps","protocol":17,"map":"pl_pier","folder":"tf","game":"Team Fortress","app_id":440,"player_count":24,"max_players":24,"Bots":0,"server_type":"Dedicated","server_os":"Linux","password":true,"vac":true,"version":"7961495","steam_id":85568392924504275,"keywords":["nocrits","nodmgspread","payload","uncletopia"],"game_id":440,"stv_port":27046,"stv_name":"Uncletopia | Frankfurt | 4 | All Maps | STV","players":[{"user_id":323,"name":"DiracDeltaFunction","steam_id":76561199201624841,"connected_time":1392000000000,"state":"active","ping":77},{"user_id":330,"name":"Stragnov‚òÜ","steam_id":76561198074702465,"connected_time":669000000000,"state":"active","ping":55},{"user_id":298,"name":"bone lord","steam_id":76561198334042273,"connected_time":3094000000000,"state":"active","ping":70},{"user_id":329,"name":"bn","steam_id":76561198742407927,"connected_time":965000000000,"state":"active","ping":75},{"user_id":321,"name":"Finnish Farmer","steam_id":76561198205366043,"connected_time":1557000000000,"state":"active","ping":85},{"user_id":331,"name":"Novice Heavy tf2 player","steam_id":76561198141173061,"connected_time":666000000000,"state":"active","ping":91},{"user_id":332,"name":"nyanezt","steam_id":76561198253734265,"connected_time":656000000000,"state":"active","ping":76},{"user_id":307,"name":"donatofina","steam_id":76561198353497885,"connected_time":2281000000000,"state":"active","ping":90},{"user_id":325,"name":"Fran","steam_id":76561199070516960,"connected_time":1341000000000,"state":"active","ping":65},{"user_id":333,"name":"Eddy","steam_id":76561198119447759,"connected_time":654000000000,"state":"active","ping":60},{"user_id":312,"name":"Excadrill (GOAT)","steam_id":76561199012566222,"connected_time":1933000000000,"state":"active","ping":56},{"user_id":334,"name":"meirfa","steam_id":76561198157193506,"connected_time":649000000000,"state":"active","ping":122},{"user_id":335,"name":"r^f shrrrrrrekkkkk","steam_id":76561198347241576,"connected_time":647000000000,"state":"active","ping":61},{"user_id":345,"name":"Eidolon","steam_id":76561198043919565,"connected_time":350000000000,"state":"active","ping":87},{"user_id":336,"name":"mommyüñ§x_x","steam_id":76561199204257697,"connected_time":612000000000,"state":"active","ping":59},{"user_id":339,"name":"Xens","steam_id":76561198208839507,"connected_time":595000000000,"state":"active","ping":92},{"user_id":337,"name":"Joe","steam_id":76561198061717026,"connected_time":608000000000,"state":"active","ping":56},{"user_id":338,"name":"MARKO","steam_id":76561198065127504,"connected_time":603000000000,"state":"active","ping":161},{"user_id":347,"name":"Maxin","steam_id":76561197999923364,"connected_time":232000000000,"state":"active","ping":67},{"user_id":344,"name":"SendBob","steam_id":76561198151981614,"connected_time":427000000000,"state":"active","ping":87},{"user_id":342,"name":"Kocour Provazov√Ω","steam_id":76561198148038398,"connected_time":454000000000,"state":"active","ping":38},{"user_id":343,"name":"brother mother banditcamp.com","steam_id":76561198159311322,"connected_time":453000000000,"state":"active","ping":68},{"user_id":315,"name":"nug","steam_id":76561198055396568,"connected_time":1880000000000,"state":"active","ping":60},{"user_id":346,"name":"niandits","steam_id":76561198419798900,"connected_time":297000000000,"state":"active","ping":131}]},{"server_id":310,"name":"Uncletopia | Frankfurt | 5 | All Maps","name_short":"frk-5","host":"frk-1.de.uncletopia.com","port":27055,"enabled":true,"region":"eu","cc":"de","latitude":50.110924,"longitude":8.682127,"reserved":0,"last_update":"0001-01-01T00:00:00Z","name_a2s":"Uncletopia | Frankfurt | 5 | All Maps","protocol":17,"map":"cp_sunshine","folder":"tf","game":"Team Fortress","app_id":440,"player_count":24,"max_players":24,"Bots":0,"server_type":"Dedicated","server_os":"Linux","password":true,"vac":true,"version":"7961495","steam_id":85568392924504277,"keywords":["cp","nocrits","nodmgspread","uncletopia"],"game_id":440,"stv_port":27056,"stv_name":"Uncletopia | Frankfurt | 5 | All Maps | STV","players":[{"user_id":515,"name":"WrathNSpeed","steam_id":76561198390944504,"connected_time":3593000000000,"state":"active","ping":71},{"user_id":581,"name":"Subterranean","steam_id":76561198106684566,"connected_time":303000000000,"state":"active","ping":77},{"user_id":579,"name":"Joe","steam_id":76561198145639903,"connected_time":725000000000,"state":"active","ping":99},{"user_id":553,"name":"Pfaff Ferenc","steam_id":76561199502583278,"connected_time":2268000000000,"state":"active","ping":58},{"user_id":556,"name":"G√º√ßl√ºAYraNsAƒû","steam_id":76561199184988396,"connected_time":2234000000000,"state":"active","ping":115},{"user_id":576,"name":"Dave","steam_id":76561197991425486,"connected_time":823000000000,"state":"active","ping":80},{"user_id":565,"name":"dash.","steam_id":76561198084796149,"connected_time":1368000000000,"state":"active","ping":49},{"user_id":522,"name":"BIGBILF","steam_id":76561199089870289,"connected_time":3272000000000,"state":"active","ping":62},{"user_id":566,"name":"JEAN-BERNARD THE SEX LORD","steam_id":76561198799097492,"connected_time":1332000000000,"state":"active","ping":48},{"user_id":567,"name":"zinzyk","steam_id":76561198128011822,"connected_time":1318000000000,"state":"active","ping":54},{"user_id":562,"name":"Shogg","steam_id":76561198056382237,"connected_time":1802000000000,"state":"active","ping":87},{"user_id":573,"name":"svantezch","steam_id":76561198373831657,"connected_time":1223000000000,"state":"active","ping":78},{"user_id":575,"name":"Minister of cocks","steam_id":76561198829740342,"connected_time":972000000000,"state":"active","ping":70},{"user_id":582,"name":"HOI","steam_id":76561198061182117,"connected_time":267000000000,"state":"active","ping":60},{"user_id":583,"name":"Dr Doe Gaming","steam_id":76561199104748293,"connected_time":260000000000,"state":"active","ping":75},{"user_id":584,"name":"f0x","steam_id":76561198072921704,"connected_time":233000000000,"state":"active","ping":47},{"user_id":586,"name":"alemarini0100","steam_id":76561199503573352,"connected_time":86000000000,"state":"active","ping":55},{"user_id":587,"name":"Astyloblatta","steam_id":76561199222909666,"connected_time":74000000000,"state":"active","ping":71},{"user_id":543,"name":"shoras","steam_id":76561198019680159,"connected_time":2437000000000,"state":"active","ping":90},{"user_id":571,"name":"Dr Bondus Bolongus Dongus","steam_id":76561198378657692,"connected_time":1259000000000,"state":"active","ping":61},{"user_id":551,"name":"powej","steam_id":76561198056381418,"connected_time":2330000000000,"state":"active","ping":50},{"user_id":572,"name":"ANGHENFILOD","steam_id":76561199492622823,"connected_time":1247000000000,"state":"active","ping":57},{"user_id":588,"name":"Mario Judah","steam_id":76561197971514714,"connected_time":65000000000,"state":"active","ping":56},{"user_id":589,"name":"Kapitan Polska","steam_id":76561197968069413,"connected_time":34000000000,"state":"spawning","ping":67}]},{"server_id":311,"name":"Uncletopia | Frankfurt | 6 | All Maps","name_short":"frk-6","host":"frk-1.de.uncletopia.com","port":27065,"enabled":true,"region":"eu","cc":"de","latitude":50.110924,"longitude":8.682127,"reserved":0,"last_update":"0001-01-01T00:00:00Z","name_a2s":"Uncletopia | Frankfurt | 6 | All Maps","protocol":17,"map":"pl_swiftwater_final1","folder":"tf","game":"Team Fortress","app_id":440,"player_count":24,"max_players":24,"Bots":0,"server_type":"Dedicated","server_os":"Linux","password":true,"vac":true,"version":"7961495","steam_id":85568392924504278,"keywords":["nocrits","nodmgspread","payload","uncletopia"],"game_id":440,"stv_port":27066,"stv_name":"Uncletopia | Frankfurt | 6 | All Maps | STV","players":[{"user_id":392,"name":"xiiski","steam_id":76561198152387747,"connected_time":1304000000000,"state":"active","ping":98},{"user_id":358,"name":"Para Bellum","steam_id":76561198375413446,"connected_time":3283000000000,"state":"active","ping":47},{"user_id":388,"name":"Random Crit","steam_id":76561198066978791,"connected_time":1622000000000,"state":"active","ping":61},{"user_id":396,"name":"Pvt Talbot","steam_id":76561198261001389,"connected_time":1265000000000,"state":"active","ping":50},{"user_id":400,"name":"Adam","steam_id":76561198118572396,"connected_time":1067000000000,"state":"active","ping":70},{"user_id":398,"name":"Creeperwinn-the-2st","steam_id":76561199080391190,"connected_time":1134000000000,"state":"active","ping":104},{"user_id":349,"name":"Finem Belli","steam_id":76561198227177976,"connected_time":3477000000000,"state":"active","ping":53},{"user_id":407,"name":"pavyonspor","steam_id":76561198116530769,"connected_time":807000000000,"state":"active","ping":85},{"user_id":402,"name":"ArmedWithWings","steam_id":76561198154615474,"connected_time":1024000000000,"state":"active","ping":81},{"user_id":410,"name":"Waltism","steam_id":76561199447676489,"connected_time":357000000000,"state":"active","ping":69},{"user_id":394,"name":"Na'vi Misato (by popular demand","steam_id":76561198130860698,"connected_time":1276000000000,"state":"active","ping":65},{"user_id":362,"name":"Lemonade in my eyes","steam_id":76561198338129578,"connected_time":3162000000000,"state":"active","ping":57},{"user_id":232,"name":"woop","steam_id":76561198985105074,"connected_time":13657000000000,"state":"active","ping":79},{"user_id":364,"name":"howdy","steam_id":76561199070752810,"connected_time":3084000000000,"state":"active","ping":61},{"user_id":404,"name":"‚ô° Cursed ‚ô°","steam_id":76561199161458959,"connected_time":992000000000,"state":"active","ping":190},{"user_id":380,"name":"MaciekToGigachad","steam_id":76561199387550937,"connected_time":1984000000000,"state":"active","ping":58},{"user_id":376,"name":"one dollar house","steam_id":76561197961263312,"connected_time":2661000000000,"state":"active","ping":121},{"user_id":399,"name":"yodel","steam_id":76561198138777659,"connected_time":1124000000000,"state":"active","ping":62},{"user_id":403,"name":"Denialman (Muted)","steam_id":76561198309182092,"connected_time":1012000000000,"state":"active","ping":49},{"user_id":405,"name":"Idiot","steam_id":76561199256424165,"connected_time":948000000000,"state":"active","ping":85},{"user_id":406,"name":"Civil Melon","steam_id":76561198988309618,"connected_time":948000000000,"state":"active","ping":84},{"user_id":373,"name":"LowQualityMan","steam_id":76561199443272346,"connected_time":2887000000000,"state":"active","ping":49},{"user_id":389,"name":"Apparently God","steam_id":76561199472680998,"connected_time":1500000000000,"state":"active","ping":71},{"user_id":395,"name":"Tweedle","steam_id":76561198160141785,"connected_time":1274000000000,"state":"active","ping":51}]},{"server_id":23,"name":"Uncletopia | Frankfurt | 7 | Stopwatch","name_short":"frk-7","host":"frk-1.de.uncletopia.com","port":27075,"enabled":true,"region":"eu","cc":"de","latitude":50.110924,"longitude":8.682127,"reserved":0,"last_update":"0001-01-01T00:00:00Z","name_a2s":"Uncletopia | Frankfurt | 7 | Stopwatch","protocol":17,"map":"pl_frontier_final","folder":"tf","game":"Team Fortress","app_id":440,"player_count":0,"max_players":24,"Bots":0,"server_type":"Dedicated","server_os":"Linux","password":true,"vac":true,"version":"7961495","steam_id":85568392924742827,"keywords":["nocrits","nodmgspread","payload","uncletopia"],"game_id":440,"stv_port":27076,"stv_name":"Uncletopia | Frankfurt | 7 | Stopwatch | STV","players":null},{"server_id":24,"name":"Uncletopia | Frankfurt | 8 | Community","name_short":"frk-8","host":"frk-1.de.uncletopia.com","port":27085,"enabled":true,"region":"eu","cc":"de","latitude":50.110924,"longitude":8.682127,"reserved":0,"last_update":"0001-01-01T00:00:00Z","name_a2s":"Uncletopia | Frankfurt | 8 | Community","protocol":17,"map":"workshop/koth_bagel_rc6.ugc2514036946","folder":"tf","game":"Team Fortress","app_id":440,"player_count":0,"max_players":24,"Bots":0,"server_type":"Dedicated","server_os":"Linux","password":true,"vac":true,"version":"7961495","steam_id":85568392924742828,"keywords":["cp","nocrits","nodmgspread","uncletopia"],"game_id":440,"stv_port":27086,"stv_name":"Uncletopia | Frankfurt | 8 | Community | STV","players":null},{"server_id":202,"name":"Uncletopia | Hong Kong | 1 | All Maps","name_short":"hgk-1","host":"hgk-1.hk.uncletopia.com","port":27015,"enabled":true,"region":"asia","cc":"hk","latitude":22.302711,"longitude":114.177216,"reserved":0,"last_update":"0001-01-01T00:00:00Z","name_a2s":"Uncletopia | Hong Kong | 1 | All Maps","protocol":17,"map":"koth_viaduct","folder":"tf","game":"Team Fortress","app_id":440,"player_count":0,"max_players":24,"Bots":0,"server_type":"Dedicated","server_os":"Linux","password":true,"vac":true,"version":"7961495","steam_id":85568392924494504,"keywords":["cp","nocrits","nodmgspread","uncletopia"],"game_id":440,"stv_port":27016,"stv_name":"Uncletopia | Hong Kong | 1 | All Maps | STV","players":null},{"server_id":1,"name":"Uncletopia | Los Angeles | 1 | All Maps","name_short":"lax-1","host":"lax-1.us.uncletopia.com","port":27015,"enabled":true,"region":"us-west","cc":"us","latitude":33.94279,"longitude":-118.41004,"reserved":0,"last_update":"0001-01-01T00:00:00Z","name_a2s":"Uncletopia | Los Angeles | 1 | All Maps","protocol":17,"map":"pl_upward","folder":"tf","game":"Team Fortress","app_id":440,"player_count":23,"max_players":24,"Bots":0,"server_type":"Dedicated","server_os":"Linux","password":true,"vac":true,"version":"7961495","steam_id":85568392924469991,"keywords":["nocrits","nodmgspread","payload","uncletopia"],"game_id":440,"stv_port":27016,"stv_name":"Uncletopia | Los Angeles | 1 | All Maps | STV","players":[{"user_id":108,"name":"CaptainPikachu","steam_id":76561198075667401,"connected_time":1857000000000,"state":"active","ping":70},{"user_id":109,"name":"falikk","steam_id":76561197970821648,"connected_time":1838000000000,"state":"active","ping":74},{"user_id":89,"name":"MORE BOUNCE TO THE OUNCE","steam_id":76561198243399336,"connected_time":2930000000000,"state":"active","ping":71},{"user_id":123,"name":"Jaeger","steam_id":76561199392187099,"connected_time":46000000000,"state":"active","ping":105},{"user_id":100,"name":"Eden","steam_id":76561198081284664,"connected_time":2618000000000,"state":"active","ping":52},{"user_id":110,"name":"Petrivus","steam_id":76561198202152453,"connected_time":1833000000000,"state":"active","ping":71},{"user_id":75,"name":"Temujin","steam_id":76561198030936583,"connected_time":3666000000000,"state":"active","ping":90},{"user_id":121,"name":"Defeat","steam_id":76561198065203818,"connected_time":926000000000,"state":"active","ping":60},{"user_id":107,"name":"noceof","steam_id":76561198043656816,"connected_time":2179000000000,"state":"active","ping":169},{"user_id":67,"name":"Anthid","steam_id":76561198074493797,"connected_time":4150000000000,"state":"active","ping":68},{"user_id":88,"name":"ShellBug","steam_id":76561198144187527,"connected_time":3020000000000,"state":"active","ping":100},{"user_id":104,"name":"logitchy","steam_id":76561199062753505,"connected_time":2423000000000,"state":"active","ping":105},{"user_id":111,"name":"Typh","steam_id":76561198315344079,"connected_time":1820000000000,"state":"active","ping":100},{"user_id":113,"name":"gulch","steam_id":76561199227946025,"connected_time":1710000000000,"state":"active","ping":97},{"user_id":125,"name":"SneekiCheekiQbone","steam_id":76561198045077980,"connected_time":34000000000,"state":"active","ping":43},{"user_id":83,"name":"Smiles","steam_id":76561198107197973,"connected_time":3194000000000,"state":"active","ping":108},{"user_id":115,"name":"seattlepilot","steam_id":76561198157510704,"connected_time":1657000000000,"state":"active","ping":85},{"user_id":86,"name":"Grify","steam_id":76561198012292317,"connected_time":3040000000000,"state":"active","ping":114},{"user_id":94,"name":"grape","steam_id":76561197993980328,"connected_time":2837000000000,"state":"active","ping":96},{"user_id":126,"name":"Lucky","steam_id":76561198124910662,"connected_time":10000000000,"state":"spawning","ping":42},{"user_id":116,"name":"Pie","steam_id":76561198054721133,"connected_time":1653000000000,"state":"active","ping":45},{"user_id":106,"name":"Noah","steam_id":76561198059048749,"connected_time":2383000000000,"state":"active","ping":75},{"user_id":96,"name":"Dr. Karl, the AUS Science Guy","steam_id":76561198031278747,"connected_time":2771000000000,"state":"active","ping":67}]},{"server_id":112,"name":"Uncletopia | Los Angeles | 2 | All Maps","name_short":"lax-2","host":"lax-1.us.uncletopia.com","port":27025,"enabled":true,"region":"us-west","cc":"us","latitude":33.94279,"longitude":-118.41004,"reserved":0,"last_update":"0001-01-01T00:00:00Z","name_a2s":"Uncletopia | Los Angeles | 2 | All Maps","protocol":17,"map":"koth_highpass","folder":"tf","game":"Team Fortress","app_id":440,"player_count":0,"max_players":24,"Bots":0,"server_type":"Dedicated","server_os":"Linux","password":true,"vac":true,"version":"7961495","steam_id":85568392924469992,"keywords":["cp","nocrits","nodmgspread","uncletopia"],"game_id":440,"stv_port":27026,"stv_name":"Uncletopia | Los Angeles | 2 | All Maps | STV","players":null},{"server_id":324,"name":"Uncletopia | Los Angeles | 3 | All Maps","name_short":"lax-3","host":"lax-1.us.uncletopia.com","port":27035,"enabled":true,"region":"us-west","cc":"us","latitude":33.94279,"longitude":-118.41004,"reserved":0,"last_update":"0001-01-01T00:00:00Z","name_a2s":"Uncletopia | Los Angeles | 3 | All Maps","protocol":17,"map":"pl_frontier_final","folder":"tf","game":"Team Fortress","app_id":440,"player_count":0,"max_players":24,"Bots":0,"server_type":"Dedicated","server_os":"Linux","password":true,"vac":true,"version":"7961495","steam_id":85568392924510198,"keywords":["nocrits","nodmgspread","payload","uncletopia"],"game_id":440,"stv_port":27036,"stv_name":"Uncletopia | Los Angeles | 3 | All Maps | STV","players":null},{"server_id":25,"name":"Uncletopia | Los Angeles | 4 | Stopwatch","name_short":"lax-4","host":"lax-1.us.uncletopia.com","port":27045,"enabled":true,"region":"us-west","cc":"us","latitude":33.94279,"longitude":-118.41004,"reserved":0,"last_update":"0001-01-01T00:00:00Z","name_a2s":"Uncletopia | Los Angeles | 4 | Stopwatch","protocol":17,"map":"pl_barnblitz","folder":"tf","game":"Team Fortress","app_id":440,"player_count":0,"max_players":24,"Bots":0,"server_type":"Dedicated","server_os":"Linux","password":true,"vac":true,"version":"7961495","steam_id":85568392924510199,"keywords":["nocrits","nodmgspread","payload","uncletopia"],"game_id":440,"stv_port":27046,"stv_name":"Uncletopia | Los Angeles | 4 | Stopwatch | STV","players":null},{"server_id":11,"name":"Uncletopia | London | 1 | All Maps","name_short":"lon-1","host":"lon-1.uk.uncletopia.com","port":27015,"enabled":true,"region":"eu","cc":"gb","latitude":51.509865,"longitude":-0.118092,"reserved":0,"last_update":"0001-01-01T00:00:00Z","name_a2s":"Uncletopia | London | 1 | All Maps","protocol":17,"map":"pl_barnblitz","folder":"tf","game":"Team Fortress","app_id":440,"player_count":24,"max_players":24,"Bots":0,"server_type":"Dedicated","server_os":"Linux","password":true,"vac":true,"version":"7961495","steam_id":85568392924367362,"keywords":["nocrits","nodmgspread","payload","uncletopia"],"game_id":440,"stv_port":27016,"stv_name":"Uncletopia | London | 1 | All Maps | STV","players":[{"user_id":615,"name":"ElMoustacho","steam_id":76561198126647314,"connected_time":845000000000,"state":"active","ping":55},{"user_id":618,"name":"Hoff","steam_id":76561198138540938,"connected_time":787000000000,"state":"active","ping":82},{"user_id":627,"name":"Hoss","steam_id":76561198000169123,"connected_time":587000000000,"state":"active","ping":97},{"user_id":596,"name":"Weed Wizard Mega Genocider","steam_id":76561198368515513,"connected_time":1864000000000,"state":"active","ping":43},{"user_id":602,"name":"heavy sings (real)","steam_id":76561199023804405,"connected_time":1723000000000,"state":"active","ping":75},{"user_id":588,"name":"Rx07","steam_id":76561199013720618,"connected_time":3814000000000,"state":"active","ping":88},{"user_id":612,"name":"EnKay","steam_id":76561198397087279,"connected_time":901000000000,"state":"active","ping":79},{"user_id":613,"name":"iiamiizzyy","steam_id":76561198355030751,"connected_time":855000000000,"state":"active","ping":166},{"user_id":620,"name":"Kahvi","steam_id":76561198723244199,"connected_time":763000000000,"state":"active","ping":83},{"user_id":617,"name":"SantaMuerte","steam_id":76561198039898148,"connected_time":825000000000,"state":"active","ping":150},{"user_id":621,"name":"The legendery balls","steam_id":76561199139344747,"connected_time":687000000000,"state":"active","ping":103},{"user_id":609,"name":"AuwNina","steam_id":76561198128231464,"connected_time":1100000000000,"state":"active","ping":68},{"user_id":619,"name":"Dr. Gruno","steam_id":76561198815633513,"connected_time":775000000000,"state":"active","ping":110},{"user_id":628,"name":"KnugenIV","steam_id":76561198127091993,"connected_time":572000000000,"state":"active","ping":89},{"user_id":590,"name":"Aaron","steam_id":76561197990046953,"connected_time":3230000000000,"state":"active","ping":56},{"user_id":629,"name":"kittylover55","steam_id":76561198136297981,"connected_time":415000000000,"state":"active","ping":78},{"user_id":623,"name":"Finkaksu Devourer of Sour Candy","steam_id":76561198201389163,"connected_time":664000000000,"state":"active","ping":67},{"user_id":624,"name":"Summer ‚ô•","steam_id":76561198047723907,"connected_time":657000000000,"state":"active","ping":44},{"user_id":584,"name":"nappo","steam_id":76561198060105180,"connected_time":4419000000000,"state":"active","ping":75},{"user_id":572,"name":"STEFF","steam_id":76561198013306538,"connected_time":5783000000000,"state":"active","ping":54},{"user_id":607,"name":"Nutty Dark^^","steam_id":76561198036241064,"connected_time":1195000000000,"state":"active","ping":67},{"user_id":606,"name":"impossible whopper eater","steam_id":76561198058641805,"connected_time":1334000000000,"state":"active","ping":59},{"user_id":626,"name":"NGG DineQQ","steam_id":76561198264574142,"connected_time":611000000000,"state":"active","ping":86},{"user_id":544,"name":"Mango_Archimedes","steam_id":76561199096635508,"connected_time":7995000000000,"state":"active","ping":67}]},{"server_id":114,"name":"Uncletopia | London | 2 | All Maps","name_short":"lon-2","host":"lon-1.uk.uncletopia.com","port":27025,"enabled":true,"region":"eu","cc":"gb","latitude":51.509865,"longitude":-0.118092,"reserved":0,"last_update":"0001-01-01T00:00:00Z","name_a2s":"Uncletopia | London | 2 | All Maps","protocol":17,"map":"pl_badwater","folder":"tf","game":"Team Fortress","app_id":440,"player_count":23,"max_players":24,"Bots":0,"server_type":"Dedicated","server_os":"Linux","password":true,"vac":true,"version":"7961495","steam_id":85568392924470941,"keywords":["nocrits","nodmgspread","payload","uncletopia"],"game_id":440,"stv_port":27026,"stv_name":"Uncletopia | London | 2 | All Maps | STV","players":[{"user_id":204,"name":"After8","steam_id":76561198090750865,"connected_time":5663000000000,"state":"active","ping":67},{"user_id":294,"name":"zayd","steam_id":76561198895235231,"connected_time":838000000000,"state":"active","ping":58},{"user_id":277,"name":"M√©bh √ìg MacT√≠re","steam_id":76561198346399624,"connected_time":1756000000000,"state":"active","ping":86},{"user_id":308,"name":"Kappa","steam_id":76561198089341471,"connected_time":21000000000,"state":"active","ping":73},{"user_id":309,"name":"mr.bertik","steam_id":76561199090893519,"connected_time":3000000000,"state":"spawning","ping":174},{"user_id":302,"name":"Rizzlix","steam_id":76561198248567360,"connected_time":601000000000,"state":"active","ping":49},{"user_id":297,"name":"ChebJeb","steam_id":76561198981377081,"connected_time":826000000000,"state":"active","ping":134},{"user_id":306,"name":"PP Connoisseur","steam_id":76561198044264963,"connected_time":230000000000,"state":"active","ping":60},{"user_id":271,"name":"eva","steam_id":76561198054474684,"connected_time":2201000000000,"state":"active","ping":88},{"user_id":218,"name":"BoPoe","steam_id":76561198093333882,"connected_time":4766000000000,"state":"active","ping":91},{"user_id":269,"name":"Emerald","steam_id":76561199141384216,"connected_time":2336000000000,"state":"active","ping":47},{"user_id":307,"name":"Revolver TF2","steam_id":76561198968778310,"connected_time":65000000000,"state":"active","ping":128},{"user_id":279,"name":"kavun","steam_id":76561198023461869,"connected_time":1739000000000,"state":"active","ping":78},{"user_id":267,"name":"EL WIWI","steam_id":76561198134378108,"connected_time":2544000000000,"state":"active","ping":79},{"user_id":298,"name":"Wolgang with 210HP","steam_id":76561198989449047,"connected_time":779000000000,"state":"active","ping":122},{"user_id":150,"name":"Codex","steam_id":76561198068748584,"connected_time":9147000000000,"state":"active","ping":46},{"user_id":296,"name":"pocahonta","steam_id":76561199188503835,"connected_time":837000000000,"state":"active","ping":83},{"user_id":300,"name":"forscinpyro","steam_id":76561198853262176,"connected_time":700000000000,"state":"active","ping":54},{"user_id":268,"name":"GabrielUltrakill","steam_id":76561199200442395,"connected_time":2462000000000,"state":"active","ping":87},{"user_id":288,"name":"xva","steam_id":76561198969286813,"connected_time":1400000000000,"state":"active","ping":60},{"user_id":285,"name":"XPullaHiiri","steam_id":76561198031652375,"connected_time":1456000000000,"state":"active","ping":91},{"user_id":291,"name":"Noob_with_source","steam_id":76561198870362103,"connected_time":1293000000000,"state":"active","ping":59},{"user_id":305,"name":"Sebbe","steam_id":76561198105465619,"connected_time":275000000000,"state":"active","ping":89}]},{"server_id":320,"name":"Uncletopia | London | 3 | All Maps","name_short":"lon-3","host":"lon-1.uk.uncletopia.com","port":27035,"enabled":true,"region":"eu","cc":"gb","latitude":51.509865,"longitude":-0.118092,"reserved":0,"last_update":"0001-01-01T00:00:00Z","name_a2s":"Uncletopia | London | 3 | All Maps","protocol":17,"map":"pl_badwater","folder":"tf","game":"Team Fortress","app_id":440,"player_count":24,"max_players":24,"Bots":0,"server_type":"Dedicated","server_os":"Linux","password":true,"vac":true,"version":"7961495","steam_id":85568392924510192,"keywords":["nocrits","nodmgspread","payload","uncletopia"],"game_id":440,"stv_port":27036,"stv_name":"Uncletopia | London | 3 | All Maps | STV","players":[{"user_id":223,"name":"Trans Femtress 2","steam_id":76561198014056212,"connected_time":2701000000000,"state":"active","ping":71},{"user_id":234,"name":"highest noon","steam_id":76561199103959197,"connected_time":1025000000000,"state":"active","ping":97},{"user_id":240,"name":"Hey, I¬¥m Andy!","steam_id":76561198060337777,"connected_time":374000000000,"state":"active","ping":81},{"user_id":192,"name":"( Õ°¬∞ Õú ñ Õ°¬∞)","steam_id":76561199196316280,"connected_time":5047000000000,"state":"active","ping":87},{"user_id":217,"name":"Lemmy","steam_id":76561199038870751,"connected_time":3186000000000,"state":"active","ping":66},{"user_id":198,"name":"ediheelo","steam_id":76561198363615045,"connected_time":4414000000000,"state":"active","ping":55},{"user_id":229,"name":"Prime","steam_id":76561198136901842,"connected_time":1740000000000,"state":"active","ping":50},{"user_id":236,"name":"Lubrsi","steam_id":76561198040208195,"connected_time":1013000000000,"state":"active","ping":47},{"user_id":238,"name":"BIG BOI SPICE","steam_id":76561198194862277,"connected_time":910000000000,"state":"active","ping":48},{"user_id":154,"name":"Kinjiko","steam_id":76561199124619827,"connected_time":7643000000000,"state":"active","ping":60},{"user_id":227,"name":"engie?","steam_id":76561198331852832,"connected_time":1940000000000,"state":"active","ping":161},{"user_id":231,"name":"Semtilion","steam_id":76561198107642445,"connected_time":1355000000000,"state":"active","ping":109},{"user_id":232,"name":"hop","steam_id":76561197982485114,"connected_time":1354000000000,"state":"active","ping":75},{"user_id":114,"name":"d u k k i","steam_id":76561198071807437,"connected_time":10383000000000,"state":"active","ping":87},{"user_id":205,"name":"HoneyBe_","steam_id":76561198288930154,"connected_time":3704000000000,"state":"active","ping":66},{"user_id":207,"name":"Tero","steam_id":76561198073147972,"connected_time":3289000000000,"state":"active","ping":80},{"user_id":235,"name":"Reimu","steam_id":76561198101532240,"connected_time":1025000000000,"state":"active","ping":58},{"user_id":175,"name":"meriones","steam_id":76561198034234373,"connected_time":6027000000000,"state":"active","ping":44},{"user_id":226,"name":"The Lady","steam_id":76561198029895809,"connected_time":2129000000000,"state":"active","ping":87},{"user_id":222,"name":"average manicotti enjoyer","steam_id":76561198059535856,"connected_time":2792000000000,"state":"active","ping":167},{"user_id":220,"name":"Tort","steam_id":76561198329646769,"connected_time":2904000000000,"state":"active","ping":56},{"user_id":209,"name":"m0‚Åß‚Åß ‚Åß‚Åß‚Åß‚Åßm","steam_id":76561198151388694,"connected_time":3288000000000,"state":"active","ping":75},{"user_id":237,"name":"Prox","steam_id":76561198351490981,"connected_time":1012000000000,"state":"active","ping":43},{"user_id":242,"name":"Taps","steam_id":76561198171147117,"connected_time":299000000000,"state":"active","ping":71}]},{"server_id":321,"name":"Uncletopia | London | 4 | All Maps","name_short":"lon-4","host":"lon-1.uk.uncletopia.com","port":27045,"enabled":true,"region":"eu","cc":"gb","latitude":51.509865,"longitude":-0.118092,"reserved":0,"last_update":"0001-01-01T00:00:00Z","name_a2s":"Uncletopia | London | 4 | All Maps","protocol":17,"map":"koth_harvest_final","folder":"tf","game":"Team Fortress","app_id":440,"player_count":24,"max_players":24,"Bots":0,"server_type":"Dedicated","server_os":"Linux","password":true,"vac":true,"version":"7961495","steam_id":85568392924510193,"keywords":["cp","nocrits","nodmgspread","uncletopia"],"game_id":440,"stv_port":27046,"stv_name":"Uncletopia | London | 4 | All Maps | STV","players":[{"user_id":219,"name":"yng_btc","steam_id":76561197987289683,"connected_time":5776000000000,"state":"active","ping":66},{"user_id":293,"name":"herbal tea","steam_id":76561198179711137,"connected_time":2197000000000,"state":"active","ping":64},{"user_id":285,"name":"Yes","steam_id":76561198046729687,"connected_time":2854000000000,"state":"active","ping":55},{"user_id":298,"name":"Ullr","steam_id":76561198140547483,"connected_time":1896000000000,"state":"active","ping":42},{"user_id":317,"name":"Losre","steam_id":76561198071393125,"connected_time":1044000000000,"state":"active","ping":58},{"user_id":287,"name":"ran is running","steam_id":76561199443185667,"connected_time":2808000000000,"state":"active","ping":134},{"user_id":250,"name":"the pyro","steam_id":76561199217601719,"connected_time":4706000000000,"state":"active","ping":77},{"user_id":320,"name":"doomer","steam_id":76561198977420882,"connected_time":832000000000,"state":"active","ping":37},{"user_id":251,"name":"MakeItRainbow","steam_id":76561198045098064,"connected_time":4693000000000,"state":"active","ping":60},{"user_id":326,"name":"Eat It Up Worms Hero","steam_id":76561198259956719,"connected_time":267000000000,"state":"active","ping":138},{"user_id":271,"name":"TomNoSocks","steam_id":76561198114071046,"connected_time":3805000000000,"state":"active","ping":67},{"user_id":187,"name":"Marcel","steam_id":76561198348686648,"connected_time":7920000000000,"state":"active","ping":45},{"user_id":303,"name":"Andy","steam_id":76561198046918834,"connected_time":1705000000000,"state":"active","ping":60},{"user_id":280,"name":"Keany","steam_id":76561199041393458,"connected_time":3248000000000,"state":"active","ping":62},{"user_id":323,"name":"toino_PT","steam_id":76561199008999046,"connected_time":649000000000,"state":"active","ping":87},{"user_id":311,"name":"McAtka","steam_id":76561198019759329,"connected_time":1486000000000,"state":"active","ping":66},{"user_id":294,"name":"Sentry Man","steam_id":76561198088417596,"connected_time":2197000000000,"state":"active","ping":87},{"user_id":279,"name":"Eggcracker","steam_id":76561199274850641,"connected_time":3330000000000,"state":"active","ping":93},{"user_id":322,"name":"me (real)","steam_id":76561198013770973,"connected_time":669000000000,"state":"active","ping":70},{"user_id":316,"name":"Dean Craig Pelton From Communit","steam_id":76561198155010055,"connected_time":1138000000000,"state":"active","ping":128},{"user_id":296,"name":"TylowStar","steam_id":76561198357107806,"connected_time":2087000000000,"state":"active","ping":62},{"user_id":328,"name":"Vince","steam_id":76561199103000131,"connected_time":224000000000,"state":"active","ping":46},{"user_id":325,"name":"James","steam_id":76561198168882012,"connected_time":332000000000,"state":"active","ping":55},{"user_id":284,"name":"Xiqui","steam_id":76561198818386611,"connected_time":2959000000000,"state":"active","ping":78}]},{"server_id":21,"name":"Uncletopia | London | 5 | All Maps","name_short":"lon-5","host":"lon-1.uk.uncletopia.com","port":27055,"enabled":true,"region":"eu","cc":"gb","latitude":51.509865,"longitude":-0.118092,"reserved":0,"last_update":"0001-01-01T00:00:00Z","name_a2s":"Uncletopia | London | 5 | All Maps","protocol":17,"map":"cp_dustbowl","folder":"tf","game":"Team Fortress","app_id":440,"player_count":23,"max_players":24,"Bots":0,"server_type":"Dedicated","server_os":"Linux","password":true,"vac":true,"version":"7961495","steam_id":85568392924742829,"keywords":["cp","nocrits","nodmgspread","uncletopia"],"game_id":440,"stv_port":27056,"stv_name":"Uncletopia | London | 5 | All Maps | STV","players":[{"user_id":61,"name":"losing it","steam_id":76561198161426956,"connected_time":1889000000000,"state":"active","ping":103},{"user_id":86,"name":"Kpeces","steam_id":76561199210654421,"connected_time":716000000000,"state":"active","ping":102},{"user_id":74,"name":"comic_sans","steam_id":76561198845309519,"connected_time":1127000000000,"state":"active","ping":85},{"user_id":34,"name":"skittish maiden","steam_id":76561198096856475,"connected_time":2771000000000,"state":"active","ping":52},{"user_id":35,"name":"Beanie","steam_id":76561198173882658,"connected_time":2755000000000,"state":"active","ping":51},{"user_id":89,"name":"‚ô•Neko Girlfriend‚ô•","steam_id":76561198143422702,"connected_time":475000000000,"state":"active","ping":117},{"user_id":73,"name":"The worst TF2 player(Real)","steam_id":76561199184873889,"connected_time":1188000000000,"state":"active","ping":72},{"user_id":65,"name":"Sentient Toaster","steam_id":76561198168958712,"connected_time":1544000000000,"state":"active","ping":51},{"user_id":66,"name":"RemRem","steam_id":76561199005155029,"connected_time":1497000000000,"state":"active","ping":64},{"user_id":78,"name":"Gantzero","steam_id":76561198046379464,"connected_time":974000000000,"state":"active","ping":88},{"user_id":90,"name":"Cat","steam_id":76561198027383284,"connected_time":115000000000,"state":"active","ping":58},{"user_id":76,"name":"patrick","steam_id":76561198086684892,"connected_time":1064000000000,"state":"active","ping":113},{"user_id":91,"name":"ShawnDawn2","steam_id":76561198165013522,"connected_time":61000000000,"state":"active","ping":30},{"user_id":92,"name":"cislastar","steam_id":76561198027202375,"connected_time":22000000000,"state":"spawning","ping":62},{"user_id":45,"name":"Jersku","steam_id":76561198140994845,"connected_time":2361000000000,"state":"active","ping":75},{"user_id":80,"name":"Ryan Gosling (Literally me)","steam_id":76561198438150893,"connected_time":877000000000,"state":"active","ping":68},{"user_id":84,"name":"spole","steam_id":76561198036049849,"connected_time":818000000000,"state":"active","ping":45},{"user_id":88,"name":"DeterminedXD[HUN]","steam_id":76561199469006453,"connected_time":608000000000,"state":"active","ping":95},{"user_id":87,"name":"Cezaru7252","steam_id":76561198815955374,"connected_time":698000000000,"state":"active","ping":89},{"user_id":57,"name":"Erenom","steam_id":76561199017383513,"connected_time":2057000000000,"state":"active","ping":91},{"user_id":53,"name":"Sergeant_cross","steam_id":76561198148270425,"connected_time":2143000000000,"state":"active","ping":63},{"user_id":58,"name":"–º–æ–Ω–æ–ª–∏—Ç","steam_id":76561198066755808,"connected_time":2027000000000,"state":"active","ping":55},{"user_id":60,"name":"pretty dick peso","steam_id":76561198798177799,"connected_time":2012000000000,"state":"active","ping":76}]},{"server_id":22,"name":"Uncletopia | London | 6 | All Maps","name_short":"lon-6","host":"lon-1.uk.uncletopia.com","port":27065,"enabled":true,"region":"eu","cc":"gb","latitude":51.509865,"longitude":-0.118092,"reserved":0,"last_update":"0001-01-01T00:00:00Z","name_a2s":"Uncletopia | London | 6 | All Maps","protocol":17,"map":"cp_mountainlab","folder":"tf","game":"Team Fortress","app_id":440,"player_count":0,"max_players":24,"Bots":0,"server_type":"Dedicated","server_os":"Linux","password":true,"vac":true,"version":"7961495","steam_id":85568392924742830,"keywords":["cp","nocrits","nodmgspread","uncletopia"],"game_id":440,"stv_port":27066,"stv_name":"Uncletopia | London | 6 | All Maps | STV","players":null},{"server_id":40,"name":"Uncletopia | London | 7 | Stopwatch","name_short":"lon-7","host":"lon-1.uk.uncletopia.com","port":27075,"enabled":true,"region":"eu","cc":"gb","latitude":51.509865,"longitude":-0.118092,"reserved":0,"last_update":"0001-01-01T00:00:00Z","name_a2s":"Uncletopia | London | 7 | Stopwatch","protocol":17,"map":"workshop/koth_ramjam_rc1.ugc459778887","folder":"tf","game":"Team Fortress","app_id":440,"player_count":2,"max_players":24,"Bots":0,"server_type":"Dedicated","server_os":"Linux","password":true,"vac":true,"version":"7961495","steam_id":85568392924964314,"keywords":["cp","nocrits","nodmgspread","uncletopia"],"game_id":440,"stv_port":27076,"stv_name":"Uncletopia | London | 7 | Stopwatch | STV","players":[{"user_id":6,"name":"BoltSive","steam_id":76561199084631869,"connected_time":482000000000,"state":"active","ping":52},{"user_id":7,"name":"civilnetworks.net legacyspicy","steam_id":76561198834581897,"connected_time":455000000000,"state":"active","ping":69}]},{"server_id":41,"name":"Uncletopia | London | 8 | Community","name_short":"lon-8","host":"lon-1.uk.uncletopia.com","port":27085,"enabled":true,"region":"eu","cc":"gb","latitude":51.509865,"longitude":-0.118092,"reserved":0,"last_update":"0001-01-01T00:00:00Z","name_a2s":"Uncletopia | London | 8 | Community","protocol":17,"map":"workshop/koth_product_final.ugc454272353","folder":"tf","game":"Team Fortress","app_id":440,"player_count":17,"max_players":24,"Bots":0,"server_type":"Dedicated","server_os":"Linux","password":true,"vac":true,"version":"7961495","steam_id":85568392924964315,"keywords":["cp","nocrits","nodmgspread","uncletopia"],"game_id":440,"stv_port":27086,"stv_name":"Uncletopia | London | 8 | Community | STV","players":[{"user_id":121,"name":"ilimori","steam_id":76561197961231625,"connected_time":30000000000,"state":"active","ping":37},{"user_id":115,"name":"Lessoz","steam_id":76561199211572036,"connected_time":375000000000,"state":"active","ping":86},{"user_id":118,"name":"Nithle","steam_id":76561198025372740,"connected_time":344000000000,"state":"active","ping":41},{"user_id":123,"name":"JimBowBlade","steam_id":76561198018620946,"connected_time":14000000000,"state":"active","ping":48},{"user_id":53,"name":"Vins van Space","steam_id":76561198073054440,"connected_time":3892000000000,"state":"active","ping":75},{"user_id":103,"name":"irritable vowel syndrome","steam_id":76561198117033273,"connected_time":2103000000000,"state":"active","ping":48},{"user_id":100,"name":"Mero","steam_id":76561198397289130,"connected_time":2509000000000,"state":"active","ping":75},{"user_id":117,"name":"Welder","steam_id":76561198355300561,"connected_time":357000000000,"state":"active","ping":67},{"user_id":94,"name":"peters.garrett0","steam_id":76561199212526145,"connected_time":2824000000000,"state":"active","ping":138},{"user_id":83,"name":"femboylover69","steam_id":76561198131031404,"connected_time":3141000000000,"state":"active","ping":90},{"user_id":120,"name":"hgvgdwa","steam_id":76561198156499356,"connected_time":65000000000,"state":"active","ping":75},{"user_id":122,"name":"Schmack","steam_id":76561198026535437,"connected_time":26000000000,"state":"spawning","ping":104},{"user_id":50,"name":"hwleo","steam_id":76561198090848620,"connected_time":3935000000000,"state":"active","ping":91},{"user_id":52,"name":"pihen","steam_id":76561198089598943,"connected_time":3924000000000,"state":"active","ping":86},{"user_id":85,"name":"Fizik","steam_id":76561198065548086,"connected_time":3106000000000,"state":"active","ping":61},{"user_id":89,"name":"cisgender clown","steam_id":76561199469909295,"connected_time":2860000000000,"state":"active","ping":71},{"user_id":86,"name":"DemiFiend","steam_id":76561198037444194,"connected_time":3101000000000,"state":"active","ping":70}]},{"server_id":300,"name":"Uncletopia | Montr√©al | 1 | One Thousand Uncles","name_short":"mtl-1","host":"mtl-1.ca.uncletopia.com","port":27015,"enabled":true,"region":"us-east","cc":"ca","latitude":45.50889,"longitude":-73.56167,"reserved":0,"last_update":"0001-01-01T00:00:00Z","name_a2s":"","protocol":0,"map":"","folder":"","game":"","app_id":0,"player_count":3,"max_players":0,"Bots":0,"server_type":"","server_os":"","password":false,"vac":false,"version":"","steam_id":0,"keywords":null,"game_id":0,"stv_port":0,"stv_name":"","players":[{"user_id":139,"name":"Random_guy","steam_id":76561199093486348,"connected_time":634000000000,"state":"active","ping":107},{"user_id":156,"name":"DrMisteryous2","steam_id":76561198336307012,"connected_time":582000000000,"state":"active","ping":175},{"user_id":157,"name":"Mr. Pepper","steam_id":76561198153258241,"connected_time":25000000000,"state":"spawning","ping":55}]},{"server_id":301,"name":"Uncletopia | Montr√©al | 2 | One Thousand Uncles","name_short":"mtl-2","host":"mtl-1.ca.uncletopia.com","port":27025,"enabled":true,"region":"us-east","cc":"ca","latitude":45.50889,"longitude":-73.56167,"reserved":0,"last_update":"0001-01-01T00:00:00Z","name_a2s":"","protocol":0,"map":"","folder":"","game":"","app_id":0,"player_count":1,"max_players":0,"Bots":0,"server_type":"","server_os":"","password":false,"vac":false,"version":"","steam_id":0,"keywords":null,"game_id":0,"stv_port":0,"stv_name":"","players":[{"user_id":19,"name":"Willi the Gifter of Chaos","steam_id":76561198066508251,"connected_time":521000000000,"state":"active","ping":49}]},{"server_id":302,"name":"Uncletopia | Montr√©al | 3 | One Thousand Uncles","name_short":"mtl-3","host":"mtl-1.ca.uncletopia.com","port":27035,"enabled":true,"region":"us-east","cc":"ca","latitude":45.50889,"longitude":-73.56167,"reserved":0,"last_update":"0001-01-01T00:00:00Z","name_a2s":"","protocol":0,"map":"","folder":"","game":"","app_id":0,"player_count":9,"max_players":0,"Bots":0,"server_type":"","server_os":"","password":false,"vac":false,"version":"","steam_id":0,"keywords":null,"game_id":0,"stv_port":0,"stv_name":"","players":[{"user_id":37,"name":"adiarn","steam_id":76561199154821818,"connected_time":7099000000000,"state":"active","ping":196},{"user_id":38,"name":"snake","steam_id":76561198841257835,"connected_time":7049000000000,"state":"active","ping":158},{"user_id":90,"name":"Sen","steam_id":76561199030540078,"connected_time":5925000000000,"state":"active","ping":225},{"user_id":89,"name":"Josnake","steam_id":76561199278232357,"connected_time":6337000000000,"state":"active","ping":218},{"user_id":94,"name":"LeGamingProPlays","steam_id":76561198121304032,"connected_time":2182000000000,"state":"active","ping":76},{"user_id":98,"name":"twizted","steam_id":76561197960407274,"connected_time":1697000000000,"state":"active","ping":37},{"user_id":99,"name":"Drake the Pixel","steam_id":76561198131824401,"connected_time":880000000000,"state":"active","ping":46},{"user_id":100,"name":"WillDragonangel","steam_id":76561198258025259,"connected_time":549000000000,"state":"active","ping":71},{"user_id":102,"name":"\u003c blank \u003e","steam_id":76561199383789041,"connected_time":474000000000,"state":"active","ping":166}]},{"server_id":13,"name":"Uncletopia | New York City | 1 | All Maps","name_short":"nyc-1","host":"nyc-1.us.uncletopia.com","port":27015,"enabled":true,"region":"us-east","cc":"us","latitude":40.73061,"longitude":-73.93524,"reserved":0,"last_update":"0001-01-01T00:00:00Z","name_a2s":"Uncletopia | New York City | 1 | All Maps","protocol":17,"map":"pl_upward","folder":"tf","game":"Team Fortress","app_id":440,"player_count":24,"max_players":24,"Bots":0,"server_type":"Dedicated","server_os":"Linux","password":true,"vac":true,"version":"7961495","steam_id":85568392924469993,"keywords":["nocrits","nodmgspread","payload","uncletopia"],"game_id":440,"stv_port":27016,"stv_name":"Uncletopia | New York City | 1 | All Maps | STV","players":[{"user_id":110,"name":"Pepsiman","steam_id":76561198436946165,"connected_time":2804000000000,"state":"active","ping":75},{"user_id":62,"name":"Mx. Mourning","steam_id":76561199010673891,"connected_time":5395000000000,"state":"active","ping":75},{"user_id":143,"name":"lu","steam_id":76561198080731872,"connected_time":933000000000,"state":"active","ping":73},{"user_id":112,"name":"The All-Seeing Tim","steam_id":76561198075510786,"connected_time":2777000000000,"state":"active","ping":95},{"user_id":68,"name":"Conscious Entity","steam_id":76561198079985773,"connected_time":5240000000000,"state":"active","ping":51},{"user_id":128,"name":"TiredBonz","steam_id":76561199445629071,"connected_time":1534000000000,"state":"active","ping":45},{"user_id":100,"name":"PGLeafy","steam_id":76561198061516523,"connected_time":4031000000000,"state":"active","ping":72},{"user_id":103,"name":"Mentally Ill Woman","steam_id":76561198072030567,"connected_time":3698000000000,"state":"active","ping":74},{"user_id":147,"name":"Strange Diplomat","steam_id":76561198428191920,"connected_time":537000000000,"state":"active","ping":47},{"user_id":133,"name":"Gregory","steam_id":76561199070901945,"connected_time":1392000000000,"state":"active","ping":95},{"user_id":135,"name":"Smashing93","steam_id":76561199058453316,"connected_time":1281000000000,"state":"active","ping":57},{"user_id":130,"name":"Bulk","steam_id":76561199009814535,"connected_time":1431000000000,"state":"active","ping":48},{"user_id":114,"name":"sloth (i have gay)","steam_id":76561198047098172,"connected_time":2750000000000,"state":"active","ping":64},{"user_id":148,"name":"trapsis","steam_id":76561198069474149,"connected_time":386000000000,"state":"active","ping":44},{"user_id":149,"name":"·òõ‚ÅêÃ§·ïê·ê∑","steam_id":76561198092781027,"connected_time":159000000000,"state":"active","ping":58},{"user_id":140,"name":"Stonks","steam_id":76561199490085068,"connected_time":1093000000000,"state":"active","ping":58},{"user_id":136,"name":"BFro","steam_id":76561198102758681,"connected_time":1179000000000,"state":"active","ping":71},{"user_id":94,"name":"Tarot Warden","steam_id":76561198284383023,"connected_time":4481000000000,"state":"active","ping":80},{"user_id":146,"name":"raisedbybirds","steam_id":76561198131531646,"connected_time":709000000000,"state":"active","ping":42},{"user_id":139,"name":"SpaceSanctum","steam_id":76561198805242305,"connected_time":1099000000000,"state":"active","ping":45},{"user_id":138,"name":"you forgot the sauce","steam_id":76561198387016713,"connected_time":1120000000000,"state":"active","ping":56},{"user_id":129,"name":"Lord_Calcium","steam_id":76561198302455088,"connected_time":1511000000000,"state":"active","ping":71},{"user_id":49,"name":"Coup de Grass","steam_id":76561198011643226,"connected_time":6507000000000,"state":"active","ping":75},{"user_id":127,"name":"Jojo","steam_id":76561198332887086,"connected_time":1665000000000,"state":"active","ping":44}]},{"server_id":14,"name":"Uncletopia | New York City | 2 | All Maps","name_short":"nyc-2","host":"nyc-1.us.uncletopia.com","port":27025,"enabled":true,"region":"us-east","cc":"us","latitude":40.73061,"longitude":-73.93524,"reserved":0,"last_update":"0001-01-01T00:00:00Z","name_a2s":"Uncletopia | New York City | 2 | All Maps","protocol":17,"map":"pl_barnblitz","folder":"tf","game":"Team Fortress","app_id":440,"player_count":5,"max_players":24,"Bots":0,"server_type":"Dedicated","server_os":"Linux","password":true,"vac":true,"version":"7961495","steam_id":85568392924469994,"keywords":["nocrits","nodmgspread","payload","uncletopia"],"game_id":440,"stv_port":27026,"stv_name":"Uncletopia | New York City | 2 | All Maps | STV","players":[{"user_id":8,"name":"QuackTheShot","steam_id":76561198367481730,"connected_time":588000000000,"state":"active","ping":47},{"user_id":13,"name":"gregoryhens","steam_id":76561199434318315,"connected_time":155000000000,"state":"active","ping":172},{"user_id":10,"name":"AbbyRoads","steam_id":76561198868564212,"connected_time":373000000000,"state":"active","ping":70},{"user_id":14,"name":"Corv1d","steam_id":76561198809386579,"connected_time":129000000000,"state":"active","ping":72},{"user_id":15,"name":"msay","steam_id":76561198170888029,"connected_time":13000000000,"state":"active","ping":770}]},{"server_id":15,"name":"Uncletopia | New York City | 3 | Stopwatch","name_short":"nyc-3","host":"nyc-1.us.uncletopia.com","port":27035,"enabled":true,"region":"us-east","cc":"us","latitude":40.73061,"longitude":-73.93524,"reserved":0,"last_update":"0001-01-01T00:00:00Z","name_a2s":"Uncletopia | New York City | 3 | Stopwatch","protocol":17,"map":"pl_swiftwater_final1","folder":"tf","game":"Team Fortress","app_id":440,"player_count":1,"max_players":24,"Bots":0,"server_type":"Dedicated","server_os":"Linux","password":true,"vac":true,"version":"7961495","steam_id":85568392924742820,"keywords":["nocrits","nodmgspread","payload","uncletopia"],"game_id":440,"stv_port":27036,"stv_name":"Uncletopia | New York City | 3 | Stopwatch | STV","players":[{"user_id":17,"name":"Lavender (FEMBOY)","steam_id":76561198135961731,"connected_time":863000000000,"state":"active","ping":67}]},{"server_id":16,"name":"Uncletopia | New York City | 4 | Community","name_short":"nyc-4","host":"nyc-1.us.uncletopia.com","port":27045,"enabled":true,"region":"us-east","cc":"us","latitude":40.73061,"longitude":-73.93524,"reserved":0,"last_update":"0001-01-01T00:00:00Z","name_a2s":"Uncletopia | New York City | 4 | Community","protocol":17,"map":"cp_altitude","folder":"tf","game":"Team Fortress","app_id":440,"player_count":0,"max_players":24,"Bots":0,"server_type":"Dedicated","server_os":"Linux","password":true,"vac":true,"version":"7961495","steam_id":85568392924742821,"keywords":["cp","nocrits","nodmgspread","uncletopia"],"game_id":440,"stv_port":27046,"stv_name":"Uncletopia | New York City | 4 | Community | STV","players":null},{"server_id":142,"name":"Uncletopia | S√£o Paulo | 1 | All Maps","name_short":"sao-1","host":"sao-1.br.uncletopia.com","port":27015,"enabled":true,"region":"sa","cc":"br","latitude":-23.533773,"longitude":-46.62529,"reserved":0,"last_update":"0001-01-01T00:00:00Z","name_a2s":"Uncletopia | S√£o Paulo | 1 | All Maps","protocol":17,"map":"koth_cascade","folder":"tf","game":"Team Fortress","app_id":440,"player_count":0,"max_players":24,"Bots":0,"server_type":"Dedicated","server_os":"Linux","password":true,"vac":true,"version":"7961495","steam_id":85568392924469996,"keywords":["cp","nocrits","nodmgspread","uncletopia"],"game_id":440,"stv_port":27016,"stv_name":"Uncletopia | S√£o Paulo | 1 | All Maps | STV","players":null},{"server_id":143,"name":"Uncletopia | S√£o Paulo | 2 | Community","name_short":"sao-2","host":"sao-2.br.uncletopia.com","port":27015,"enabled":true,"region":"sa","cc":"br","latitude":-23.533773,"longitude":-46.62529,"reserved":0,"last_update":"0001-01-01T00:00:00Z","name_a2s":"Uncletopia | S√£o Paulo | 2 | Community","protocol":17,"map":"workshop/koth_product_final.ugc454272353","folder":"tf","game":"Team Fortress","app_id":440,"player_count":0,"max_players":24,"Bots":0,"server_type":"Dedicated","server_os":"Linux","password":true,"vac":true,"version":"7961495","steam_id":85568392924485349,"keywords":["cp","nocrits","nodmgspread","uncletopia"],"game_id":440,"stv_port":27016,"stv_name":"Uncletopia | S√£o Paulo | 2 | Community | STV","players":null},{"server_id":7,"name":"Uncletopia | Seattle | 1 | All Maps","name_short":"sea-1","host":"sea-1.us.uncletopia.com","port":27015,"enabled":true,"region":"us-west","cc":"us","latitude":47.608013,"longitude":-122.33517,"reserved":0,"last_update":"0001-01-01T00:00:00Z","name_a2s":"Uncletopia | Seattle | 1 | All Maps","protocol":17,"map":"pl_frontier_final","folder":"tf","game":"Team Fortress","app_id":440,"player_count":22,"max_players":24,"Bots":0,"server_type":"Dedicated","server_os":"Linux","password":true,"vac":true,"version":"7961495","steam_id":85568392924469997,"keywords":["nocrits","nodmgspread","payload","uncletopia"],"game_id":440,"stv_port":27016,"stv_name":"Uncletopia | Seattle | 1 | All Maps | STV","players":[{"user_id":242,"name":"Classy Crow","steam_id":76561198208586049,"connected_time":1446000000000,"state":"active","ping":50},{"user_id":248,"name":"Greskrendtregk","steam_id":76561197969553142,"connected_time":1255000000000,"state":"active","ping":46},{"user_id":229,"name":"longhairedhippie","steam_id":76561199097615100,"connected_time":2284000000000,"state":"active","ping":60},{"user_id":211,"name":"Whimsy!","steam_id":76561197989578836,"connected_time":3463000000000,"state":"active","ping":69},{"user_id":170,"name":"Nom Skirrett","steam_id":76561198014600788,"connected_time":5301000000000,"state":"active","ping":69},{"user_id":256,"name":"Jimmy Fallon","steam_id":76561198069131730,"connected_time":635000000000,"state":"active","ping":53},{"user_id":228,"name":"Mignyanne :3","steam_id":76561198048754056,"connected_time":2421000000000,"state":"active","ping":60},{"user_id":266,"name":"Twitch.tv/Jinx_VM","steam_id":76561198280150602,"connected_time":157000000000,"state":"active","ping":43},{"user_id":254,"name":"Seriously Bruh","steam_id":76561198070408485,"connected_time":1015000000000,"state":"active","ping":53},{"user_id":250,"name":"The CEO of cement","steam_id":76561199107177460,"connected_time":1208000000000,"state":"active","ping":91},{"user_id":235,"name":"gloobern","steam_id":76561198341190679,"connected_time":1761000000000,"state":"active","ping":37},{"user_id":251,"name":"Plimki","steam_id":76561199019877748,"connected_time":1186000000000,"state":"active","ping":118},{"user_id":252,"name":"callie","steam_id":76561198131833567,"connected_time":1167000000000,"state":"active","ping":66},{"user_id":263,"name":"Sly Marbo","steam_id":76561198135271741,"connected_time":198000000000,"state":"active","ping":58},{"user_id":255,"name":"miguelrodriguez2013","steam_id":76561198269253587,"connected_time":904000000000,"state":"active","ping":61},{"user_id":236,"name":"Not_Douglas","steam_id":76561199024184136,"connected_time":1732000000000,"state":"active","ping":96},{"user_id":241,"name":"Hero Smasher","steam_id":76561198150681669,"connected_time":1560000000000,"state":"active","ping":67},{"user_id":213,"name":"Dim","steam_id":76561198061411324,"connected_time":3437000000000,"state":"active","ping":122},{"user_id":259,"name":"Leroy","steam_id":76561199013064727,"connected_time":441000000000,"state":"active","ping":89},{"user_id":260,"name":"HappilyDisturbed","steam_id":76561198156158743,"connected_time":438000000000,"state":"active","ping":86},{"user_id":243,"name":"A_Toaster","steam_id":76561198946997549,"connected_time":1415000000000,"state":"active","ping":105},{"user_id":221,"name":"ÔΩêÔΩíÔΩèÔΩÜÔΩÖ ÔΩâÔΩìÔΩÅ","steam_id":76561198106966849,"connected_time":3234000000000,"state":"active","ping":223}]},{"server_id":119,"name":"Uncletopia | Seattle | 2 | All Maps","name_short":"sea-2","host":"sea-1.us.uncletopia.com","port":27025,"enabled":true,"region":"us-west","cc":"us","latitude":47.608013,"longitude":-122.33517,"reserved":0,"last_update":"0001-01-01T00:00:00Z","name_a2s":"Uncletopia | Seattle | 2 | All Maps","protocol":17,"map":"cp_altitude","folder":"tf","game":"Team Fortress","app_id":440,"player_count":0,"max_players":24,"Bots":0,"server_type":"Dedicated","server_os":"Linux","password":true,"vac":true,"version":"7961495","steam_id":85568392924469998,"keywords":["cp","nocrits","nodmgspread","uncletopia"],"game_id":440,"stv_port":27026,"stv_name":"Uncletopia | Seattle | 2 | All Maps | STV","players":null},{"server_id":406,"name":"Uncletopia | Seattle | 3 | Stopwatch","name_short":"sea-3","host":"sea-1.us.uncletopia.com","port":27035,"enabled":true,"region":"us-west","cc":"us","latitude":47.608013,"longitude":-122.33517,"reserved":0,"last_update":"0001-01-01T00:00:00Z","name_a2s":"Uncletopia | Seattle | 3 | Stopwatch","protocol":17,"map":"pl_pier","folder":"tf","game":"Team Fortress","app_id":440,"player_count":0,"max_players":24,"Bots":0,"server_type":"Dedicated","server_os":"Linux","password":true,"vac":true,"version":"7961495","steam_id":85568392924515217,"keywords":["nocrits","nodmgspread","payload","uncletopia"],"game_id":440,"stv_port":27036,"stv_name":"Uncletopia | Seattle | 3 | Stopwatch | STV","players":null},{"server_id":17,"name":"Uncletopia | San Francisco | 1 | All Maps","name_short":"sfo-1","host":"sfo-1.us.uncletopia.com","port":27015,"enabled":true,"region":"us-west","cc":"us","latitude":37.77397,"longitude":-122.4313,"reserved":0,"last_update":"0001-01-01T00:00:00Z","name_a2s":"Uncletopia | San Francisco | 1 | All Maps","protocol":17,"map":"koth_cascade","folder":"tf","game":"Team Fortress","app_id":440,"player_count":0,"max_players":24,"Bots":0,"server_type":"Dedicated","server_os":"Linux","password":true,"vac":true,"version":"7961495","steam_id":85568392924469999,"keywords":["cp","nocrits","nodmgspread","uncletopia"],"game_id":440,"stv_port":27016,"stv_name":"Uncletopia | San Francisco | 1 | All Maps | STV","players":null},{"server_id":18,"name":"Uncletopia | San Francisco | 2 | All Maps","name_short":"sfo-2","host":"sfo-1.us.uncletopia.com","port":27025,"enabled":true,"region":"us-west","cc":"us","latitude":37.77397,"longitude":-122.4313,"reserved":0,"last_update":"0001-01-01T00:00:00Z","name_a2s":"Uncletopia | San Francisco | 2 | All Maps","protocol":17,"map":"pl_frontier_final","folder":"tf","game":"Team Fortress","app_id":440,"player_count":0,"max_players":24,"Bots":0,"server_type":"Dedicated","server_os":"Linux","password":true,"vac":true,"version":"7961495","steam_id":85568392924470000,"keywords":["nocrits","nodmgspread","payload","uncletopia"],"game_id":440,"stv_port":27026,"stv_name":"Uncletopia | San Francisco | 2 | All Maps | STV","players":null},{"server_id":19,"name":"Uncletopia | San Francisco | 3 | Stopwatch","name_short":"sfo-3","host":"sfo-1.us.uncletopia.com","port":27035,"enabled":true,"region":"us-west","cc":"us","latitude":37.77397,"longitude":-122.4313,"reserved":0,"last_update":"0001-01-01T00:00:00Z","name_a2s":"Uncletopia | San Francisco | 3 | Stopwatch","protocol":17,"map":"pl_pier","folder":"tf","game":"Team Fortress","app_id":440,"player_count":0,"max_players":24,"Bots":0,"server_type":"Dedicated","server_os":"Linux","password":true,"vac":true,"version":"7961495","steam_id":85568392924742824,"keywords":["nocrits","nodmgspread","payload","uncletopia"],"game_id":440,"stv_port":27036,"stv_name":"Uncletopia | San Francisco | 3 | Stopwatch | STV","players":null},{"server_id":20,"name":"Uncletopia | San Francisco | 4 | Community","name_short":"sfo-4","host":"sfo-1.us.uncletopia.com","port":27045,"enabled":true,"region":"us-west","cc":"us","latitude":37.77397,"longitude":-122.4313,"reserved":0,"last_update":"0001-01-01T00:00:00Z","name_a2s":"Uncletopia | San Francisco | 4 | Community","protocol":17,"map":"workshop/pl_badwater_pro_v12.ugc2142942074","folder":"tf","game":"Team Fortress","app_id":440,"player_count":0,"max_players":24,"Bots":0,"server_type":"Dedicated","server_os":"Linux","password":true,"vac":true,"version":"7961495","steam_id":85568392924742826,"keywords":["nocrits","nodmgspread","payload","uncletopia"],"game_id":440,"stv_port":27046,"stv_name":"Uncletopia | San Francisco | 4 | Community | STV","players":null},{"server_id":141,"name":"Uncletopia | Sydney | 1 | All Maps","name_short":"syd-1","host":"syd-1.au.uncletopia.com","port":27015,"enabled":true,"region":"au","cc":"au","latitude":-33.865143,"longitude":151.2099,"reserved":0,"last_update":"0001-01-01T00:00:00Z","name_a2s":"Uncletopia | Sydney | 1 | All Maps","protocol":17,"map":"koth_viaduct","folder":"tf","game":"Team Fortress","app_id":440,"player_count":0,"max_players":24,"Bots":0,"server_type":"Dedicated","server_os":"Linux","password":true,"vac":true,"version":"7961495","steam_id":85568392924470001,"keywords":["cp","nocrits","nodmgspread","uncletopia"],"game_id":440,"stv_port":27016,"stv_name":"Uncletopia | Sydney | 1 | All Maps | STV","players":null},{"server_id":123,"name":"Uncletopia | Sydney | 2 | All Maps","name_short":"syd-2","host":"syd-1.au.uncletopia.com","port":27025,"enabled":true,"region":"au","cc":"au","latitude":-33.865143,"longitude":151.2099,"reserved":0,"last_update":"0001-01-01T00:00:00Z","name_a2s":"Uncletopia | Sydney | 2 | All Maps","protocol":17,"map":"koth_lakeside_final","folder":"tf","game":"Team Fortress","app_id":440,"player_count":0,"max_players":24,"Bots":0,"server_type":"Dedicated","server_os":"Linux","password":true,"vac":true,"version":"7961495","steam_id":85568392924470002,"keywords":["cp","nocrits","nodmgspread","uncletopia"],"game_id":440,"stv_port":27026,"stv_name":"Uncletopia | Sydney | 2 | All Maps | STV","players":null},{"server_id":395,"name":"Uncletopia | Sydney | 3 | All Maps","name_short":"syd-3","host":"syd-1.au.uncletopia.com","port":27035,"enabled":true,"region":"au","cc":"au","latitude":-33.865143,"longitude":151.2099,"reserved":0,"last_update":"0001-01-01T00:00:00Z","name_a2s":"Uncletopia | Sydney | 3 | All Maps","protocol":17,"map":"pl_frontier_final","folder":"tf","game":"Team Fortress","app_id":440,"player_count":0,"max_players":24,"Bots":0,"server_type":"Dedicated","server_os":"Linux","password":true,"vac":true,"version":"7961495","steam_id":85568392925194467,"keywords":["nocrits","nodmgspread","payload","uncletopia"],"game_id":440,"stv_port":27036,"stv_name":"Uncletopia | Sydney | 3 | All Maps | STV","players":null},{"server_id":396,"name":"Uncletopia | Sydney | 4 | All Maps","name_short":"syd-4","host":"syd-1.au.uncletopia.com","port":27045,"enabled":true,"region":"au","cc":"au","latitude":-33.865143,"longitude":151.2099,"reserved":0,"last_update":"0001-01-01T00:00:00Z","name_a2s":"Uncletopia | Sydney | 4 | All Maps","protocol":17,"map":"cp_process_final","folder":"tf","game":"Team Fortress","app_id":440,"player_count":0,"max_players":24,"Bots":0,"server_type":"Dedicated","server_os":"Linux","password":true,"vac":true,"version":"7961495","steam_id":85568392925397958,"keywords":["cp","nocrits","nodmgspread","uncletopia"],"game_id":440,"stv_port":27046,"stv_name":"Uncletopia | Sydney | 4 | All Maps | STV","players":null},{"server_id":58,"name":"Uncletopia | Sydney | 5 | Stopwatch","name_short":"syd-5","host":"syd-1.au.uncletopia.com","port":27055,"enabled":true,"region":"au","cc":"au","latitude":-33.865143,"longitude":151.2099,"reserved":0,"last_update":"0001-01-01T00:00:00Z","name_a2s":"Uncletopia | Sydney | 5 | Stopwatch","protocol":17,"map":"pl_frontier_final","folder":"tf","game":"Team Fortress","app_id":440,"player_count":0,"max_players":24,"Bots":0,"server_type":"Dedicated","server_os":"Linux","password":true,"vac":true,"version":"7961495","steam_id":85568392925397959,"keywords":["nocrits","nodmgspread","payload","uncletopia"],"game_id":440,"stv_port":27056,"stv_name":"Uncletopia | Sydney | 5 | Stopwatch | STV","players":null},{"server_id":59,"name":"Uncletopia | Sydney | 6 | Community","name_short":"syd-6","host":"syd-1.au.uncletopia.com","port":27065,"enabled":true,"region":"au","cc":"au","latitude":-33.865143,"longitude":151.2099,"reserved":0,"last_update":"0001-01-01T00:00:00Z","name_a2s":"Uncletopia | Sydney | 6 | Community","protocol":17,"map":"cp_sunshine","folder":"tf","game":"Team Fortress","app_id":440,"player_count":0,"max_players":24,"Bots":0,"server_type":"Dedicated","server_os":"Linux","password":true,"vac":true,"version":"7961495","steam_id":85568392925397960,"keywords":["cp","nocrits","nodmgspread","uncletopia"],"game_id":440,"stv_port":27066,"stv_name":"Uncletopia | Sydney | 6 | Community | STV","players":null},{"server_id":49,"name":"Uncletopia | Warsaw | 1 | One Thousand Uncles","name_short":"waw-1","host":"waw-1.pl.uncletopia.com","port":27015,"enabled":true,"region":"eu","cc":"pl","latitude":52.2297,"longitude":21.017532,"reserved":0,"last_update":"0001-01-01T00:00:00Z","name_a2s":"Uncletopia | Warsaw | 1 | One Thousand Uncles","protocol":17,"map":"pl_goldrush","folder":"tf","game":"Team Fortress","app_id":440,"player_count":23,"max_players":32,"Bots":16,"server_type":"Dedicated","server_os":"Linux","password":true,"vac":true,"version":"7961495","steam_id":85568392925397850,"keywords":["alltalk","bots","danepve","increased_maxplayers","nocrits","norespawntime","payload","uncletopia"],"game_id":440,"stv_port":0,"stv_name":"","players":[{"user_id":514,"name":"BIGMOOD","steam_id":76561199086966716,"connected_time":839000000000,"state":"active","ping":187},{"user_id":508,"name":"Who?","steam_id":76561198271901063,"connected_time":1492000000000,"state":"active","ping":83},{"user_id":454,"name":"[HK]Êàë‰øÇÈ¶ôÊ∏Ø‰∫∫","steam_id":76561198165376815,"connected_time":5798000000000,"state":"active","ping":75},{"user_id":510,"name":"Deer Friend","steam_id":76561198006609198,"connected_time":1465000000000,"state":"active","ping":68},{"user_id":512,"name":"DemonDove","steam_id":76561198365195098,"connected_time":1401000000000,"state":"active","ping":151},{"user_id":513,"name":"ArchaeoSquid","steam_id":76561198110234274,"connected_time":1381000000000,"state":"active","ping":76},{"user_id":491,"name":"[Mann Co]Puzzle Games","steam_id":76561198022078318,"connected_time":3652000000000,"state":"active","ping":74},{"user_id":502,"name":"Lorenzo","steam_id":76561198155016205,"connected_time":2262000000000,"state":"active","ping":67}]},{"server_id":50,"name":"Uncletopia | Warsaw | 2 | One Thousand Uncles","name_short":"waw-2","host":"waw-1.pl.uncletopia.com","port":27025,"enabled":true,"region":"eu","cc":"pl","latitude":52.2297,"longitude":21.017532,"reserved":0,"last_update":"0001-01-01T00:00:00Z","name_a2s":"Uncletopia | Warsaw | 2 | One Thousand Uncles","protocol":17,"map":"pl_hoodoo_final","folder":"tf","game":"Team Fortress","app_id":440,"player_count":27,"max_players":32,"Bots":16,"server_type":"Dedicated","server_os":"Linux","password":true,"vac":true,"version":"7961495","steam_id":85568392925397851,"keywords":["alltalk","bots","danepve","increased_maxplayers","nocrits","norespawntime","payload","uncletopia"],"game_id":440,"stv_port":0,"stv_name":"","players":[{"user_id":412,"name":"Gustavo Fring","steam_id":76561199210435347,"connected_time":3759000000000,"state":"active","ping":62},{"user_id":418,"name":"The Detective","steam_id":76561198362995682,"connected_time":2550000000000,"state":"active","ping":98},{"user_id":406,"name":"Ascended DIO","steam_id":76561199135246694,"connected_time":4479000000000,"state":"active","ping":47},{"user_id":425,"name":"Miksi","steam_id":76561199138567944,"connected_time":1772000000000,"state":"active","ping":71},{"user_id":431,"name":"Dennis Reynolds","steam_id":76561197960371259,"connected_time":255000000000,"state":"active","ping":166},{"user_id":403,"name":"deth_cd","steam_id":76561198311004531,"connected_time":4787000000000,"state":"active","ping":55},{"user_id":416,"name":"Sir.Grusenberg","steam_id":76561198159584509,"connected_time":2908000000000,"state":"active","ping":53},{"user_id":428,"name":"Egtu","steam_id":76561198013757235,"connected_time":1127000000000,"state":"active","ping":46},{"user_id":429,"name":"Loo32","steam_id":76561199094568704,"connected_time":1044000000000,"state":"active","ping":66},{"user_id":420,"name":"Flint","steam_id":76561197995920776,"connected_time":2297000000000,"state":"active","ping":61},{"user_id":424,"name":"PolishInsert","steam_id":76561198282646158,"connected_time":2001000000000,"state":"active","ping":55}]},{"server_id":51,"name":"Uncletopia | Warsaw | 3 | All Maps","name_short":"waw-3","host":"waw-1.pl.uncletopia.com","port":27035,"enabled":true,"region":"eu","cc":"pl","latitude":52.2297,"longitude":21.017532,"reserved":0,"last_update":"0001-01-01T00:00:00Z","name_a2s":"Uncletopia | Warsaw | 3 | All Maps","protocol":17,"map":"pl_badwater","folder":"tf","game":"Team Fortress","app_id":440,"player_count":11,"max_players":24,"Bots":0,"server_type":"Dedicated","server_os":"Linux","password":true,"vac":true,"version":"7961495","steam_id":85568392925397852,"keywords":["nocrits","nodmgspread","payload","uncletopia"],"game_id":440,"stv_port":27036,"stv_name":"Uncletopia | Warsaw | 3 | All Maps | STV","players":[{"user_id":19,"name":"Laryssa","steam_id":76561198271084076,"connected_time":1618000000000,"state":"active","ping":45},{"user_id":20,"name":"Ursyn","steam_id":76561198287800213,"connected_time":1577000000000,"state":"active","ping":53},{"user_id":21,"name":"Guthlaf","steam_id":76561198153564078,"connected_time":1572000000000,"state":"active","ping":53},{"user_id":36,"name":"Raspu banditcamp.com","steam_id":76561198807572160,"connected_time":173000000000,"state":"active","ping":98},{"user_id":23,"name":"Hrabia","steam_id":76561198164608139,"connected_time":1479000000000,"state":"active","ping":44},{"user_id":29,"name":"Keira","steam_id":76561198330870400,"connected_time":1097000000000,"state":"active","ping":54},{"user_id":26,"name":"epic_charles","steam_id":76561198048485283,"connected_time":1214000000000,"state":"active","ping":177},{"user_id":32,"name":"fearful asymmetry","steam_id":76561198215966496,"connected_time":940000000000,"state":"active","ping":64},{"user_id":33,"name":"panic attack","steam_id":76561199092286532,"connected_time":733000000000,"state":"active","ping":55},{"user_id":34,"name":"Czo≈Çgista","steam_id":76561198007468972,"connected_time":644000000000,"state":"active","ping":52},{"user_id":35,"name":"bartuuu≈õ","steam_id":76561198871824272,"connected_time":636000000000,"state":"active","ping":37}]},{"server_id":52,"name":"Uncletopia | Warsaw | 4 | All Maps","name_short":"waw-4","host":"waw-1.pl.uncletopia.com","port":27045,"enabled":true,"region":"eu","cc":"pl","latitude":52.2297,"longitude":21.017532,"reserved":0,"last_update":"0001-01-01T00:00:00Z","name_a2s":"Uncletopia | Warsaw | 4 | All Maps","protocol":17,"map":"koth_viaduct","folder":"tf","game":"Team Fortress","app_id":440,"player_count":0,"max_players":24,"Bots":0,"server_type":"Dedicated","server_os":"Linux","password":true,"vac":true,"version":"7961495","steam_id":85568392925397853,"keywords":["cp","nocrits","nodmgspread","uncletopia"],"game_id":440,"stv_port":27046,"stv_name":"Uncletopia | Warsaw | 4 | All Maps | STV","players":null},{"server_id":53,"name":"Uncletopia | Warsaw | 5 | Stopwatch","name_short":"waw-5","host":"waw-1.pl.uncletopia.com","port":27055,"enabled":true,"region":"eu","cc":"pl","latitude":52.2297,"longitude":21.017532,"reserved":0,"last_update":"0001-01-01T00:00:00Z","name_a2s":"Uncletopia | Warsaw | 5 | Stopwatch","protocol":17,"map":"workshop/koth_ashville_final.ugc2130459942","folder":"tf","game":"Team Fortress","app_id":440,"player_count":0,"max_players":24,"Bots":0,"server_type":"Dedicated","server_os":"Linux","password":true,"vac":true,"version":"7961495","steam_id":85568392925397854,"keywords":["cp","nocrits","nodmgspread","uncletopia"],"game_id":440,"stv_port":27056,"stv_name":"Uncletopia | Warsaw | 5 | Stopwatch | STV","players":null},{"server_id":54,"name":"Uncletopia | Warsaw | 6 | Community","name_short":"waw-6","host":"waw-1.pl.uncletopia.com","port":27065,"enabled":true,"region":"eu","cc":"pl","latitude":52.2297,"longitude":21.017532,"reserved":0,"last_update":"0001-01-01T00:00:00Z","name_a2s":"Uncletopia | Warsaw | 6 | Community","protocol":17,"map":"workshop/koth_ashville_final.ugc2130459942","folder":"tf","game":"Team Fortress","app_id":440,"player_count":0,"max_players":24,"Bots":0,"server_type":"Dedicated","server_os":"Linux","password":true,"vac":true,"version":"7961495","steam_id":85568392925397856,"keywords":["cp","nocrits","nodmgspread","uncletopia"],"game_id":440,"stv_port":27066,"stv_name":"Uncletopia | Warsaw | 6 | Community | STV","players":null}]}