{"status":true,"message":"","result":[{"server_id":9,"name":"Uncletopia | Atlanta | 1 | All Maps","name_short":"atl-1","host":"atl-1.us.uncletopia.com","port":27015,"enabled":true,"region":"us-east","cc":"us","latitude":33.753746,"longitude":-84.38633,"reserved":0,"last_update":"0001-01-01T00:00:00Z","name_a2s":"Uncletopia | Atlanta | 1 | All Maps","protocol":17,"map":"cp_process_final","folder":"tf","game":"Team Fortress","app_id":440,"player_count":24,"max_players":24,"Bots":0,"server_type":"Dedicated","server_os":"Linux","password":true,"vac":true,"version":"7757534","steam_id":85568392924469982,"keywords":["cp","nocrits","nodmgspread","uncletopia"],"game_id":440,"stv_port":27016,"stv_name":"Uncletopia | Atlanta | 1 | All Maps | STV","players":[{"user_id":223,"name":"vid_","steam_id":76561198065159053,"connected_time":16099000000000,"state":"active","ping":47},{"user_id":358,"name":"uhooter","steam_id":76561198007829078,"connected_time":4664000000000,"state":"active","ping":68},{"user_id":396,"name":"$200 Shirt","steam_id":76561197977329534,"connected_time":454000000000,"state":"active","ping":79},{"user_id":363,"name":"joe","steam_id":76561198045781320,"connected_time":4073000000000,"state":"active","ping":63},{"user_id":385,"name":"ATL1 | Lancer Fan Club","steam_id":76561198355495948,"connected_time":1454000000000,"state":"active","ping":76},{"user_id":383,"name":"cola","steam_id":76561198374390458,"connected_time":2049000000000,"state":"active","ping":59},{"user_id":386,"name":"Spoof","steam_id":76561198283928331,"connected_time":913000000000,"state":"active","ping":57},{"user_id":364,"name":"ATL1 | eish","steam_id":76561198089463603,"connected_time":3589000000000,"state":"active","ping":120},{"user_id":346,"name":"Cherry Coke","steam_id":76561198178233006,"connected_time":5656000000000,"state":"active","ping":84},{"user_id":397,"name":"Drilly22","steam_id":76561198068838338,"connected_time":441000000000,"state":"active","ping":83},{"user_id":398,"name":"Michael Scarn","steam_id":76561198035740143,"connected_time":405000000000,"state":"active","ping":69},{"user_id":389,"name":"Im High","steam_id":76561198049954886,"connected_time":633000000000,"state":"active","ping":73},{"user_id":390,"name":"Agentnickel","steam_id":76561199186723516,"connected_time":629000000000,"state":"active","ping":98},{"user_id":226,"name":"SomeScuffedKid","steam_id":76561198086113234,"connected_time":15140000000000,"state":"active","ping":84},{"user_id":333,"name":"totally not a pile of beans","steam_id":76561198119851931,"connected_time":6940000000000,"state":"active","ping":77},{"user_id":392,"name":"Fong","steam_id":76561198138002824,"connected_time":585000000000,"state":"active","ping":106},{"user_id":394,"name":"AgentEpsilon","steam_id":76561198043705715,"connected_time":500000000000,"state":"active","ping":63},{"user_id":357,"name":"scrambledeggs3","steam_id":76561198066112579,"connected_time":4690000000000,"state":"active","ping":76},{"user_id":395,"name":"Lepo","steam_id":76561198383509659,"connected_time":494000000000,"state":"active","ping":92},{"user_id":400,"name":"Kapreesi","steam_id":76561198163361200,"connected_time":168000000000,"state":"active","ping":83},{"user_id":399,"name":"Saber","steam_id":76561198012624420,"connected_time":360000000000,"state":"active","ping":123},{"user_id":381,"name":"Ozone-flavored Starburst","steam_id":76561199163688421,"connected_time":2409000000000,"state":"active","ping":101},{"user_id":187,"name":"Tay1Qr","steam_id":76561198082809935,"connected_time":19969000000000,"state":"active","ping":73},{"user_id":388,"name":"_1337 omat1k","steam_id":76561197990511314,"connected_time":706000000000,"state":"active","ping":91}]},{"server_id":400,"name":"Uncletopia | Atlanta | 3 | Stopwatch Beta","name_short":"atl-3","host":"atl-1.us.uncletopia.com","port":27035,"enabled":true,"region":"us-east","cc":"us","latitude":33.753746,"longitude":-84.38633,"reserved":0,"last_update":"0001-01-01T00:00:00Z","name_a2s":"Uncletopia | Atlanta | 3 | Stopwatch Beta","protocol":17,"map":"workshop/koth_ramjam_rc1.ugc459778887","folder":"tf","game":"Team Fortress","app_id":440,"player_count":0,"max_players":24,"Bots":0,"server_type":"Dedicated","server_os":"Linux","password":true,"vac":true,"version":"7757534","steam_id":85568392924515187,"keywords":["cp","nocrits","nodmgspread","uncletopia"],"game_id":440,"stv_port":27036,"stv_name":"Uncletopia | Atlanta | 3 | Stopwatch Beta | STV","players":null},{"server_id":401,"name":"Uncletopia | Atlanta | 4 | No Payload","name_short":"atl-4","host":"atl-1.us.uncletopia.com","port":27045,"enabled":true,"region":"us-east","cc":"us","latitude":33.753746,"longitude":-84.38633,"reserved":0,"last_update":"0001-01-01T00:00:00Z","name_a2s":"Uncletopia | Atlanta | 4 | No Payload","protocol":17,"map":"pl_pier","folder":"tf","game":"Team Fortress","app_id":440,"player_count":0,"max_players":24,"Bots":0,"server_type":"Dedicated","server_os":"Linux","password":true,"vac":true,"version":"7723704","steam_id":85568392924515188,"keywords":["nocrits","nodmgspread","payload","uncletopia"],"game_id":440,"stv_port":27046,"stv_name":"Uncletopia | Atlanta | 4 | No Payload | STV","players":null},{"server_id":2,"name":"Uncletopia | Chicago | 1 | All Maps","name_short":"chi-1","host":"chi-1.us.uncletopia.com","port":27015,"enabled":true,"region":"us-central","cc":"us","latitude":41.881832,"longitude":-87.62318,"reserved":0,"last_update":"0001-01-01T00:00:00Z","name_a2s":"Uncletopia | Chicago | 1 | All Maps","protocol":17,"map":"pl_borneo","folder":"tf","game":"Team Fortress","app_id":440,"player_count":24,"max_players":24,"Bots":0,"server_type":"Dedicated","server_os":"Linux","password":true,"vac":true,"version":"7757534","steam_id":85568392924469984,"keywords":["nocrits","nodmgspread","payload","uncletopia"],"game_id":440,"stv_port":27016,"stv_name":"Uncletopia | Chicago | 1 | All Maps | STV","players":[{"user_id":529,"name":"the deadliest pyroshark","steam_id":76561198374227766,"connected_time":2767000000000,"state":"active","ping":70},{"user_id":554,"name":"‚ù§ Ashley ‚ù§","steam_id":76561198056428303,"connected_time":1049000000000,"state":"active","ping":98},{"user_id":449,"name":"Horrizan","steam_id":76561197965028480,"connected_time":9282000000000,"state":"active","ping":101},{"user_id":555,"name":"supcupman","steam_id":76561198051513866,"connected_time":836000000000,"state":"active","ping":107},{"user_id":544,"name":"Tucker Carlzyn","steam_id":76561199176040928,"connected_time":1729000000000,"state":"active","ping":83},{"user_id":487,"name":"B45Guy","steam_id":76561198117290531,"connected_time":7061000000000,"state":"active","ping":66},{"user_id":556,"name":"Sarbanes-Oxley","steam_id":76561197975898479,"connected_time":485000000000,"state":"active","ping":75},{"user_id":471,"name":"capybara","steam_id":76561198798828328,"connected_time":7845000000000,"state":"active","ping":49},{"user_id":546,"name":"THE REAL JIMMY NEUTRON","steam_id":76561198039909187,"connected_time":1525000000000,"state":"active","ping":53},{"user_id":561,"name":"Crap","steam_id":76561198877229175,"connected_time":118000000000,"state":"active","ping":123},{"user_id":548,"name":"stakehater11","steam_id":76561198079501615,"connected_time":1424000000000,"state":"active","ping":69},{"user_id":547,"name":"Chef Fettuccine","steam_id":76561198267505810,"connected_time":1473000000000,"state":"active","ping":48},{"user_id":480,"name":"R0","steam_id":76561198136861017,"connected_time":7185000000000,"state":"active","ping":61},{"user_id":533,"name":"Uppercut Enjoyer","steam_id":76561198097432114,"connected_time":2664000000000,"state":"active","ping":71},{"user_id":549,"name":"CPUnit","steam_id":76561198162881878,"connected_time":1408000000000,"state":"active","ping":71},{"user_id":520,"name":"Candy Sparkles","steam_id":76561198126871264,"connected_time":4269000000000,"state":"active","ping":82},{"user_id":550,"name":"Lichy","steam_id":76561198310682841,"connected_time":1401000000000,"state":"active","ping":55},{"user_id":559,"name":"Baka!‚ë®‚ë®‚ë®‚ë®","steam_id":76561198152948254,"connected_time":369000000000,"state":"active","ping":67},{"user_id":560,"name":"daxter4hire","steam_id":76561198250722116,"connected_time":149000000000,"state":"active","ping":75},{"user_id":551,"name":"Merchants of Misery","steam_id":76561199188142396,"connected_time":1399000000000,"state":"active","ping":92},{"user_id":515,"name":"poggar","steam_id":76561198045815615,"connected_time":4642000000000,"state":"active","ping":75},{"user_id":557,"name":"Scut","steam_id":76561198973734291,"connected_time":466000000000,"state":"active","ping":95},{"user_id":512,"name":"‚ô• Femboy‚ô•Ventily ‚ô•","steam_id":76561198157260335,"connected_time":4749000000000,"state":"active","ping":56},{"user_id":558,"name":"unc out here trippin","steam_id":76561198055557988,"connected_time":452000000000,"state":"active","ping":64}]},{"server_id":106,"name":"Uncletopia | Chicago | 2 | All Maps","name_short":"chi-2","host":"chi-1.us.uncletopia.com","port":27025,"enabled":true,"region":"us-central","cc":"us","latitude":41.881832,"longitude":-87.62318,"reserved":0,"last_update":"0001-01-01T00:00:00Z","name_a2s":"Uncletopia | Chicago | 2 | All Maps","protocol":17,"map":"pl_swiftwater_final1","folder":"tf","game":"Team Fortress","app_id":440,"player_count":24,"max_players":24,"Bots":0,"server_type":"Dedicated","server_os":"Linux","password":true,"vac":true,"version":"7757534","steam_id":85568392924469985,"keywords":["nocrits","nodmgspread","payload","uncletopia"],"game_id":440,"stv_port":27026,"stv_name":"Uncletopia | Chicago | 2 | All Maps | STV","players":[{"user_id":589,"name":"‡∂ûsus","steam_id":76561198027779564,"connected_time":7529000000000,"state":"active","ping":56},{"user_id":665,"name":"clam","steam_id":76561198010605517,"connected_time":789000000000,"state":"active","ping":76},{"user_id":602,"name":"trappy","steam_id":76561198402801140,"connected_time":6024000000000,"state":"active","ping":60},{"user_id":644,"name":"Bearegard","steam_id":76561198061926542,"connected_time":2207000000000,"state":"active","ping":66},{"user_id":658,"name":"santas.secret.sauce","steam_id":76561198042464635,"connected_time":1321000000000,"state":"active","ping":78},{"user_id":656,"name":"det","steam_id":76561198170859755,"connected_time":1989000000000,"state":"active","ping":47},{"user_id":647,"name":"Dr. Doofenshmirtz","steam_id":76561199092417727,"connected_time":2173000000000,"state":"active","ping":171},{"user_id":581,"name":"daemon","steam_id":76561198001541433,"connected_time":7847000000000,"state":"active","ping":55},{"user_id":561,"name":"eloressa","steam_id":76561198120330867,"connected_time":9355000000000,"state":"active","ping":51},{"user_id":649,"name":"Skeleton Hotel","steam_id":76561198041704727,"connected_time":2146000000000,"state":"active","ping":57},{"user_id":651,"name":"Patisserie","steam_id":76561198239169752,"connected_time":2097000000000,"state":"active","ping":56},{"user_id":668,"name":"McGangBang","steam_id":76561198862379865,"connected_time":99000000000,"state":"active","ping":58},{"user_id":666,"name":"whirlwind","steam_id":76561198168685103,"connected_time":465000000000,"state":"active","ping":75},{"user_id":520,"name":"ChaoticAngel","steam_id":76561198293528217,"connected_time":12990000000000,"state":"active","ping":63},{"user_id":661,"name":"Furry Saul Goodman","steam_id":76561198069580305,"connected_time":1270000000000,"state":"active","ping":53},{"user_id":662,"name":"Enderneer","steam_id":76561198012136653,"connected_time":1268000000000,"state":"active","ping":60},{"user_id":606,"name":"Mr.Hands","steam_id":76561199024146278,"connected_time":5903000000000,"state":"active","ping":116},{"user_id":653,"name":"Reversed","steam_id":76561198136433466,"connected_time":2074000000000,"state":"active","ping":63},{"user_id":664,"name":"jorjor wells","steam_id":76561199073429082,"connected_time":1211000000000,"state":"active","ping":70},{"user_id":663,"name":"mediyogurt","steam_id":76561198141148538,"connected_time":1263000000000,"state":"active","ping":167},{"user_id":629,"name":"Vladikr1","steam_id":76561198401495362,"connected_time":4284000000000,"state":"active","ping":64},{"user_id":655,"name":"Magneto","steam_id":76561199151206130,"connected_time":2025000000000,"state":"active","ping":58},{"user_id":530,"name":"Migute","steam_id":76561198332012726,"connected_time":12319000000000,"state":"active","ping":82},{"user_id":641,"name":"Chrisscar","steam_id":76561198086298130,"connected_time":2766000000000,"state":"active","ping":104}]},{"server_id":402,"name":"Uncletopia | Chicago | 3 | All Maps","name_short":"chi-3","host":"chi-1.us.uncletopia.com","port":27035,"enabled":true,"region":"us-central","cc":"us","latitude":41.881832,"longitude":-87.62318,"reserved":0,"last_update":"0001-01-01T00:00:00Z","name_a2s":"Uncletopia | Chicago | 3 | All Maps","protocol":17,"map":"pl_upward","folder":"tf","game":"Team Fortress","app_id":440,"player_count":24,"max_players":24,"Bots":0,"server_type":"Dedicated","server_os":"Linux","password":true,"vac":true,"version":"7757534","steam_id":85568392924515191,"keywords":["nocrits","nodmgspread","payload","uncletopia"],"game_id":440,"stv_port":27036,"stv_name":"Uncletopia | Chicago | 3 | All Maps | STV","players":[{"user_id":489,"name":"Truffles","steam_id":76561198095868800,"connected_time":182000000000,"state":"active","ping":79},{"user_id":476,"name":"debin","steam_id":76561198070711217,"connected_time":1004000000000,"state":"active","ping":51},{"user_id":468,"name":"Superplay64","steam_id":76561198172471162,"connected_time":1379000000000,"state":"active","ping":85},{"user_id":492,"name":"The Goose","steam_id":76561199006093549,"connected_time":122000000000,"state":"active","ping":75},{"user_id":401,"name":"M249 | Spectre","steam_id":76561198118334485,"connected_time":6357000000000,"state":"active","ping":76},{"user_id":456,"name":"Scrack","steam_id":76561198010484665,"connected_time":1759000000000,"state":"active","ping":58},{"user_id":487,"name":"Grand","steam_id":76561198290143399,"connected_time":211000000000,"state":"active","ping":63},{"user_id":493,"name":"Slug Warrior","steam_id":76561197996052704,"connected_time":109000000000,"state":"active","ping":78},{"user_id":488,"name":"SKIN IS WHERE THE FLAVOR IS","steam_id":76561198115842661,"connected_time":209000000000,"state":"active","ping":67},{"user_id":486,"name":"BIG LION","steam_id":76561198091880358,"connected_time":407000000000,"state":"active","ping":45},{"user_id":496,"name":"üéÑAndreaJinglingüéÑ","steam_id":76561198198658783,"connected_time":74000000000,"state":"active","ping":111},{"user_id":436,"name":"lil bro","steam_id":76561198031675881,"connected_time":3094000000000,"state":"active","ping":53},{"user_id":474,"name":"Nebulon-B_Frigate_FTW","steam_id":76561198040955960,"connected_time":1026000000000,"state":"active","ping":142},{"user_id":454,"name":"Big Al","steam_id":76561199468060032,"connected_time":1819000000000,"state":"active","ping":67},{"user_id":478,"name":"Banana King","steam_id":76561198077784214,"connected_time":966000000000,"state":"active","ping":94},{"user_id":494,"name":"flora","steam_id":76561197994492154,"connected_time":106000000000,"state":"active","ping":165},{"user_id":458,"name":"armed slobbery. enguzzlement.","steam_id":76561198237292756,"connected_time":1737000000000,"state":"active","ping":72},{"user_id":495,"name":"Andy","steam_id":76561198043115724,"connected_time":83000000000,"state":"active","ping":95},{"user_id":467,"name":"josh","steam_id":76561198111565081,"connected_time":1404000000000,"state":"active","ping":108},{"user_id":481,"name":"gyozaking","steam_id":76561197972312696,"connected_time":899000000000,"state":"active","ping":35},{"user_id":483,"name":"BloodAngelMutant","steam_id":76561199006378093,"connected_time":662000000000,"state":"active","ping":89},{"user_id":490,"name":"Ye ( I Love Caulk ) West","steam_id":76561198068830312,"connected_time":182000000000,"state":"active","ping":45},{"user_id":497,"name":"later aligater","steam_id":76561198021609442,"connected_time":7000000000,"state":"active","ping":135},{"user_id":491,"name":"A Normal Zed","steam_id":76561198376026672,"connected_time":151000000000,"state":"active","ping":72}]},{"server_id":403,"name":"Uncletopia | Chicago | 4 | All Maps","name_short":"chi-4","host":"chi-1.us.uncletopia.com","port":27045,"enabled":true,"region":"us-central","cc":"us","latitude":41.881832,"longitude":-87.62318,"reserved":0,"last_update":"0001-01-01T00:00:00Z","name_a2s":"Uncletopia | Chicago | 4 | All Maps","protocol":17,"map":"cp_process_final","folder":"tf","game":"Team Fortress","app_id":440,"player_count":24,"max_players":24,"Bots":0,"server_type":"Dedicated","server_os":"Linux","password":true,"vac":true,"version":"7757534","steam_id":85568392924515193,"keywords":["cp","nocrits","nodmgspread","uncletopia"],"game_id":440,"stv_port":27046,"stv_name":"Uncletopia | Chicago | 4 | All Maps | STV","players":[{"user_id":223,"name":"Nodin","steam_id":76561198135757376,"connected_time":2260000000000,"state":"active","ping":51},{"user_id":269,"name":"LW | [wrd]HaloLagann","steam_id":76561198047561568,"connected_time":50000000000,"state":"active","ping":74},{"user_id":261,"name":"mingus dingus the powerful fetu","steam_id":76561198115189870,"connected_time":450000000000,"state":"active","ping":91},{"user_id":226,"name":"Tyr","steam_id":76561198015381712,"connected_time":2236000000000,"state":"active","ping":70},{"user_id":225,"name":"Dscalino02","steam_id":76561199115571161,"connected_time":2249000000000,"state":"active","ping":56},{"user_id":227,"name":"Dewm","steam_id":76561198042099452,"connected_time":2229000000000,"state":"active","ping":70},{"user_id":255,"name":"Appa","steam_id":76561198110449520,"connected_time":916000000000,"state":"active","ping":76},{"user_id":229,"name":"My OC, Jean Snow","steam_id":76561198028362871,"connected_time":2104000000000,"state":"active","ping":37},{"user_id":232,"name":"unfunnytool","steam_id":76561198060560359,"connected_time":2062000000000,"state":"active","ping":56},{"user_id":231,"name":"Crack Fiend","steam_id":76561198149124786,"connected_time":2092000000000,"state":"active","ping":66},{"user_id":241,"name":"CrimsonPants","steam_id":76561198011169950,"connected_time":1284000000000,"state":"active","ping":99},{"user_id":238,"name":"amablehughes","steam_id":76561199007131236,"connected_time":1665000000000,"state":"active","ping":71},{"user_id":239,"name":"Blackh3lm","steam_id":76561198261376985,"connected_time":1474000000000,"state":"active","ping":114},{"user_id":266,"name":"rajas","steam_id":76561198049099910,"connected_time":260000000000,"state":"active","ping":46},{"user_id":243,"name":"rubberducky","steam_id":76561198004470948,"connected_time":1191000000000,"state":"active","ping":92},{"user_id":267,"name":"Smart_Fridge","steam_id":76561198854290654,"connected_time":192000000000,"state":"active","ping":67},{"user_id":257,"name":"Stanley","steam_id":76561198812086921,"connected_time":900000000000,"state":"active","ping":60},{"user_id":246,"name":"Bee","steam_id":76561198074681324,"connected_time":1140000000000,"state":"active","ping":67},{"user_id":247,"name":"TheBigEtrain","steam_id":76561198151893593,"connected_time":1132000000000,"state":"active","ping":89},{"user_id":260,"name":"Bringer of Gibbs","steam_id":76561198035700041,"connected_time":638000000000,"state":"active","ping":106},{"user_id":249,"name":"Octanoip","steam_id":76561199057752358,"connected_time":1110000000000,"state":"active","ping":62},{"user_id":250,"name":"Melthanazad","steam_id":76561198194670463,"connected_time":1101000000000,"state":"active","ping":93},{"user_id":268,"name":"WitheringLeo","steam_id":76561198046722918,"connected_time":83000000000,"state":"active","ping":87},{"user_id":253,"name":"HotCoco","steam_id":76561198212382635,"connected_time":1049000000000,"state":"active","ping":76}]},{"server_id":36,"name":"Uncletopia | Chicago | 5 | All Maps","name_short":"chi-5","host":"chi-2.us.uncletopia.com","port":27015,"enabled":true,"region":"us-central","cc":"us","latitude":41.881832,"longitude":-87.62318,"reserved":0,"last_update":"0001-01-01T00:00:00Z","name_a2s":"Uncletopia | Chicago | 5 | All Maps","protocol":17,"map":"pl_borneo","folder":"tf","game":"Team Fortress","app_id":440,"player_count":19,"max_players":24,"Bots":0,"server_type":"Dedicated","server_os":"Linux","password":true,"vac":true,"version":"7757534","steam_id":85568392924866362,"keywords":["nocrits","nodmgspread","payload","uncletopia"],"game_id":440,"stv_port":27016,"stv_name":"Uncletopia | Chicago | 5 | All Maps | STV","players":[{"user_id":671,"name":"nabroleon","steam_id":76561198038080028,"connected_time":110000000000,"state":"active","ping":77},{"user_id":664,"name":"Kretim","steam_id":76561199204273483,"connected_time":417000000000,"state":"active","ping":71},{"user_id":631,"name":"Lane","steam_id":76561197965828506,"connected_time":2322000000000,"state":"active","ping":41},{"user_id":670,"name":"ricky_racquetball_2009","steam_id":76561198098631397,"connected_time":138000000000,"state":"active","ping":59},{"user_id":672,"name":"DA GIBUS SPY","steam_id":76561198080771881,"connected_time":89000000000,"state":"active","ping":70},{"user_id":642,"name":"Trasho","steam_id":76561198093415799,"connected_time":1716000000000,"state":"active","ping":45},{"user_id":660,"name":"Chicken but","steam_id":76561198257872736,"connected_time":559000000000,"state":"active","ping":61},{"user_id":661,"name":"Shamaury","steam_id":76561198073773862,"connected_time":549000000000,"state":"active","ping":76},{"user_id":656,"name":"bulk//Dinkolaw","steam_id":76561198154072948,"connected_time":713000000000,"state":"active","ping":62},{"user_id":667,"name":"Holistic Ballistics","steam_id":76561198079509455,"connected_time":307000000000,"state":"active","ping":55},{"user_id":673,"name":"KidOnTheCorner","steam_id":76561198095119109,"connected_time":78000000000,"state":"active","ping":59},{"user_id":674,"name":"-W3E- grim10465","steam_id":76561198045698581,"connected_time":76000000000,"state":"active","ping":54},{"user_id":675,"name":"Xolrit","steam_id":76561198428340830,"connected_time":66000000000,"state":"active","ping":89},{"user_id":643,"name":"Kanye is my Biggest Fan","steam_id":76561198162363747,"connected_time":1682000000000,"state":"active","ping":65},{"user_id":676,"name":"Mr_Mayhem22","steam_id":76561198224068024,"connected_time":65000000000,"state":"active","ping":98},{"user_id":651,"name":"Vulpes","steam_id":76561198038929334,"connected_time":792000000000,"state":"active","ping":57},{"user_id":628,"name":"Fantastic","steam_id":76561198079088978,"connected_time":2495000000000,"state":"active","ping":45},{"user_id":677,"name":"SpectralSpy","steam_id":76561199005523730,"connected_time":64000000000,"state":"active","ping":95},{"user_id":617,"name":"Yeshie the Dragon Layer","steam_id":76561198080214214,"connected_time":3305000000000,"state":"active","ping":42}]},{"server_id":37,"name":"Uncletopia | Chicago | 6 | All Maps","name_short":"chi-6","host":"chi-2.us.uncletopia.com","port":27025,"enabled":true,"region":"us-central","cc":"us","latitude":41.881832,"longitude":-87.62318,"reserved":0,"last_update":"0001-01-01T00:00:00Z","name_a2s":"Uncletopia | Chicago | 6 | All Maps","protocol":17,"map":"koth_highpass","folder":"tf","game":"Team Fortress","app_id":440,"player_count":12,"max_players":24,"Bots":0,"server_type":"Dedicated","server_os":"Linux","password":true,"vac":true,"version":"7757534","steam_id":85568392924866363,"keywords":["cp","nocrits","nodmgspread","uncletopia"],"game_id":440,"stv_port":27026,"stv_name":"Uncletopia | Chicago | 6 | All Maps | STV","players":[{"user_id":566,"name":"SuperFresh","steam_id":76561198200723198,"connected_time":5337000000000,"state":"active","ping":42},{"user_id":639,"name":"xd Clover","steam_id":76561198038905361,"connected_time":140000000000,"state":"active","ping":49},{"user_id":583,"name":"ZeFizzyPop‚Ñ¢","steam_id":76561198258104981,"connected_time":4107000000000,"state":"active","ping":36},{"user_id":638,"name":"Blixstorm","steam_id":76561198352750870,"connected_time":269000000000,"state":"active","ping":99},{"user_id":548,"name":"Rasputia","steam_id":76561198132051047,"connected_time":6073000000000,"state":"active","ping":98},{"user_id":580,"name":"Mikey","steam_id":76561199027332418,"connected_time":4538000000000,"state":"active","ping":89},{"user_id":637,"name":"IggyYT","steam_id":76561198317980567,"connected_time":322000000000,"state":"active","ping":69},{"user_id":608,"name":"Joe Muther","steam_id":76561198110006757,"connected_time":2505000000000,"state":"active","ping":68},{"user_id":633,"name":"Adrian the penguin","steam_id":76561199124202151,"connected_time":589000000000,"state":"active","ping":65},{"user_id":584,"name":"Falcon","steam_id":76561198084582082,"connected_time":3767000000000,"state":"active","ping":106},{"user_id":631,"name":"kametro4","steam_id":76561198835430429,"connected_time":1452000000000,"state":"active","ping":75},{"user_id":632,"name":"DiscoTraveler","steam_id":76561199240168088,"connected_time":1325000000000,"state":"active","ping":55}]},{"server_id":38,"name":"Uncletopia | Chicago | 7 | Stopwatch Beta","name_short":"chi-7","host":"chi-2.us.uncletopia.com","port":27035,"enabled":true,"region":"us-central","cc":"us","latitude":41.881832,"longitude":-87.62318,"reserved":0,"last_update":"0001-01-01T00:00:00Z","name_a2s":"Uncletopia | Chicago | 7 | Stopwatch Beta","protocol":17,"map":"workshop/pl_summercoast_rc8e.ugc1761528829","folder":"tf","game":"Team Fortress","app_id":440,"player_count":0,"max_players":24,"Bots":0,"server_type":"Dedicated","server_os":"Linux","password":true,"vac":true,"version":"7757534","steam_id":85568392924866364,"keywords":["nocrits","nodmgspread","payload","uncletopia"],"game_id":440,"stv_port":27036,"stv_name":"Uncletopia | Chicago | 7 | Stopwatch Beta | STV","players":null},{"server_id":39,"name":"Uncletopia | Chicago | 8 | Community","name_short":"chi-8","host":"chi-2.us.uncletopia.com","port":27045,"enabled":true,"region":"us-central","cc":"us","latitude":41.881832,"longitude":-87.62318,"reserved":0,"last_update":"0001-01-01T00:00:00Z","name_a2s":"Uncletopia | Chicago | 8 | Community","protocol":17,"map":"workshop/koth_slaughter_rc1.ugc1712845210","folder":"tf","game":"Team Fortress","app_id":440,"player_count":0,"max_players":24,"Bots":0,"server_type":"Dedicated","server_os":"Linux","password":true,"vac":true,"version":"7757534","steam_id":85568392924866365,"keywords":["cp","nocrits","nodmgspread","uncletopia"],"game_id":440,"stv_port":27046,"stv_name":"Uncletopia | Chicago | 8 | Community | STV","players":null},{"server_id":8,"name":"Uncletopia | Dallas | 1 | All Maps","name_short":"dal-1","host":"dal-1.us.uncletopia.com","port":27015,"enabled":true,"region":"us-central","cc":"us","latitude":32.779167,"longitude":-96.80889,"reserved":0,"last_update":"0001-01-01T00:00:00Z","name_a2s":"Uncletopia | Dallas | 1 | All Maps","protocol":17,"map":"pl_barnblitz","folder":"tf","game":"Team Fortress","app_id":440,"player_count":18,"max_players":24,"Bots":0,"server_type":"Dedicated","server_os":"Linux","password":true,"vac":true,"version":"7757534","steam_id":85568392924469986,"keywords":["nocrits","nodmgspread","payload","uncletopia"],"game_id":440,"stv_port":27016,"stv_name":"Uncletopia | Dallas | 1 | All Maps | STV","players":[{"user_id":701,"name":"Big Wet Stinky Fart Gaming","steam_id":76561199201543203,"connected_time":4000000000,"state":"connecting","ping":130},{"user_id":700,"name":"wltr(Vol. 13)","steam_id":76561199013902595,"connected_time":14000000000,"state":"connecting","ping":61},{"user_id":691,"name":"Krow","steam_id":76561198010392099,"connected_time":1149000000000,"state":"connecting","ping":70},{"user_id":697,"name":"POWER","steam_id":76561199103174090,"connected_time":29000000000,"state":"connecting","ping":107},{"user_id":613,"name":"sebjzy","steam_id":76561198009959034,"connected_time":8209000000000,"state":"connecting","ping":81},{"user_id":698,"name":"Nnyllazxz","steam_id":76561198247797436,"connected_time":28000000000,"state":"connecting","ping":84},{"user_id":681,"name":"GLG MUTT","steam_id":76561198147785541,"connected_time":2298000000000,"state":"connecting","ping":67},{"user_id":621,"name":"barker bill","steam_id":76561198018451994,"connected_time":7439000000000,"state":"connecting","ping":81},{"user_id":699,"name":"Menlymen","steam_id":76561198046508051,"connected_time":27000000000,"state":"connecting","ping":123},{"user_id":608,"name":"Ironaka","steam_id":76561198029993183,"connected_time":8837000000000,"state":"connecting","ping":99},{"user_id":682,"name":"GLG.Liz","steam_id":76561198021957956,"connected_time":2233000000000,"state":"connecting","ping":55},{"user_id":507,"name":"Bullwinkle J. Moose","steam_id":76561198075977196,"connected_time":14942000000000,"state":"connecting","ping":78},{"user_id":672,"name":"plink","steam_id":76561198057829889,"connected_time":3491000000000,"state":"connecting","ping":125},{"user_id":694,"name":"Nani?","steam_id":76561198130982692,"connected_time":934000000000,"state":"connecting","ping":77},{"user_id":696,"name":"choi","steam_id":76561198053669887,"connected_time":848000000000,"state":"connecting","ping":99},{"user_id":665,"name":"SpinnerSpecial","steam_id":76561198065661869,"connected_time":3755000000000,"state":"connecting","ping":110}]},{"server_id":108,"name":"Uncletopia | Dallas | 2 | All Maps","name_short":"dal-2","host":"dal-1.us.uncletopia.com","port":27025,"enabled":true,"region":"us-central","cc":"us","latitude":32.779167,"longitude":-96.80889,"reserved":0,"last_update":"0001-01-01T00:00:00Z","name_a2s":"Uncletopia | Dallas | 2 | All Maps","protocol":17,"map":"koth_cascade","folder":"tf","game":"Team Fortress","app_id":440,"player_count":1,"max_players":24,"Bots":0,"server_type":"Dedicated","server_os":"Linux","password":true,"vac":true,"version":"7757534","steam_id":85568392924469988,"keywords":["cp","nocrits","nodmgspread","uncletopia"],"game_id":440,"stv_port":27026,"stv_name":"Uncletopia | Dallas | 2 | All Maps | STV","players":[{"user_id":601,"name":"taylor swift","steam_id":76561198151135298,"connected_time":82000000000,"state":"active","ping":62}]},{"server_id":5,"name":"Uncletopia | Frankfurt | 1 | All Maps","name_short":"frk-1","host":"frk-1.de.uncletopia.com","port":27015,"enabled":true,"region":"eu","cc":"de","latitude":50.110924,"longitude":8.682127,"reserved":0,"last_update":"0001-01-01T00:00:00Z","name_a2s":"Uncletopia | Frankfurt | 1 | All Maps","protocol":17,"map":"cp_snakewater_final1","folder":"tf","game":"Team Fortress","app_id":440,"player_count":0,"max_players":24,"Bots":0,"server_type":"Dedicated","server_os":"Linux","password":true,"vac":true,"version":"7757534","steam_id":85568392924469989,"keywords":["cp","nocrits","nodmgspread","uncletopia"],"game_id":440,"stv_port":27016,"stv_name":"Uncletopia | Frankfurt | 1 | All Maps | STV","players":null},{"server_id":110,"name":"Uncletopia | Frankfurt | 2 | All Maps","name_short":"frk-2","host":"frk-1.de.uncletopia.com","port":27025,"enabled":true,"region":"eu","cc":"de","latitude":50.110924,"longitude":8.682127,"reserved":0,"last_update":"0001-01-01T00:00:00Z","name_a2s":"Uncletopia | Frankfurt | 2 | All Maps","protocol":17,"map":"cp_altitude","folder":"tf","game":"Team Fortress","app_id":440,"player_count":0,"max_players":24,"Bots":0,"server_type":"Dedicated","server_os":"Linux","password":true,"vac":true,"version":"7757534","steam_id":85568392924469990,"keywords":["cp","nocrits","nodmgspread","uncletopia"],"game_id":440,"stv_port":27026,"stv_name":"Uncletopia | Frankfurt | 2 | All Maps | STV","players":null},{"server_id":308,"name":"Uncletopia | Frankfurt | 3 | All Maps","name_short":"frk-3","host":"frk-1.de.uncletopia.com","port":27035,"enabled":true,"region":"eu","cc":"de","latitude":50.110924,"longitude":8.682127,"reserved":0,"last_update":"0001-01-01T00:00:00Z","name_a2s":"Uncletopia | Frankfurt | 3 | All Maps","protocol":17,"map":"pl_upward","folder":"tf","game":"Team Fortress","app_id":440,"player_count":0,"max_players":24,"Bots":0,"server_type":"Dedicated","server_os":"Linux","password":true,"vac":true,"version":"7757534","steam_id":85568392924504274,"keywords":["nocrits","nodmgspread","payload","uncletopia"],"game_id":440,"stv_port":27036,"stv_name":"Uncletopia | Frankfurt | 3 | All Maps | STV","players":null},{"server_id":309,"name":"Uncletopia | Frankfurt | 4 | All Maps","name_short":"frk-4","host":"frk-1.de.uncletopia.com","port":27045,"enabled":true,"region":"eu","cc":"de","latitude":50.110924,"longitude":8.682127,"reserved":0,"last_update":"0001-01-01T00:00:00Z","name_a2s":"Uncletopia | Frankfurt | 4 | All Maps","protocol":17,"map":"cp_mountainlab","folder":"tf","game":"Team Fortress","app_id":440,"player_count":0,"max_players":24,"Bots":0,"server_type":"Dedicated","server_os":"Linux","password":true,"vac":true,"version":"7757534","steam_id":85568392924504275,"keywords":["cp","nocrits","nodmgspread","uncletopia"],"game_id":440,"stv_port":27046,"stv_name":"Uncletopia | Frankfurt | 4 | All Maps | STV","players":null},{"server_id":310,"name":"Uncletopia | Frankfurt | 5 | All Maps","name_short":"frk-5","host":"frk-1.de.uncletopia.com","port":27055,"enabled":true,"region":"eu","cc":"de","latitude":50.110924,"longitude":8.682127,"reserved":0,"last_update":"0001-01-01T00:00:00Z","name_a2s":"Uncletopia | Frankfurt | 5 | All Maps","protocol":17,"map":"koth_cascade","folder":"tf","game":"Team Fortress","app_id":440,"player_count":0,"max_players":24,"Bots":0,"server_type":"Dedicated","server_os":"Linux","password":true,"vac":true,"version":"7757534","steam_id":85568392924504277,"keywords":["cp","nocrits","nodmgspread","uncletopia"],"game_id":440,"stv_port":27056,"stv_name":"Uncletopia | Frankfurt | 5 | All Maps | STV","players":null},{"server_id":311,"name":"Uncletopia | Frankfurt | 6 | All Maps","name_short":"frk-6","host":"frk-1.de.uncletopia.com","port":27065,"enabled":true,"region":"eu","cc":"de","latitude":50.110924,"longitude":8.682127,"reserved":0,"last_update":"0001-01-01T00:00:00Z","name_a2s":"Uncletopia | Frankfurt | 6 | All Maps","protocol":17,"map":"cp_process_final","folder":"tf","game":"Team Fortress","app_id":440,"player_count":0,"max_players":24,"Bots":0,"server_type":"Dedicated","server_os":"Linux","password":true,"vac":true,"version":"7757534","steam_id":85568392924504278,"keywords":["cp","nocrits","nodmgspread","uncletopia"],"game_id":440,"stv_port":27066,"stv_name":"Uncletopia | Frankfurt | 6 | All Maps | STV","players":null},{"server_id":23,"name":"Uncletopia | Frankfurt | 7 | Stopwatch Beta","name_short":"frk-7","host":"frk-1.de.uncletopia.com","port":27075,"enabled":true,"region":"eu","cc":"de","latitude":50.110924,"longitude":8.682127,"reserved":0,"last_update":"0001-01-01T00:00:00Z","name_a2s":"Uncletopia | Frankfurt | 7 | Stopwatch Beta","protocol":17,"map":"koth_lakeside_final","folder":"tf","game":"Team Fortress","app_id":440,"player_count":0,"max_players":24,"Bots":0,"server_type":"Dedicated","server_os":"Linux","password":true,"vac":true,"version":"7757534","steam_id":85568392924742827,"keywords":["cp","nocrits","nodmgspread","uncletopia"],"game_id":440,"stv_port":27076,"stv_name":"Uncletopia | Frankfurt | 7 | Stopwatch Beta | STV","players":null},{"server_id":24,"name":"Uncletopia | Frankfurt | 8 | Community","name_short":"frk-8","host":"frk-1.de.uncletopia.com","port":27085,"enabled":true,"region":"eu","cc":"de","latitude":50.110924,"longitude":8.682127,"reserved":0,"last_update":"0001-01-01T00:00:00Z","name_a2s":"Uncletopia | Frankfurt | 8 | Community","protocol":17,"map":"workshop/koth_synthetic_rc6a.ugc1549817316","folder":"tf","game":"Team Fortress","app_id":440,"player_count":0,"max_players":24,"Bots":0,"server_type":"Dedicated","server_os":"Linux","password":true,"vac":true,"version":"7757534","steam_id":85568392924742828,"keywords":["cp","nocrits","nodmgspread","uncletopia"],"game_id":440,"stv_port":27086,"stv_name":"Uncletopia | Frankfurt | 8 | Community | STV","players":null},{"server_id":202,"name":"Uncletopia | Hong Kong | 1 | All Maps","name_short":"hgk-1","host":"hgk-1.hk.uncletopia.com","port":27015,"enabled":true,"region":"asia","cc":"hk","latitude":22.302711,"longitude":114.177216,"reserved":0,"last_update":"0001-01-01T00:00:00Z","name_a2s":"Uncletopia | Hong Kong | 1 | All Maps","protocol":17,"map":"pl_pier","folder":"tf","game":"Team Fortress","app_id":440,"player_count":0,"max_players":24,"Bots":0,"server_type":"Dedicated","server_os":"Linux","password":true,"vac":true,"version":"7757534","steam_id":85568392924494504,"keywords":["nocrits","nodmgspread","payload","uncletopia"],"game_id":440,"stv_port":27016,"stv_name":"Uncletopia | Hong Kong | 1 | All Maps | STV","players":null},{"server_id":1,"name":"Uncletopia | Los Angeles | 1 | All Maps","name_short":"lax-1","host":"lax-1.us.uncletopia.com","port":27015,"enabled":true,"region":"us-west","cc":"us","latitude":33.94279,"longitude":-118.41004,"reserved":0,"last_update":"0001-01-01T00:00:00Z","name_a2s":"Uncletopia | Los Angeles | 1 | All Maps","protocol":17,"map":"cp_dustbowl","folder":"tf","game":"Team Fortress","app_id":440,"player_count":21,"max_players":24,"Bots":0,"server_type":"Dedicated","server_os":"Linux","password":true,"vac":true,"version":"7757534","steam_id":85568392924469991,"keywords":["cp","nocrits","nodmgspread","uncletopia"],"game_id":440,"stv_port":27016,"stv_name":"Uncletopia | Los Angeles | 1 | All Maps | STV","players":[{"user_id":409,"name":"Kopenich","steam_id":76561198066205245,"connected_time":10234000000000,"state":"active","ping":45},{"user_id":507,"name":"corbenis","steam_id":76561199012442511,"connected_time":547000000000,"state":"active","ping":57},{"user_id":508,"name":"Leterq8","steam_id":76561198331432556,"connected_time":498000000000,"state":"active","ping":71},{"user_id":487,"name":"walrooos ‚úø","steam_id":76561198024521839,"connected_time":2324000000000,"state":"active","ping":58},{"user_id":480,"name":"Esue Ijae","steam_id":76561199268519057,"connected_time":3045000000000,"state":"active","ping":96},{"user_id":509,"name":"TordTheAvocado","steam_id":76561199091804873,"connected_time":482000000000,"state":"active","ping":91},{"user_id":475,"name":"Tako","steam_id":76561199264073138,"connected_time":3221000000000,"state":"active","ping":35},{"user_id":510,"name":"–ü–∞–≤–ª–æ –ü–∞—á–µ–Ω–∫–æ","steam_id":76561198314446564,"connected_time":288000000000,"state":"active","ping":51},{"user_id":490,"name":"FellowCum","steam_id":76561198809618726,"connected_time":2202000000000,"state":"active","ping":56},{"user_id":463,"name":"Kovac","steam_id":76561198318126190,"connected_time":4918000000000,"state":"active","ping":145},{"user_id":511,"name":"sun sugar","steam_id":76561198385085005,"connected_time":165000000000,"state":"active","ping":57},{"user_id":502,"name":"Mr. Blubber","steam_id":76561198338906916,"connected_time":1444000000000,"state":"active","ping":45},{"user_id":512,"name":"Metalogic","steam_id":76561198049469629,"connected_time":162000000000,"state":"active","ping":82},{"user_id":504,"name":"Karl Gerat2015","steam_id":76561199061625972,"connected_time":808000000000,"state":"active","ping":67},{"user_id":513,"name":"Grungus","steam_id":76561198047700230,"connected_time":109000000000,"state":"active","ping":54},{"user_id":515,"name":"ice cream (ÂÜ∞Ê∑áÊ∑ã)","steam_id":76561198976530881,"connected_time":82000000000,"state":"active","ping":30},{"user_id":495,"name":"HAT-WEARING‚Ñ¢ Maggot Gamer Cat","steam_id":76561197973992705,"connected_time":2006000000000,"state":"active","ping":67},{"user_id":499,"name":"icanseeyou2","steam_id":76561199072741874,"connected_time":1904000000000,"state":"active","ping":71},{"user_id":516,"name":"Crazy Hungarian","steam_id":76561198025498172,"connected_time":73000000000,"state":"active","ping":71},{"user_id":482,"name":"Moss","steam_id":76561198980149992,"connected_time":2852000000000,"state":"active","ping":144},{"user_id":505,"name":"goop","steam_id":76561198311256085,"connected_time":608000000000,"state":"active","ping":107}]},{"server_id":112,"name":"Uncletopia | Los Angeles | 2 | All Maps","name_short":"lax-2","host":"lax-1.us.uncletopia.com","port":27025,"enabled":true,"region":"us-west","cc":"us","latitude":33.94279,"longitude":-118.41004,"reserved":0,"last_update":"0001-01-01T00:00:00Z","name_a2s":"Uncletopia | Los Angeles | 2 | All Maps","protocol":17,"map":"koth_cascade","folder":"tf","game":"Team Fortress","app_id":440,"player_count":0,"max_players":24,"Bots":0,"server_type":"Dedicated","server_os":"Linux","password":true,"vac":true,"version":"7757534","steam_id":85568392924469992,"keywords":["cp","nocrits","nodmgspread","uncletopia"],"game_id":440,"stv_port":27026,"stv_name":"Uncletopia | Los Angeles | 2 | All Maps | STV","players":null},{"server_id":324,"name":"Uncletopia | Los Angeles | 3 | All Maps","name_short":"lax-3","host":"lax-1.us.uncletopia.com","port":27035,"enabled":true,"region":"us-west","cc":"us","latitude":33.94279,"longitude":-118.41004,"reserved":0,"last_update":"0001-01-01T00:00:00Z","name_a2s":"Uncletopia | Los Angeles | 3 | All Maps","protocol":17,"map":"koth_highpass","folder":"tf","game":"Team Fortress","app_id":440,"player_count":0,"max_players":24,"Bots":0,"server_type":"Dedicated","server_os":"Linux","password":true,"vac":true,"version":"7757534","steam_id":85568392924510198,"keywords":["cp","nocrits","nodmgspread","uncletopia"],"game_id":440,"stv_port":27036,"stv_name":"Uncletopia | Los Angeles | 3 | All Maps | STV","players":null},{"server_id":25,"name":"Uncletopia | Los Angeles | 4 | Stopwatch Beta","name_short":"lax-4","host":"lax-1.us.uncletopia.com","port":27045,"enabled":true,"region":"us-west","cc":"us","latitude":33.94279,"longitude":-118.41004,"reserved":0,"last_update":"0001-01-01T00:00:00Z","name_a2s":"Uncletopia | Los Angeles | 4 | Stopwatch Beta","protocol":17,"map":"koth_viaduct","folder":"tf","game":"Team Fortress","app_id":440,"player_count":0,"max_players":24,"Bots":0,"server_type":"Dedicated","server_os":"Linux","password":true,"vac":true,"version":"7757534","steam_id":85568392924510199,"keywords":["cp","nocrits","nodmgspread","uncletopia"],"game_id":440,"stv_port":27046,"stv_name":"Uncletopia | Los Angeles | 4 | Stopwatch Beta | STV","players":null},{"server_id":11,"name":"Uncletopia | London | 1 | All Maps","name_short":"lon-1","host":"lon-1.uk.uncletopia.com","port":27015,"enabled":true,"region":"eu","cc":"gb","latitude":51.509865,"longitude":-0.118092,"reserved":0,"last_update":"0001-01-01T00:00:00Z","name_a2s":"Uncletopia | London | 1 | All Maps","protocol":17,"map":"pl_badwater","folder":"tf","game":"Team Fortress","app_id":440,"player_count":23,"max_players":24,"Bots":0,"server_type":"Dedicated","server_os":"Linux","password":true,"vac":true,"version":"7757534","steam_id":85568392924367362,"keywords":["nocrits","nodmgspread","payload","uncletopia"],"game_id":440,"stv_port":27016,"stv_name":"Uncletopia | London | 1 | All Maps | STV","players":[{"user_id":1052,"name":"‚ô¶Frackler","steam_id":76561198805599271,"connected_time":5443000000000,"state":"active","ping":93},{"user_id":1081,"name":"Johnny Cockroach","steam_id":76561198049648277,"connected_time":2974000000000,"state":"active","ping":97},{"user_id":1082,"name":"Ravshan","steam_id":76561198380938702,"connected_time":2967000000000,"state":"active","ping":49},{"user_id":1101,"name":"dnl","steam_id":76561198074156929,"connected_time":1361000000000,"state":"active","ping":75},{"user_id":1103,"name":"Dark|TBE","steam_id":76561199093438455,"connected_time":1321000000000,"state":"active","ping":48},{"user_id":1107,"name":"Teffg","steam_id":76561198274386094,"connected_time":791000000000,"state":"active","ping":90},{"user_id":1108,"name":"psyko lunatic","steam_id":76561198213759580,"connected_time":153000000000,"state":"active","ping":42},{"user_id":1102,"name":"RIFT","steam_id":76561198991622379,"connected_time":1325000000000,"state":"active","ping":45},{"user_id":1109,"name":"sev//","steam_id":76561198797730418,"connected_time":104000000000,"state":"active","ping":75},{"user_id":989,"name":"Taste","steam_id":76561197994506978,"connected_time":9367000000000,"state":"active","ping":48},{"user_id":1072,"name":"Smeelio","steam_id":76561198079480058,"connected_time":3743000000000,"state":"active","ping":53},{"user_id":1016,"name":"Critz!","steam_id":76561197998110417,"connected_time":7298000000000,"state":"active","ping":75},{"user_id":1096,"name":"rainy day fund","steam_id":76561198357894803,"connected_time":1557000000000,"state":"active","ping":107},{"user_id":1105,"name":"dirty rascal","steam_id":76561198000871038,"connected_time":1129000000000,"state":"active","ping":44},{"user_id":1104,"name":"ender45","steam_id":76561198840955715,"connected_time":1277000000000,"state":"active","ping":36},{"user_id":1106,"name":"femboy chicken","steam_id":76561199055185732,"connected_time":1127000000000,"state":"active","ping":78},{"user_id":1084,"name":"Hive","steam_id":76561198207343209,"connected_time":2879000000000,"state":"active","ping":82},{"user_id":1091,"name":"minn","steam_id":76561198099101232,"connected_time":2431000000000,"state":"active","ping":50},{"user_id":1064,"name":"Jaromech | Twitch.tv","steam_id":76561198046427257,"connected_time":4333000000000,"state":"active","ping":45},{"user_id":1075,"name":"doveli","steam_id":76561198205850232,"connected_time":3696000000000,"state":"active","ping":88},{"user_id":1097,"name":"Not Sussy Tanuki","steam_id":76561198137289375,"connected_time":1491000000000,"state":"active","ping":102},{"user_id":1093,"name":"Mr.Jackson","steam_id":76561199426636232,"connected_time":2322000000000,"state":"active","ping":111},{"user_id":1055,"name":"Û†Ä°Û†Ä°","steam_id":76561198807236690,"connected_time":5391000000000,"state":"active","ping":85}]},{"server_id":114,"name":"Uncletopia | London | 2 | All Maps","name_short":"lon-2","host":"lon-1.uk.uncletopia.com","port":27025,"enabled":true,"region":"eu","cc":"gb","latitude":51.509865,"longitude":-0.118092,"reserved":0,"last_update":"0001-01-01T00:00:00Z","name_a2s":"Uncletopia | London | 2 | All Maps","protocol":17,"map":"pl_pier","folder":"tf","game":"Team Fortress","app_id":440,"player_count":16,"max_players":24,"Bots":0,"server_type":"Dedicated","server_os":"Linux","password":true,"vac":true,"version":"7757534","steam_id":85568392924470941,"keywords":["nocrits","nodmgspread","payload","uncletopia"],"game_id":440,"stv_port":27026,"stv_name":"Uncletopia | London | 2 | All Maps | STV","players":[{"user_id":1035,"name":"EdSuedi","steam_id":76561199387956486,"connected_time":679000000000,"state":"active","ping":60},{"user_id":1016,"name":"engie?","steam_id":76561198331852832,"connected_time":2656000000000,"state":"active","ping":75},{"user_id":1025,"name":"Zach","steam_id":76561198454281725,"connected_time":1310000000000,"state":"active","ping":108},{"user_id":1030,"name":"blindcinema_","steam_id":76561198026908105,"connected_time":857000000000,"state":"active","ping":74},{"user_id":1014,"name":"Parker","steam_id":76561198978117086,"connected_time":3151000000000,"state":"active","ping":47},{"user_id":1012,"name":"Pahlberg","steam_id":76561198208547929,"connected_time":3322000000000,"state":"active","ping":82},{"user_id":958,"name":"Swedde","steam_id":76561198297296440,"connected_time":8521000000000,"state":"active","ping":70},{"user_id":1023,"name":"Hleno","steam_id":76561198060442619,"connected_time":1426000000000,"state":"active","ping":54},{"user_id":1024,"name":"Mc Pleasure Sausage","steam_id":76561198061717046,"connected_time":1413000000000,"state":"active","ping":69},{"user_id":1027,"name":"depressed cows","steam_id":76561198358722215,"connected_time":1199000000000,"state":"active","ping":41},{"user_id":1028,"name":"Jarl SwagDog","steam_id":76561198097553711,"connected_time":1111000000000,"state":"active","ping":113},{"user_id":1033,"name":"Real (Real)","steam_id":76561198323425034,"connected_time":698000000000,"state":"active","ping":75},{"user_id":1037,"name":"Darkmaen","steam_id":76561198060543390,"connected_time":387000000000,"state":"active","ping":45},{"user_id":1038,"name":"Avrage Snuss Enjoyer","steam_id":76561198213875625,"connected_time":331000000000,"state":"active","ping":67},{"user_id":1040,"name":"TETRAGRAMMATON","steam_id":76561198286085100,"connected_time":209000000000,"state":"active","ping":96},{"user_id":1041,"name":"GHO5T","steam_id":76561198930223980,"connected_time":193000000000,"state":"spawning","ping":66}]},{"server_id":320,"name":"Uncletopia | London | 3 | All Maps","name_short":"lon-3","host":"lon-1.uk.uncletopia.com","port":27035,"enabled":true,"region":"eu","cc":"gb","latitude":51.509865,"longitude":-0.118092,"reserved":0,"last_update":"0001-01-01T00:00:00Z","name_a2s":"Uncletopia | London | 3 | All Maps","protocol":17,"map":"koth_cascade","folder":"tf","game":"Team Fortress","app_id":440,"player_count":0,"max_players":24,"Bots":0,"server_type":"Dedicated","server_os":"Linux","password":true,"vac":true,"version":"7757534","steam_id":85568392924510192,"keywords":["cp","nocrits","nodmgspread","uncletopia"],"game_id":440,"stv_port":27036,"stv_name":"Uncletopia | London | 3 | All Maps | STV","players":null},{"server_id":321,"name":"Uncletopia | London | 4 | All Maps","name_short":"lon-4","host":"lon-1.uk.uncletopia.com","port":27045,"enabled":true,"region":"eu","cc":"gb","latitude":51.509865,"longitude":-0.118092,"reserved":0,"last_update":"0001-01-01T00:00:00Z","name_a2s":"Uncletopia | London | 4 | All Maps","protocol":17,"map":"koth_badlands","folder":"tf","game":"Team Fortress","app_id":440,"player_count":0,"max_players":24,"Bots":0,"server_type":"Dedicated","server_os":"Linux","password":true,"vac":true,"version":"7757534","steam_id":85568392924510193,"keywords":["cp","nocrits","nodmgspread","uncletopia"],"game_id":440,"stv_port":27046,"stv_name":"Uncletopia | London | 4 | All Maps | STV","players":null},{"server_id":21,"name":"Uncletopia | London | 5 | All Maps","name_short":"lon-5","host":"lon-1.uk.uncletopia.com","port":27055,"enabled":true,"region":"eu","cc":"gb","latitude":51.509865,"longitude":-0.118092,"reserved":0,"last_update":"0001-01-01T00:00:00Z","name_a2s":"Uncletopia | London | 5 | All Maps","protocol":17,"map":"koth_king","folder":"tf","game":"Team Fortress","app_id":440,"player_count":0,"max_players":24,"Bots":0,"server_type":"Dedicated","server_os":"Linux","password":true,"vac":true,"version":"7757534","steam_id":85568392924742829,"keywords":["cp","nocrits","nodmgspread","uncletopia"],"game_id":440,"stv_port":27056,"stv_name":"Uncletopia | London | 5 | All Maps | STV","players":null},{"server_id":22,"name":"Uncletopia | London | 6 | All Maps","name_short":"lon-6","host":"lon-1.uk.uncletopia.com","port":27065,"enabled":true,"region":"eu","cc":"gb","latitude":51.509865,"longitude":-0.118092,"reserved":0,"last_update":"0001-01-01T00:00:00Z","name_a2s":"Uncletopia | London | 6 | All Maps","protocol":17,"map":"koth_lakeside_final","folder":"tf","game":"Team Fortress","app_id":440,"player_count":0,"max_players":24,"Bots":0,"server_type":"Dedicated","server_os":"Linux","password":true,"vac":true,"version":"7757534","steam_id":85568392924742830,"keywords":["cp","nocrits","nodmgspread","uncletopia"],"game_id":440,"stv_port":27066,"stv_name":"Uncletopia | London | 6 | All Maps | STV","players":null},{"server_id":40,"name":"Uncletopia | London | 7 | No Payload","name_short":"lon-7","host":"lon-1.uk.uncletopia.com","port":27075,"enabled":true,"region":"eu","cc":"gb","latitude":51.509865,"longitude":-0.118092,"reserved":0,"last_update":"0001-01-01T00:00:00Z","name_a2s":"Uncletopia | London | 7 | No Payload","protocol":17,"map":"koth_harvest_final","folder":"tf","game":"Team Fortress","app_id":440,"player_count":0,"max_players":24,"Bots":0,"server_type":"Dedicated","server_os":"Linux","password":true,"vac":true,"version":"7757534","steam_id":85568392924964314,"keywords":["cp","nocrits","nodmgspread","uncletopia"],"game_id":440,"stv_port":27076,"stv_name":"Uncletopia | London | 7 | No Payload | STV","players":null},{"server_id":41,"name":"Uncletopia | London | 8 | Community","name_short":"lon-8","host":"lon-1.uk.uncletopia.com","port":27085,"enabled":true,"region":"eu","cc":"gb","latitude":51.509865,"longitude":-0.118092,"reserved":0,"last_update":"0001-01-01T00:00:00Z","name_a2s":"Uncletopia | London | 8 | Community","protocol":17,"map":"workshop/koth_ramjam_rc1.ugc459778887","folder":"tf","game":"Team Fortress","app_id":440,"player_count":0,"max_players":24,"Bots":0,"server_type":"Dedicated","server_os":"Linux","password":true,"vac":true,"version":"7757534","steam_id":85568392924964315,"keywords":["cp","nocrits","nodmgspread","uncletopia"],"game_id":440,"stv_port":27086,"stv_name":"Uncletopia | London | 8 | Community | STV","players":null},{"server_id":300,"name":"Uncletopia | Montr√©al | 1 | All Maps","name_short":"mtl-1","host":"mtl-1.ca.uncletopia.com","port":27015,"enabled":true,"region":"us-east","cc":"ca","latitude":45.50889,"longitude":-73.56167,"reserved":0,"last_update":"0001-01-01T00:00:00Z","name_a2s":"Uncletopia | Montr√©al | 1 | All Maps","protocol":17,"map":"koth_viaduct","folder":"tf","game":"Team Fortress","app_id":440,"player_count":0,"max_players":24,"Bots":0,"server_type":"Dedicated","server_os":"Linux","password":true,"vac":true,"version":"7757534","steam_id":85568392924500087,"keywords":["cp","nocrits","nodmgspread","uncletopia"],"game_id":440,"stv_port":27016,"stv_name":"Uncletopia | Montr√©al | 1 | All Maps | STV","players":null},{"server_id":301,"name":"Uncletopia | Montr√©al | 2 | All Maps","name_short":"mtl-2","host":"mtl-1.ca.uncletopia.com","port":27025,"enabled":true,"region":"us-east","cc":"ca","latitude":45.50889,"longitude":-73.56167,"reserved":0,"last_update":"0001-01-01T00:00:00Z","name_a2s":"Uncletopia | Montr√©al | 2 | All Maps","protocol":17,"map":"koth_highpass","folder":"tf","game":"Team Fortress","app_id":440,"player_count":0,"max_players":24,"Bots":0,"server_type":"Dedicated","server_os":"Linux","password":true,"vac":true,"version":"7757534","steam_id":85568392924500088,"keywords":["cp","nocrits","nodmgspread","uncletopia"],"game_id":440,"stv_port":27026,"stv_name":"Uncletopia | Montr√©al | 2 | All Maps | STV","players":null},{"server_id":302,"name":"Uncletopia | Montr√©al | 3 | All Maps","name_short":"mtl-3","host":"mtl-1.ca.uncletopia.com","port":27035,"enabled":true,"region":"us-east","cc":"ca","latitude":45.50889,"longitude":-73.56167,"reserved":0,"last_update":"0001-01-01T00:00:00Z","name_a2s":"Uncletopia | Montr√©al | 3 | All Maps","protocol":17,"map":"cp_dustbowl","folder":"tf","game":"Team Fortress","app_id":440,"player_count":0,"max_players":24,"Bots":0,"server_type":"Dedicated","server_os":"Linux","password":true,"vac":true,"version":"7757534","steam_id":85568392924500089,"keywords":["cp","nocrits","nodmgspread","uncletopia"],"game_id":440,"stv_port":27036,"stv_name":"Uncletopia | Montr√©al | 3 | All Maps | STV","players":null},{"server_id":303,"name":"Uncletopia | Montr√©al | 4 | No Payload","name_short":"mtl-4","host":"mtl-1.ca.uncletopia.com","port":27045,"enabled":true,"region":"us-east","cc":"ca","latitude":45.50889,"longitude":-73.56167,"reserved":0,"last_update":"0001-01-01T00:00:00Z","name_a2s":"Uncletopia | Montr√©al | 4 | No Payload","protocol":17,"map":"koth_lakeside_final","folder":"tf","game":"Team Fortress","app_id":440,"player_count":0,"max_players":24,"Bots":0,"server_type":"Dedicated","server_os":"Linux","password":true,"vac":true,"version":"7757534","steam_id":85568392924500090,"keywords":["cp","nocrits","nodmgspread","uncletopia"],"game_id":440,"stv_port":27046,"stv_name":"Uncletopia | Montr√©al | 4 | No Payload | STV","players":null},{"server_id":13,"name":"Uncletopia | New York City | 1 | All Maps","name_short":"nyc-1","host":"nyc-1.us.uncletopia.com","port":27015,"enabled":true,"region":"us-east","cc":"us","latitude":40.73061,"longitude":-73.93524,"reserved":0,"last_update":"0001-01-01T00:00:00Z","name_a2s":"Uncletopia | New York City | 1 | All Maps","protocol":17,"map":"pl_thundermountain","folder":"tf","game":"Team Fortress","app_id":440,"player_count":23,"max_players":24,"Bots":0,"server_type":"Dedicated","server_os":"Linux","password":true,"vac":true,"version":"7757534","steam_id":85568392924469993,"keywords":["nocrits","nodmgspread","payload","uncletopia"],"game_id":440,"stv_port":27016,"stv_name":"Uncletopia | New York City | 1 | All Maps | STV","players":[{"user_id":543,"name":"pathulhu","steam_id":76561198323941614,"connected_time":1020000000000,"state":"active","ping":87},{"user_id":438,"name":"speck","steam_id":76561198147107736,"connected_time":9507000000000,"state":"active","ping":58},{"user_id":531,"name":"JHLO","steam_id":76561198074359967,"connected_time":2131000000000,"state":"active","ping":64},{"user_id":459,"name":"McTwisty","steam_id":76561198138674351,"connected_time":8080000000000,"state":"active","ping":64},{"user_id":546,"name":"Bert Beetroot","steam_id":76561199218240053,"connected_time":515000000000,"state":"active","ping":63},{"user_id":538,"name":"Windup Monkey in a Human Suit","steam_id":76561198119501444,"connected_time":1431000000000,"state":"active","ping":85},{"user_id":520,"name":"Aristotle Voulton","steam_id":76561198100174923,"connected_time":2764000000000,"state":"active","ping":72},{"user_id":539,"name":"crapitup","steam_id":76561198088994377,"connected_time":1154000000000,"state":"active","ping":72},{"user_id":530,"name":"SuperAngel","steam_id":76561198861482461,"connected_time":2139000000000,"state":"active","ping":59},{"user_id":547,"name":"Minehart Von Turtleburg","steam_id":76561198280275481,"connected_time":387000000000,"state":"active","ping":125},{"user_id":529,"name":"Antwan","steam_id":76561198246200638,"connected_time":2242000000000,"state":"active","ping":78},{"user_id":541,"name":"galunga","steam_id":76561198027184320,"connected_time":1098000000000,"state":"active","ping":79},{"user_id":542,"name":"Rabbitone","steam_id":76561198132691749,"connected_time":1095000000000,"state":"active","ping":104},{"user_id":479,"name":"ndvr","steam_id":76561199379200102,"connected_time":5175000000000,"state":"active","ping":52},{"user_id":548,"name":"frank","steam_id":76561198045436159,"connected_time":329000000000,"state":"active","ping":65},{"user_id":452,"name":"googer","steam_id":76561198194556777,"connected_time":8667000000000,"state":"active","ping":91},{"user_id":534,"name":"TheMightyGod","steam_id":76561198220055968,"connected_time":1904000000000,"state":"active","ping":99},{"user_id":525,"name":"Lesbian Chungus","steam_id":76561198055964295,"connected_time":2363000000000,"state":"active","ping":81},{"user_id":535,"name":"Lore","steam_id":76561198098407538,"connected_time":1903000000000,"state":"active","ping":64},{"user_id":524,"name":"eWVra2Vy","steam_id":76561198453565942,"connected_time":2567000000000,"state":"active","ping":71},{"user_id":506,"name":"÷éViddeR","steam_id":76561198038403376,"connected_time":3267000000000,"state":"active","ping":74},{"user_id":544,"name":"Sho'Nuff","steam_id":76561198010708247,"connected_time":824000000000,"state":"active","ping":70},{"user_id":536,"name":"Maltvidion","steam_id":76561198327283354,"connected_time":1897000000000,"state":"active","ping":48}]},{"server_id":14,"name":"Uncletopia | New York City | 2 | All Maps","name_short":"nyc-2","host":"nyc-1.us.uncletopia.com","port":27025,"enabled":true,"region":"us-east","cc":"us","latitude":40.73061,"longitude":-73.93524,"reserved":0,"last_update":"0001-01-01T00:00:00Z","name_a2s":"Uncletopia | New York City | 2 | All Maps","protocol":17,"map":"pl_upward","folder":"tf","game":"Team Fortress","app_id":440,"player_count":24,"max_players":24,"Bots":0,"server_type":"Dedicated","server_os":"Linux","password":true,"vac":true,"version":"7757534","steam_id":85568392924469994,"keywords":["nocrits","nodmgspread","payload","uncletopia"],"game_id":440,"stv_port":27026,"stv_name":"Uncletopia | New York City | 2 | All Maps | STV","players":[{"user_id":858,"name":"MemeyBoi3rd","steam_id":76561199443570634,"connected_time":3910000000000,"state":"active","ping":127},{"user_id":865,"name":"Socialism Enjoyer","steam_id":76561197991817974,"connected_time":2741000000000,"state":"active","ping":127},{"user_id":834,"name":"Thurricane","steam_id":76561198410724666,"connected_time":5454000000000,"state":"active","ping":52},{"user_id":853,"name":"Tyrone","steam_id":76561198189429665,"connected_time":3954000000000,"state":"active","ping":78},{"user_id":841,"name":"ray (the based god)","steam_id":76561198311984941,"connected_time":4894000000000,"state":"active","ping":81},{"user_id":866,"name":"briggs","steam_id":76561198045655893,"connected_time":2741000000000,"state":"active","ping":74},{"user_id":861,"name":"Regi","steam_id":76561198271508598,"connected_time":3530000000000,"state":"active","ping":64},{"user_id":884,"name":"Sen4248","steam_id":76561198088573978,"connected_time":374000000000,"state":"active","ping":135},{"user_id":855,"name":"weedcat","steam_id":76561198346054736,"connected_time":3943000000000,"state":"active","ping":62},{"user_id":883,"name":"Canned Bottled Water","steam_id":76561198044362988,"connected_time":695000000000,"state":"active","ping":66},{"user_id":842,"name":"Yoshimelon","steam_id":76561198253054325,"connected_time":4882000000000,"state":"active","ping":75},{"user_id":833,"name":"HumFreY","steam_id":76561198076639682,"connected_time":5629000000000,"state":"active","ping":56},{"user_id":881,"name":"Kelkith","steam_id":76561197985450422,"connected_time":1055000000000,"state":"active","ping":104},{"user_id":836,"name":"piss king","steam_id":76561198046650995,"connected_time":4926000000000,"state":"active","ping":101},{"user_id":885,"name":"The_Milk_Man","steam_id":76561198122476211,"connected_time":292000000000,"state":"active","ping":104},{"user_id":823,"name":"Silverio","steam_id":76561197999425381,"connected_time":6053000000000,"state":"active","ping":58},{"user_id":868,"name":"TatsuNaki","steam_id":76561197976182321,"connected_time":2618000000000,"state":"active","ping":94},{"user_id":880,"name":"Pika","steam_id":76561198068063436,"connected_time":1069000000000,"state":"active","ping":79},{"user_id":886,"name":"Kronk","steam_id":76561198063092125,"connected_time":271000000000,"state":"active","ping":70},{"user_id":877,"name":"Shaunhan","steam_id":76561198386596938,"connected_time":1142000000000,"state":"active","ping":50},{"user_id":864,"name":"flappyflap2","steam_id":76561198285048973,"connected_time":3007000000000,"state":"active","ping":45},{"user_id":876,"name":"Chemo","steam_id":76561197961308370,"connected_time":1591000000000,"state":"active","ping":54},{"user_id":852,"name":"Laelaps","steam_id":76561198100061416,"connected_time":4307000000000,"state":"active","ping":47},{"user_id":874,"name":"Nightfall","steam_id":76561198169718867,"connected_time":2252000000000,"state":"active","ping":119}]},{"server_id":15,"name":"Uncletopia | New York City | 3 | Stopwatch Beta","name_short":"nyc-3","host":"nyc-1.us.uncletopia.com","port":27035,"enabled":true,"region":"us-east","cc":"us","latitude":40.73061,"longitude":-73.93524,"reserved":0,"last_update":"0001-01-01T00:00:00Z","name_a2s":"Uncletopia | New York City | 3 | Stopwatch Beta","protocol":17,"map":"workshop/pl_barnblitz_pro7.ugc582280235","folder":"tf","game":"Team Fortress","app_id":440,"player_count":0,"max_players":24,"Bots":0,"server_type":"Dedicated","server_os":"Linux","password":true,"vac":true,"version":"7757534","steam_id":85568392924742820,"keywords":["nocrits","nodmgspread","payload","uncletopia"],"game_id":440,"stv_port":27036,"stv_name":"Uncletopia | New York City | 3 | Stopwatch Beta | STV","players":null},{"server_id":16,"name":"Uncletopia | New York City | 4 | Community","name_short":"nyc-4","host":"nyc-1.us.uncletopia.com","port":27045,"enabled":true,"region":"us-east","cc":"us","latitude":40.73061,"longitude":-73.93524,"reserved":0,"last_update":"0001-01-01T00:00:00Z","name_a2s":"Uncletopia | New York City | 4 | Community","protocol":17,"map":"workshop/koth_slaughter_rc1.ugc1712845210","folder":"tf","game":"Team Fortress","app_id":440,"player_count":0,"max_players":24,"Bots":0,"server_type":"Dedicated","server_os":"Linux","password":true,"vac":true,"version":"7757534","steam_id":85568392924742821,"keywords":["cp","nocrits","nodmgspread","uncletopia"],"game_id":440,"stv_port":27046,"stv_name":"Uncletopia | New York City | 4 | Community | STV","players":null},{"server_id":142,"name":"Uncletopia | S√£o Paulo | 1 | All Maps","name_short":"sao-1","host":"sao-1.br.uncletopia.com","port":27015,"enabled":true,"region":"sa","cc":"br","latitude":-23.533773,"longitude":-46.62529,"reserved":0,"last_update":"0001-01-01T00:00:00Z","name_a2s":"Uncletopia | S√£o Paulo | 1 | All Maps","protocol":17,"map":"koth_lakeside_final","folder":"tf","game":"Team Fortress","app_id":440,"player_count":0,"max_players":24,"Bots":0,"server_type":"Dedicated","server_os":"Linux","password":true,"vac":true,"version":"7757534","steam_id":85568392924469996,"keywords":["cp","nocrits","nodmgspread","uncletopia"],"game_id":440,"stv_port":27016,"stv_name":"Uncletopia | S√£o Paulo | 1 | All Maps | STV","players":null},{"server_id":143,"name":"Uncletopia | S√£o Paulo | 2 | All Maps","name_short":"sao-2","host":"sao-2.br.uncletopia.com","port":27015,"enabled":true,"region":"sa","cc":"br","latitude":-23.533773,"longitude":-46.62529,"reserved":0,"last_update":"0001-01-01T00:00:00Z","name_a2s":"Uncletopia | S√£o Paulo | 2 | All Maps","protocol":17,"map":"cp_dustbowl","folder":"tf","game":"Team Fortress","app_id":440,"player_count":0,"max_players":24,"Bots":0,"server_type":"Dedicated","server_os":"Linux","password":true,"vac":true,"version":"7757534","steam_id":85568392924485349,"keywords":["cp","nocrits","nodmgspread","uncletopia"],"game_id":440,"stv_port":27016,"stv_name":"Uncletopia | S√£o Paulo | 2 | All Maps | STV","players":null},{"server_id":7,"name":"Uncletopia | Seattle | 1 | All Maps","name_short":"sea-1","host":"sea-1.us.uncletopia.com","port":27015,"enabled":true,"region":"us-west","cc":"us","latitude":47.608013,"longitude":-122.33517,"reserved":0,"last_update":"0001-01-01T00:00:00Z","name_a2s":"Uncletopia | Seattle | 1 | All Maps","protocol":17,"map":"pl_badwater","folder":"tf","game":"Team Fortress","app_id":440,"player_count":24,"max_players":24,"Bots":0,"server_type":"Dedicated","server_os":"Linux","password":true,"vac":true,"version":"7757534","steam_id":85568392924469997,"keywords":["nocrits","nodmgspread","payload","uncletopia"],"game_id":440,"stv_port":27016,"stv_name":"Uncletopia | Seattle | 1 | All Maps | STV","players":[{"user_id":636,"name":"ed","steam_id":76561198080475712,"connected_time":1154000000000,"state":"active","ping":66},{"user_id":625,"name":"Ayayahuasca","steam_id":76561199002906056,"connected_time":2975000000000,"state":"active","ping":51},{"user_id":600,"name":"shane","steam_id":76561198060491451,"connected_time":5519000000000,"state":"active","ping":88},{"user_id":558,"name":"Aardappel","steam_id":76561198030894676,"connected_time":8888000000000,"state":"active","ping":75},{"user_id":616,"name":"jungus","steam_id":76561198129862008,"connected_time":4071000000000,"state":"active","ping":76},{"user_id":573,"name":"bbbbb","steam_id":76561198095480838,"connected_time":7258000000000,"state":"active","ping":45},{"user_id":628,"name":"trapper wit som swag+i lurk too","steam_id":76561198885055475,"connected_time":2636000000000,"state":"active","ping":57},{"user_id":590,"name":"Sniff","steam_id":76561198010270922,"connected_time":6548000000000,"state":"active","ping":44},{"user_id":634,"name":"Gaming","steam_id":76561198327632113,"connected_time":1167000000000,"state":"active","ping":47},{"user_id":565,"name":"Arsonist Goose","steam_id":76561198147441830,"connected_time":8220000000000,"state":"active","ping":76},{"user_id":642,"name":"Joseph \"Biden\" Stalin","steam_id":76561198213863907,"connected_time":80000000000,"state":"active","ping":125},{"user_id":599,"name":"Cassandra (She/her)","steam_id":76561198094123940,"connected_time":5686000000000,"state":"active","ping":126},{"user_id":612,"name":"Mignyanne :3","steam_id":76561198048754056,"connected_time":4924000000000,"state":"active","ping":73},{"user_id":620,"name":"Username","steam_id":76561198855586261,"connected_time":3617000000000,"state":"active","ping":63},{"user_id":641,"name":"DrD","steam_id":76561198067266383,"connected_time":861000000000,"state":"active","ping":40},{"user_id":639,"name":"James","steam_id":76561198041578404,"connected_time":1035000000000,"state":"active","ping":144},{"user_id":589,"name":"Sweets","steam_id":76561198998446307,"connected_time":6586000000000,"state":"active","ping":74},{"user_id":640,"name":"„ÉΩ(¬∞œâ¬∞ )Ôæâ","steam_id":76561198010855541,"connected_time":1034000000000,"state":"active","ping":52},{"user_id":629,"name":"Foyboy‚Ñ¢","steam_id":76561198072305817,"connected_time":2555000000000,"state":"active","ping":98},{"user_id":633,"name":"Ediot","steam_id":76561199349494096,"connected_time":1179000000000,"state":"active","ping":137},{"user_id":601,"name":"Attrition","steam_id":76561197969881916,"connected_time":5446000000000,"state":"active","ping":58},{"user_id":553,"name":"JERMA BUT CRYING AND TRANS","steam_id":76561198210734407,"connected_time":9630000000000,"state":"active","ping":118},{"user_id":637,"name":"fwoov","steam_id":76561198129166260,"connected_time":1143000000000,"state":"active","ping":109},{"user_id":632,"name":"Empyrean","steam_id":76561198116398716,"connected_time":1519000000000,"state":"active","ping":91}]},{"server_id":119,"name":"Uncletopia | Seattle | 2 | All Maps","name_short":"sea-2","host":"sea-1.us.uncletopia.com","port":27025,"enabled":true,"region":"us-west","cc":"us","latitude":47.608013,"longitude":-122.33517,"reserved":0,"last_update":"0001-01-01T00:00:00Z","name_a2s":"Uncletopia | Seattle | 2 | All Maps","protocol":17,"map":"pl_hoodoo_final","folder":"tf","game":"Team Fortress","app_id":440,"player_count":24,"max_players":24,"Bots":0,"server_type":"Dedicated","server_os":"Linux","password":true,"vac":true,"version":"7757534","steam_id":85568392924469998,"keywords":["nocrits","nodmgspread","payload","uncletopia"],"game_id":440,"stv_port":27026,"stv_name":"Uncletopia | Seattle | 2 | All Maps | STV","players":[{"user_id":510,"name":"Cheeseoid","steam_id":76561198073836524,"connected_time":1123000000000,"state":"active","ping":100},{"user_id":487,"name":"mudunit","steam_id":76561198811544015,"connected_time":2876000000000,"state":"active","ping":55},{"user_id":479,"name":"TurboRaspberry","steam_id":76561199215360629,"connected_time":3315000000000,"state":"active","ping":48},{"user_id":493,"name":"gorlab","steam_id":76561198025089694,"connected_time":2377000000000,"state":"active","ping":57},{"user_id":494,"name":"hosewater","steam_id":76561198023383126,"connected_time":2273000000000,"state":"active","ping":56},{"user_id":399,"name":"Dank Hill","steam_id":76561198081194839,"connected_time":8482000000000,"state":"active","ping":70},{"user_id":512,"name":"Bowl of Soup","steam_id":76561198114255273,"connected_time":925000000000,"state":"active","ping":66},{"user_id":508,"name":"pizzaguy4","steam_id":76561198058821622,"connected_time":1327000000000,"state":"active","ping":91},{"user_id":496,"name":"snub","steam_id":76561198312106312,"connected_time":1981000000000,"state":"active","ping":62},{"user_id":513,"name":"BEASTxGODx420","steam_id":76561198184814466,"connected_time":919000000000,"state":"active","ping":41},{"user_id":516,"name":"The Arm","steam_id":76561197983066285,"connected_time":722000000000,"state":"active","ping":80},{"user_id":509,"name":"Thordude","steam_id":76561199087162916,"connected_time":1282000000000,"state":"active","ping":56},{"user_id":488,"name":"Buuw","steam_id":76561198085707714,"connected_time":2868000000000,"state":"active","ping":90},{"user_id":500,"name":"SvicidalBug","steam_id":76561198221390504,"connected_time":1877000000000,"state":"active","ping":62},{"user_id":514,"name":"mmmBoyo","steam_id":76561198821360261,"connected_time":879000000000,"state":"active","ping":53},{"user_id":472,"name":"Matella","steam_id":76561198097427947,"connected_time":3778000000000,"state":"active","ping":147},{"user_id":440,"name":"plastiquemonk","steam_id":76561198126035719,"connected_time":5476000000000,"state":"active","ping":91},{"user_id":511,"name":"Uta","steam_id":76561198271964253,"connected_time":951000000000,"state":"active","ping":71},{"user_id":517,"name":"Yukihana","steam_id":76561198348354629,"connected_time":663000000000,"state":"active","ping":70},{"user_id":499,"name":"Quietsharp","steam_id":76561198277968438,"connected_time":1918000000000,"state":"active","ping":81},{"user_id":515,"name":"RedRageKnight","steam_id":76561198858886704,"connected_time":822000000000,"state":"active","ping":61},{"user_id":506,"name":"Nobuunga","steam_id":76561198100614981,"connected_time":1393000000000,"state":"active","ping":55},{"user_id":507,"name":"InfernoFlower64","steam_id":76561198181097391,"connected_time":1386000000000,"state":"active","ping":111},{"user_id":520,"name":"Flowey","steam_id":76561198442304406,"connected_time":200000000000,"state":"active","ping":58}]},{"server_id":406,"name":"Uncletopia | Seattle | 3 | Stopwatch Beta","name_short":"sea-3","host":"sea-1.us.uncletopia.com","port":27035,"enabled":true,"region":"us-west","cc":"us","latitude":47.608013,"longitude":-122.33517,"reserved":0,"last_update":"0001-01-01T00:00:00Z","name_a2s":"Uncletopia | Seattle | 3 | Stopwatch Beta","protocol":17,"map":"pl_swiftwater_final1","folder":"tf","game":"Team Fortress","app_id":440,"player_count":0,"max_players":24,"Bots":0,"server_type":"Dedicated","server_os":"Linux","password":true,"vac":true,"version":"7757534","steam_id":85568392924515217,"keywords":["nocrits","nodmgspread","payload","uncletopia"],"game_id":440,"stv_port":27036,"stv_name":"Uncletopia | Seattle | 3 | Stopwatch Beta | STV","players":null},{"server_id":17,"name":"Uncletopia | San Francisco | 1 | All Maps","name_short":"sfo-1","host":"sfo-1.us.uncletopia.com","port":27015,"enabled":true,"region":"us-west","cc":"us","latitude":37.77397,"longitude":-122.4313,"reserved":0,"last_update":"0001-01-01T00:00:00Z","name_a2s":"Uncletopia | San Francisco | 1 | All Maps","protocol":17,"map":"pl_swiftwater_final1","folder":"tf","game":"Team Fortress","app_id":440,"player_count":24,"max_players":24,"Bots":0,"server_type":"Dedicated","server_os":"Linux","password":true,"vac":true,"version":"7757534","steam_id":85568392924469999,"keywords":["nocrits","nodmgspread","payload","uncletopia"],"game_id":440,"stv_port":27016,"stv_name":"Uncletopia | San Francisco | 1 | All Maps | STV","players":[{"user_id":244,"name":"IntravenusDeMilo","steam_id":76561197970629020,"connected_time":864000000000,"state":"active","ping":61},{"user_id":120,"name":"FALRayne","steam_id":76561198113348816,"connected_time":7702000000000,"state":"active","ping":82},{"user_id":226,"name":"Rusty","steam_id":76561198055585129,"connected_time":1995000000000,"state":"active","ping":65},{"user_id":243,"name":"Whapper","steam_id":76561198044029606,"connected_time":871000000000,"state":"active","ping":58},{"user_id":250,"name":"krootonitron","steam_id":76561198114113037,"connected_time":609000000000,"state":"active","ping":40},{"user_id":252,"name":"Pluto","steam_id":76561198012630802,"connected_time":361000000000,"state":"active","ping":59},{"user_id":180,"name":"Xeno","steam_id":76561198089138085,"connected_time":3603000000000,"state":"active","ping":63},{"user_id":194,"name":"Chauckles","steam_id":76561197993151595,"connected_time":3044000000000,"state":"active","ping":72},{"user_id":245,"name":"Lich","steam_id":76561198067527381,"connected_time":855000000000,"state":"active","ping":116},{"user_id":174,"name":"Dazed","steam_id":76561198167096734,"connected_time":3669000000000,"state":"active","ping":63},{"user_id":251,"name":"Not Slavoj ≈Ωi≈æek","steam_id":76561198004619616,"connected_time":445000000000,"state":"active","ping":69},{"user_id":145,"name":"dont suck me i uber","steam_id":76561198281968441,"connected_time":5565000000000,"state":"active","ping":62},{"user_id":175,"name":"Mata Mata Turtle","steam_id":76561198204545247,"connected_time":3657000000000,"state":"active","ping":92},{"user_id":240,"name":"dave strider","steam_id":76561198065112186,"connected_time":1007000000000,"state":"active","ping":51},{"user_id":232,"name":"GardenOfStone","steam_id":76561199069870534,"connected_time":1763000000000,"state":"active","ping":56},{"user_id":140,"name":"Livin' Like Larry","steam_id":76561198313360974,"connected_time":5895000000000,"state":"active","ping":43},{"user_id":247,"name":"Dog","steam_id":76561197979056451,"connected_time":833000000000,"state":"active","ping":68},{"user_id":210,"name":"RaddishBoi","steam_id":76561199025688311,"connected_time":2620000000000,"state":"active","ping":69},{"user_id":231,"name":"TomTheF00l","steam_id":76561198829932650,"connected_time":1807000000000,"state":"active","ping":105},{"user_id":253,"name":"Unnamed Jane","steam_id":76561198424248616,"connected_time":186000000000,"state":"active","ping":142},{"user_id":203,"name":"K.A.R.M.A.","steam_id":76561198240750142,"connected_time":2835000000000,"state":"active","ping":59},{"user_id":239,"name":"blatgotyahat","steam_id":76561198186630357,"connected_time":1151000000000,"state":"active","ping":64},{"user_id":249,"name":"Shew","steam_id":76561198054332468,"connected_time":807000000000,"state":"active","ping":71},{"user_id":234,"name":"remilia","steam_id":76561198069180543,"connected_time":1711000000000,"state":"active","ping":51}]},{"server_id":18,"name":"Uncletopia | San Francisco | 2 | All Maps","name_short":"sfo-2","host":"sfo-1.us.uncletopia.com","port":27025,"enabled":true,"region":"us-west","cc":"us","latitude":37.77397,"longitude":-122.4313,"reserved":0,"last_update":"0001-01-01T00:00:00Z","name_a2s":"Uncletopia | San Francisco | 2 | All Maps","protocol":17,"map":"pl_barnblitz","folder":"tf","game":"Team Fortress","app_id":440,"player_count":20,"max_players":24,"Bots":0,"server_type":"Dedicated","server_os":"Linux","password":true,"vac":true,"version":"7757534","steam_id":85568392924470000,"keywords":["nocrits","nodmgspread","payload","uncletopia"],"game_id":440,"stv_port":27026,"stv_name":"Uncletopia | San Francisco | 2 | All Maps | STV","players":[{"user_id":60,"name":"CrackedSanity","steam_id":76561198279841251,"connected_time":425000000000,"state":"active","ping":47},{"user_id":61,"name":"Laxoloni","steam_id":76561199197045700,"connected_time":324000000000,"state":"active","ping":63},{"user_id":17,"name":"Harland","steam_id":76561198177908823,"connected_time":3707000000000,"state":"active","ping":87},{"user_id":52,"name":"SilverMango","steam_id":76561198091243252,"connected_time":1538000000000,"state":"active","ping":61},{"user_id":62,"name":"jbggs","steam_id":76561198011204750,"connected_time":266000000000,"state":"active","ping":89},{"user_id":63,"name":"Deacon","steam_id":76561197998532724,"connected_time":212000000000,"state":"active","ping":67},{"user_id":54,"name":"The Announcer's Feet","steam_id":76561199443456893,"connected_time":1239000000000,"state":"active","ping":93},{"user_id":64,"name":"bhop.rip raki-","steam_id":76561199105063476,"connected_time":199000000000,"state":"active","ping":189},{"user_id":25,"name":"Shoggoth","steam_id":76561198117892299,"connected_time":2884000000000,"state":"active","ping":81},{"user_id":21,"name":"T R Y S T O N","steam_id":76561198447880086,"connected_time":3619000000000,"state":"active","ping":100},{"user_id":51,"name":"Coolblue","steam_id":76561198016642724,"connected_time":1749000000000,"state":"active","ping":63},{"user_id":27,"name":"SuperEvilPasta","steam_id":76561198078258907,"connected_time":2864000000000,"state":"active","ping":72},{"user_id":65,"name":"troll","steam_id":76561199154079112,"connected_time":174000000000,"state":"active","ping":111},{"user_id":67,"name":"leumas","steam_id":76561198240408540,"connected_time":121000000000,"state":"active","ping":110},{"user_id":69,"name":"Alereon","steam_id":76561197961199248,"connected_time":24000000000,"state":"active","ping":58},{"user_id":70,"name":"Dullahan","steam_id":76561198119668908,"connected_time":24000000000,"state":"active","ping":47},{"user_id":59,"name":"Autistic people's Black Panther","steam_id":76561198945402162,"connected_time":732000000000,"state":"active","ping":141},{"user_id":49,"name":"moe","steam_id":76561198929586245,"connected_time":2058000000000,"state":"active","ping":51},{"user_id":45,"name":"GreenApples","steam_id":76561198120559543,"connected_time":2219000000000,"state":"active","ping":45},{"user_id":44,"name":"dramboney","steam_id":76561199068500959,"connected_time":2280000000000,"state":"active","ping":94}]},{"server_id":19,"name":"Uncletopia | San Francisco | 3 | Stopwatch Beta","name_short":"sfo-3","host":"sfo-1.us.uncletopia.com","port":27035,"enabled":true,"region":"us-west","cc":"us","latitude":37.77397,"longitude":-122.4313,"reserved":0,"last_update":"0001-01-01T00:00:00Z","name_a2s":"Uncletopia | San Francisco | 3 | Stopwatch Beta","protocol":17,"map":"cp_process_final","folder":"tf","game":"Team Fortress","app_id":440,"player_count":24,"max_players":24,"Bots":0,"server_type":"Dedicated","server_os":"Linux","password":true,"vac":true,"version":"7757534","steam_id":85568392924742824,"keywords":["cp","nocrits","nodmgspread","uncletopia"],"game_id":440,"stv_port":27036,"stv_name":"Uncletopia | San Francisco | 3 | Stopwatch Beta | STV","players":[{"user_id":263,"name":"themadlad67","steam_id":76561199309554436,"connected_time":1292000000000,"state":"active","ping":73},{"user_id":283,"name":"Youu","steam_id":76561198064475203,"connected_time":550000000000,"state":"active","ping":45},{"user_id":264,"name":"Cente123","steam_id":76561199113975136,"connected_time":1228000000000,"state":"active","ping":87},{"user_id":251,"name":"klover","steam_id":76561198072254781,"connected_time":2162000000000,"state":"active","ping":46},{"user_id":274,"name":"Jeem","steam_id":76561198044900377,"connected_time":891000000000,"state":"active","ping":59},{"user_id":287,"name":"Left 4 Life","steam_id":76561198080820057,"connected_time":442000000000,"state":"active","ping":149},{"user_id":254,"name":"kepler_casper","steam_id":76561198170474731,"connected_time":1890000000000,"state":"active","ping":45},{"user_id":105,"name":"Doinnoid","steam_id":76561198262276139,"connected_time":9637000000000,"state":"active","ping":73},{"user_id":269,"name":"TicketWicket","steam_id":76561198999363763,"connected_time":1008000000000,"state":"active","ping":52},{"user_id":267,"name":"cornshot","steam_id":76561198043496387,"connected_time":1111000000000,"state":"active","ping":129},{"user_id":268,"name":"LENNIALL","steam_id":76561197991333210,"connected_time":1090000000000,"state":"active","ping":68},{"user_id":275,"name":"Psyke","steam_id":76561198071163412,"connected_time":870000000000,"state":"active","ping":57},{"user_id":241,"name":"t","steam_id":76561198175988929,"connected_time":2865000000000,"state":"active","ping":73},{"user_id":276,"name":"young thug weaponry","steam_id":76561198363821364,"connected_time":758000000000,"state":"active","ping":45},{"user_id":289,"name":"craftycrafterwastaken","steam_id":76561199217624073,"connected_time":55000000000,"state":"active","ping":66},{"user_id":277,"name":"sky.to16","steam_id":76561199211313763,"connected_time":739000000000,"state":"active","ping":110},{"user_id":261,"name":"girr","steam_id":76561198995114110,"connected_time":1401000000000,"state":"active","ping":82},{"user_id":278,"name":"Ace","steam_id":76561199202306398,"connected_time":626000000000,"state":"active","ping":61},{"user_id":279,"name":"floridaman","steam_id":76561198160924031,"connected_time":625000000000,"state":"active","ping":70},{"user_id":280,"name":"The Flavor Savior","steam_id":76561198430508592,"connected_time":592000000000,"state":"active","ping":111},{"user_id":281,"name":"Gh0stlight","steam_id":76561199138042008,"connected_time":574000000000,"state":"active","ping":62},{"user_id":284,"name":"Snowshoe","steam_id":76561198037744635,"connected_time":506000000000,"state":"active","ping":60},{"user_id":288,"name":"Agent86","steam_id":76561198046794593,"connected_time":258000000000,"state":"active","ping":101},{"user_id":286,"name":"Pecca","steam_id":76561198020201385,"connected_time":472000000000,"state":"active","ping":88}]},{"server_id":20,"name":"Uncletopia | San Francisco | 4 | Community","name_short":"sfo-4","host":"sfo-1.us.uncletopia.com","port":27045,"enabled":true,"region":"us-west","cc":"us","latitude":37.77397,"longitude":-122.4313,"reserved":0,"last_update":"0001-01-01T00:00:00Z","name_a2s":"Uncletopia | San Francisco | 4 | Community","protocol":17,"map":"pl_borneo","folder":"tf","game":"Team Fortress","app_id":440,"player_count":24,"max_players":24,"Bots":0,"server_type":"Dedicated","server_os":"Linux","password":true,"vac":true,"version":"7757534","steam_id":85568392924742826,"keywords":["nocrits","nodmgspread","payload","uncletopia"],"game_id":440,"stv_port":27046,"stv_name":"Uncletopia | San Francisco | 4 | Community | STV","players":[{"user_id":9,"name":"Windows1800s","steam_id":76561198145093014,"connected_time":1321000000000,"state":"active","ping":59},{"user_id":10,"name":"S@ndvich","steam_id":76561198179706757,"connected_time":1312000000000,"state":"active","ping":70},{"user_id":11,"name":"Syndicayte","steam_id":76561198809159075,"connected_time":1297000000000,"state":"active","ping":64},{"user_id":12,"name":"Andreshatesmondays","steam_id":76561198889349797,"connected_time":1262000000000,"state":"active","ping":90},{"user_id":13,"name":"Spayor214","steam_id":76561199038610006,"connected_time":1257000000000,"state":"active","ping":76},{"user_id":14,"name":"DylChill616","steam_id":76561198194576953,"connected_time":1231000000000,"state":"active","ping":62},{"user_id":15,"name":"Milk","steam_id":76561198280146264,"connected_time":1226000000000,"state":"active","ping":59},{"user_id":17,"name":"SoulzBerry","steam_id":76561199014910075,"connected_time":1064000000000,"state":"active","ping":85},{"user_id":18,"name":"Measured Moth","steam_id":76561198043220089,"connected_time":1035000000000,"state":"active","ping":51},{"user_id":19,"name":"Lettuce","steam_id":76561198215447917,"connected_time":902000000000,"state":"active","ping":65},{"user_id":20,"name":"Hypralius","steam_id":76561198213500187,"connected_time":847000000000,"state":"active","ping":107},{"user_id":22,"name":"Dark","steam_id":76561198271761230,"connected_time":687000000000,"state":"active","ping":115},{"user_id":29,"name":"Atomic_Rooster","steam_id":76561197992862398,"connected_time":325000000000,"state":"active","ping":90},{"user_id":24,"name":"Cheeki-Breekinator","steam_id":76561198040120806,"connected_time":559000000000,"state":"active","ping":60},{"user_id":25,"name":"anipe10","steam_id":76561199084698417,"connected_time":555000000000,"state":"active","ping":73},{"user_id":26,"name":"Mr. Call You Back","steam_id":76561198025172811,"connected_time":518000000000,"state":"active","ping":57},{"user_id":27,"name":"celestia ludenberg","steam_id":76561199196437823,"connected_time":513000000000,"state":"active","ping":75},{"user_id":28,"name":"The unsung hero","steam_id":76561199198863237,"connected_time":483000000000,"state":"active","ping":135},{"user_id":34,"name":"Jon Snuh","steam_id":76561198075298635,"connected_time":186000000000,"state":"active","ping":115},{"user_id":31,"name":"CakeWut","steam_id":76561198156272110,"connected_time":276000000000,"state":"active","ping":67},{"user_id":32,"name":"Moth-08","steam_id":76561199108086345,"connected_time":216000000000,"state":"active","ping":60},{"user_id":33,"name":"EchoReplayz","steam_id":76561198229366892,"connected_time":207000000000,"state":"active","ping":102},{"user_id":35,"name":"Spoi","steam_id":76561198203134675,"connected_time":173000000000,"state":"active","ping":71},{"user_id":36,"name":"sweaterfan","steam_id":76561199389567214,"connected_time":146000000000,"state":"active","ping":100}]},{"server_id":141,"name":"Uncletopia | Sydney | 1 | All Maps","name_short":"syd-1","host":"syd-1.au.uncletopia.com","port":27015,"enabled":true,"region":"au","cc":"au","latitude":-33.865143,"longitude":151.2099,"reserved":0,"last_update":"0001-01-01T00:00:00Z","name_a2s":"Uncletopia | Sydney | 1 | All Maps","protocol":17,"map":"cp_dustbowl","folder":"tf","game":"Team Fortress","app_id":440,"player_count":24,"max_players":24,"Bots":0,"server_type":"Dedicated","server_os":"Linux","password":true,"vac":true,"version":"7757534","steam_id":85568392924470001,"keywords":["cp","nocrits","nodmgspread","uncletopia"],"game_id":440,"stv_port":27016,"stv_name":"Uncletopia | Sydney | 1 | All Maps | STV","players":[{"user_id":240,"name":"Jazbae","steam_id":76561198350910486,"connected_time":3510000000000,"state":"active","ping":70},{"user_id":229,"name":"shirt without the r","steam_id":76561199071810220,"connected_time":3930000000000,"state":"active","ping":60},{"user_id":258,"name":"normans on sabbatical honey","steam_id":76561198082423230,"connected_time":2244000000000,"state":"active","ping":72},{"user_id":280,"name":"Dr Barry Mundy PhD","steam_id":76561198034512686,"connected_time":1347000000000,"state":"active","ping":39},{"user_id":284,"name":"Thrilled","steam_id":76561198146607797,"connected_time":826000000000,"state":"active","ping":59},{"user_id":264,"name":"Wampy","steam_id":76561199211235248,"connected_time":2114000000000,"state":"active","ping":44},{"user_id":276,"name":"Prophet","steam_id":76561198132033877,"connected_time":1691000000000,"state":"active","ping":53},{"user_id":289,"name":"Senator Armstrong","steam_id":76561199098106608,"connected_time":303000000000,"state":"active","ping":63},{"user_id":256,"name":"KnowZero","steam_id":76561198095752015,"connected_time":2536000000000,"state":"active","ping":60},{"user_id":287,"name":"J_dub","steam_id":76561198079513685,"connected_time":604000000000,"state":"active","ping":69},{"user_id":259,"name":"beth.cubitt","steam_id":76561198454733447,"connected_time":2237000000000,"state":"active","ping":87},{"user_id":239,"name":"chaquitabananaobama","steam_id":76561198011034463,"connected_time":3542000000000,"state":"active","ping":64},{"user_id":221,"name":"clout","steam_id":76561198073310502,"connected_time":4151000000000,"state":"active","ping":75},{"user_id":222,"name":"pants money","steam_id":76561198066256359,"connected_time":4128000000000,"state":"active","ping":51},{"user_id":277,"name":"Lobart√©","steam_id":76561198090116136,"connected_time":1443000000000,"state":"active","ping":56},{"user_id":282,"name":"Bigrichard","steam_id":76561198032092945,"connected_time":1193000000000,"state":"active","ping":74},{"user_id":269,"name":"snooty123","steam_id":76561199055258276,"connected_time":2031000000000,"state":"active","ping":53},{"user_id":275,"name":"Captain Kinky","steam_id":76561198095641578,"connected_time":1736000000000,"state":"active","ping":41},{"user_id":244,"name":"Dingy","steam_id":76561198157009320,"connected_time":3313000000000,"state":"active","ping":61},{"user_id":292,"name":"Jambi","steam_id":76561198310550094,"connected_time":30000000000,"state":"active","ping":54},{"user_id":291,"name":"Lincoln2603","steam_id":76561198170236666,"connected_time":105000000000,"state":"active","ping":38},{"user_id":286,"name":"Jerry be packin","steam_id":76561199229962568,"connected_time":634000000000,"state":"active","ping":76},{"user_id":198,"name":"Jacob","steam_id":76561198059341907,"connected_time":5145000000000,"state":"active","ping":41},{"user_id":293,"name":"cimpact","steam_id":76561198452258917,"connected_time":26000000000,"state":"spawning","ping":212}]},{"server_id":123,"name":"Uncletopia | Sydney | 2 | All Maps","name_short":"syd-2","host":"syd-1.au.uncletopia.com","port":27025,"enabled":true,"region":"au","cc":"au","latitude":-33.865143,"longitude":151.2099,"reserved":0,"last_update":"0001-01-01T00:00:00Z","name_a2s":"Uncletopia | Sydney | 2 | All Maps","protocol":17,"map":"cp_snakewater_final1","folder":"tf","game":"Team Fortress","app_id":440,"player_count":0,"max_players":24,"Bots":0,"server_type":"Dedicated","server_os":"Linux","password":true,"vac":true,"version":"7757534","steam_id":85568392924470002,"keywords":["cp","nocrits","nodmgspread","uncletopia"],"game_id":440,"stv_port":27026,"stv_name":"Uncletopia | Sydney | 2 | All Maps | STV","players":null},{"server_id":395,"name":"Uncletopia | Sydney | 3 | All Maps","name_short":"syd-3","host":"syd-1.au.uncletopia.com","port":27035,"enabled":true,"region":"au","cc":"au","latitude":-33.865143,"longitude":151.2099,"reserved":0,"last_update":"0001-01-01T00:00:00Z","name_a2s":"Uncletopia | Sydney | 3 | All Maps","protocol":17,"map":"pl_pier","folder":"tf","game":"Team Fortress","app_id":440,"player_count":0,"max_players":24,"Bots":0,"server_type":"Dedicated","server_os":"Linux","password":true,"vac":true,"version":"7757534","steam_id":85568392925194467,"keywords":["nocrits","nodmgspread","payload","uncletopia"],"game_id":440,"stv_port":27036,"stv_name":"Uncletopia | Sydney | 3 | All Maps | STV","players":null},{"server_id":396,"name":"Uncletopia | Sydney | 4 | All Maps","name_short":"syd-4","host":"syd-1.au.uncletopia.com","port":27045,"enabled":true,"region":"au","cc":"au","latitude":-33.865143,"longitude":151.2099,"reserved":0,"last_update":"0001-01-01T00:00:00Z","name_a2s":"Uncletopia | Sydney | 4 | All Maps","protocol":17,"map":"cp_snakewater_final1","folder":"tf","game":"Team Fortress","app_id":440,"player_count":0,"max_players":24,"Bots":0,"server_type":"Dedicated","server_os":"Linux","password":true,"vac":true,"version":"7757534","steam_id":85568392925397958,"keywords":["cp","nocrits","nodmgspread","uncletopia"],"game_id":440,"stv_port":27046,"stv_name":"Uncletopia | Sydney | 4 | All Maps | STV","players":null},{"server_id":58,"name":"Uncletopia | Sydney | 5 | Stopwatch Beta","name_short":"syd-5","host":"syd-1.au.uncletopia.com","port":27055,"enabled":true,"region":"au","cc":"au","latitude":-33.865143,"longitude":151.2099,"reserved":0,"last_update":"0001-01-01T00:00:00Z","name_a2s":"Uncletopia | Sydney | 5 | Stopwatch Beta","protocol":17,"map":"pl_barnblitz","folder":"tf","game":"Team Fortress","app_id":440,"player_count":0,"max_players":24,"Bots":0,"server_type":"Dedicated","server_os":"Linux","password":true,"vac":true,"version":"7757534","steam_id":85568392925397959,"keywords":["nocrits","nodmgspread","payload","uncletopia"],"game_id":440,"stv_port":27056,"stv_name":"Uncletopia | Sydney | 5 | Stopwatch Beta | STV","players":null},{"server_id":59,"name":"Uncletopia | Sydney | 6 | Community","name_short":"syd-6","host":"syd-1.au.uncletopia.com","port":27065,"enabled":true,"region":"au","cc":"au","latitude":-33.865143,"longitude":151.2099,"reserved":0,"last_update":"0001-01-01T00:00:00Z","name_a2s":"Uncletopia | Sydney | 6 | Community","protocol":17,"map":"workshop/pl_vigil_rc9.ugc1266210012","folder":"tf","game":"Team Fortress","app_id":440,"player_count":0,"max_players":24,"Bots":0,"server_type":"Dedicated","server_os":"Linux","password":true,"vac":true,"version":"7757534","steam_id":85568392925397960,"keywords":["nocrits","nodmgspread","payload","uncletopia"],"game_id":440,"stv_port":27066,"stv_name":"Uncletopia | Sydney | 6 | Community | STV","players":null},{"server_id":49,"name":"Uncletopia | Warsaw | 1 | All Maps","name_short":"waw-1","host":"waw-1.pl.uncletopia.com","port":27015,"enabled":true,"region":"eu","cc":"pl","latitude":52.2297,"longitude":21.017532,"reserved":0,"last_update":"0001-01-01T00:00:00Z","name_a2s":"","protocol":0,"map":"","folder":"","game":"","app_id":0,"player_count":0,"max_players":0,"Bots":0,"server_type":"","server_os":"","password":false,"vac":false,"version":"","steam_id":0,"keywords":null,"game_id":0,"stv_port":0,"stv_name":"","players":null},{"server_id":50,"name":"Uncletopia | Warsaw | 2 | All Maps","name_short":"waw-2","host":"waw-1.pl.uncletopia.com","port":27025,"enabled":true,"region":"eu","cc":"pl","latitude":52.2297,"longitude":21.017532,"reserved":0,"last_update":"0001-01-01T00:00:00Z","name_a2s":"Uncletopia | Warsaw | 2 | All Maps","protocol":17,"map":"pl_frontier_final","folder":"tf","game":"Team Fortress","app_id":440,"player_count":0,"max_players":24,"Bots":0,"server_type":"Dedicated","server_os":"Linux","password":true,"vac":true,"version":"7757534","steam_id":85568392925397851,"keywords":["nocrits","nodmgspread","payload","uncletopia"],"game_id":440,"stv_port":27026,"stv_name":"Uncletopia | Warsaw | 2 | All Maps | STV","players":null},{"server_id":51,"name":"Uncletopia | Warsaw | 3 | All Maps","name_short":"waw-3","host":"waw-1.pl.uncletopia.com","port":27035,"enabled":true,"region":"eu","cc":"pl","latitude":52.2297,"longitude":21.017532,"reserved":0,"last_update":"0001-01-01T00:00:00Z","name_a2s":"Uncletopia | Warsaw | 3 | All Maps","protocol":17,"map":"koth_suijin","folder":"tf","game":"Team Fortress","app_id":440,"player_count":0,"max_players":24,"Bots":0,"server_type":"Dedicated","server_os":"Linux","password":true,"vac":true,"version":"7757534","steam_id":85568392925397852,"keywords":["cp","nocrits","nodmgspread","uncletopia"],"game_id":440,"stv_port":27036,"stv_name":"Uncletopia | Warsaw | 3 | All Maps | STV","players":null},{"server_id":52,"name":"Uncletopia | Warsaw | 4 | All Maps","name_short":"waw-4","host":"waw-1.pl.uncletopia.com","port":27045,"enabled":true,"region":"eu","cc":"pl","latitude":52.2297,"longitude":21.017532,"reserved":0,"last_update":"0001-01-01T00:00:00Z","name_a2s":"Uncletopia | Warsaw | 4 | All Maps","protocol":17,"map":"pl_swiftwater_final1","folder":"tf","game":"Team Fortress","app_id":440,"player_count":0,"max_players":24,"Bots":0,"server_type":"Dedicated","server_os":"Linux","password":true,"vac":true,"version":"7757534","steam_id":85568392925397853,"keywords":["nocrits","nodmgspread","payload","uncletopia"],"game_id":440,"stv_port":27046,"stv_name":"Uncletopia | Warsaw | 4 | All Maps | STV","players":null},{"server_id":53,"name":"Uncletopia | Warsaw | 5 | Stopwatch Beta","name_short":"waw-5","host":"waw-1.pl.uncletopia.com","port":27055,"enabled":true,"region":"eu","cc":"pl","latitude":52.2297,"longitude":21.017532,"reserved":0,"last_update":"0001-01-01T00:00:00Z","name_a2s":"Uncletopia | Warsaw | 5 | Stopwatch Beta","protocol":17,"map":"workshop/koth_product_final.ugc454272353","folder":"tf","game":"Team Fortress","app_id":440,"player_count":0,"max_players":24,"Bots":0,"server_type":"Dedicated","server_os":"Linux","password":true,"vac":true,"version":"7757534","steam_id":85568392925397854,"keywords":["cp","nocrits","nodmgspread","uncletopia"],"game_id":440,"stv_port":27056,"stv_name":"Uncletopia | Warsaw | 5 | Stopwatch Beta | STV","players":null},{"server_id":54,"name":"Uncletopia | Warsaw | 6 | Community","name_short":"waw-6","host":"waw-1.pl.uncletopia.com","port":27065,"enabled":true,"region":"eu","cc":"pl","latitude":52.2297,"longitude":21.017532,"reserved":0,"last_update":"0001-01-01T00:00:00Z","name_a2s":"Uncletopia | Warsaw | 6 | Community","protocol":17,"map":"workshop/cp_villa_b19.ugc2113052569","folder":"tf","game":"Team Fortress","app_id":440,"player_count":0,"max_players":24,"Bots":0,"server_type":"Dedicated","server_os":"Linux","password":true,"vac":true,"version":"7757534","steam_id":85568392925397856,"keywords":["cp","nocrits","nodmgspread","uncletopia"],"game_id":440,"stv_port":27066,"stv_name":"Uncletopia | Warsaw | 6 | Community | STV","players":null}]}