{"status":true,"message":"","result":[{"server_id":9,"name":"Uncletopia | Atlanta | 1 | All Maps","name_short":"atl-1","host":"atl-1.us.uncletopia.com","port":27015,"enabled":true,"region":"us-east","cc":"us","latitude":33.753746,"longitude":-84.38633,"reserved":0,"last_update":"0001-01-01T00:00:00Z","name_a2s":"Uncletopia | Atlanta | 1 | All Maps","protocol":17,"map":"pl_snowycoast","folder":"tf","game":"Team Fortress","app_id":440,"player_count":0,"max_players":24,"Bots":0,"server_type":"Dedicated","server_os":"Linux","password":true,"vac":true,"version":"7742253","steam_id":85568392924469982,"keywords":["nocrits","nodmgspread","payload","uncletopia"],"game_id":440,"stv_port":27016,"stv_name":"Uncletopia | Atlanta | 1 | All Maps | STV","players":null},{"server_id":400,"name":"Uncletopia | Atlanta | 3 | Stopwatch Beta","name_short":"atl-3","host":"atl-1.us.uncletopia.com","port":27035,"enabled":true,"region":"us-east","cc":"us","latitude":33.753746,"longitude":-84.38633,"reserved":0,"last_update":"0001-01-01T00:00:00Z","name_a2s":"Uncletopia | Atlanta | 3 | Stopwatch Beta","protocol":17,"map":"pl_pier","folder":"tf","game":"Team Fortress","app_id":440,"player_count":0,"max_players":24,"Bots":0,"server_type":"Dedicated","server_os":"Linux","password":true,"vac":true,"version":"7742253","steam_id":85568392924515187,"keywords":["nocrits","nodmgspread","payload","uncletopia"],"game_id":440,"stv_port":27036,"stv_name":"Uncletopia | Atlanta | 3 | Stopwatch Beta | STV","players":null},{"server_id":401,"name":"Uncletopia | Atlanta | 4 | No Payload","name_short":"atl-4","host":"atl-1.us.uncletopia.com","port":27045,"enabled":true,"region":"us-east","cc":"us","latitude":33.753746,"longitude":-84.38633,"reserved":0,"last_update":"0001-01-01T00:00:00Z","name_a2s":"Uncletopia | Atlanta | 4 | No Payload","protocol":17,"map":"pl_pier","folder":"tf","game":"Team Fortress","app_id":440,"player_count":0,"max_players":24,"Bots":0,"server_type":"Dedicated","server_os":"Linux","password":true,"vac":true,"version":"7723704","steam_id":85568392924515188,"keywords":["nocrits","nodmgspread","payload","uncletopia"],"game_id":440,"stv_port":27046,"stv_name":"Uncletopia | Atlanta | 4 | No Payload | STV","players":null},{"server_id":2,"name":"Uncletopia | Chicago | 1 | All Maps","name_short":"chi-1","host":"chi-1.us.uncletopia.com","port":27015,"enabled":true,"region":"us-central","cc":"us","latitude":41.881832,"longitude":-87.62318,"reserved":0,"last_update":"0001-01-01T00:00:00Z","name_a2s":"Uncletopia | Chicago | 1 | All Maps","protocol":17,"map":"koth_viaduct","folder":"tf","game":"Team Fortress","app_id":440,"player_count":0,"max_players":24,"Bots":0,"server_type":"Dedicated","server_os":"Linux","password":true,"vac":true,"version":"7742253","steam_id":85568392924469984,"keywords":["cp","nocrits","nodmgspread","uncletopia"],"game_id":440,"stv_port":27016,"stv_name":"Uncletopia | Chicago | 1 | All Maps | STV","players":null},{"server_id":106,"name":"Uncletopia | Chicago | 2 | All Maps","name_short":"chi-2","host":"chi-1.us.uncletopia.com","port":27025,"enabled":true,"region":"us-central","cc":"us","latitude":41.881832,"longitude":-87.62318,"reserved":0,"last_update":"0001-01-01T00:00:00Z","name_a2s":"Uncletopia | Chicago | 2 | All Maps","protocol":17,"map":"pl_snowycoast","folder":"tf","game":"Team Fortress","app_id":440,"player_count":25,"max_players":24,"Bots":0,"server_type":"Dedicated","server_os":"Linux","password":true,"vac":true,"version":"7742253","steam_id":85568392924469985,"keywords":["nocrits","nodmgspread","payload","uncletopia"],"game_id":440,"stv_port":27026,"stv_name":"Uncletopia | Chicago | 2 | All Maps | STV","players":[{"user_id":3,"name":"Caveman","steam_id":76561198372237027,"connected_time":1671000000000,"state":"active","ping":99},{"user_id":5,"name":"TheFlyingTortis","steam_id":76561198071576016,"connected_time":1620000000000,"state":"active","ping":52},{"user_id":30,"name":"poppy ヅ ●ᴥ● #savetf2","steam_id":76561199183188798,"connected_time":875000000000,"state":"active","ping":65},{"user_id":7,"name":"Gitgudgame","steam_id":76561198354761942,"connected_time":1467000000000,"state":"active","ping":81},{"user_id":8,"name":"Chaotic Rushu","steam_id":76561198170054407,"connected_time":1461000000000,"state":"active","ping":76},{"user_id":28,"name":"justajem101","steam_id":76561199228510573,"connected_time":961000000000,"state":"active","ping":152},{"user_id":49,"name":"t.tv/FamilyGuyFunnyMoments277","steam_id":76561198416047580,"connected_time":633000000000,"state":"active","ping":63},{"user_id":11,"name":"jhatzy","steam_id":76561198853607142,"connected_time":1410000000000,"state":"active","ping":61},{"user_id":12,"name":"Freewave","steam_id":76561198156282541,"connected_time":1324000000000,"state":"active","ping":46},{"user_id":44,"name":"StormyBoyo","steam_id":76561198273482774,"connected_time":701000000000,"state":"active","ping":101},{"user_id":14,"name":"dysesthesia","steam_id":76561198027159018,"connected_time":1254000000000,"state":"active","ping":81},{"user_id":15,"name":"The Collective","steam_id":76561198170423483,"connected_time":1197000000000,"state":"active","ping":78},{"user_id":26,"name":"strangedeath","steam_id":76561198154159297,"connected_time":990000000000,"state":"active","ping":75},{"user_id":17,"name":"amagicowl","steam_id":76561199060487814,"connected_time":1188000000000,"state":"active","ping":110},{"user_id":27,"name":"Delacroix","steam_id":76561198842964669,"connected_time":987000000000,"state":"active","ping":63},{"user_id":88,"name":"Veirū Viseris","steam_id":76561197989857176,"connected_time":3000000000,"state":"spawning","ping":183},{"user_id":33,"name":"motherfucker 2.0","steam_id":76561198141189209,"connected_time":842000000000,"state":"active","ping":59},{"user_id":41,"name":"ATL1 | Pango","steam_id":76561198069811545,"connected_time":782000000000,"state":"active","ping":76},{"user_id":34,"name":"LizaЯdlЧ","steam_id":76561198176750238,"connected_time":832000000000,"state":"active","ping":149},{"user_id":36,"name":"Rum and Death","steam_id":76561198095245223,"connected_time":825000000000,"state":"active","ping":62},{"user_id":48,"name":"Navysealdemoman","steam_id":76561199048625312,"connected_time":636000000000,"state":"active","ping":71},{"user_id":38,"name":"pony grrrl","steam_id":76561199273231736,"connected_time":821000000000,"state":"active","ping":78},{"user_id":39,"name":"Rugbmilk","steam_id":76561199389283507,"connected_time":818000000000,"state":"active","ping":64},{"user_id":68,"name":"Vem","steam_id":76561198117273112,"connected_time":214000000000,"state":"active","ping":67},{"user_id":79,"name":"Diet Coke Overlord","steam_id":76561199147118923,"connected_time":74000000000,"state":"active","ping":86}]},{"server_id":402,"name":"Uncletopia | Chicago | 3 | All Maps","name_short":"chi-3","host":"chi-1.us.uncletopia.com","port":27035,"enabled":true,"region":"us-central","cc":"us","latitude":41.881832,"longitude":-87.62318,"reserved":0,"last_update":"0001-01-01T00:00:00Z","name_a2s":"Uncletopia | Chicago | 3 | All Maps","protocol":17,"map":"koth_viaduct","folder":"tf","game":"Team Fortress","app_id":440,"player_count":0,"max_players":24,"Bots":0,"server_type":"Dedicated","server_os":"Linux","password":true,"vac":true,"version":"7742253","steam_id":85568392924515191,"keywords":["cp","nocrits","nodmgspread","uncletopia"],"game_id":440,"stv_port":27036,"stv_name":"Uncletopia | Chicago | 3 | All Maps | STV","players":null},{"server_id":403,"name":"Uncletopia | Chicago | 4 | All Maps","name_short":"chi-4","host":"chi-1.us.uncletopia.com","port":27045,"enabled":true,"region":"us-central","cc":"us","latitude":41.881832,"longitude":-87.62318,"reserved":0,"last_update":"0001-01-01T00:00:00Z","name_a2s":"Uncletopia | Chicago | 4 | All Maps","protocol":17,"map":"koth_lakeside_final","folder":"tf","game":"Team Fortress","app_id":440,"player_count":0,"max_players":24,"Bots":0,"server_type":"Dedicated","server_os":"Linux","password":true,"vac":true,"version":"7742253","steam_id":85568392924515193,"keywords":["cp","nocrits","nodmgspread","uncletopia"],"game_id":440,"stv_port":27046,"stv_name":"Uncletopia | Chicago | 4 | All Maps | STV","players":null},{"server_id":36,"name":"Uncletopia | Chicago | 5 | All Maps","name_short":"chi-5","host":"chi-2.us.uncletopia.com","port":27015,"enabled":true,"region":"us-central","cc":"us","latitude":41.881832,"longitude":-87.62318,"reserved":0,"last_update":"0001-01-01T00:00:00Z","name_a2s":"Uncletopia | Chicago | 5 | All Maps","protocol":17,"map":"pl_upward","folder":"tf","game":"Team Fortress","app_id":440,"player_count":0,"max_players":24,"Bots":0,"server_type":"Dedicated","server_os":"Linux","password":true,"vac":true,"version":"7742253","steam_id":85568392924866362,"keywords":["nocrits","nodmgspread","payload","uncletopia"],"game_id":440,"stv_port":27016,"stv_name":"Uncletopia | Chicago | 5 | All Maps | STV","players":null},{"server_id":37,"name":"Uncletopia | Chicago | 6 | All Maps","name_short":"chi-6","host":"chi-2.us.uncletopia.com","port":27025,"enabled":true,"region":"us-central","cc":"us","latitude":41.881832,"longitude":-87.62318,"reserved":0,"last_update":"0001-01-01T00:00:00Z","name_a2s":"Uncletopia | Chicago | 6 | All Maps","protocol":17,"map":"pl_pier","folder":"tf","game":"Team Fortress","app_id":440,"player_count":24,"max_players":24,"Bots":0,"server_type":"Dedicated","server_os":"Linux","password":true,"vac":true,"version":"7742253","steam_id":85568392924866363,"keywords":["nocrits","nodmgspread","payload","uncletopia"],"game_id":440,"stv_port":27026,"stv_name":"Uncletopia | Chicago | 6 | All Maps | STV","players":[{"user_id":85,"name":"I'm So Fucking Cool","steam_id":76561198098418071,"connected_time":3855000000000,"state":"active","ping":107},{"user_id":107,"name":"whimmu","steam_id":76561198370839794,"connected_time":960000000000,"state":"active","ping":134},{"user_id":95,"name":"Mouth Tea","steam_id":76561198285054047,"connected_time":2420000000000,"state":"active","ping":78},{"user_id":109,"name":"pencilneck","steam_id":76561198865971290,"connected_time":762000000000,"state":"active","ping":93},{"user_id":86,"name":"vortexgamer","steam_id":76561197999435527,"connected_time":3809000000000,"state":"active","ping":73},{"user_id":108,"name":"Elizabeth truss","steam_id":76561198058250979,"connected_time":879000000000,"state":"active","ping":65},{"user_id":101,"name":"aphexgwen","steam_id":76561198061497429,"connected_time":1620000000000,"state":"active","ping":55},{"user_id":110,"name":"YungKeet","steam_id":76561198293854963,"connected_time":594000000000,"state":"active","ping":76},{"user_id":102,"name":"Kritzburgh","steam_id":76561198149466938,"connected_time":1614000000000,"state":"active","ping":74},{"user_id":91,"name":"Purgatory","steam_id":76561198374795958,"connected_time":3231000000000,"state":"active","ping":109},{"user_id":92,"name":"SugiNo528","steam_id":76561199176230786,"connected_time":2818000000000,"state":"active","ping":84},{"user_id":35,"name":"Atlas","steam_id":76561198127975050,"connected_time":7764000000000,"state":"active","ping":65},{"user_id":54,"name":"viedoamegs","steam_id":76561198025295263,"connected_time":6229000000000,"state":"active","ping":77},{"user_id":16,"name":"Jimothy the Fatscout","steam_id":76561198982248872,"connected_time":8884000000000,"state":"active","ping":76},{"user_id":99,"name":"Zymiren","steam_id":76561198054985471,"connected_time":1623000000000,"state":"active","ping":92},{"user_id":105,"name":"plaiddd","steam_id":76561198353053169,"connected_time":1076000000000,"state":"active","ping":82},{"user_id":103,"name":"SlimGrady","steam_id":76561198451231329,"connected_time":1561000000000,"state":"active","ping":66},{"user_id":111,"name":"frid","steam_id":76561198005806915,"connected_time":594000000000,"state":"active","ping":63},{"user_id":104,"name":"GREG","steam_id":76561198073021168,"connected_time":1506000000000,"state":"active","ping":85},{"user_id":100,"name":"srv","steam_id":76561198026589960,"connected_time":1622000000000,"state":"active","ping":56},{"user_id":88,"name":"Alias Bulldog Drummond","steam_id":76561198013065507,"connected_time":3778000000000,"state":"active","ping":97},{"user_id":112,"name":"NoBoreGaming","steam_id":76561198044244547,"connected_time":544000000000,"state":"active","ping":77},{"user_id":114,"name":"Bartholomew DingleNut","steam_id":76561198011238088,"connected_time":371000000000,"state":"active","ping":117},{"user_id":78,"name":"IPlayGamez","steam_id":76561198041387508,"connected_time":4246000000000,"state":"active","ping":68}]},{"server_id":38,"name":"Uncletopia | Chicago | 7 | Stopwatch Beta","name_short":"chi-7","host":"chi-2.us.uncletopia.com","port":27035,"enabled":true,"region":"us-central","cc":"us","latitude":41.881832,"longitude":-87.62318,"reserved":0,"last_update":"0001-01-01T00:00:00Z","name_a2s":"Uncletopia | Chicago | 7 | Stopwatch Beta","protocol":17,"map":"koth_lakeside_final","folder":"tf","game":"Team Fortress","app_id":440,"player_count":0,"max_players":24,"Bots":0,"server_type":"Dedicated","server_os":"Linux","password":true,"vac":true,"version":"7742253","steam_id":85568392924866364,"keywords":["cp","nocrits","nodmgspread","uncletopia"],"game_id":440,"stv_port":27036,"stv_name":"Uncletopia | Chicago | 7 | Stopwatch Beta | STV","players":null},{"server_id":39,"name":"Uncletopia | Chicago | 8 | Community","name_short":"chi-8","host":"chi-2.us.uncletopia.com","port":27045,"enabled":true,"region":"us-central","cc":"us","latitude":41.881832,"longitude":-87.62318,"reserved":0,"last_update":"0001-01-01T00:00:00Z","name_a2s":"Uncletopia | Chicago | 8 | Community","protocol":17,"map":"koth_lakeside_final","folder":"tf","game":"Team Fortress","app_id":440,"player_count":0,"max_players":24,"Bots":0,"server_type":"Dedicated","server_os":"Linux","password":true,"vac":true,"version":"7742253","steam_id":85568392924866365,"keywords":["cp","nocrits","nodmgspread","uncletopia"],"game_id":440,"stv_port":27046,"stv_name":"Uncletopia | Chicago | 8 | Community | STV","players":null},{"server_id":8,"name":"Uncletopia | Dallas | 1 | All Maps","name_short":"dal-1","host":"dal-1.us.uncletopia.com","port":27015,"enabled":true,"region":"us-central","cc":"us","latitude":32.779167,"longitude":-96.80889,"reserved":0,"last_update":"0001-01-01T00:00:00Z","name_a2s":"Uncletopia | Dallas | 1 | All Maps","protocol":17,"map":"koth_lakeside_final","folder":"tf","game":"Team Fortress","app_id":440,"player_count":0,"max_players":24,"Bots":0,"server_type":"Dedicated","server_os":"Linux","password":true,"vac":true,"version":"7742253","steam_id":85568392924469986,"keywords":["cp","nocrits","nodmgspread","uncletopia"],"game_id":440,"stv_port":27016,"stv_name":"Uncletopia | Dallas | 1 | All Maps | STV","players":null},{"server_id":108,"name":"Uncletopia | Dallas | 2 | All Maps","name_short":"dal-2","host":"dal-1.us.uncletopia.com","port":27025,"enabled":true,"region":"us-central","cc":"us","latitude":32.779167,"longitude":-96.80889,"reserved":0,"last_update":"0001-01-01T00:00:00Z","name_a2s":"Uncletopia | Dallas | 2 | All Maps","protocol":17,"map":"cp_process_final","folder":"tf","game":"Team Fortress","app_id":440,"player_count":0,"max_players":24,"Bots":0,"server_type":"Dedicated","server_os":"Linux","password":true,"vac":true,"version":"7742253","steam_id":85568392924469988,"keywords":["cp","nocrits","nodmgspread","uncletopia"],"game_id":440,"stv_port":27026,"stv_name":"Uncletopia | Dallas | 2 | All Maps | STV","players":null},{"server_id":5,"name":"Uncletopia | Frankfurt | 1 | All Maps","name_short":"frk-1","host":"frk-1.de.uncletopia.com","port":27015,"enabled":true,"region":"eu","cc":"de","latitude":50.110924,"longitude":8.682127,"reserved":0,"last_update":"0001-01-01T00:00:00Z","name_a2s":"Uncletopia | Frankfurt | 1 | All Maps","protocol":17,"map":"pl_thundermountain","folder":"tf","game":"Team Fortress","app_id":440,"player_count":24,"max_players":24,"Bots":0,"server_type":"Dedicated","server_os":"Linux","password":true,"vac":true,"version":"7742253","steam_id":85568392924469989,"keywords":["nocrits","nodmgspread","payload","uncletopia"],"game_id":440,"stv_port":27016,"stv_name":"Uncletopia | Frankfurt | 1 | All Maps | STV","players":[{"user_id":350,"name":"Arpixa","steam_id":76561198101850435,"connected_time":1343000000000,"state":"active","ping":66},{"user_id":356,"name":"Toucan Phoenix","steam_id":76561198314587216,"connected_time":852000000000,"state":"active","ping":72},{"user_id":316,"name":"GZimmer","steam_id":76561198088794767,"connected_time":2393000000000,"state":"active","ping":51},{"user_id":315,"name":"festry","steam_id":76561198873296090,"connected_time":2421000000000,"state":"active","ping":67},{"user_id":364,"name":"mernineadam07","steam_id":76561199379978966,"connected_time":62000000000,"state":"active","ping":139},{"user_id":327,"name":"Dolcelatte","steam_id":76561198038501770,"connected_time":1760000000000,"state":"active","ping":51},{"user_id":355,"name":"-gunripp0r^be / Obelix^","steam_id":76561197999306879,"connected_time":920000000000,"state":"active","ping":99},{"user_id":293,"name":"Ｒ Ｏ Ｂ Ｂ Ｅ Ｒ Ｔ","steam_id":76561198134404830,"connected_time":3148000000000,"state":"active","ping":128},{"user_id":363,"name":"Chad IV","steam_id":76561198107767058,"connected_time":147000000000,"state":"active","ping":87},{"user_id":254,"name":"Pinkchup","steam_id":76561198106802803,"connected_time":5145000000000,"state":"active","ping":81},{"user_id":300,"name":"Lazulura","steam_id":76561198103569919,"connected_time":2874000000000,"state":"active","ping":88},{"user_id":353,"name":"wailord","steam_id":76561199186160642,"connected_time":1178000000000,"state":"active","ping":88},{"user_id":297,"name":"theres a bomb in my tea","steam_id":76561199134149296,"connected_time":3053000000000,"state":"active","ping":121},{"user_id":309,"name":"ducks","steam_id":76561198166148685,"connected_time":2696000000000,"state":"active","ping":46},{"user_id":317,"name":"General Petrov","steam_id":76561198027204104,"connected_time":2249000000000,"state":"active","ping":84},{"user_id":278,"name":"pepper","steam_id":76561198059782462,"connected_time":4040000000000,"state":"active","ping":59},{"user_id":362,"name":"sololiste","steam_id":76561198006047494,"connected_time":212000000000,"state":"active","ping":60},{"user_id":331,"name":"BogdanBury","steam_id":76561199151820854,"connected_time":1698000000000,"state":"active","ping":103},{"user_id":354,"name":"Ender w","steam_id":76561198160747515,"connected_time":953000000000,"state":"active","ping":100},{"user_id":361,"name":"csnipery","steam_id":76561199435280050,"connected_time":314000000000,"state":"active","ping":67},{"user_id":258,"name":"txrracxtta","steam_id":76561198073478010,"connected_time":5043000000000,"state":"active","ping":42},{"user_id":288,"name":"dedwarded","steam_id":76561199194948995,"connected_time":3317000000000,"state":"active","ping":53},{"user_id":312,"name":"rodeybodey","steam_id":76561198165351355,"connected_time":2554000000000,"state":"active","ping":86},{"user_id":314,"name":"Penis Contortionist","steam_id":76561198073663784,"connected_time":2493000000000,"state":"active","ping":55}]},{"server_id":110,"name":"Uncletopia | Frankfurt | 2 | All Maps","name_short":"frk-2","host":"frk-1.de.uncletopia.com","port":27025,"enabled":true,"region":"eu","cc":"de","latitude":50.110924,"longitude":8.682127,"reserved":0,"last_update":"0001-01-01T00:00:00Z","name_a2s":"Uncletopia | Frankfurt | 2 | All Maps","protocol":17,"map":"cp_dustbowl","folder":"tf","game":"Team Fortress","app_id":440,"player_count":24,"max_players":24,"Bots":0,"server_type":"Dedicated","server_os":"Linux","password":true,"vac":true,"version":"7742253","steam_id":85568392924469990,"keywords":["cp","nocrits","nodmgspread","uncletopia"],"game_id":440,"stv_port":27026,"stv_name":"Uncletopia | Frankfurt | 2 | All Maps | STV","players":[{"user_id":171,"name":"silenk","steam_id":76561198367689055,"connected_time":2779000000000,"state":"active","ping":65},{"user_id":179,"name":"juicymangoes","steam_id":76561198131670413,"connected_time":1957000000000,"state":"active","ping":64},{"user_id":183,"name":"robbob","steam_id":76561198137375391,"connected_time":1236000000000,"state":"active","ping":71},{"user_id":184,"name":"Kurage","steam_id":76561198021221288,"connected_time":1236000000000,"state":"active","ping":55},{"user_id":155,"name":"DeKritteh","steam_id":76561198113945397,"connected_time":3694000000000,"state":"active","ping":86},{"user_id":192,"name":"goktwoxd","steam_id":76561198065114415,"connected_time":1159000000000,"state":"active","ping":69},{"user_id":196,"name":"mati","steam_id":76561198269678940,"connected_time":1114000000000,"state":"active","ping":60},{"user_id":204,"name":"yuh","steam_id":76561199005555839,"connected_time":8000000000,"state":"spawning","ping":78},{"user_id":157,"name":"clems17","steam_id":76561199420685482,"connected_time":3659000000000,"state":"active","ping":47},{"user_id":203,"name":"Waffy","steam_id":76561199045810038,"connected_time":223000000000,"state":"active","ping":87},{"user_id":141,"name":"Joel!","steam_id":76561198155422742,"connected_time":5445000000000,"state":"active","ping":54},{"user_id":200,"name":"Rops","steam_id":76561198031608011,"connected_time":931000000000,"state":"active","ping":76},{"user_id":198,"name":"SirNeeco \u003c3","steam_id":76561198103014203,"connected_time":1002000000000,"state":"active","ping":58},{"user_id":202,"name":"MAJAX","steam_id":76561198254828632,"connected_time":251000000000,"state":"active","ping":59},{"user_id":190,"name":"テイルス","steam_id":76561198022403271,"connected_time":1213000000000,"state":"active","ping":45},{"user_id":142,"name":"citronous","steam_id":76561198093290934,"connected_time":5244000000000,"state":"active","ping":58},{"user_id":193,"name":"Nomad","steam_id":76561198109701270,"connected_time":1145000000000,"state":"active","ping":75},{"user_id":169,"name":"Babatitiste","steam_id":76561198800212915,"connected_time":3221000000000,"state":"active","ping":68},{"user_id":194,"name":"Ineluctable Sex Predator","steam_id":76561197995971061,"connected_time":1137000000000,"state":"active","ping":86},{"user_id":195,"name":"beurgeur","steam_id":76561198872426314,"connected_time":1131000000000,"state":"active","ping":45},{"user_id":130,"name":"Akirus","steam_id":76561198369831090,"connected_time":5926000000000,"state":"active","ping":104},{"user_id":127,"name":"Gordon Birdman","steam_id":76561198013382324,"connected_time":6129000000000,"state":"active","ping":75},{"user_id":197,"name":"Platform666","steam_id":76561198314266851,"connected_time":1092000000000,"state":"active","ping":85},{"user_id":201,"name":"Rose-Marie","steam_id":76561198055611092,"connected_time":372000000000,"state":"active","ping":54}]},{"server_id":308,"name":"Uncletopia | Frankfurt | 3 | All Maps","name_short":"frk-3","host":"frk-1.de.uncletopia.com","port":27035,"enabled":true,"region":"eu","cc":"de","latitude":50.110924,"longitude":8.682127,"reserved":0,"last_update":"0001-01-01T00:00:00Z","name_a2s":"Uncletopia | Frankfurt | 3 | All Maps","protocol":17,"map":"koth_sawmill","folder":"tf","game":"Team Fortress","app_id":440,"player_count":23,"max_players":24,"Bots":0,"server_type":"Dedicated","server_os":"Linux","password":true,"vac":true,"version":"7742253","steam_id":85568392924504274,"keywords":["cp","nocrits","nodmgspread","uncletopia"],"game_id":440,"stv_port":27036,"stv_name":"Uncletopia | Frankfurt | 3 | All Maps | STV","players":[{"user_id":109,"name":"Trash Cortex","steam_id":76561198991110334,"connected_time":151000000000,"state":"active","ping":60},{"user_id":75,"name":"TheSaltyFool","steam_id":76561199223139797,"connected_time":1911000000000,"state":"active","ping":67},{"user_id":91,"name":"Le Chevalier Pingouin","steam_id":76561198221355000,"connected_time":1205000000000,"state":"active","ping":50},{"user_id":15,"name":"jesus0004","steam_id":76561198300074730,"connected_time":4445000000000,"state":"active","ping":125},{"user_id":99,"name":"$$ The Milkman $$","steam_id":76561198977948250,"connected_time":664000000000,"state":"active","ping":58},{"user_id":17,"name":"sinapsid","steam_id":76561199130784607,"connected_time":4383000000000,"state":"active","ping":82},{"user_id":95,"name":"MateMO","steam_id":76561198146180114,"connected_time":994000000000,"state":"active","ping":86},{"user_id":19,"name":"Fella","steam_id":76561199090136355,"connected_time":4369000000000,"state":"active","ping":56},{"user_id":67,"name":"!","steam_id":76561198427311326,"connected_time":2835000000000,"state":"active","ping":84},{"user_id":105,"name":"Barely Sentient","steam_id":76561198143305625,"connected_time":332000000000,"state":"active","ping":94},{"user_id":92,"name":"Äärik ♣","steam_id":76561198131871737,"connected_time":1079000000000,"state":"active","ping":59},{"user_id":96,"name":"KV0737 AKA ORANGE CHEESE BURGER","steam_id":76561198969195317,"connected_time":895000000000,"state":"active","ping":74},{"user_id":31,"name":"Osmo","steam_id":76561199286764992,"connected_time":4204000000000,"state":"active","ping":87},{"user_id":70,"name":"Heisenberg","steam_id":76561198374345060,"connected_time":2503000000000,"state":"active","ping":91},{"user_id":30,"name":"Blyatwork","steam_id":76561198825379598,"connected_time":4209000000000,"state":"active","ping":40},{"user_id":108,"name":"Rambi","steam_id":76561199058078505,"connected_time":158000000000,"state":"active","ping":164},{"user_id":82,"name":"Psychicpie","steam_id":76561198126065206,"connected_time":1557000000000,"state":"active","ping":45},{"user_id":57,"name":"Zogg","steam_id":76561198352683491,"connected_time":3511000000000,"state":"active","ping":54},{"user_id":83,"name":"askulap","steam_id":76561197992018795,"connected_time":1555000000000,"state":"active","ping":78},{"user_id":84,"name":"❅❆unnamed❆❅","steam_id":76561198870711791,"connected_time":1550000000000,"state":"active","ping":74},{"user_id":98,"name":"On-The-Outside","steam_id":76561198180868107,"connected_time":748000000000,"state":"active","ping":66},{"user_id":69,"name":"Old Beavis","steam_id":76561198065951617,"connected_time":2524000000000,"state":"active","ping":75},{"user_id":80,"name":"AleXandriX","steam_id":76561198035203950,"connected_time":1622000000000,"state":"active","ping":54}]},{"server_id":309,"name":"Uncletopia | Frankfurt | 4 | All Maps","name_short":"frk-4","host":"frk-1.de.uncletopia.com","port":27045,"enabled":true,"region":"eu","cc":"de","latitude":50.110924,"longitude":8.682127,"reserved":0,"last_update":"0001-01-01T00:00:00Z","name_a2s":"Uncletopia | Frankfurt | 4 | All Maps","protocol":17,"map":"koth_highpass","folder":"tf","game":"Team Fortress","app_id":440,"player_count":24,"max_players":24,"Bots":0,"server_type":"Dedicated","server_os":"Linux","password":true,"vac":true,"version":"7742253","steam_id":85568392924504275,"keywords":["cp","nocrits","nodmgspread","uncletopia"],"game_id":440,"stv_port":27046,"stv_name":"Uncletopia | Frankfurt | 4 | All Maps | STV","players":[{"user_id":132,"name":"where is my egg?","steam_id":76561198172542535,"connected_time":1391000000000,"state":"active","ping":73},{"user_id":112,"name":"fmdi","steam_id":76561199433879329,"connected_time":3011000000000,"state":"active","ping":70},{"user_id":141,"name":"Adopted?","steam_id":76561198118667043,"connected_time":1197000000000,"state":"active","ping":63},{"user_id":148,"name":"heavy sings (real)","steam_id":76561199023804405,"connected_time":532000000000,"state":"active","ping":76},{"user_id":122,"name":"stonebum","steam_id":76561198057004606,"connected_time":1431000000000,"state":"active","ping":61},{"user_id":24,"name":"Enigmus","steam_id":76561197994063627,"connected_time":7586000000000,"state":"active","ping":86},{"user_id":150,"name":"Minimi","steam_id":76561198873850443,"connected_time":15000000000,"state":"spawning","ping":64},{"user_id":133,"name":"hallfelt","steam_id":76561199008716852,"connected_time":1389000000000,"state":"active","ping":68},{"user_id":139,"name":"Virgil","steam_id":76561198248786778,"connected_time":1305000000000,"state":"active","ping":135},{"user_id":68,"name":"markus #Hindiboys","steam_id":76561198186791643,"connected_time":5769000000000,"state":"active","ping":74},{"user_id":126,"name":"PixelHyde","steam_id":76561198040878617,"connected_time":1414000000000,"state":"active","ping":69},{"user_id":149,"name":"Watereater","steam_id":76561198833220967,"connected_time":105000000000,"state":"active","ping":74},{"user_id":131,"name":"hinfort","steam_id":76561198046354794,"connected_time":1398000000000,"state":"active","ping":73},{"user_id":138,"name":"Williamzas","steam_id":76561198035728623,"connected_time":1329000000000,"state":"active","ping":60},{"user_id":109,"name":"El`Capitano Flex","steam_id":76561198061813730,"connected_time":3064000000000,"state":"active","ping":63},{"user_id":134,"name":"Infantile Pillock","steam_id":76561198283851362,"connected_time":1387000000000,"state":"active","ping":98},{"user_id":72,"name":"Rez","steam_id":76561198410598772,"connected_time":5752000000000,"state":"active","ping":45},{"user_id":135,"name":"lvl. 50 honkler","steam_id":76561198061688660,"connected_time":1383000000000,"state":"active","ping":94},{"user_id":147,"name":"redbox","steam_id":76561198431106440,"connected_time":673000000000,"state":"active","ping":88},{"user_id":128,"name":"rajAs","steam_id":76561198035928111,"connected_time":1405000000000,"state":"active","ping":76},{"user_id":121,"name":"German Prick","steam_id":76561198181410637,"connected_time":2097000000000,"state":"active","ping":50},{"user_id":146,"name":"Get Rekt By {WINGS} teddy","steam_id":76561198093417510,"connected_time":815000000000,"state":"active","ping":99},{"user_id":137,"name":"Castellan","steam_id":76561197994861142,"connected_time":1372000000000,"state":"active","ping":62},{"user_id":142,"name":"Silent Person","steam_id":76561198107763537,"connected_time":1182000000000,"state":"active","ping":64}]},{"server_id":310,"name":"Uncletopia | Frankfurt | 5 | All Maps","name_short":"frk-5","host":"frk-1.de.uncletopia.com","port":27055,"enabled":true,"region":"eu","cc":"de","latitude":50.110924,"longitude":8.682127,"reserved":0,"last_update":"0001-01-01T00:00:00Z","name_a2s":"Uncletopia | Frankfurt | 5 | All Maps","protocol":17,"map":"pl_upward","folder":"tf","game":"Team Fortress","app_id":440,"player_count":24,"max_players":24,"Bots":0,"server_type":"Dedicated","server_os":"Linux","password":true,"vac":true,"version":"7742253","steam_id":85568392924504277,"keywords":["nocrits","nodmgspread","payload","uncletopia"],"game_id":440,"stv_port":27056,"stv_name":"Uncletopia | Frankfurt | 5 | All Maps | STV","players":[{"user_id":162,"name":"grip","steam_id":76561198088201976,"connected_time":2541000000000,"state":"active","ping":47},{"user_id":197,"name":"Cossack","steam_id":76561198076661772,"connected_time":767000000000,"state":"active","ping":79},{"user_id":144,"name":"McGov","steam_id":76561198211361463,"connected_time":3759000000000,"state":"active","ping":66},{"user_id":174,"name":"Greencoffee","steam_id":76561198842090589,"connected_time":2183000000000,"state":"active","ping":80},{"user_id":199,"name":"SPONGE","steam_id":76561198040933472,"connected_time":535000000000,"state":"active","ping":57},{"user_id":202,"name":"DrExplosive","steam_id":76561198063678579,"connected_time":161000000000,"state":"active","ping":66},{"user_id":184,"name":"KAKTyC","steam_id":76561198019296536,"connected_time":1984000000000,"state":"active","ping":88},{"user_id":177,"name":"Iphy","steam_id":76561198137519489,"connected_time":2123000000000,"state":"active","ping":74},{"user_id":195,"name":"MAKENTAKEN","steam_id":76561199127359587,"connected_time":921000000000,"state":"active","ping":88},{"user_id":154,"name":"The year is 20BB...","steam_id":76561198101292843,"connected_time":3057000000000,"state":"active","ping":53},{"user_id":114,"name":"TMC","steam_id":76561198077956157,"connected_time":4570000000000,"state":"active","ping":58},{"user_id":155,"name":"ttv.twitch.tv/watchLive","steam_id":76561198047359132,"connected_time":3037000000000,"state":"active","ping":67},{"user_id":175,"name":"AigleChene","steam_id":76561198180089715,"connected_time":2178000000000,"state":"active","ping":62},{"user_id":178,"name":"axl","steam_id":76561198991661832,"connected_time":2119000000000,"state":"active","ping":113},{"user_id":179,"name":"Sch","steam_id":76561198071341689,"connected_time":2113000000000,"state":"active","ping":49},{"user_id":185,"name":"MasterNaglis","steam_id":76561198348834177,"connected_time":1892000000000,"state":"active","ping":74},{"user_id":198,"name":"Wardruna96","steam_id":76561199057083828,"connected_time":569000000000,"state":"active","ping":75},{"user_id":196,"name":"Holy Pootis Hoovy","steam_id":76561198328745487,"connected_time":770000000000,"state":"active","ping":83},{"user_id":156,"name":"Dodoshka","steam_id":76561198093464840,"connected_time":2952000000000,"state":"active","ping":92},{"user_id":201,"name":"clinically inane","steam_id":76561198275597105,"connected_time":332000000000,"state":"active","ping":60},{"user_id":186,"name":"VIN WEASEL","steam_id":76561198014387066,"connected_time":1856000000000,"state":"active","ping":51},{"user_id":158,"name":"Dark Lord","steam_id":76561198966667657,"connected_time":2863000000000,"state":"active","ping":56},{"user_id":190,"name":"Borko","steam_id":76561199097266352,"connected_time":1734000000000,"state":"active","ping":82},{"user_id":151,"name":"bro.","steam_id":76561198053394831,"connected_time":3285000000000,"state":"active","ping":64}]},{"server_id":311,"name":"Uncletopia | Frankfurt | 6 | All Maps","name_short":"frk-6","host":"frk-1.de.uncletopia.com","port":27065,"enabled":true,"region":"eu","cc":"de","latitude":50.110924,"longitude":8.682127,"reserved":0,"last_update":"0001-01-01T00:00:00Z","name_a2s":"Uncletopia | Frankfurt | 6 | All Maps","protocol":17,"map":"koth_lakeside_final","folder":"tf","game":"Team Fortress","app_id":440,"player_count":3,"max_players":24,"Bots":0,"server_type":"Dedicated","server_os":"Linux","password":true,"vac":true,"version":"7742253","steam_id":85568392924504278,"keywords":["cp","nocrits","nodmgspread","uncletopia"],"game_id":440,"stv_port":27066,"stv_name":"Uncletopia | Frankfurt | 6 | All Maps | STV","players":[{"user_id":10,"name":"Backsnapped","steam_id":76561198140408325,"connected_time":409000000000,"state":"active","ping":75},{"user_id":11,"name":"bees","steam_id":76561198176636729,"connected_time":259000000000,"state":"active","ping":47},{"user_id":12,"name":"galaxy","steam_id":76561198164819022,"connected_time":220000000000,"state":"active","ping":50}]},{"server_id":23,"name":"Uncletopia | Frankfurt | 7 | Stopwatch Beta","name_short":"frk-7","host":"frk-1.de.uncletopia.com","port":27075,"enabled":true,"region":"eu","cc":"de","latitude":50.110924,"longitude":8.682127,"reserved":0,"last_update":"0001-01-01T00:00:00Z","name_a2s":"Uncletopia | Frankfurt | 7 | Stopwatch Beta","protocol":17,"map":"cp_process_final","folder":"tf","game":"Team Fortress","app_id":440,"player_count":0,"max_players":24,"Bots":0,"server_type":"Dedicated","server_os":"Linux","password":true,"vac":true,"version":"7742253","steam_id":85568392924742827,"keywords":["cp","nocrits","nodmgspread","uncletopia"],"game_id":440,"stv_port":27076,"stv_name":"Uncletopia | Frankfurt | 7 | Stopwatch Beta | STV","players":null},{"server_id":24,"name":"Uncletopia | Frankfurt | 8 | Community","name_short":"frk-8","host":"frk-1.de.uncletopia.com","port":27085,"enabled":true,"region":"eu","cc":"de","latitude":50.110924,"longitude":8.682127,"reserved":0,"last_update":"0001-01-01T00:00:00Z","name_a2s":"Uncletopia | Frankfurt | 8 | Community","protocol":17,"map":"workshop/koth_product_final.ugc454272353","folder":"tf","game":"Team Fortress","app_id":440,"player_count":26,"max_players":24,"Bots":0,"server_type":"Dedicated","server_os":"Linux","password":true,"vac":true,"version":"7742253","steam_id":85568392924742828,"keywords":["cp","nocrits","nodmgspread","uncletopia"],"game_id":440,"stv_port":27086,"stv_name":"Uncletopia | Frankfurt | 8 | Community | STV","players":[{"user_id":109,"name":"TheBeardedM1G","steam_id":76561198040208946,"connected_time":279000000000,"state":"active","ping":60},{"user_id":84,"name":"ouu","steam_id":76561198365127069,"connected_time":651000000000,"state":"active","ping":74},{"user_id":75,"name":"wow","steam_id":76561199020903774,"connected_time":980000000000,"state":"active","ping":56},{"user_id":65,"name":"polyzman","steam_id":76561198275516030,"connected_time":1357000000000,"state":"active","ping":70},{"user_id":83,"name":"Ccurry66","steam_id":76561199094251029,"connected_time":683000000000,"state":"active","ping":74},{"user_id":113,"name":"Spootnak","steam_id":76561198049052518,"connected_time":183000000000,"state":"active","ping":70},{"user_id":14,"name":"sharkmax12312","steam_id":76561198996008569,"connected_time":2484000000000,"state":"active","ping":73},{"user_id":78,"name":"Big Earning month","steam_id":76561198799097492,"connected_time":902000000000,"state":"active","ping":46},{"user_id":73,"name":"Van","steam_id":76561199177668753,"connected_time":1023000000000,"state":"active","ping":52},{"user_id":18,"name":"5 noches con alfredo","steam_id":76561198420349969,"connected_time":2379000000000,"state":"active","ping":94},{"user_id":19,"name":"Oki","steam_id":76561198138444201,"connected_time":2368000000000,"state":"active","ping":63},{"user_id":88,"name":"wouris","steam_id":76561198876188003,"connected_time":624000000000,"state":"active","ping":59},{"user_id":118,"name":"vichesty","steam_id":76561198976243719,"connected_time":14000000000,"state":"spawning","ping":143},{"user_id":51,"name":"Dirty Old Bastard","steam_id":76561198196268054,"connected_time":1695000000000,"state":"active","ping":65},{"user_id":41,"name":"Crocodile","steam_id":76561197984680667,"connected_time":1868000000000,"state":"active","ping":65},{"user_id":26,"name":"Python6398","steam_id":76561198095750403,"connected_time":2208000000000,"state":"active","ping":115},{"user_id":91,"name":"Aivohiiri","steam_id":76561198061344125,"connected_time":602000000000,"state":"active","ping":96},{"user_id":52,"name":"MSPaintbrush","steam_id":76561198119987705,"connected_time":1695000000000,"state":"active","ping":65},{"user_id":44,"name":"Sammy","steam_id":76561198303329392,"connected_time":1836000000000,"state":"active","ping":47},{"user_id":31,"name":"Slowpoke64","steam_id":76561199087722921,"connected_time":2133000000000,"state":"active","ping":78},{"user_id":53,"name":"Spajro","steam_id":76561198257383813,"connected_time":1679000000000,"state":"active","ping":59},{"user_id":54,"name":"Guru","steam_id":76561198093853069,"connected_time":1651000000000,"state":"active","ping":63},{"user_id":55,"name":"Lucky","steam_id":76561198849854665,"connected_time":1640000000000,"state":"active","ping":62},{"user_id":95,"name":"archibaldarthurthethird","steam_id":76561198081116921,"connected_time":540000000000,"state":"active","ping":83},{"user_id":101,"name":"PROFILE NAME","steam_id":76561198180056982,"connected_time":448000000000,"state":"active","ping":76},{"user_id":119,"name":"Damn fiddle!","steam_id":76561198345873608,"connected_time":6000000000,"state":"spawning","ping":265}]},{"server_id":202,"name":"Uncletopia | Hong Kong | 1 | All Maps","name_short":"hgk-1","host":"hgk-1.hk.uncletopia.com","port":27015,"enabled":true,"region":"asia","cc":"hk","latitude":22.302711,"longitude":114.177216,"reserved":0,"last_update":"0001-01-01T00:00:00Z","name_a2s":"Uncletopia | Hong Kong | 1 | All Maps","protocol":17,"map":"pl_badwater","folder":"tf","game":"Team Fortress","app_id":440,"player_count":23,"max_players":24,"Bots":0,"server_type":"Dedicated","server_os":"Linux","password":true,"vac":true,"version":"7742253","steam_id":85568392924494504,"keywords":["nocrits","nodmgspread","payload","uncletopia"],"game_id":440,"stv_port":27016,"stv_name":"Uncletopia | Hong Kong | 1 | All Maps | STV","players":[{"user_id":681,"name":"h","steam_id":76561199093572590,"connected_time":425000000000,"state":"active","ping":63},{"user_id":547,"name":"john ultrakill","steam_id":76561198442507642,"connected_time":5932000000000,"state":"active","ping":88},{"user_id":702,"name":"floatingdeadfish","steam_id":76561198414875516,"connected_time":283000000000,"state":"active","ping":69},{"user_id":713,"name":"ɔuᗡඞ ɟƨuᒐ","steam_id":76561199031283970,"connected_time":217000000000,"state":"active","ping":72},{"user_id":552,"name":"lettuce at 58p","steam_id":76561199401283123,"connected_time":5901000000000,"state":"active","ping":88},{"user_id":655,"name":"Marika","steam_id":76561198212649929,"connected_time":1121000000000,"state":"active","ping":144},{"user_id":546,"name":"Pillboi","steam_id":76561198011172886,"connected_time":5933000000000,"state":"active","ping":41},{"user_id":671,"name":"ღ Maeve.","steam_id":76561198275846469,"connected_time":816000000000,"state":"active","ping":77},{"user_id":521,"name":"ratfucker47","steam_id":76561198413116920,"connected_time":8321000000000,"state":"active","ping":79},{"user_id":538,"name":"Banana Milk","steam_id":76561198005156257,"connected_time":6919000000000,"state":"active","ping":128},{"user_id":719,"name":":)","steam_id":76561198191765578,"connected_time":209000000000,"state":"active","ping":46},{"user_id":712,"name":"Puddin","steam_id":76561198140052918,"connected_time":219000000000,"state":"active","ping":88},{"user_id":778,"name":"ジ","steam_id":76561198811789790,"connected_time":6000000000,"state":"spawning","ping":64},{"user_id":586,"name":"Steve","steam_id":76561198429235506,"connected_time":1833000000000,"state":"active","ping":82},{"user_id":492,"name":"Kirov airship","steam_id":76561199024960087,"connected_time":10403000000000,"state":"active","ping":70},{"user_id":711,"name":"AmaiToxic","steam_id":76561199122491157,"connected_time":229000000000,"state":"active","ping":120},{"user_id":599,"name":"Smarks123","steam_id":76561198132170503,"connected_time":1791000000000,"state":"active","ping":129},{"user_id":766,"name":"bocchi the oppai","steam_id":76561198008307645,"connected_time":62000000000,"state":"active","ping":132},{"user_id":715,"name":"norp","steam_id":76561198025250802,"connected_time":214000000000,"state":"active","ping":137},{"user_id":581,"name":"pardo","steam_id":76561198230213828,"connected_time":2322000000000,"state":"active","ping":60},{"user_id":716,"name":"good goth girl","steam_id":76561198118989010,"connected_time":214000000000,"state":"active","ping":65},{"user_id":757,"name":"pharren","steam_id":76561198177638325,"connected_time":86000000000,"state":"active","ping":68},{"user_id":595,"name":"othinus","steam_id":76561199017801128,"connected_time":1809000000000,"state":"active","ping":89}]},{"server_id":1,"name":"Uncletopia | Los Angeles | 1 | All Maps","name_short":"lax-1","host":"lax-1.us.uncletopia.com","port":27015,"enabled":true,"region":"us-west","cc":"us","latitude":33.94279,"longitude":-118.41004,"reserved":0,"last_update":"0001-01-01T00:00:00Z","name_a2s":"Uncletopia | Los Angeles | 1 | All Maps","protocol":17,"map":"cp_dustbowl","folder":"tf","game":"Team Fortress","app_id":440,"player_count":0,"max_players":24,"Bots":0,"server_type":"Dedicated","server_os":"Linux","password":true,"vac":true,"version":"7742253","steam_id":85568392924469991,"keywords":["cp","nocrits","nodmgspread","uncletopia"],"game_id":440,"stv_port":27016,"stv_name":"Uncletopia | Los Angeles | 1 | All Maps | STV","players":null},{"server_id":112,"name":"Uncletopia | Los Angeles | 2 | All Maps","name_short":"lax-2","host":"lax-1.us.uncletopia.com","port":27025,"enabled":true,"region":"us-west","cc":"us","latitude":33.94279,"longitude":-118.41004,"reserved":0,"last_update":"0001-01-01T00:00:00Z","name_a2s":"Uncletopia | Los Angeles | 2 | All Maps","protocol":17,"map":"pl_frontier_final","folder":"tf","game":"Team Fortress","app_id":440,"player_count":0,"max_players":24,"Bots":0,"server_type":"Dedicated","server_os":"Linux","password":true,"vac":true,"version":"7742253","steam_id":85568392924469992,"keywords":["nocrits","nodmgspread","payload","uncletopia"],"game_id":440,"stv_port":27026,"stv_name":"Uncletopia | Los Angeles | 2 | All Maps | STV","players":null},{"server_id":324,"name":"Uncletopia | Los Angeles | 3 | All Maps","name_short":"lax-3","host":"lax-1.us.uncletopia.com","port":27035,"enabled":true,"region":"us-west","cc":"us","latitude":33.94279,"longitude":-118.41004,"reserved":0,"last_update":"0001-01-01T00:00:00Z","name_a2s":"Uncletopia | Los Angeles | 3 | All Maps","protocol":17,"map":"cp_snakewater_final1","folder":"tf","game":"Team Fortress","app_id":440,"player_count":0,"max_players":24,"Bots":0,"server_type":"Dedicated","server_os":"Linux","password":true,"vac":true,"version":"7742253","steam_id":85568392924510198,"keywords":["cp","nocrits","nodmgspread","uncletopia"],"game_id":440,"stv_port":27036,"stv_name":"Uncletopia | Los Angeles | 3 | All Maps | STV","players":null},{"server_id":25,"name":"Uncletopia | Los Angeles | 4 | Stopwatch Beta","name_short":"lax-4","host":"lax-1.us.uncletopia.com","port":27045,"enabled":true,"region":"us-west","cc":"us","latitude":33.94279,"longitude":-118.41004,"reserved":0,"last_update":"0001-01-01T00:00:00Z","name_a2s":"Uncletopia | Los Angeles | 4 | Stopwatch Beta","protocol":17,"map":"cp_snakewater_final1","folder":"tf","game":"Team Fortress","app_id":440,"player_count":0,"max_players":24,"Bots":0,"server_type":"Dedicated","server_os":"Linux","password":true,"vac":true,"version":"7742253","steam_id":85568392924510199,"keywords":["cp","nocrits","nodmgspread","uncletopia"],"game_id":440,"stv_port":27046,"stv_name":"Uncletopia | Los Angeles | 4 | Stopwatch Beta | STV","players":null},{"server_id":11,"name":"Uncletopia | London | 1 | All Maps","name_short":"lon-1","host":"lon-1.uk.uncletopia.com","port":27015,"enabled":true,"region":"eu","cc":"gb","latitude":51.509865,"longitude":-0.118092,"reserved":0,"last_update":"0001-01-01T00:00:00Z","name_a2s":"Uncletopia | London | 1 | All Maps","protocol":17,"map":"pl_frontier_final","folder":"tf","game":"Team Fortress","app_id":440,"player_count":24,"max_players":24,"Bots":0,"server_type":"Dedicated","server_os":"Linux","password":true,"vac":true,"version":"7742253","steam_id":85568392924367362,"keywords":["nocrits","nodmgspread","payload","uncletopia"],"game_id":440,"stv_port":27016,"stv_name":"Uncletopia | London | 1 | All Maps | STV","players":[{"user_id":223,"name":"average f2p","steam_id":76561199136308055,"connected_time":1549000000000,"state":"active","ping":53},{"user_id":165,"name":"Pabs :D","steam_id":76561198000016962,"connected_time":5485000000000,"state":"active","ping":71},{"user_id":184,"name":"kackboon","steam_id":76561198044189114,"connected_time":3479000000000,"state":"active","ping":68},{"user_id":227,"name":"Le Bon Toutou","steam_id":76561198300902712,"connected_time":1096000000000,"state":"active","ping":66},{"user_id":175,"name":"nudjura","steam_id":76561198281986139,"connected_time":4520000000000,"state":"active","ping":38},{"user_id":200,"name":"ivanmixo","steam_id":76561198160213989,"connected_time":2787000000000,"state":"active","ping":71},{"user_id":207,"name":"Himmelsstürmer","steam_id":76561198012699793,"connected_time":2139000000000,"state":"active","ping":81},{"user_id":232,"name":"MyamE","steam_id":76561198133278462,"connected_time":16000000000,"state":"active","ping":154},{"user_id":231,"name":"Demoknight tf2","steam_id":76561198133041874,"connected_time":29000000000,"state":"active","ping":61},{"user_id":174,"name":"Garfield is God","steam_id":76561198159537481,"connected_time":4726000000000,"state":"active","ping":60},{"user_id":208,"name":"Vikep'S","steam_id":76561199002274689,"connected_time":2100000000000,"state":"active","ping":95},{"user_id":202,"name":"TransWomanGaming","steam_id":76561198809645656,"connected_time":2605000000000,"state":"active","ping":161},{"user_id":215,"name":"gary","steam_id":76561198051623751,"connected_time":1799000000000,"state":"active","ping":84},{"user_id":218,"name":"kadma","steam_id":76561198190600121,"connected_time":1755000000000,"state":"active","ping":49},{"user_id":228,"name":"When Life gives you Lemons","steam_id":76561198318290663,"connected_time":377000000000,"state":"active","ping":58},{"user_id":219,"name":"Danzen","steam_id":76561198084438672,"connected_time":1750000000000,"state":"active","ping":54},{"user_id":220,"name":"jovi_","steam_id":76561198449280552,"connected_time":1729000000000,"state":"active","ping":51},{"user_id":224,"name":"Stepoface","steam_id":76561198091569863,"connected_time":1230000000000,"state":"active","ping":69},{"user_id":230,"name":"Bob","steam_id":76561198218200489,"connected_time":352000000000,"state":"active","ping":53},{"user_id":197,"name":"badass mafia toolbars","steam_id":76561198259668029,"connected_time":2998000000000,"state":"active","ping":54},{"user_id":198,"name":"Pump Logger","steam_id":76561198914610283,"connected_time":2944000000000,"state":"active","ping":84},{"user_id":213,"name":"SAMM","steam_id":76561198040241299,"connected_time":1898000000000,"state":"active","ping":77},{"user_id":134,"name":"тукку ирма","steam_id":76561197998715016,"connected_time":7892000000000,"state":"active","ping":70},{"user_id":211,"name":"Flare","steam_id":76561198039098320,"connected_time":2011000000000,"state":"active","ping":56}]},{"server_id":114,"name":"Uncletopia | London | 2 | All Maps","name_short":"lon-2","host":"lon-1.uk.uncletopia.com","port":27025,"enabled":true,"region":"eu","cc":"gb","latitude":51.509865,"longitude":-0.118092,"reserved":0,"last_update":"0001-01-01T00:00:00Z","name_a2s":"Uncletopia | London | 2 | All Maps","protocol":17,"map":"pl_barnblitz","folder":"tf","game":"Team Fortress","app_id":440,"player_count":1,"max_players":24,"Bots":0,"server_type":"Dedicated","server_os":"Linux","password":true,"vac":true,"version":"7742253","steam_id":85568392924470941,"keywords":["nocrits","nodmgspread","payload","uncletopia"],"game_id":440,"stv_port":27026,"stv_name":"Uncletopia | London | 2 | All Maps | STV","players":[{"user_id":18,"name":"Haggis77","steam_id":76561198372976771,"connected_time":259000000000,"state":"active","ping":39}]},{"server_id":320,"name":"Uncletopia | London | 3 | All Maps","name_short":"lon-3","host":"lon-1.uk.uncletopia.com","port":27035,"enabled":true,"region":"eu","cc":"gb","latitude":51.509865,"longitude":-0.118092,"reserved":0,"last_update":"0001-01-01T00:00:00Z","name_a2s":"Uncletopia | London | 3 | All Maps","protocol":17,"map":"plr_hightower","folder":"tf","game":"Team Fortress","app_id":440,"player_count":24,"max_players":24,"Bots":0,"server_type":"Dedicated","server_os":"Linux","password":true,"vac":true,"version":"7742253","steam_id":85568392924510192,"keywords":["nocrits","nodmgspread","payload","uncletopia"],"game_id":440,"stv_port":27036,"stv_name":"Uncletopia | London | 3 | All Maps | STV","players":[{"user_id":393,"name":"RelatableiLLness","steam_id":76561198441669772,"connected_time":3011000000000,"state":"active","ping":140},{"user_id":395,"name":"KAZAM | Tervez","steam_id":76561198045459068,"connected_time":2942000000000,"state":"active","ping":105},{"user_id":444,"name":"Cazulas","steam_id":76561198027460283,"connected_time":9000000000,"state":"spawning","ping":120},{"user_id":417,"name":"Mr_Axolotl","steam_id":76561199160681230,"connected_time":1717000000000,"state":"active","ping":73},{"user_id":441,"name":"sv_MrGibbs","steam_id":76561198114071972,"connected_time":48000000000,"state":"active","ping":41},{"user_id":346,"name":"InKryption","steam_id":76561198125975094,"connected_time":5208000000000,"state":"active","ping":74},{"user_id":442,"name":"That_guy","steam_id":76561199191385891,"connected_time":37000000000,"state":"active","ping":43},{"user_id":399,"name":"Guy with squares as username","steam_id":76561198269524918,"connected_time":2846000000000,"state":"active","ping":49},{"user_id":416,"name":"Michał","steam_id":76561198320346362,"connected_time":1923000000000,"state":"active","ping":74},{"user_id":420,"name":"Artshop4M","steam_id":76561198854382826,"connected_time":1349000000000,"state":"active","ping":46},{"user_id":411,"name":"Negurescu","steam_id":76561198128777349,"connected_time":2179000000000,"state":"active","ping":83},{"user_id":386,"name":"Mug Root Beer","steam_id":76561198972038742,"connected_time":3830000000000,"state":"active","ping":71},{"user_id":439,"name":"Karvahattu Hemuli","steam_id":76561198118334653,"connected_time":299000000000,"state":"active","ping":83},{"user_id":433,"name":"THE ONE WHO KNOCKS","steam_id":76561199037749675,"connected_time":708000000000,"state":"active","ping":24},{"user_id":349,"name":"Be!chqueen","steam_id":76561197961080789,"connected_time":5180000000000,"state":"active","ping":51},{"user_id":428,"name":"Lernix","steam_id":76561198382328645,"connected_time":1297000000000,"state":"active","ping":68},{"user_id":436,"name":"Coac","steam_id":76561198085265740,"connected_time":578000000000,"state":"active","ping":67},{"user_id":371,"name":"Benameme","steam_id":76561198074097655,"connected_time":4184000000000,"state":"active","ping":40},{"user_id":305,"name":"Swayer","steam_id":76561198056192460,"connected_time":8134000000000,"state":"active","ping":58},{"user_id":402,"name":"Venom","steam_id":76561197965947211,"connected_time":2821000000000,"state":"active","ping":59},{"user_id":427,"name":"PhantomStriker gyate.net","steam_id":76561199116689935,"connected_time":1306000000000,"state":"active","ping":70},{"user_id":430,"name":"Oliver","steam_id":76561198063523419,"connected_time":1210000000000,"state":"active","ping":45},{"user_id":445,"name":"bucket hat larry","steam_id":76561198136511793,"connected_time":7000000000,"state":"spawning","ping":89},{"user_id":337,"name":"Noodle","steam_id":76561197997208006,"connected_time":6310000000000,"state":"active","ping":62}]},{"server_id":321,"name":"Uncletopia | London | 4 | All Maps","name_short":"lon-4","host":"lon-1.uk.uncletopia.com","port":27045,"enabled":true,"region":"eu","cc":"gb","latitude":51.509865,"longitude":-0.118092,"reserved":0,"last_update":"0001-01-01T00:00:00Z","name_a2s":"Uncletopia | London | 4 | All Maps","protocol":17,"map":"koth_highpass","folder":"tf","game":"Team Fortress","app_id":440,"player_count":0,"max_players":24,"Bots":0,"server_type":"Dedicated","server_os":"Linux","password":true,"vac":true,"version":"7742253","steam_id":85568392924510193,"keywords":["cp","nocrits","nodmgspread","uncletopia"],"game_id":440,"stv_port":27046,"stv_name":"Uncletopia | London | 4 | All Maps | STV","players":null},{"server_id":21,"name":"Uncletopia | London | 5 | All Maps","name_short":"lon-5","host":"lon-1.uk.uncletopia.com","port":27055,"enabled":true,"region":"eu","cc":"gb","latitude":51.509865,"longitude":-0.118092,"reserved":0,"last_update":"0001-01-01T00:00:00Z","name_a2s":"Uncletopia | London | 5 | All Maps","protocol":17,"map":"pl_upward","folder":"tf","game":"Team Fortress","app_id":440,"player_count":24,"max_players":24,"Bots":0,"server_type":"Dedicated","server_os":"Linux","password":true,"vac":true,"version":"7742253","steam_id":85568392924742829,"keywords":["nocrits","nodmgspread","payload","uncletopia"],"game_id":440,"stv_port":27056,"stv_name":"Uncletopia | London | 5 | All Maps | STV","players":[{"user_id":283,"name":"Ander","steam_id":76561199219017011,"connected_time":1938000000000,"state":"active","ping":64},{"user_id":285,"name":"Cranjis McBasketball","steam_id":76561198051290193,"connected_time":1513000000000,"state":"active","ping":57},{"user_id":284,"name":"Carrot","steam_id":76561198119340863,"connected_time":1848000000000,"state":"active","ping":35},{"user_id":317,"name":"gwhqБv}Ёdtfb·ЁwebХ","steam_id":76561198401523966,"connected_time":620000000000,"state":"active","ping":92},{"user_id":290,"name":"Fr33StYl3R","steam_id":76561198043187070,"connected_time":1351000000000,"state":"active","ping":73},{"user_id":319,"name":"demon","steam_id":76561198192080711,"connected_time":609000000000,"state":"active","ping":67},{"user_id":318,"name":"Sodsboy","steam_id":76561198030482006,"connected_time":618000000000,"state":"active","ping":45},{"user_id":312,"name":"Tresader","steam_id":76561198078421289,"connected_time":792000000000,"state":"active","ping":95},{"user_id":316,"name":"Marcos","steam_id":76561198798925721,"connected_time":652000000000,"state":"active","ping":109},{"user_id":303,"name":"PaddyHarmonica","steam_id":76561198956778045,"connected_time":939000000000,"state":"active","ping":58},{"user_id":301,"name":"Wolfie♡","steam_id":76561199081625951,"connected_time":1124000000000,"state":"active","ping":84},{"user_id":177,"name":"popaj72","steam_id":76561198108657509,"connected_time":9230000000000,"state":"active","ping":57},{"user_id":306,"name":"Furious Frenchman","steam_id":76561198082076952,"connected_time":890000000000,"state":"active","ping":62},{"user_id":307,"name":"mrms","steam_id":76561198289331719,"connected_time":875000000000,"state":"active","ping":70},{"user_id":308,"name":"Pybro","steam_id":76561199213901239,"connected_time":871000000000,"state":"active","ping":47},{"user_id":311,"name":"misato from Evangelion (real)","steam_id":76561198130860698,"connected_time":837000000000,"state":"active","ping":54},{"user_id":310,"name":"ALARM","steam_id":76561198120686521,"connected_time":850000000000,"state":"active","ping":70},{"user_id":315,"name":"Echo of Abyss","steam_id":76561198981841782,"connected_time":685000000000,"state":"active","ping":73},{"user_id":256,"name":"Zwphyr | TourBot.TF","steam_id":76561198160772793,"connected_time":3162000000000,"state":"active","ping":63},{"user_id":278,"name":"Zembis","steam_id":76561198008017918,"connected_time":2519000000000,"state":"active","ping":94},{"user_id":321,"name":"yeet24/7","steam_id":76561198063340018,"connected_time":547000000000,"state":"active","ping":58},{"user_id":273,"name":"It hurts when i pee (real)","steam_id":76561198139404261,"connected_time":2951000000000,"state":"active","ping":45},{"user_id":320,"name":"Sleepycoffyn","steam_id":76561199278648379,"connected_time":606000000000,"state":"active","ping":62},{"user_id":298,"name":"Autonomous movement","steam_id":76561198087800030,"connected_time":1301000000000,"state":"active","ping":79}]},{"server_id":22,"name":"Uncletopia | London | 6 | All Maps","name_short":"lon-6","host":"lon-1.uk.uncletopia.com","port":27065,"enabled":true,"region":"eu","cc":"gb","latitude":51.509865,"longitude":-0.118092,"reserved":0,"last_update":"0001-01-01T00:00:00Z","name_a2s":"Uncletopia | London | 6 | All Maps","protocol":17,"map":"pl_swiftwater_final1","folder":"tf","game":"Team Fortress","app_id":440,"player_count":24,"max_players":24,"Bots":0,"server_type":"Dedicated","server_os":"Linux","password":true,"vac":true,"version":"7742253","steam_id":85568392924742830,"keywords":["nocrits","nodmgspread","payload","uncletopia"],"game_id":440,"stv_port":27066,"stv_name":"Uncletopia | London | 6 | All Maps | STV","players":[{"user_id":11,"name":"IllegalArgumentException","steam_id":76561198349602361,"connected_time":578000000000,"state":"active","ping":66},{"user_id":21,"name":"t.tv/radioginseng","steam_id":76561198808933587,"connected_time":277000000000,"state":"active","ping":118},{"user_id":13,"name":"Fesesnisco","steam_id":76561198171213241,"connected_time":495000000000,"state":"active","ping":65},{"user_id":14,"name":"Dominus.","steam_id":76561199065917088,"connected_time":444000000000,"state":"active","ping":78},{"user_id":15,"name":"Wraith","steam_id":76561198397598951,"connected_time":438000000000,"state":"active","ping":73},{"user_id":16,"name":"Random Dude","steam_id":76561199035738200,"connected_time":386000000000,"state":"active","ping":64},{"user_id":37,"name":"Dr. Funkenstein","steam_id":76561197977816210,"connected_time":141000000000,"state":"active","ping":62},{"user_id":18,"name":"Perämiehenä","steam_id":76561197968945306,"connected_time":336000000000,"state":"active","ping":73},{"user_id":19,"name":"Mihuel Hairman#Savetf2","steam_id":76561199041992422,"connected_time":336000000000,"state":"active","ping":147},{"user_id":20,"name":"Pyrolander","steam_id":76561198050785450,"connected_time":291000000000,"state":"active","ping":49},{"user_id":38,"name":"blagged","steam_id":76561199306855416,"connected_time":139000000000,"state":"active","ping":51},{"user_id":43,"name":"InsectKing","steam_id":76561199013519071,"connected_time":8000000000,"state":"spawning","ping":42},{"user_id":26,"name":"B1urred","steam_id":76561198263657694,"connected_time":237000000000,"state":"active","ping":53},{"user_id":27,"name":"Luxhide","steam_id":76561197964997843,"connected_time":234000000000,"state":"active","ping":46},{"user_id":28,"name":"Pug3344","steam_id":76561199235132410,"connected_time":232000000000,"state":"active","ping":53},{"user_id":30,"name":"Burning Arrow","steam_id":76561198054229448,"connected_time":199000000000,"state":"active","ping":140},{"user_id":31,"name":"cow child","steam_id":76561199431003443,"connected_time":195000000000,"state":"active","ping":58},{"user_id":33,"name":"jp-karam","steam_id":76561198048947685,"connected_time":176000000000,"state":"active","ping":50},{"user_id":34,"name":"Duke Marmalade","steam_id":76561198218959393,"connected_time":172000000000,"state":"active","ping":78},{"user_id":35,"name":"LOBZIK","steam_id":76561198114830120,"connected_time":169000000000,"state":"active","ping":76},{"user_id":36,"name":"circus music","steam_id":76561198313886071,"connected_time":164000000000,"state":"active","ping":58},{"user_id":39,"name":"_Yanushi_","steam_id":76561198431418662,"connected_time":133000000000,"state":"active","ping":74},{"user_id":40,"name":"Alabamo","steam_id":76561198161589377,"connected_time":131000000000,"state":"active","ping":58},{"user_id":42,"name":"nebu","steam_id":76561198307037169,"connected_time":122000000000,"state":"active","ping":52}]},{"server_id":40,"name":"Uncletopia | London | 7 | No Payload","name_short":"lon-7","host":"lon-1.uk.uncletopia.com","port":27075,"enabled":true,"region":"eu","cc":"gb","latitude":51.509865,"longitude":-0.118092,"reserved":0,"last_update":"0001-01-01T00:00:00Z","name_a2s":"Uncletopia | London | 7 | No Payload","protocol":17,"map":"koth_viaduct","folder":"tf","game":"Team Fortress","app_id":440,"player_count":0,"max_players":24,"Bots":0,"server_type":"Dedicated","server_os":"Linux","password":true,"vac":true,"version":"7742253","steam_id":85568392924964314,"keywords":["cp","nocrits","nodmgspread","uncletopia"],"game_id":440,"stv_port":27076,"stv_name":"Uncletopia | London | 7 | No Payload | STV","players":null},{"server_id":41,"name":"Uncletopia | London | 8 | Community","name_short":"lon-8","host":"lon-1.uk.uncletopia.com","port":27085,"enabled":true,"region":"eu","cc":"gb","latitude":51.509865,"longitude":-0.118092,"reserved":0,"last_update":"0001-01-01T00:00:00Z","name_a2s":"Uncletopia | London | 8 | Community","protocol":17,"map":"cp_altitude","folder":"tf","game":"Team Fortress","app_id":440,"player_count":0,"max_players":24,"Bots":0,"server_type":"Dedicated","server_os":"Linux","password":true,"vac":true,"version":"7742253","steam_id":85568392924964315,"keywords":["cp","nocrits","nodmgspread","uncletopia"],"game_id":440,"stv_port":27086,"stv_name":"Uncletopia | London | 8 | Community | STV","players":null},{"server_id":300,"name":"Uncletopia | Montréal | 1 | All Maps","name_short":"mtl-1","host":"mtl-1.ca.uncletopia.com","port":27015,"enabled":true,"region":"us-east","cc":"ca","latitude":45.50889,"longitude":-73.56167,"reserved":0,"last_update":"0001-01-01T00:00:00Z","name_a2s":"Uncletopia | Montréal | 1 | All Maps","protocol":17,"map":"cp_snakewater_final1","folder":"tf","game":"Team Fortress","app_id":440,"player_count":0,"max_players":24,"Bots":0,"server_type":"Dedicated","server_os":"Linux","password":true,"vac":true,"version":"7742253","steam_id":85568392924500087,"keywords":["cp","nocrits","nodmgspread","uncletopia"],"game_id":440,"stv_port":27016,"stv_name":"Uncletopia | Montréal | 1 | All Maps | STV","players":null},{"server_id":301,"name":"Uncletopia | Montréal | 2 | All Maps","name_short":"mtl-2","host":"mtl-1.ca.uncletopia.com","port":27025,"enabled":true,"region":"us-east","cc":"ca","latitude":45.50889,"longitude":-73.56167,"reserved":0,"last_update":"0001-01-01T00:00:00Z","name_a2s":"Uncletopia | Montréal | 2 | All Maps","protocol":17,"map":"koth_highpass","folder":"tf","game":"Team Fortress","app_id":440,"player_count":0,"max_players":24,"Bots":0,"server_type":"Dedicated","server_os":"Linux","password":true,"vac":true,"version":"7742253","steam_id":85568392924500088,"keywords":["cp","nocrits","nodmgspread","uncletopia"],"game_id":440,"stv_port":27026,"stv_name":"Uncletopia | Montréal | 2 | All Maps | STV","players":null},{"server_id":302,"name":"Uncletopia | Montréal | 3 | All Maps","name_short":"mtl-3","host":"mtl-1.ca.uncletopia.com","port":27035,"enabled":true,"region":"us-east","cc":"ca","latitude":45.50889,"longitude":-73.56167,"reserved":0,"last_update":"0001-01-01T00:00:00Z","name_a2s":"Uncletopia | Montréal | 3 | All Maps","protocol":17,"map":"cp_mountainlab","folder":"tf","game":"Team Fortress","app_id":440,"player_count":0,"max_players":24,"Bots":0,"server_type":"Dedicated","server_os":"Linux","password":true,"vac":true,"version":"7742253","steam_id":85568392924500089,"keywords":["cp","nocrits","nodmgspread","uncletopia"],"game_id":440,"stv_port":27036,"stv_name":"Uncletopia | Montréal | 3 | All Maps | STV","players":null},{"server_id":303,"name":"Uncletopia | Montréal | 4 | No Payload","name_short":"mtl-4","host":"mtl-1.ca.uncletopia.com","port":27045,"enabled":true,"region":"us-east","cc":"ca","latitude":45.50889,"longitude":-73.56167,"reserved":0,"last_update":"0001-01-01T00:00:00Z","name_a2s":"Uncletopia | Montréal | 4 | No Payload","protocol":17,"map":"cp_snakewater_final1","folder":"tf","game":"Team Fortress","app_id":440,"player_count":0,"max_players":24,"Bots":0,"server_type":"Dedicated","server_os":"Linux","password":true,"vac":true,"version":"7742253","steam_id":85568392924500090,"keywords":["cp","nocrits","nodmgspread","uncletopia"],"game_id":440,"stv_port":27046,"stv_name":"Uncletopia | Montréal | 4 | No Payload | STV","players":null},{"server_id":13,"name":"Uncletopia | New York City | 1 | All Maps","name_short":"nyc-1","host":"nyc-1.us.uncletopia.com","port":27015,"enabled":true,"region":"us-east","cc":"us","latitude":40.73061,"longitude":-73.93524,"reserved":0,"last_update":"0001-01-01T00:00:00Z","name_a2s":"Uncletopia | New York City | 1 | All Maps","protocol":17,"map":"koth_viaduct","folder":"tf","game":"Team Fortress","app_id":440,"player_count":0,"max_players":24,"Bots":0,"server_type":"Dedicated","server_os":"Linux","password":true,"vac":true,"version":"7742253","steam_id":85568392924469993,"keywords":["cp","nocrits","nodmgspread","uncletopia"],"game_id":440,"stv_port":27016,"stv_name":"Uncletopia | New York City | 1 | All Maps | STV","players":null},{"server_id":14,"name":"Uncletopia | New York City | 2 | All Maps","name_short":"nyc-2","host":"nyc-1.us.uncletopia.com","port":27025,"enabled":true,"region":"us-east","cc":"us","latitude":40.73061,"longitude":-73.93524,"reserved":0,"last_update":"0001-01-01T00:00:00Z","name_a2s":"Uncletopia | New York City | 2 | All Maps","protocol":17,"map":"pl_snowycoast","folder":"tf","game":"Team Fortress","app_id":440,"player_count":24,"max_players":24,"Bots":0,"server_type":"Dedicated","server_os":"Linux","password":true,"vac":true,"version":"7742253","steam_id":85568392924469994,"keywords":["nocrits","nodmgspread","payload","uncletopia"],"game_id":440,"stv_port":27026,"stv_name":"Uncletopia | New York City | 2 | All Maps | STV","players":[{"user_id":4,"name":"Scent Tree","steam_id":76561198444371121,"connected_time":1001000000000,"state":"active","ping":70},{"user_id":5,"name":"Borealis Frost","steam_id":76561199115807272,"connected_time":990000000000,"state":"active","ping":118},{"user_id":6,"name":"Mi Señora","steam_id":76561198044384143,"connected_time":697000000000,"state":"active","ping":74},{"user_id":7,"name":"emily.gacha.2013","steam_id":76561198929646112,"connected_time":514000000000,"state":"active","ping":59},{"user_id":8,"name":"aaa","steam_id":76561198236166288,"connected_time":469000000000,"state":"active","ping":58},{"user_id":9,"name":"TheGaming13","steam_id":76561199239498966,"connected_time":416000000000,"state":"active","ping":106},{"user_id":10,"name":"SippinTeaInYoHood","steam_id":76561198310944756,"connected_time":350000000000,"state":"active","ping":45},{"user_id":11,"name":"Canadianwarrior","steam_id":76561198994799113,"connected_time":318000000000,"state":"active","ping":65},{"user_id":12,"name":"gusty","steam_id":76561198048359020,"connected_time":311000000000,"state":"active","ping":134},{"user_id":13,"name":"Unfunny Joke","steam_id":76561199121277664,"connected_time":297000000000,"state":"active","ping":75},{"user_id":14,"name":"Chrome Knight","steam_id":76561198851348871,"connected_time":271000000000,"state":"active","ping":64},{"user_id":15,"name":"Sou1Eater7","steam_id":76561198011330131,"connected_time":263000000000,"state":"active","ping":100},{"user_id":16,"name":"Jakk","steam_id":76561198041537908,"connected_time":260000000000,"state":"active","ping":149},{"user_id":17,"name":"frog","steam_id":76561198328109873,"connected_time":257000000000,"state":"active","ping":54},{"user_id":18,"name":"BarackGamingObama","steam_id":76561198063943295,"connected_time":254000000000,"state":"active","ping":145},{"user_id":19,"name":"MovingCarcass","steam_id":76561198391040475,"connected_time":241000000000,"state":"active","ping":54},{"user_id":20,"name":"Texi","steam_id":76561198292895810,"connected_time":235000000000,"state":"active","ping":122},{"user_id":21,"name":"๖Vicious.","steam_id":76561198037227678,"connected_time":234000000000,"state":"active","ping":141},{"user_id":22,"name":"Final_MarioXD","steam_id":76561199184862419,"connected_time":227000000000,"state":"active","ping":102},{"user_id":23,"name":"Mak","steam_id":76561198089197922,"connected_time":201000000000,"state":"active","ping":120},{"user_id":24,"name":"Social Credit Stealer","steam_id":76561198128412123,"connected_time":156000000000,"state":"active","ping":91},{"user_id":25,"name":"e","steam_id":76561198131245396,"connected_time":156000000000,"state":"active","ping":73},{"user_id":26,"name":"Person","steam_id":76561198872679802,"connected_time":151000000000,"state":"active","ping":102},{"user_id":27,"name":"clicker","steam_id":76561199238388737,"connected_time":137000000000,"state":"spawning","ping":173}]},{"server_id":15,"name":"Uncletopia | New York City | 3 | Stopwatch Beta","name_short":"nyc-3","host":"nyc-1.us.uncletopia.com","port":27035,"enabled":true,"region":"us-east","cc":"us","latitude":40.73061,"longitude":-73.93524,"reserved":0,"last_update":"0001-01-01T00:00:00Z","name_a2s":"Uncletopia | New York City | 3 | Stopwatch Beta","protocol":17,"map":"pl_pier","folder":"tf","game":"Team Fortress","app_id":440,"player_count":0,"max_players":24,"Bots":0,"server_type":"Dedicated","server_os":"Linux","password":true,"vac":true,"version":"7742253","steam_id":85568392924742820,"keywords":["nocrits","nodmgspread","payload","uncletopia"],"game_id":440,"stv_port":27036,"stv_name":"Uncletopia | New York City | 3 | Stopwatch Beta | STV","players":null},{"server_id":16,"name":"Uncletopia | New York City | 4 | Community","name_short":"nyc-4","host":"nyc-1.us.uncletopia.com","port":27045,"enabled":true,"region":"us-east","cc":"us","latitude":40.73061,"longitude":-73.93524,"reserved":0,"last_update":"0001-01-01T00:00:00Z","name_a2s":"Uncletopia | New York City | 4 | Community","protocol":17,"map":"koth_viaduct","folder":"tf","game":"Team Fortress","app_id":440,"player_count":0,"max_players":24,"Bots":0,"server_type":"Dedicated","server_os":"Linux","password":true,"vac":true,"version":"7742253","steam_id":85568392924742821,"keywords":["cp","nocrits","nodmgspread","uncletopia"],"game_id":440,"stv_port":27046,"stv_name":"Uncletopia | New York City | 4 | Community | STV","players":null},{"server_id":142,"name":"Uncletopia | São Paulo | 1 | All Maps","name_short":"sao-1","host":"sao-1.br.uncletopia.com","port":27015,"enabled":true,"region":"sa","cc":"br","latitude":-23.533773,"longitude":-46.62529,"reserved":0,"last_update":"0001-01-01T00:00:00Z","name_a2s":"Uncletopia | São Paulo | 1 | All Maps","protocol":17,"map":"koth_viaduct","folder":"tf","game":"Team Fortress","app_id":440,"player_count":0,"max_players":24,"Bots":0,"server_type":"Dedicated","server_os":"Linux","password":true,"vac":true,"version":"7742253","steam_id":85568392924469996,"keywords":["cp","nocrits","nodmgspread","uncletopia"],"game_id":440,"stv_port":27016,"stv_name":"Uncletopia | São Paulo | 1 | All Maps | STV","players":null},{"server_id":143,"name":"Uncletopia | São Paulo | 2 | All Maps","name_short":"sao-2","host":"sao-2.br.uncletopia.com","port":27015,"enabled":true,"region":"sa","cc":"br","latitude":-23.533773,"longitude":-46.62529,"reserved":0,"last_update":"0001-01-01T00:00:00Z","name_a2s":"Uncletopia | São Paulo | 2 | All Maps","protocol":17,"map":"koth_viaduct","folder":"tf","game":"Team Fortress","app_id":440,"player_count":0,"max_players":24,"Bots":0,"server_type":"Dedicated","server_os":"Linux","password":true,"vac":true,"version":"7742253","steam_id":85568392924485349,"keywords":["cp","nocrits","nodmgspread","uncletopia"],"game_id":440,"stv_port":27016,"stv_name":"Uncletopia | São Paulo | 2 | All Maps | STV","players":null},{"server_id":7,"name":"Uncletopia | Seattle | 1 | All Maps","name_short":"sea-1","host":"sea-1.us.uncletopia.com","port":27015,"enabled":true,"region":"us-west","cc":"us","latitude":47.608013,"longitude":-122.33517,"reserved":0,"last_update":"0001-01-01T00:00:00Z","name_a2s":"Uncletopia | Seattle | 1 | All Maps","protocol":17,"map":"pl_frontier_final","folder":"tf","game":"Team Fortress","app_id":440,"player_count":0,"max_players":24,"Bots":0,"server_type":"Dedicated","server_os":"Linux","password":true,"vac":true,"version":"7742253","steam_id":85568392924469997,"keywords":["nocrits","nodmgspread","payload","uncletopia"],"game_id":440,"stv_port":27016,"stv_name":"Uncletopia | Seattle | 1 | All Maps | STV","players":null},{"server_id":119,"name":"Uncletopia | Seattle | 2 | All Maps","name_short":"sea-2","host":"sea-1.us.uncletopia.com","port":27025,"enabled":true,"region":"us-west","cc":"us","latitude":47.608013,"longitude":-122.33517,"reserved":0,"last_update":"0001-01-01T00:00:00Z","name_a2s":"Uncletopia | Seattle | 2 | All Maps","protocol":17,"map":"cp_sunshine","folder":"tf","game":"Team Fortress","app_id":440,"player_count":0,"max_players":24,"Bots":0,"server_type":"Dedicated","server_os":"Linux","password":true,"vac":true,"version":"7742253","steam_id":85568392924469998,"keywords":["cp","nocrits","nodmgspread","uncletopia"],"game_id":440,"stv_port":27026,"stv_name":"Uncletopia | Seattle | 2 | All Maps | STV","players":null},{"server_id":406,"name":"Uncletopia | Seattle | 3 | Stopwatch Beta","name_short":"sea-3","host":"sea-1.us.uncletopia.com","port":27035,"enabled":true,"region":"us-west","cc":"us","latitude":47.608013,"longitude":-122.33517,"reserved":0,"last_update":"0001-01-01T00:00:00Z","name_a2s":"Uncletopia | Seattle | 3 | Stopwatch Beta","protocol":17,"map":"cp_altitude","folder":"tf","game":"Team Fortress","app_id":440,"player_count":0,"max_players":24,"Bots":0,"server_type":"Dedicated","server_os":"Linux","password":true,"vac":true,"version":"7742253","steam_id":85568392924515217,"keywords":["cp","nocrits","nodmgspread","uncletopia"],"game_id":440,"stv_port":27036,"stv_name":"Uncletopia | Seattle | 3 | Stopwatch Beta | STV","players":null},{"server_id":17,"name":"Uncletopia | San Francisco | 1 | All Maps","name_short":"sfo-1","host":"sfo-1.us.uncletopia.com","port":27015,"enabled":true,"region":"us-west","cc":"us","latitude":37.77397,"longitude":-122.4313,"reserved":0,"last_update":"0001-01-01T00:00:00Z","name_a2s":"Uncletopia | San Francisco | 1 | All Maps","protocol":17,"map":"pl_snowycoast","folder":"tf","game":"Team Fortress","app_id":440,"player_count":0,"max_players":24,"Bots":0,"server_type":"Dedicated","server_os":"Linux","password":true,"vac":true,"version":"7742253","steam_id":85568392924469999,"keywords":["nocrits","nodmgspread","payload","uncletopia"],"game_id":440,"stv_port":27016,"stv_name":"Uncletopia | San Francisco | 1 | All Maps | STV","players":null},{"server_id":18,"name":"Uncletopia | San Francisco | 2 | All Maps","name_short":"sfo-2","host":"sfo-1.us.uncletopia.com","port":27025,"enabled":true,"region":"us-west","cc":"us","latitude":37.77397,"longitude":-122.4313,"reserved":0,"last_update":"0001-01-01T00:00:00Z","name_a2s":"Uncletopia | San Francisco | 2 | All Maps","protocol":17,"map":"cp_altitude","folder":"tf","game":"Team Fortress","app_id":440,"player_count":0,"max_players":24,"Bots":0,"server_type":"Dedicated","server_os":"Linux","password":true,"vac":true,"version":"7742253","steam_id":85568392924470000,"keywords":["cp","nocrits","nodmgspread","uncletopia"],"game_id":440,"stv_port":27026,"stv_name":"Uncletopia | San Francisco | 2 | All Maps | STV","players":null},{"server_id":19,"name":"Uncletopia | San Francisco | 3 | Stopwatch Beta","name_short":"sfo-3","host":"sfo-1.us.uncletopia.com","port":27035,"enabled":true,"region":"us-west","cc":"us","latitude":37.77397,"longitude":-122.4313,"reserved":0,"last_update":"0001-01-01T00:00:00Z","name_a2s":"Uncletopia | San Francisco | 3 | Stopwatch Beta","protocol":17,"map":"cp_snakewater_final1","folder":"tf","game":"Team Fortress","app_id":440,"player_count":0,"max_players":24,"Bots":0,"server_type":"Dedicated","server_os":"Linux","password":true,"vac":true,"version":"7742253","steam_id":85568392924742824,"keywords":["cp","nocrits","nodmgspread","uncletopia"],"game_id":440,"stv_port":27036,"stv_name":"Uncletopia | San Francisco | 3 | Stopwatch Beta | STV","players":null},{"server_id":20,"name":"Uncletopia | San Francisco | 4 | Community","name_short":"sfo-4","host":"sfo-1.us.uncletopia.com","port":27045,"enabled":true,"region":"us-west","cc":"us","latitude":37.77397,"longitude":-122.4313,"reserved":0,"last_update":"0001-01-01T00:00:00Z","name_a2s":"Uncletopia | San Francisco | 4 | Community","protocol":17,"map":"cp_dustbowl","folder":"tf","game":"Team Fortress","app_id":440,"player_count":0,"max_players":24,"Bots":0,"server_type":"Dedicated","server_os":"Linux","password":true,"vac":true,"version":"7742253","steam_id":85568392924742826,"keywords":["cp","nocrits","nodmgspread","uncletopia"],"game_id":440,"stv_port":27046,"stv_name":"Uncletopia | San Francisco | 4 | Community | STV","players":null},{"server_id":141,"name":"Uncletopia | Sydney | 1 | All Maps","name_short":"syd-1","host":"syd-1.au.uncletopia.com","port":27015,"enabled":true,"region":"au","cc":"au","latitude":-33.865143,"longitude":151.2099,"reserved":0,"last_update":"0001-01-01T00:00:00Z","name_a2s":"Uncletopia | Sydney | 1 | All Maps","protocol":17,"map":"pl_badwater","folder":"tf","game":"Team Fortress","app_id":440,"player_count":0,"max_players":24,"Bots":0,"server_type":"Dedicated","server_os":"Linux","password":true,"vac":true,"version":"7742253","steam_id":85568392924470001,"keywords":["nocrits","nodmgspread","payload","uncletopia"],"game_id":440,"stv_port":27016,"stv_name":"Uncletopia | Sydney | 1 | All Maps | STV","players":null},{"server_id":123,"name":"Uncletopia | Sydney | 2 | All Maps","name_short":"syd-2","host":"syd-1.au.uncletopia.com","port":27025,"enabled":true,"region":"au","cc":"au","latitude":-33.865143,"longitude":151.2099,"reserved":0,"last_update":"0001-01-01T00:00:00Z","name_a2s":"Uncletopia | Sydney | 2 | All Maps","protocol":17,"map":"cp_powerhouse","folder":"tf","game":"Team Fortress","app_id":440,"player_count":24,"max_players":24,"Bots":0,"server_type":"Dedicated","server_os":"Linux","password":true,"vac":true,"version":"7742253","steam_id":85568392924470002,"keywords":["cp","nocrits","nodmgspread","uncletopia"],"game_id":440,"stv_port":27026,"stv_name":"Uncletopia | Sydney | 2 | All Maps | STV","players":[{"user_id":705,"name":"the crying fat cat","steam_id":76561198824008464,"connected_time":2865000000000,"state":"active","ping":157},{"user_id":753,"name":"Dr Rags","steam_id":76561198179481430,"connected_time":876000000000,"state":"active","ping":94},{"user_id":709,"name":"downloadmorememes.gov","steam_id":76561198043631770,"connected_time":2769000000000,"state":"active","ping":49},{"user_id":741,"name":"你戴綠帽子","steam_id":76561198869771559,"connected_time":1650000000000,"state":"active","ping":55},{"user_id":766,"name":"brownie","steam_id":76561198814158355,"connected_time":91000000000,"state":"active","ping":57},{"user_id":697,"name":"Hot Yoga Instructor","steam_id":76561199163801558,"connected_time":3074000000000,"state":"active","ping":50},{"user_id":765,"name":"OpaCopa","steam_id":76561198143009299,"connected_time":265000000000,"state":"active","ping":55},{"user_id":734,"name":"PsychoTy","steam_id":76561198806631730,"connected_time":1815000000000,"state":"active","ping":47},{"user_id":742,"name":"Azzy","steam_id":76561198096245286,"connected_time":1576000000000,"state":"active","ping":52},{"user_id":689,"name":"LightningBlock","steam_id":76561198289997742,"connected_time":3415000000000,"state":"active","ping":43},{"user_id":746,"name":"morbius enjoyer","steam_id":76561199461997385,"connected_time":1192000000000,"state":"active","ping":157},{"user_id":747,"name":"nwy","steam_id":76561198083934634,"connected_time":1074000000000,"state":"active","ping":46},{"user_id":730,"name":"grandmaster ramen","steam_id":76561198006414568,"connected_time":1959000000000,"state":"active","ping":41},{"user_id":748,"name":"Blazn Archie","steam_id":76561197997509443,"connected_time":1041000000000,"state":"active","ping":119},{"user_id":755,"name":"JBoss","steam_id":76561198321937857,"connected_time":821000000000,"state":"active","ping":76},{"user_id":751,"name":"Bread Man","steam_id":76561199062483982,"connected_time":980000000000,"state":"active","ping":149},{"user_id":752,"name":"Void_Robin","steam_id":76561198855798566,"connected_time":928000000000,"state":"active","ping":67},{"user_id":756,"name":"A KFC RatChicken","steam_id":76561198157727540,"connected_time":812000000000,"state":"active","ping":43},{"user_id":657,"name":"Blazey 伊達 政宗","steam_id":76561197971082275,"connected_time":5311000000000,"state":"active","ping":120},{"user_id":758,"name":"It's muffin time!","steam_id":76561198219928769,"connected_time":709000000000,"state":"active","ping":52},{"user_id":759,"name":"Sulu","steam_id":76561198298126905,"connected_time":658000000000,"state":"active","ping":55},{"user_id":760,"name":"ׄ","steam_id":76561199375656301,"connected_time":635000000000,"state":"active","ping":75},{"user_id":763,"name":"wombraider","steam_id":76561199375834537,"connected_time":607000000000,"state":"active","ping":128}]},{"server_id":395,"name":"Uncletopia | Sydney | 3 | All Maps","name_short":"syd-3","host":"syd-1.au.uncletopia.com","port":27035,"enabled":true,"region":"au","cc":"au","latitude":-33.865143,"longitude":151.2099,"reserved":0,"last_update":"0001-01-01T00:00:00Z","name_a2s":"Uncletopia | Sydney | 3 | All Maps","protocol":17,"map":"cp_sunshine","folder":"tf","game":"Team Fortress","app_id":440,"player_count":18,"max_players":24,"Bots":0,"server_type":"Dedicated","server_os":"Linux","password":true,"vac":true,"version":"7742253","steam_id":85568392925194467,"keywords":["cp","nocrits","nodmgspread","uncletopia"],"game_id":440,"stv_port":27036,"stv_name":"Uncletopia | Sydney | 3 | All Maps | STV","players":[{"user_id":99,"name":"BRATHLAD","steam_id":76561198271781715,"connected_time":511000000000,"state":"active","ping":292},{"user_id":108,"name":"Expired Pickle Jar","steam_id":76561198147192067,"connected_time":99000000000,"state":"active","ping":59},{"user_id":92,"name":"MikkyD","steam_id":76561198043452962,"connected_time":1834000000000,"state":"active","ping":62},{"user_id":86,"name":"trolder","steam_id":76561198060176705,"connected_time":3088000000000,"state":"active","ping":104},{"user_id":109,"name":"ALEX420 [BRIGADA._.CURUGOL]","steam_id":76561198271482248,"connected_time":86000000000,"state":"active","ping":335},{"user_id":85,"name":"Bryos","steam_id":76561199091643381,"connected_time":3193000000000,"state":"active","ping":92},{"user_id":93,"name":"Natan","steam_id":76561198219834515,"connected_time":1792000000000,"state":"active","ping":148},{"user_id":94,"name":"Branko","steam_id":76561199262196710,"connected_time":1305000000000,"state":"active","ping":47},{"user_id":95,"name":"Sync","steam_id":76561198863099660,"connected_time":888000000000,"state":"active","ping":54},{"user_id":96,"name":"SunnyOPO","steam_id":76561199078621030,"connected_time":724000000000,"state":"active","ping":107},{"user_id":101,"name":"TheNeutrality","steam_id":76561199017954062,"connected_time":445000000000,"state":"active","ping":173},{"user_id":98,"name":"thearcticworier","steam_id":76561199069469477,"connected_time":615000000000,"state":"active","ping":344},{"user_id":110,"name":"Gregory","steam_id":76561199038664603,"connected_time":64000000000,"state":"active","ping":281},{"user_id":102,"name":"skaka","steam_id":76561199048862575,"connected_time":417000000000,"state":"active","ping":63},{"user_id":103,"name":"billy loomis","steam_id":76561198032687714,"connected_time":378000000000,"state":"active","ping":94},{"user_id":111,"name":"Corn","steam_id":76561198086465847,"connected_time":51000000000,"state":"active","ping":50},{"user_id":107,"name":"Tode","steam_id":76561198243128080,"connected_time":243000000000,"state":"active","ping":42},{"user_id":112,"name":"fourjaf","steam_id":76561198163147051,"connected_time":50000000000,"state":"active","ping":45}]},{"server_id":396,"name":"Uncletopia | Sydney | 4 | All Maps","name_short":"syd-4","host":"syd-1.au.uncletopia.com","port":27045,"enabled":true,"region":"au","cc":"au","latitude":-33.865143,"longitude":151.2099,"reserved":0,"last_update":"0001-01-01T00:00:00Z","name_a2s":"Uncletopia | Sydney | 4 | All Maps","protocol":17,"map":"cp_mountainlab","folder":"tf","game":"Team Fortress","app_id":440,"player_count":0,"max_players":24,"Bots":0,"server_type":"Dedicated","server_os":"Linux","password":true,"vac":true,"version":"7742253","steam_id":85568392925397958,"keywords":["cp","nocrits","nodmgspread","uncletopia"],"game_id":440,"stv_port":27046,"stv_name":"Uncletopia | Sydney | 4 | All Maps | STV","players":null},{"server_id":58,"name":"Uncletopia | Sydney | 5 | Stopwatch Beta","name_short":"syd-5","host":"syd-1.au.uncletopia.com","port":27055,"enabled":true,"region":"au","cc":"au","latitude":-33.865143,"longitude":151.2099,"reserved":0,"last_update":"0001-01-01T00:00:00Z","name_a2s":"Uncletopia | Sydney | 5 | Stopwatch Beta","protocol":17,"map":"koth_highpass","folder":"tf","game":"Team Fortress","app_id":440,"player_count":0,"max_players":24,"Bots":0,"server_type":"Dedicated","server_os":"Linux","password":true,"vac":true,"version":"7742253","steam_id":85568392925397959,"keywords":["cp","nocrits","nodmgspread","uncletopia"],"game_id":440,"stv_port":27056,"stv_name":"Uncletopia | Sydney | 5 | Stopwatch Beta | STV","players":null},{"server_id":59,"name":"Uncletopia | Sydney | 6 | Community","name_short":"syd-6","host":"syd-1.au.uncletopia.com","port":27065,"enabled":true,"region":"au","cc":"au","latitude":-33.865143,"longitude":151.2099,"reserved":0,"last_update":"0001-01-01T00:00:00Z","name_a2s":"Uncletopia | Sydney | 6 | Community","protocol":17,"map":"workshop/koth_ramjam_rc1.ugc459778887","folder":"tf","game":"Team Fortress","app_id":440,"player_count":0,"max_players":24,"Bots":0,"server_type":"Dedicated","server_os":"Linux","password":true,"vac":true,"version":"7742253","steam_id":85568392925397960,"keywords":["cp","nocrits","nodmgspread","uncletopia"],"game_id":440,"stv_port":27066,"stv_name":"Uncletopia | Sydney | 6 | Community | STV","players":null},{"server_id":49,"name":"Uncletopia | Warsaw | 1 | All Maps","name_short":"waw-1","host":"waw-1.pl.uncletopia.com","port":27015,"enabled":true,"region":"eu","cc":"pl","latitude":52.2297,"longitude":21.017532,"reserved":0,"last_update":"0001-01-01T00:00:00Z","name_a2s":"","protocol":0,"map":"","folder":"","game":"","app_id":0,"player_count":0,"max_players":0,"Bots":0,"server_type":"","server_os":"","password":false,"vac":false,"version":"","steam_id":0,"keywords":null,"game_id":0,"stv_port":0,"stv_name":"","players":null},{"server_id":50,"name":"Uncletopia | Warsaw | 2 | All Maps","name_short":"waw-2","host":"waw-1.pl.uncletopia.com","port":27025,"enabled":true,"region":"eu","cc":"pl","latitude":52.2297,"longitude":21.017532,"reserved":0,"last_update":"0001-01-01T00:00:00Z","name_a2s":"Uncletopia | Warsaw | 2 | All Maps","protocol":17,"map":"cp_mountainlab","folder":"tf","game":"Team Fortress","app_id":440,"player_count":0,"max_players":24,"Bots":0,"server_type":"Dedicated","server_os":"Linux","password":true,"vac":true,"version":"7742253","steam_id":85568392925397851,"keywords":["cp","nocrits","nodmgspread","uncletopia"],"game_id":440,"stv_port":27026,"stv_name":"Uncletopia | Warsaw | 2 | All Maps | STV","players":null},{"server_id":51,"name":"Uncletopia | Warsaw | 3 | All Maps","name_short":"waw-3","host":"waw-1.pl.uncletopia.com","port":27035,"enabled":true,"region":"eu","cc":"pl","latitude":52.2297,"longitude":21.017532,"reserved":0,"last_update":"0001-01-01T00:00:00Z","name_a2s":"Uncletopia | Warsaw | 3 | All Maps","protocol":17,"map":"koth_lakeside_final","folder":"tf","game":"Team Fortress","app_id":440,"player_count":0,"max_players":24,"Bots":0,"server_type":"Dedicated","server_os":"Linux","password":true,"vac":true,"version":"7742253","steam_id":85568392925397852,"keywords":["cp","nocrits","nodmgspread","uncletopia"],"game_id":440,"stv_port":27036,"stv_name":"Uncletopia | Warsaw | 3 | All Maps | STV","players":null},{"server_id":52,"name":"Uncletopia | Warsaw | 4 | All Maps","name_short":"waw-4","host":"waw-1.pl.uncletopia.com","port":27045,"enabled":true,"region":"eu","cc":"pl","latitude":52.2297,"longitude":21.017532,"reserved":0,"last_update":"0001-01-01T00:00:00Z","name_a2s":"Uncletopia | Warsaw | 4 | All Maps","protocol":17,"map":"pl_snowycoast","folder":"tf","game":"Team Fortress","app_id":440,"player_count":0,"max_players":24,"Bots":0,"server_type":"Dedicated","server_os":"Linux","password":true,"vac":true,"version":"7742253","steam_id":85568392925397853,"keywords":["nocrits","nodmgspread","payload","uncletopia"],"game_id":440,"stv_port":27046,"stv_name":"Uncletopia | Warsaw | 4 | All Maps | STV","players":null},{"server_id":53,"name":"Uncletopia | Warsaw | 5 | Stopwatch Beta","name_short":"waw-5","host":"waw-1.pl.uncletopia.com","port":27055,"enabled":true,"region":"eu","cc":"pl","latitude":52.2297,"longitude":21.017532,"reserved":0,"last_update":"0001-01-01T00:00:00Z","name_a2s":"Uncletopia | Warsaw | 5 | Stopwatch Beta","protocol":17,"map":"pl_swiftwater_final1","folder":"tf","game":"Team Fortress","app_id":440,"player_count":0,"max_players":24,"Bots":0,"server_type":"Dedicated","server_os":"Linux","password":true,"vac":true,"version":"7742253","steam_id":85568392925397854,"keywords":["nocrits","nodmgspread","payload","uncletopia"],"game_id":440,"stv_port":27056,"stv_name":"Uncletopia | Warsaw | 5 | Stopwatch Beta | STV","players":null},{"server_id":54,"name":"Uncletopia | Warsaw | 6 | Community","name_short":"waw-6","host":"waw-1.pl.uncletopia.com","port":27065,"enabled":true,"region":"eu","cc":"pl","latitude":52.2297,"longitude":21.017532,"reserved":0,"last_update":"0001-01-01T00:00:00Z","name_a2s":"Uncletopia | Warsaw | 6 | Community","protocol":17,"map":"koth_highpass","folder":"tf","game":"Team Fortress","app_id":440,"player_count":7,"max_players":24,"Bots":0,"server_type":"Dedicated","server_os":"Linux","password":true,"vac":true,"version":"7742253","steam_id":85568392925397856,"keywords":["cp","nocrits","nodmgspread","uncletopia"],"game_id":440,"stv_port":27066,"stv_name":"Uncletopia | Warsaw | 6 | Community | STV","players":[{"user_id":14,"name":"nvmHastee","steam_id":76561199371458295,"connected_time":10000000000,"state":"active","ping":86},{"user_id":8,"name":"Shocker","steam_id":76561199028232556,"connected_time":480000000000,"state":"active","ping":92},{"user_id":9,"name":"bonus","steam_id":76561199020394467,"connected_time":330000000000,"state":"active","ping":38},{"user_id":10,"name":"ZOUVELI","steam_id":76561198248646792,"connected_time":316000000000,"state":"active","ping":91},{"user_id":11,"name":"Weenie Hut Jr's","steam_id":76561198050515739,"connected_time":111000000000,"state":"active","ping":76},{"user_id":12,"name":"Devotee","steam_id":76561198235778242,"connected_time":59000000000,"state":"connecting","ping":0},{"user_id":13,"name":"Tomtheturtleman","steam_id":76561199276377601,"connected_time":51000000000,"state":"active","ping":85}]}]}