{"status":true,"message":"","result":[{"server_id":9,"name":"Uncletopia | Atlanta | 1 | All Maps","name_short":"atl-1","host":"atl-1.us.uncletopia.com","port":27015,"enabled":true,"region":"us-east","cc":"us","latitude":33.753746,"longitude":-84.38633,"reserved":0,"last_update":"0001-01-01T00:00:00Z","name_a2s":"Uncletopia | Atlanta | 1 | All Maps","protocol":17,"map":"cp_powerhouse","folder":"tf","game":"Team Fortress","app_id":440,"player_count":24,"max_players":24,"Bots":0,"server_type":"Dedicated","server_os":"Linux","password":true,"vac":true,"version":"7757534","steam_id":85568392924469982,"keywords":["cp","nocrits","nodmgspread","uncletopia"],"game_id":440,"stv_port":27016,"stv_name":"Uncletopia | Atlanta | 1 | All Maps | STV","players":[{"user_id":92,"name":"H_NGM_N","steam_id":76561199427024166,"connected_time":728000000000,"state":"active","ping":77},{"user_id":65,"name":"titan","steam_id":76561198197388678,"connected_time":3450000000000,"state":"active","ping":59},{"user_id":82,"name":"GailusTerran","steam_id":76561198319509387,"connected_time":1457000000000,"state":"active","ping":61},{"user_id":99,"name":"Miramar","steam_id":76561198022057653,"connected_time":173000000000,"state":"active","ping":73},{"user_id":55,"name":"lil hog","steam_id":76561199230929836,"connected_time":4177000000000,"state":"active","ping":82},{"user_id":94,"name":"Zho Biden","steam_id":76561198079224101,"connected_time":620000000000,"state":"active","ping":42},{"user_id":83,"name":"sebjzy","steam_id":76561198009959034,"connected_time":1423000000000,"state":"active","ping":90},{"user_id":56,"name":"Cookie","steam_id":76561198047736899,"connected_time":4161000000000,"state":"active","ping":59},{"user_id":74,"name":"ƒ†1 ‚ô¶ Synth","steam_id":76561198058660228,"connected_time":2000000000000,"state":"active","ping":42},{"user_id":44,"name":"Robocop","steam_id":76561198096306325,"connected_time":5365000000000,"state":"active","ping":111},{"user_id":70,"name":"TI-83 Plus","steam_id":76561198316134443,"connected_time":2784000000000,"state":"active","ping":61},{"user_id":96,"name":"Shichinitzi","steam_id":76561198003833732,"connected_time":540000000000,"state":"active","ping":70},{"user_id":86,"name":"Ironaka","steam_id":76561198029993183,"connected_time":1274000000000,"state":"active","ping":84},{"user_id":67,"name":"vordhosbn","steam_id":76561198148132163,"connected_time":2810000000000,"state":"active","ping":83},{"user_id":87,"name":"barker bill","steam_id":76561198018451994,"connected_time":948000000000,"state":"active","ping":94},{"user_id":91,"name":"rose","steam_id":76561198048882285,"connected_time":795000000000,"state":"active","ping":73},{"user_id":89,"name":"RED1 | Avo","steam_id":76561197993340494,"connected_time":830000000000,"state":"active","ping":60},{"user_id":80,"name":"luxin","steam_id":76561198399383047,"connected_time":1498000000000,"state":"active","ping":69},{"user_id":71,"name":"Queen Frau the Round","steam_id":76561197999942134,"connected_time":2743000000000,"state":"active","ping":63},{"user_id":101,"name":"RED1 | p4ka","steam_id":76561198315291317,"connected_time":34000000000,"state":"active","ping":75},{"user_id":34,"name":"cheeks","steam_id":76561197993371179,"connected_time":6743000000000,"state":"active","ping":61},{"user_id":98,"name":"lightning","steam_id":76561198144178216,"connected_time":185000000000,"state":"active","ping":54},{"user_id":59,"name":"KaaK","steam_id":76561198152882096,"connected_time":4138000000000,"state":"active","ping":121},{"user_id":100,"name":"Sideways","steam_id":76561198068436083,"connected_time":105000000000,"state":"active","ping":63}]},{"server_id":400,"name":"Uncletopia | Atlanta | 3 | Community","name_short":"atl-3","host":"atl-1.us.uncletopia.com","port":27035,"enabled":true,"region":"us-east","cc":"us","latitude":33.753746,"longitude":-84.38633,"reserved":0,"last_update":"0001-01-01T00:00:00Z","name_a2s":"Uncletopia | Atlanta | 3 | Community","protocol":17,"map":"workshop/pl_boundary_final1.ugc456799153","folder":"tf","game":"Team Fortress","app_id":440,"player_count":25,"max_players":32,"Bots":0,"server_type":"Dedicated","server_os":"Linux","password":true,"vac":true,"version":"7757534","steam_id":85568392924515187,"keywords":["increased_maxplayers","nocrits","nodmgspread","payload","uncletopia"],"game_id":440,"stv_port":27036,"stv_name":"Uncletopia | Atlanta | 3 | Community | STV","players":[{"user_id":631,"name":"M1ssile T0E","steam_id":76561199052865451,"connected_time":738000000000,"state":"active","ping":60},{"user_id":600,"name":"Bimbli","steam_id":76561198058948629,"connected_time":1460000000000,"state":"active","ping":85},{"user_id":622,"name":"cass","steam_id":76561198074502046,"connected_time":1001000000000,"state":"active","ping":61},{"user_id":559,"name":"chen","steam_id":76561198278879575,"connected_time":2724000000000,"state":"active","ping":62},{"user_id":626,"name":"[BBW] Justario","steam_id":76561198016095410,"connected_time":924000000000,"state":"active","ping":58},{"user_id":625,"name":"fudo myoo","steam_id":76561198456258164,"connected_time":931000000000,"state":"active","ping":57},{"user_id":624,"name":"WannaSeeA","steam_id":76561198097701042,"connected_time":973000000000,"state":"active","ping":75},{"user_id":510,"name":"CUM MAN","steam_id":76561198046852298,"connected_time":4002000000000,"state":"active","ping":71},{"user_id":633,"name":"Dad","steam_id":76561199091290729,"connected_time":615000000000,"state":"active","ping":84},{"user_id":586,"name":"Golem","steam_id":76561199015772917,"connected_time":2017000000000,"state":"active","ping":98},{"user_id":590,"name":"DaÃµksuki","steam_id":76561198084127751,"connected_time":1762000000000,"state":"active","ping":77},{"user_id":565,"name":"how do i girl???","steam_id":76561198050290565,"connected_time":2502000000000,"state":"active","ping":81},{"user_id":655,"name":"Poptart From Mars","steam_id":76561197979930960,"connected_time":0,"state":"spawning","ping":18},{"user_id":627,"name":"Dips","steam_id":76561198251975850,"connected_time":920000000000,"state":"active","ping":103},{"user_id":567,"name":"Bee","steam_id":76561198102292900,"connected_time":2495000000000,"state":"active","ping":80},{"user_id":568,"name":"Ginger Jesus","steam_id":76561198052386458,"connected_time":2430000000000,"state":"active","ping":68},{"user_id":650,"name":"goon prime minster","steam_id":76561198059245735,"connected_time":153000000000,"state":"active","ping":111},{"user_id":629,"name":"Coffee","steam_id":76561198098622184,"connected_time":885000000000,"state":"active","ping":76},{"user_id":638,"name":"SilverGallium","steam_id":76561198042011972,"connected_time":487000000000,"state":"active","ping":88},{"user_id":576,"name":"Koffiemok","steam_id":76561198080672142,"connected_time":2244000000000,"state":"active","ping":143},{"user_id":548,"name":"Prof. Eggnog","steam_id":76561198193389166,"connected_time":3088000000000,"state":"active","ping":111},{"user_id":597,"name":"Hank the Tank","steam_id":76561198424853684,"connected_time":1603000000000,"state":"active","ping":99},{"user_id":583,"name":"retaW","steam_id":76561198308097092,"connected_time":2109000000000,"state":"active","ping":44},{"user_id":644,"name":"blamo","steam_id":76561198044769147,"connected_time":347000000000,"state":"active","ping":79},{"user_id":653,"name":"William Wallace","steam_id":76561199343316814,"connected_time":84000000000,"state":"active","ping":61}]},{"server_id":401,"name":"Uncletopia | Atlanta | 4 | No Payload","name_short":"atl-4","host":"atl-1.us.uncletopia.com","port":27045,"enabled":true,"region":"us-east","cc":"us","latitude":33.753746,"longitude":-84.38633,"reserved":0,"last_update":"0001-01-01T00:00:00Z","name_a2s":"","protocol":0,"map":"","folder":"","game":"","app_id":0,"player_count":0,"max_players":0,"Bots":0,"server_type":"","server_os":"","password":false,"vac":false,"version":"","steam_id":0,"keywords":null,"game_id":0,"stv_port":0,"stv_name":"","players":null},{"server_id":2,"name":"Uncletopia | Chicago | 1 | All Maps","name_short":"chi-1","host":"chi-1.us.uncletopia.com","port":27015,"enabled":true,"region":"us-central","cc":"us","latitude":41.881832,"longitude":-87.62318,"reserved":0,"last_update":"0001-01-01T00:00:00Z","name_a2s":"Uncletopia | Chicago | 1 | All Maps","protocol":17,"map":"pl_snowycoast","folder":"tf","game":"Team Fortress","app_id":440,"player_count":24,"max_players":24,"Bots":0,"server_type":"Dedicated","server_os":"Linux","password":true,"vac":true,"version":"7757534","steam_id":85568392924469984,"keywords":["nocrits","nodmgspread","payload","uncletopia"],"game_id":440,"stv_port":27016,"stv_name":"Uncletopia | Chicago | 1 | All Maps | STV","players":[{"user_id":247,"name":"ratie","steam_id":76561198059399661,"connected_time":1496000000000,"state":"active","ping":75},{"user_id":205,"name":"G3rockwood","steam_id":76561198103583658,"connected_time":4507000000000,"state":"active","ping":58},{"user_id":263,"name":"mae","steam_id":76561198116842967,"connected_time":495000000000,"state":"active","ping":62},{"user_id":206,"name":"Blitzy","steam_id":76561198149472890,"connected_time":4370000000000,"state":"active","ping":69},{"user_id":226,"name":"mossy_woods","steam_id":76561198284350370,"connected_time":2254000000000,"state":"active","ping":59},{"user_id":262,"name":"Ejaculation Zach","steam_id":76561198203765200,"connected_time":503000000000,"state":"active","ping":63},{"user_id":223,"name":"üÖúüÖîüÖîüÖöüÖ¢üÖ£üÖî\ufffd\ufffd\ufffd","steam_id":76561197999748343,"connected_time":2427000000000,"state":"active","ping":60},{"user_id":264,"name":"Jay F","steam_id":76561198046082188,"connected_time":470000000000,"state":"active","ping":62},{"user_id":270,"name":"Vision Spiya","steam_id":76561198095923905,"connected_time":118000000000,"state":"active","ping":46},{"user_id":267,"name":"Trundle","steam_id":76561198182289579,"connected_time":328000000000,"state":"active","ping":62},{"user_id":257,"name":"Juice Councilmen","steam_id":76561198312125574,"connected_time":1068000000000,"state":"active","ping":80},{"user_id":261,"name":"Orang","steam_id":76561198060046719,"connected_time":614000000000,"state":"active","ping":89},{"user_id":250,"name":"resh420","steam_id":76561198066619792,"connected_time":1338000000000,"state":"active","ping":74},{"user_id":260,"name":"Squid121","steam_id":76561198038832034,"connected_time":742000000000,"state":"active","ping":108},{"user_id":232,"name":"Jimmy_2003","steam_id":76561199097791017,"connected_time":2111000000000,"state":"active","ping":135},{"user_id":233,"name":"fuckterry","steam_id":76561198271957738,"connected_time":2073000000000,"state":"active","ping":62},{"user_id":254,"name":"Fly","steam_id":76561198052718068,"connected_time":1176000000000,"state":"active","ping":102},{"user_id":238,"name":"dog","steam_id":76561198263873491,"connected_time":1893000000000,"state":"active","ping":46},{"user_id":234,"name":"Robo","steam_id":76561198058317490,"connected_time":2041000000000,"state":"active","ping":78},{"user_id":269,"name":"God of bread","steam_id":76561198373688035,"connected_time":188000000000,"state":"active","ping":65},{"user_id":237,"name":"Best_Garbage","steam_id":76561199070436446,"connected_time":1980000000000,"state":"active","ping":82},{"user_id":242,"name":"thanksgiving turkey","steam_id":76561198976876859,"connected_time":1735000000000,"state":"active","ping":88},{"user_id":248,"name":"Candy Sparkles","steam_id":76561198126871264,"connected_time":1480000000000,"state":"active","ping":85},{"user_id":266,"name":"Saikou!!!","steam_id":76561198044045406,"connected_time":449000000000,"state":"active","ping":75}]},{"server_id":106,"name":"Uncletopia | Chicago | 2 | All Maps","name_short":"chi-2","host":"chi-1.us.uncletopia.com","port":27025,"enabled":true,"region":"us-central","cc":"us","latitude":41.881832,"longitude":-87.62318,"reserved":0,"last_update":"0001-01-01T00:00:00Z","name_a2s":"Uncletopia | Chicago | 2 | All Maps","protocol":17,"map":"koth_viaduct","folder":"tf","game":"Team Fortress","app_id":440,"player_count":0,"max_players":24,"Bots":0,"server_type":"Dedicated","server_os":"Linux","password":true,"vac":true,"version":"7757534","steam_id":85568392924469985,"keywords":["cp","nocrits","nodmgspread","uncletopia"],"game_id":440,"stv_port":27026,"stv_name":"Uncletopia | Chicago | 2 | All Maps | STV","players":null},{"server_id":402,"name":"Uncletopia | Chicago | 3 | All Maps","name_short":"chi-3","host":"chi-1.us.uncletopia.com","port":27035,"enabled":true,"region":"us-central","cc":"us","latitude":41.881832,"longitude":-87.62318,"reserved":0,"last_update":"0001-01-01T00:00:00Z","name_a2s":"Uncletopia | Chicago | 3 | All Maps","protocol":17,"map":"koth_lakeside_final","folder":"tf","game":"Team Fortress","app_id":440,"player_count":0,"max_players":24,"Bots":0,"server_type":"Dedicated","server_os":"Linux","password":true,"vac":true,"version":"7757534","steam_id":85568392924515191,"keywords":["cp","nocrits","nodmgspread","uncletopia"],"game_id":440,"stv_port":27036,"stv_name":"Uncletopia | Chicago | 3 | All Maps | STV","players":null},{"server_id":403,"name":"Uncletopia | Chicago | 4 | All Maps","name_short":"chi-4","host":"chi-1.us.uncletopia.com","port":27045,"enabled":true,"region":"us-central","cc":"us","latitude":41.881832,"longitude":-87.62318,"reserved":0,"last_update":"0001-01-01T00:00:00Z","name_a2s":"Uncletopia | Chicago | 4 | All Maps","protocol":17,"map":"pl_frontier_final","folder":"tf","game":"Team Fortress","app_id":440,"player_count":0,"max_players":24,"Bots":0,"server_type":"Dedicated","server_os":"Linux","password":true,"vac":true,"version":"7757534","steam_id":85568392924515193,"keywords":["nocrits","nodmgspread","payload","uncletopia"],"game_id":440,"stv_port":27046,"stv_name":"Uncletopia | Chicago | 4 | All Maps | STV","players":null},{"server_id":36,"name":"Uncletopia | Chicago | 5 | All Maps","name_short":"chi-5","host":"chi-2.us.uncletopia.com","port":27015,"enabled":true,"region":"us-central","cc":"us","latitude":41.881832,"longitude":-87.62318,"reserved":0,"last_update":"0001-01-01T00:00:00Z","name_a2s":"Uncletopia | Chicago | 5 | All Maps","protocol":17,"map":"pl_badwater","folder":"tf","game":"Team Fortress","app_id":440,"player_count":23,"max_players":24,"Bots":0,"server_type":"Dedicated","server_os":"Linux","password":true,"vac":true,"version":"7757534","steam_id":85568392924866362,"keywords":["nocrits","nodmgspread","payload","uncletopia"],"game_id":440,"stv_port":27016,"stv_name":"Uncletopia | Chicago | 5 | All Maps | STV","players":[{"user_id":432,"name":"kentuckyfriedsocks","steam_id":76561198311122883,"connected_time":93000000000,"state":"active","ping":88},{"user_id":423,"name":"Therealjuan23","steam_id":76561198400171971,"connected_time":1040000000000,"state":"active","ping":90},{"user_id":435,"name":"snookbunny420","steam_id":76561198393226640,"connected_time":67000000000,"state":"active","ping":110},{"user_id":429,"name":"Skullypoo","steam_id":76561198067912022,"connected_time":117000000000,"state":"active","ping":61},{"user_id":418,"name":"zed","steam_id":76561198090531755,"connected_time":1349000000000,"state":"active","ping":60},{"user_id":430,"name":"‚àÄ…ê","steam_id":76561198139718219,"connected_time":112000000000,"state":"active","ping":74},{"user_id":388,"name":"UnGorroMasBarato","steam_id":76561198883869359,"connected_time":3098000000000,"state":"active","ping":147},{"user_id":431,"name":"velneu","steam_id":76561198831996918,"connected_time":104000000000,"state":"active","ping":48},{"user_id":419,"name":"the bone zone","steam_id":76561198013118543,"connected_time":1223000000000,"state":"active","ping":70},{"user_id":400,"name":"Willem DripFoe","steam_id":76561198385114441,"connected_time":1742000000000,"state":"active","ping":113},{"user_id":425,"name":"Normalux","steam_id":76561198293891426,"connected_time":967000000000,"state":"active","ping":88},{"user_id":433,"name":"Banio Kaioie","steam_id":76561198153295874,"connected_time":83000000000,"state":"active","ping":108},{"user_id":411,"name":"NBA Youngboy","steam_id":76561199118797200,"connected_time":1519000000000,"state":"active","ping":76},{"user_id":399,"name":"Corn","steam_id":76561198177186718,"connected_time":1748000000000,"state":"active","ping":56},{"user_id":428,"name":"Dispenser (Twan)","steam_id":76561197991064908,"connected_time":154000000000,"state":"active","ping":62},{"user_id":417,"name":"cAssBlaster","steam_id":76561198138488101,"connected_time":1431000000000,"state":"active","ping":55},{"user_id":397,"name":"3,628 TF2 Hours","steam_id":76561198057717934,"connected_time":2215000000000,"state":"active","ping":45},{"user_id":421,"name":"Chrisscar","steam_id":76561198086298130,"connected_time":1095000000000,"state":"active","ping":96},{"user_id":398,"name":"98","steam_id":76561198134813102,"connected_time":1917000000000,"state":"active","ping":60},{"user_id":387,"name":"craxyt","steam_id":76561198050192689,"connected_time":3136000000000,"state":"active","ping":100},{"user_id":434,"name":"FellowGamer","steam_id":76561198089600392,"connected_time":83000000000,"state":"active","ping":72},{"user_id":413,"name":"Fredrick","steam_id":76561197981419964,"connected_time":1508000000000,"state":"active","ping":69},{"user_id":415,"name":"Liver stealer","steam_id":76561199029954287,"connected_time":1493000000000,"state":"active","ping":146}]},{"server_id":37,"name":"Uncletopia | Chicago | 6 | All Maps","name_short":"chi-6","host":"chi-2.us.uncletopia.com","port":27025,"enabled":true,"region":"us-central","cc":"us","latitude":41.881832,"longitude":-87.62318,"reserved":0,"last_update":"0001-01-01T00:00:00Z","name_a2s":"Uncletopia | Chicago | 6 | All Maps","protocol":17,"map":"koth_highpass","folder":"tf","game":"Team Fortress","app_id":440,"player_count":2,"max_players":24,"Bots":0,"server_type":"Dedicated","server_os":"Linux","password":true,"vac":true,"version":"7757534","steam_id":85568392924866363,"keywords":["cp","nocrits","nodmgspread","uncletopia"],"game_id":440,"stv_port":27026,"stv_name":"Uncletopia | Chicago | 6 | All Maps | STV","players":[{"user_id":14,"name":"Just another soldier main","steam_id":76561199091519766,"connected_time":174000000000,"state":"active","ping":54},{"user_id":15,"name":"Grif","steam_id":76561199173402132,"connected_time":56000000000,"state":"active","ping":82}]},{"server_id":38,"name":"Uncletopia | Chicago | 7 | Stopwatch Beta","name_short":"chi-7","host":"chi-2.us.uncletopia.com","port":27035,"enabled":true,"region":"us-central","cc":"us","latitude":41.881832,"longitude":-87.62318,"reserved":0,"last_update":"0001-01-01T00:00:00Z","name_a2s":"Uncletopia | Chicago | 7 | Stopwatch Beta","protocol":17,"map":"pl_upward","folder":"tf","game":"Team Fortress","app_id":440,"player_count":0,"max_players":24,"Bots":0,"server_type":"Dedicated","server_os":"Linux","password":true,"vac":true,"version":"7757534","steam_id":85568392924866364,"keywords":["nocrits","nodmgspread","payload","uncletopia"],"game_id":440,"stv_port":27036,"stv_name":"Uncletopia | Chicago | 7 | Stopwatch Beta | STV","players":null},{"server_id":39,"name":"Uncletopia | Chicago | 8 | Community","name_short":"chi-8","host":"chi-2.us.uncletopia.com","port":27045,"enabled":true,"region":"us-central","cc":"us","latitude":41.881832,"longitude":-87.62318,"reserved":0,"last_update":"0001-01-01T00:00:00Z","name_a2s":"Uncletopia | Chicago | 8 | Community","protocol":17,"map":"workshop/pl_vigil_rc9.ugc1266210012","folder":"tf","game":"Team Fortress","app_id":440,"player_count":0,"max_players":24,"Bots":0,"server_type":"Dedicated","server_os":"Linux","password":true,"vac":true,"version":"7757534","steam_id":85568392924866365,"keywords":["nocrits","nodmgspread","payload","uncletopia"],"game_id":440,"stv_port":27046,"stv_name":"Uncletopia | Chicago | 8 | Community | STV","players":null},{"server_id":8,"name":"Uncletopia | Dallas | 1 | All Maps","name_short":"dal-1","host":"dal-1.us.uncletopia.com","port":27015,"enabled":true,"region":"us-central","cc":"us","latitude":32.779167,"longitude":-96.80889,"reserved":0,"last_update":"0001-01-01T00:00:00Z","name_a2s":"Uncletopia | Dallas | 1 | All Maps","protocol":17,"map":"pl_frontier_final","folder":"tf","game":"Team Fortress","app_id":440,"player_count":4,"max_players":24,"Bots":0,"server_type":"Dedicated","server_os":"Linux","password":true,"vac":true,"version":"7757534","steam_id":85568392924469986,"keywords":["nocrits","nodmgspread","payload","uncletopia"],"game_id":440,"stv_port":27016,"stv_name":"Uncletopia | Dallas | 1 | All Maps | STV","players":[{"user_id":23,"name":"Vestuvian","steam_id":76561199007823355,"connected_time":612000000000,"state":"active","ping":72},{"user_id":20,"name":"fasterbum","steam_id":76561198142577444,"connected_time":1649000000000,"state":"active","ping":73},{"user_id":27,"name":"magicbeetle","steam_id":76561199160422863,"connected_time":204000000000,"state":"active","ping":148},{"user_id":26,"name":"Austiin","steam_id":76561198275524488,"connected_time":264000000000,"state":"active","ping":49}]},{"server_id":108,"name":"Uncletopia | Dallas | 2 | All Maps","name_short":"dal-2","host":"dal-1.us.uncletopia.com","port":27025,"enabled":true,"region":"us-central","cc":"us","latitude":32.779167,"longitude":-96.80889,"reserved":0,"last_update":"0001-01-01T00:00:00Z","name_a2s":"Uncletopia | Dallas | 2 | All Maps","protocol":17,"map":"pl_barnblitz","folder":"tf","game":"Team Fortress","app_id":440,"player_count":0,"max_players":24,"Bots":0,"server_type":"Dedicated","server_os":"Linux","password":true,"vac":true,"version":"7757534","steam_id":85568392924469988,"keywords":["nocrits","nodmgspread","payload","uncletopia"],"game_id":440,"stv_port":27026,"stv_name":"Uncletopia | Dallas | 2 | All Maps | STV","players":null},{"server_id":5,"name":"Uncletopia | Frankfurt | 1 | All Maps","name_short":"frk-1","host":"frk-1.de.uncletopia.com","port":27015,"enabled":true,"region":"eu","cc":"de","latitude":50.110924,"longitude":8.682127,"reserved":0,"last_update":"0001-01-01T00:00:00Z","name_a2s":"Uncletopia | Frankfurt | 1 | All Maps","protocol":17,"map":"pl_barnblitz","folder":"tf","game":"Team Fortress","app_id":440,"player_count":24,"max_players":24,"Bots":0,"server_type":"Dedicated","server_os":"Linux","password":true,"vac":true,"version":"7757534","steam_id":85568392924469989,"keywords":["nocrits","nodmgspread","payload","uncletopia"],"game_id":440,"stv_port":27016,"stv_name":"Uncletopia | Frankfurt | 1 | All Maps | STV","players":[{"user_id":309,"name":"FunynMan","steam_id":76561198070387328,"connected_time":2063000000000,"state":"active","ping":59},{"user_id":336,"name":"Mantis Toboggan, M.D","steam_id":76561197963562704,"connected_time":633000000000,"state":"active","ping":82},{"user_id":331,"name":"Blood assassin","steam_id":76561198082340843,"connected_time":927000000000,"state":"active","ping":64},{"user_id":304,"name":"Jedi Knight","steam_id":76561198039030709,"connected_time":2332000000000,"state":"active","ping":63},{"user_id":312,"name":"‚òûLaZe‚òú","steam_id":76561198202191400,"connected_time":1570000000000,"state":"active","ping":72},{"user_id":280,"name":"VZS","steam_id":76561198133050665,"connected_time":3945000000000,"state":"active","ping":61},{"user_id":278,"name":"TheShadowScribe","steam_id":76561199037525945,"connected_time":4046000000000,"state":"active","ping":91},{"user_id":339,"name":"mouth breather","steam_id":76561198325671716,"connected_time":15000000000,"state":"active","ping":105},{"user_id":321,"name":"theres a bomb in my tea","steam_id":76561199134149296,"connected_time":1016000000000,"state":"active","ping":466},{"user_id":323,"name":"sork","steam_id":76561198082446459,"connected_time":1011000000000,"state":"active","ping":67},{"user_id":283,"name":"Wolvithe","steam_id":76561198142555612,"connected_time":3438000000000,"state":"active","ping":57},{"user_id":216,"name":"Marty‚Ñ¢","steam_id":76561198060073673,"connected_time":8586000000000,"state":"active","ping":60},{"user_id":317,"name":"Mor'du","steam_id":76561198274105878,"connected_time":1043000000000,"state":"active","ping":84},{"user_id":334,"name":"Schnappi Krokodil","steam_id":76561199046892970,"connected_time":769000000000,"state":"active","ping":82},{"user_id":324,"name":"ÊÇ™","steam_id":76561198095879087,"connected_time":998000000000,"state":"active","ping":73},{"user_id":325,"name":"donk","steam_id":76561198162676648,"connected_time":987000000000,"state":"active","ping":76},{"user_id":306,"name":"antlionguard","steam_id":76561198072747143,"connected_time":2140000000000,"state":"active","ping":95},{"user_id":295,"name":"You slumber","steam_id":76561198344639692,"connected_time":3041000000000,"state":"active","ping":89},{"user_id":337,"name":"Dr Sex","steam_id":76561198029044617,"connected_time":542000000000,"state":"active","ping":64},{"user_id":326,"name":"pezza","steam_id":76561197995173247,"connected_time":982000000000,"state":"active","ping":81},{"user_id":327,"name":"Michael","steam_id":76561198003146906,"connected_time":960000000000,"state":"active","ping":68},{"user_id":338,"name":"Rops","steam_id":76561198031608011,"connected_time":377000000000,"state":"active","ping":80},{"user_id":332,"name":"Ziltoid","steam_id":76561198020753675,"connected_time":913000000000,"state":"active","ping":72},{"user_id":333,"name":"Filleman","steam_id":76561198159386946,"connected_time":888000000000,"state":"active","ping":72}]},{"server_id":110,"name":"Uncletopia | Frankfurt | 2 | All Maps","name_short":"frk-2","host":"frk-1.de.uncletopia.com","port":27025,"enabled":true,"region":"eu","cc":"de","latitude":50.110924,"longitude":8.682127,"reserved":0,"last_update":"0001-01-01T00:00:00Z","name_a2s":"Uncletopia | Frankfurt | 2 | All Maps","protocol":17,"map":"koth_viaduct","folder":"tf","game":"Team Fortress","app_id":440,"player_count":3,"max_players":24,"Bots":0,"server_type":"Dedicated","server_os":"Linux","password":true,"vac":true,"version":"7757534","steam_id":85568392924469990,"keywords":["cp","nocrits","nodmgspread","uncletopia"],"game_id":440,"stv_port":27026,"stv_name":"Uncletopia | Frankfurt | 2 | All Maps | STV","players":[{"user_id":20,"name":"GezmeRR TF2","steam_id":76561198043814532,"connected_time":858000000000,"state":"active","ping":52},{"user_id":21,"name":"Lord","steam_id":76561198065021271,"connected_time":848000000000,"state":"active","ping":59},{"user_id":24,"name":"Emo E-boy Twink","steam_id":76561198044624039,"connected_time":767000000000,"state":"active","ping":53}]},{"server_id":308,"name":"Uncletopia | Frankfurt | 3 | All Maps","name_short":"frk-3","host":"frk-1.de.uncletopia.com","port":27035,"enabled":true,"region":"eu","cc":"de","latitude":50.110924,"longitude":8.682127,"reserved":0,"last_update":"0001-01-01T00:00:00Z","name_a2s":"Uncletopia | Frankfurt | 3 | All Maps","protocol":17,"map":"pl_swiftwater_final1","folder":"tf","game":"Team Fortress","app_id":440,"player_count":24,"max_players":24,"Bots":0,"server_type":"Dedicated","server_os":"Linux","password":true,"vac":true,"version":"7757534","steam_id":85568392924504274,"keywords":["nocrits","nodmgspread","payload","uncletopia"],"game_id":440,"stv_port":27036,"stv_name":"Uncletopia | Frankfurt | 3 | All Maps | STV","players":[{"user_id":154,"name":"mt","steam_id":76561197961319303,"connected_time":3723000000000,"state":"active","ping":53},{"user_id":187,"name":"Rowan Atkinson","steam_id":76561199378865926,"connected_time":655000000000,"state":"active","ping":82},{"user_id":165,"name":"smelter demon","steam_id":76561198038748489,"connected_time":2184000000000,"state":"active","ping":69},{"user_id":190,"name":"Mr.Schnittlauch","steam_id":76561198295868113,"connected_time":562000000000,"state":"active","ping":59},{"user_id":156,"name":"gagalak","steam_id":76561198089979108,"connected_time":3668000000000,"state":"active","ping":91},{"user_id":185,"name":"F2P gameing","steam_id":76561198834713682,"connected_time":1025000000000,"state":"active","ping":76},{"user_id":166,"name":"Daniele Antox","steam_id":76561198323879930,"connected_time":2174000000000,"state":"active","ping":60},{"user_id":167,"name":"Tlad2","steam_id":76561198854897667,"connected_time":2169000000000,"state":"active","ping":75},{"user_id":168,"name":"Pringles","steam_id":76561198120850843,"connected_time":2157000000000,"state":"active","ping":86},{"user_id":169,"name":"fried","steam_id":76561198307522022,"connected_time":2151000000000,"state":"active","ping":71},{"user_id":160,"name":"Fat Pigeon","steam_id":76561198817940142,"connected_time":3624000000000,"state":"active","ping":47},{"user_id":180,"name":"LEGEND FUMO.","steam_id":76561198061033903,"connected_time":1841000000000,"state":"active","ping":48},{"user_id":161,"name":"Trilrok","steam_id":76561198066609321,"connected_time":3081000000000,"state":"active","ping":116},{"user_id":124,"name":"ChickyCoop","steam_id":76561199072983488,"connected_time":7464000000000,"state":"active","ping":82},{"user_id":170,"name":"Flostro","steam_id":76561198259793697,"connected_time":2145000000000,"state":"active","ping":60},{"user_id":159,"name":"Mugelzz","steam_id":76561198048528709,"connected_time":3637000000000,"state":"active","ping":103},{"user_id":171,"name":"flr","steam_id":76561198249327786,"connected_time":2135000000000,"state":"active","ping":69},{"user_id":183,"name":"av x","steam_id":76561198062699350,"connected_time":1050000000000,"state":"active","ping":61},{"user_id":172,"name":"St√ºmpy","steam_id":76561198255904077,"connected_time":2122000000000,"state":"active","ping":71},{"user_id":191,"name":"cirlo","steam_id":76561198041836298,"connected_time":505000000000,"state":"active","ping":59},{"user_id":177,"name":"eron","steam_id":76561198063634841,"connected_time":2056000000000,"state":"active","ping":63},{"user_id":186,"name":"After8","steam_id":76561198090750865,"connected_time":960000000000,"state":"active","ping":62},{"user_id":184,"name":"Mandrake","steam_id":76561197970852048,"connected_time":1045000000000,"state":"active","ping":59},{"user_id":176,"name":"YEEET","steam_id":76561198914938199,"connected_time":2084000000000,"state":"active","ping":97}]},{"server_id":309,"name":"Uncletopia | Frankfurt | 4 | All Maps","name_short":"frk-4","host":"frk-1.de.uncletopia.com","port":27045,"enabled":true,"region":"eu","cc":"de","latitude":50.110924,"longitude":8.682127,"reserved":0,"last_update":"0001-01-01T00:00:00Z","name_a2s":"Uncletopia | Frankfurt | 4 | All Maps","protocol":17,"map":"cp_altitude","folder":"tf","game":"Team Fortress","app_id":440,"player_count":22,"max_players":24,"Bots":0,"server_type":"Dedicated","server_os":"Linux","password":true,"vac":true,"version":"7757534","steam_id":85568392924504275,"keywords":["cp","nocrits","nodmgspread","uncletopia"],"game_id":440,"stv_port":27046,"stv_name":"Uncletopia | Frankfurt | 4 | All Maps | STV","players":[{"user_id":143,"name":"Choruptian","steam_id":76561198017686366,"connected_time":3319000000000,"state":"active","ping":59},{"user_id":192,"name":"Fez","steam_id":76561198071978812,"connected_time":179000000000,"state":"active","ping":56},{"user_id":119,"name":"Snd","steam_id":76561198010816408,"connected_time":4942000000000,"state":"active","ping":104},{"user_id":170,"name":"‚ò© Knightz ‚ò©","steam_id":76561198040936414,"connected_time":909000000000,"state":"active","ping":120},{"user_id":140,"name":"Mr. Mundy","steam_id":76561198132008918,"connected_time":3409000000000,"state":"active","ping":75},{"user_id":136,"name":"Hexagon","steam_id":76561198151205758,"connected_time":4144000000000,"state":"active","ping":45},{"user_id":158,"name":"‚ô•‚ô•dj_damian( Õ°¬∞ Õú ñ Õ°¬∞","steam_id":76561198321091340,"connected_time":1453000000000,"state":"active","ping":92},{"user_id":165,"name":"Lord of the Lockerroom","steam_id":76561198080619697,"connected_time":1128000000000,"state":"active","ping":91},{"user_id":174,"name":"ÂçÑ‰πáÂá†„ÑíÂçÇ‰∏® Áà™ÂçÇÂá† \ufffd\ufffd","steam_id":76561198059281585,"connected_time":804000000000,"state":"active","ping":89},{"user_id":154,"name":"Doctor Mobius","steam_id":76561197971281806,"connected_time":1770000000000,"state":"active","ping":68},{"user_id":145,"name":"Nick","steam_id":76561198036109469,"connected_time":2293000000000,"state":"active","ping":89},{"user_id":142,"name":"PWizard","steam_id":76561198026458489,"connected_time":3368000000000,"state":"active","ping":69},{"user_id":187,"name":"Merciz","steam_id":76561197971808715,"connected_time":302000000000,"state":"active","ping":88},{"user_id":139,"name":"SgtRookie","steam_id":76561198030230427,"connected_time":3427000000000,"state":"active","ping":82},{"user_id":118,"name":"DeCypher","steam_id":76561198171992619,"connected_time":5005000000000,"state":"active","ping":86},{"user_id":157,"name":"Manslayer","steam_id":76561198063956707,"connected_time":1476000000000,"state":"active","ping":61},{"user_id":193,"name":"Mad_Scientist","steam_id":76561198121431854,"connected_time":128000000000,"state":"active","ping":49},{"user_id":194,"name":"|--2cm--|","steam_id":76561198796189220,"connected_time":107000000000,"state":"active","ping":78},{"user_id":161,"name":"Flal","steam_id":76561198453819816,"connected_time":1339000000000,"state":"active","ping":56},{"user_id":176,"name":"Charles Darwin","steam_id":76561197973496139,"connected_time":738000000000,"state":"active","ping":66},{"user_id":124,"name":"minespweper ‚òÜ","steam_id":76561199096919345,"connected_time":4875000000000,"state":"active","ping":74},{"user_id":169,"name":"i always miss","steam_id":76561199379233899,"connected_time":937000000000,"state":"active","ping":91}]},{"server_id":310,"name":"Uncletopia | Frankfurt | 5 | All Maps","name_short":"frk-5","host":"frk-1.de.uncletopia.com","port":27055,"enabled":true,"region":"eu","cc":"de","latitude":50.110924,"longitude":8.682127,"reserved":0,"last_update":"0001-01-01T00:00:00Z","name_a2s":"Uncletopia | Frankfurt | 5 | All Maps","protocol":17,"map":"pl_swiftwater_final1","folder":"tf","game":"Team Fortress","app_id":440,"player_count":24,"max_players":24,"Bots":0,"server_type":"Dedicated","server_os":"Linux","password":true,"vac":true,"version":"7757534","steam_id":85568392924504277,"keywords":["nocrits","nodmgspread","payload","uncletopia"],"game_id":440,"stv_port":27056,"stv_name":"Uncletopia | Frankfurt | 5 | All Maps | STV","players":[{"user_id":118,"name":"kbbq","steam_id":76561198346638308,"connected_time":452000000000,"state":"active","ping":57},{"user_id":82,"name":"Ben UFO","steam_id":76561198001648348,"connected_time":3566000000000,"state":"active","ping":65},{"user_id":103,"name":"hora","steam_id":76561198404470526,"connected_time":2079000000000,"state":"active","ping":85},{"user_id":107,"name":"silenk","steam_id":76561198367689055,"connected_time":1660000000000,"state":"active","ping":75},{"user_id":129,"name":"Unseen","steam_id":76561198154670360,"connected_time":196000000000,"state":"active","ping":91},{"user_id":28,"name":"ÿ±ÿßŸäŸÜ","steam_id":76561199167206295,"connected_time":5678000000000,"state":"active","ping":74},{"user_id":130,"name":"raime","steam_id":76561198024903775,"connected_time":180000000000,"state":"active","ping":86},{"user_id":31,"name":"roblan11","steam_id":76561198066839258,"connected_time":5617000000000,"state":"active","ping":44},{"user_id":95,"name":"Micha≈Ç","steam_id":76561198320346362,"connected_time":2322000000000,"state":"active","ping":57},{"user_id":121,"name":"jovi_","steam_id":76561198449280552,"connected_time":432000000000,"state":"active","ping":63},{"user_id":131,"name":"C0d3s","steam_id":76561198093907544,"connected_time":172000000000,"state":"active","ping":104},{"user_id":96,"name":"dddd","steam_id":76561198120894372,"connected_time":2281000000000,"state":"active","ping":112},{"user_id":123,"name":"Penis Contortionist","steam_id":76561198073663784,"connected_time":350000000000,"state":"active","ping":47},{"user_id":124,"name":"Gnag Suaton","steam_id":76561198889292341,"connected_time":330000000000,"state":"active","ping":65},{"user_id":116,"name":"Senator Armstrong","steam_id":76561198984346408,"connected_time":510000000000,"state":"active","ping":70},{"user_id":111,"name":"CAR DOOR","steam_id":76561198055283295,"connected_time":1191000000000,"state":"active","ping":47},{"user_id":125,"name":"autogynocelia","steam_id":76561198038995286,"connected_time":311000000000,"state":"active","ping":165},{"user_id":135,"name":"counting stars","steam_id":76561197994492154,"connected_time":42000000000,"state":"active","ping":70},{"user_id":114,"name":"Ged","steam_id":76561198079288943,"connected_time":1165000000000,"state":"active","ping":101},{"user_id":106,"name":"dunduu","steam_id":76561198875240717,"connected_time":1704000000000,"state":"active","ping":61},{"user_id":127,"name":"Egor Pomidor","steam_id":76561199175688390,"connected_time":290000000000,"state":"active","ping":76},{"user_id":117,"name":"Duke Fishlord","steam_id":76561198079928327,"connected_time":486000000000,"state":"active","ping":59},{"user_id":133,"name":"Fish","steam_id":76561198182278770,"connected_time":116000000000,"state":"active","ping":81},{"user_id":134,"name":"ConducƒÉtor","steam_id":76561198079397980,"connected_time":94000000000,"state":"active","ping":153}]},{"server_id":311,"name":"Uncletopia | Frankfurt | 6 | All Maps","name_short":"frk-6","host":"frk-1.de.uncletopia.com","port":27065,"enabled":true,"region":"eu","cc":"de","latitude":50.110924,"longitude":8.682127,"reserved":0,"last_update":"0001-01-01T00:00:00Z","name_a2s":"Uncletopia | Frankfurt | 6 | All Maps","protocol":17,"map":"koth_lakeside_final","folder":"tf","game":"Team Fortress","app_id":440,"player_count":2,"max_players":24,"Bots":0,"server_type":"Dedicated","server_os":"Linux","password":true,"vac":true,"version":"7757534","steam_id":85568392924504278,"keywords":["cp","nocrits","nodmgspread","uncletopia"],"game_id":440,"stv_port":27066,"stv_name":"Uncletopia | Frankfurt | 6 | All Maps | STV","players":[{"user_id":40,"name":"ran is running","steam_id":76561199443185667,"connected_time":736000000000,"state":"active","ping":146},{"user_id":41,"name":"justin_ (f2p) (real)","steam_id":76561198839843428,"connected_time":730000000000,"state":"active","ping":124}]},{"server_id":23,"name":"Uncletopia | Frankfurt | 7 | Stopwatch Beta","name_short":"frk-7","host":"frk-1.de.uncletopia.com","port":27075,"enabled":true,"region":"eu","cc":"de","latitude":50.110924,"longitude":8.682127,"reserved":0,"last_update":"0001-01-01T00:00:00Z","name_a2s":"Uncletopia | Frankfurt | 7 | Stopwatch Beta","protocol":17,"map":"pl_frontier_final","folder":"tf","game":"Team Fortress","app_id":440,"player_count":2,"max_players":24,"Bots":0,"server_type":"Dedicated","server_os":"Linux","password":true,"vac":true,"version":"7757534","steam_id":85568392924742827,"keywords":["nocrits","nodmgspread","payload","uncletopia"],"game_id":440,"stv_port":27076,"stv_name":"Uncletopia | Frankfurt | 7 | Stopwatch Beta | STV","players":[{"user_id":7,"name":"Dire-Wolf","steam_id":76561198267622248,"connected_time":160000000000,"state":"active","ping":189},{"user_id":8,"name":"xveyt8","steam_id":76561199167493344,"connected_time":49000000000,"state":"active","ping":46}]},{"server_id":24,"name":"Uncletopia | Frankfurt | 8 | Community","name_short":"frk-8","host":"frk-1.de.uncletopia.com","port":27085,"enabled":true,"region":"eu","cc":"de","latitude":50.110924,"longitude":8.682127,"reserved":0,"last_update":"0001-01-01T00:00:00Z","name_a2s":"Uncletopia | Frankfurt | 8 | Community","protocol":17,"map":"workshop/koth_ashville_final.ugc2130459942","folder":"tf","game":"Team Fortress","app_id":440,"player_count":22,"max_players":24,"Bots":0,"server_type":"Dedicated","server_os":"Linux","password":true,"vac":true,"version":"7757534","steam_id":85568392924742828,"keywords":["cp","nocrits","nodmgspread","uncletopia"],"game_id":440,"stv_port":27086,"stv_name":"Uncletopia | Frankfurt | 8 | Community | STV","players":[{"user_id":691,"name":"Actually a Shoggoth","steam_id":76561198065857964,"connected_time":209000000000,"state":"active","ping":182},{"user_id":642,"name":"zak","steam_id":76561197998895428,"connected_time":1681000000000,"state":"active","ping":58},{"user_id":609,"name":"dob:cob","steam_id":76561198253323044,"connected_time":2675000000000,"state":"active","ping":68},{"user_id":630,"name":"Mel Rosewood","steam_id":76561198125380509,"connected_time":1847000000000,"state":"active","ping":60},{"user_id":684,"name":"Mawnster","steam_id":76561198023392404,"connected_time":411000000000,"state":"active","ping":72},{"user_id":607,"name":"Wario","steam_id":76561198356089255,"connected_time":2721000000000,"state":"active","ping":60},{"user_id":693,"name":"CurlyPaty - [YouTube]","steam_id":76561198125025171,"connected_time":46000000000,"state":"active","ping":56},{"user_id":674,"name":":)","steam_id":76561198977420882,"connected_time":722000000000,"state":"active","ping":58},{"user_id":671,"name":"Der Geist des Hans Rosling","steam_id":76561198049231109,"connected_time":821000000000,"state":"active","ping":57},{"user_id":611,"name":"the juniper","steam_id":76561198273513257,"connected_time":2608000000000,"state":"active","ping":165},{"user_id":659,"name":"_Cpt.Decoder_","steam_id":76561198236937010,"connected_time":1254000000000,"state":"active","ping":84},{"user_id":650,"name":"mcdonaldburger54@yahoo.com","steam_id":76561198846982793,"connected_time":1365000000000,"state":"active","ping":58},{"user_id":692,"name":"Zipnet","steam_id":76561198000218824,"connected_time":198000000000,"state":"active","ping":62},{"user_id":647,"name":"five spongebobs","steam_id":76561199042470246,"connected_time":1460000000000,"state":"active","ping":56},{"user_id":575,"name":"Nightshade","steam_id":76561199075397133,"connected_time":4591000000000,"state":"active","ping":62},{"user_id":673,"name":"Rask","steam_id":76561198052934944,"connected_time":774000000000,"state":"active","ping":98},{"user_id":587,"name":"Balls","steam_id":76561198086400484,"connected_time":4072000000000,"state":"active","ping":87},{"user_id":675,"name":"Zatusrex","steam_id":76561198104147805,"connected_time":718000000000,"state":"active","ping":85},{"user_id":676,"name":"wicked","steam_id":76561198164376035,"connected_time":691000000000,"state":"active","ping":74},{"user_id":589,"name":"Sanctified","steam_id":76561198057092208,"connected_time":4013000000000,"state":"active","ping":73},{"user_id":639,"name":"red‚ãÜmits","steam_id":76561198015590113,"connected_time":1720000000000,"state":"active","ping":66},{"user_id":687,"name":"Michael","steam_id":76561198106684566,"connected_time":320000000000,"state":"active","ping":78}]},{"server_id":202,"name":"Uncletopia | Hong Kong | 1 | All Maps","name_short":"hgk-1","host":"hgk-1.hk.uncletopia.com","port":27015,"enabled":true,"region":"asia","cc":"hk","latitude":22.302711,"longitude":114.177216,"reserved":0,"last_update":"0001-01-01T00:00:00Z","name_a2s":"Uncletopia | Hong Kong | 1 | All Maps","protocol":17,"map":"pl_barnblitz","folder":"tf","game":"Team Fortress","app_id":440,"player_count":2,"max_players":24,"Bots":0,"server_type":"Dedicated","server_os":"Linux","password":true,"vac":true,"version":"7757534","steam_id":85568392924494504,"keywords":["nocrits","nodmgspread","payload","uncletopia"],"game_id":440,"stv_port":27016,"stv_name":"Uncletopia | Hong Kong | 1 | All Maps | STV","players":[{"user_id":457,"name":"Vortex Morez","steam_id":76561198833527091,"connected_time":899000000000,"state":"active","ping":85},{"user_id":455,"name":"taste","steam_id":76561198016892843,"connected_time":2994000000000,"state":"active","ping":61}]},{"server_id":1,"name":"Uncletopia | Los Angeles | 1 | All Maps","name_short":"lax-1","host":"lax-1.us.uncletopia.com","port":27015,"enabled":true,"region":"us-west","cc":"us","latitude":33.94279,"longitude":-118.41004,"reserved":0,"last_update":"0001-01-01T00:00:00Z","name_a2s":"Uncletopia | Los Angeles | 1 | All Maps","protocol":17,"map":"pl_borneo","folder":"tf","game":"Team Fortress","app_id":440,"player_count":8,"max_players":24,"Bots":0,"server_type":"Dedicated","server_os":"Linux","password":true,"vac":true,"version":"7757534","steam_id":85568392924469991,"keywords":["nocrits","nodmgspread","payload","uncletopia"],"game_id":440,"stv_port":27016,"stv_name":"Uncletopia | Los Angeles | 1 | All Maps | STV","players":[{"user_id":6,"name":"Zizen","steam_id":76561199011832069,"connected_time":815000000000,"state":"active","ping":49},{"user_id":14,"name":"intendent","steam_id":76561197975080641,"connected_time":41000000000,"state":"active","ping":59},{"user_id":5,"name":"Birdman743","steam_id":76561198799636748,"connected_time":1043000000000,"state":"active","ping":86},{"user_id":7,"name":"Nibotshooter","steam_id":76561199284825579,"connected_time":810000000000,"state":"active","ping":76},{"user_id":8,"name":"sobadorci","steam_id":76561198208627555,"connected_time":503000000000,"state":"active","ping":42},{"user_id":10,"name":"APOTATO","steam_id":76561198118199858,"connected_time":413000000000,"state":"active","ping":53},{"user_id":11,"name":"Lasky","steam_id":76561198079437901,"connected_time":368000000000,"state":"active","ping":88},{"user_id":13,"name":"BlueManGroup Gangbang","steam_id":76561198071538893,"connected_time":194000000000,"state":"active","ping":113}]},{"server_id":112,"name":"Uncletopia | Los Angeles | 2 | All Maps","name_short":"lax-2","host":"lax-1.us.uncletopia.com","port":27025,"enabled":true,"region":"us-west","cc":"us","latitude":33.94279,"longitude":-118.41004,"reserved":0,"last_update":"0001-01-01T00:00:00Z","name_a2s":"Uncletopia | Los Angeles | 2 | All Maps","protocol":17,"map":"koth_cascade","folder":"tf","game":"Team Fortress","app_id":440,"player_count":0,"max_players":24,"Bots":0,"server_type":"Dedicated","server_os":"Linux","password":true,"vac":true,"version":"7757534","steam_id":85568392924469992,"keywords":["cp","nocrits","nodmgspread","uncletopia"],"game_id":440,"stv_port":27026,"stv_name":"Uncletopia | Los Angeles | 2 | All Maps | STV","players":null},{"server_id":324,"name":"Uncletopia | Los Angeles | 3 | All Maps","name_short":"lax-3","host":"lax-1.us.uncletopia.com","port":27035,"enabled":true,"region":"us-west","cc":"us","latitude":33.94279,"longitude":-118.41004,"reserved":0,"last_update":"0001-01-01T00:00:00Z","name_a2s":"Uncletopia | Los Angeles | 3 | All Maps","protocol":17,"map":"pl_pier","folder":"tf","game":"Team Fortress","app_id":440,"player_count":0,"max_players":24,"Bots":0,"server_type":"Dedicated","server_os":"Linux","password":true,"vac":true,"version":"7757534","steam_id":85568392924510198,"keywords":["nocrits","nodmgspread","payload","uncletopia"],"game_id":440,"stv_port":27036,"stv_name":"Uncletopia | Los Angeles | 3 | All Maps | STV","players":null},{"server_id":25,"name":"Uncletopia | Los Angeles | 4 | Stopwatch Beta","name_short":"lax-4","host":"lax-1.us.uncletopia.com","port":27045,"enabled":true,"region":"us-west","cc":"us","latitude":33.94279,"longitude":-118.41004,"reserved":0,"last_update":"0001-01-01T00:00:00Z","name_a2s":"Uncletopia | Los Angeles | 4 | Stopwatch Beta","protocol":17,"map":"pl_frontier_final","folder":"tf","game":"Team Fortress","app_id":440,"player_count":0,"max_players":24,"Bots":0,"server_type":"Dedicated","server_os":"Linux","password":true,"vac":true,"version":"7757534","steam_id":85568392924510199,"keywords":["nocrits","nodmgspread","payload","uncletopia"],"game_id":440,"stv_port":27046,"stv_name":"Uncletopia | Los Angeles | 4 | Stopwatch Beta | STV","players":null},{"server_id":11,"name":"Uncletopia | London | 1 | All Maps","name_short":"lon-1","host":"lon-1.uk.uncletopia.com","port":27015,"enabled":true,"region":"eu","cc":"gb","latitude":51.509865,"longitude":-0.118092,"reserved":0,"last_update":"0001-01-01T00:00:00Z","name_a2s":"Uncletopia | London | 1 | All Maps","protocol":17,"map":"pl_upward","folder":"tf","game":"Team Fortress","app_id":440,"player_count":24,"max_players":24,"Bots":0,"server_type":"Dedicated","server_os":"Linux","password":true,"vac":true,"version":"7757534","steam_id":85568392924367362,"keywords":["nocrits","nodmgspread","payload","uncletopia"],"game_id":440,"stv_port":27016,"stv_name":"Uncletopia | London | 1 | All Maps | STV","players":[{"user_id":117,"name":"nudjura","steam_id":76561198281986139,"connected_time":2024000000000,"state":"active","ping":35},{"user_id":138,"name":"Camo Leaf","steam_id":76561197999456575,"connected_time":548000000000,"state":"active","ping":59},{"user_id":130,"name":"cat","steam_id":76561199045736884,"connected_time":1366000000000,"state":"active","ping":71},{"user_id":141,"name":"AfroCookie","steam_id":76561198138362851,"connected_time":477000000000,"state":"active","ping":77},{"user_id":135,"name":"Kvicha Kvaratskhelia","steam_id":76561198179339326,"connected_time":992000000000,"state":"active","ping":77},{"user_id":142,"name":"TheEventGuy","steam_id":76561197972797744,"connected_time":476000000000,"state":"active","ping":69},{"user_id":66,"name":"i hate the lil bro meme","steam_id":76561198047359132,"connected_time":5436000000000,"state":"active","ping":75},{"user_id":77,"name":"Piox","steam_id":76561198125689157,"connected_time":4581000000000,"state":"active","ping":76},{"user_id":74,"name":"Boil em mash em","steam_id":76561198026508026,"connected_time":4889000000000,"state":"active","ping":70},{"user_id":96,"name":"Chocofrolik","steam_id":76561198454779847,"connected_time":3283000000000,"state":"active","ping":68},{"user_id":89,"name":"dominus.","steam_id":76561199065917088,"connected_time":3777000000000,"state":"active","ping":61},{"user_id":83,"name":"owlsie","steam_id":76561198094883280,"connected_time":3963000000000,"state":"active","ping":64},{"user_id":103,"name":"Dodoshka","steam_id":76561198093464840,"connected_time":3241000000000,"state":"active","ping":97},{"user_id":143,"name":"vi hava en usel regering","steam_id":76561198037978654,"connected_time":475000000000,"state":"active","ping":75},{"user_id":85,"name":"somehow danced","steam_id":76561198128250460,"connected_time":3943000000000,"state":"active","ping":116},{"user_id":145,"name":"salmon meta","steam_id":76561199385280253,"connected_time":324000000000,"state":"active","ping":123},{"user_id":97,"name":"TMC","steam_id":76561198077956157,"connected_time":3269000000000,"state":"active","ping":43},{"user_id":137,"name":"stun","steam_id":76561198276681691,"connected_time":757000000000,"state":"active","ping":48},{"user_id":105,"name":"duck","steam_id":76561198030677425,"connected_time":3189000000000,"state":"active","ping":61},{"user_id":99,"name":"Dewotter","steam_id":76561198007653168,"connected_time":3252000000000,"state":"active","ping":56},{"user_id":134,"name":"Xeronuclear","steam_id":76561198167712775,"connected_time":1030000000000,"state":"active","ping":70},{"user_id":132,"name":"homeinvasion$","steam_id":76561199111905021,"connected_time":1290000000000,"state":"active","ping":148},{"user_id":148,"name":"¬¨¬∞Nice","steam_id":76561198387871867,"connected_time":54000000000,"state":"active","ping":88},{"user_id":147,"name":"Christmas Ham","steam_id":76561198119601623,"connected_time":166000000000,"state":"active","ping":57}]},{"server_id":114,"name":"Uncletopia | London | 2 | All Maps","name_short":"lon-2","host":"lon-1.uk.uncletopia.com","port":27025,"enabled":true,"region":"eu","cc":"gb","latitude":51.509865,"longitude":-0.118092,"reserved":0,"last_update":"0001-01-01T00:00:00Z","name_a2s":"Uncletopia | London | 2 | All Maps","protocol":17,"map":"koth_harvest_final","folder":"tf","game":"Team Fortress","app_id":440,"player_count":23,"max_players":24,"Bots":0,"server_type":"Dedicated","server_os":"Linux","password":true,"vac":true,"version":"7757534","steam_id":85568392924470941,"keywords":["cp","nocrits","nodmgspread","uncletopia"],"game_id":440,"stv_port":27026,"stv_name":"Uncletopia | London | 2 | All Maps | STV","players":[{"user_id":354,"name":"Proud Jojo Fan #TF2SP","steam_id":76561198847327216,"connected_time":2439000000000,"state":"active","ping":75},{"user_id":378,"name":"kreeekz","steam_id":76561198014431602,"connected_time":1745000000000,"state":"active","ping":67},{"user_id":403,"name":"dr. coom","steam_id":76561198172193711,"connected_time":81000000000,"state":"active","ping":40},{"user_id":386,"name":"Axord","steam_id":76561199289652176,"connected_time":1187000000000,"state":"active","ping":65},{"user_id":341,"name":"she gamin","steam_id":76561198334042273,"connected_time":3616000000000,"state":"active","ping":88},{"user_id":384,"name":"Hobo lucki","steam_id":76561199257158352,"connected_time":1419000000000,"state":"active","ping":69},{"user_id":353,"name":"game boyËé∑ËÉúËÄÖ","steam_id":76561198106049954,"connected_time":2603000000000,"state":"active","ping":71},{"user_id":397,"name":"penisfinger","steam_id":76561198103904286,"connected_time":214000000000,"state":"active","ping":76},{"user_id":350,"name":"Laru","steam_id":76561197998838438,"connected_time":3285000000000,"state":"active","ping":77},{"user_id":306,"name":"Lyra","steam_id":76561198043601838,"connected_time":7901000000000,"state":"active","ping":75},{"user_id":393,"name":"prcg","steam_id":76561198047619456,"connected_time":279000000000,"state":"active","ping":65},{"user_id":332,"name":"i make you my b*tch","steam_id":76561198190583242,"connected_time":4651000000000,"state":"active","ping":80},{"user_id":396,"name":"arim","steam_id":76561197994600818,"connected_time":244000000000,"state":"active","ping":36},{"user_id":400,"name":"naqoyqatsi","steam_id":76561198114711905,"connected_time":174000000000,"state":"active","ping":69},{"user_id":392,"name":"MAKENTAKEN","steam_id":76561199127359587,"connected_time":514000000000,"state":"active","ping":98},{"user_id":399,"name":"Owli","steam_id":76561198220516632,"connected_time":184000000000,"state":"active","ping":80},{"user_id":401,"name":"Cu713","steam_id":76561198175463442,"connected_time":164000000000,"state":"active","ping":85},{"user_id":346,"name":"NiKoRo","steam_id":76561197963686614,"connected_time":3534000000000,"state":"active","ping":96},{"user_id":375,"name":"Umbro","steam_id":76561198087930438,"connected_time":1849000000000,"state":"active","ping":75},{"user_id":387,"name":"Mara Roo","steam_id":76561198279341789,"connected_time":1182000000000,"state":"active","ping":154},{"user_id":402,"name":"Giovine Killjoy","steam_id":76561198059375315,"connected_time":163000000000,"state":"active","ping":69},{"user_id":391,"name":"Lovelessvaccuum","steam_id":76561198079555422,"connected_time":905000000000,"state":"active","ping":36},{"user_id":373,"name":"papa smurf","steam_id":76561198881752406,"connected_time":1923000000000,"state":"active","ping":59}]},{"server_id":320,"name":"Uncletopia | London | 3 | All Maps","name_short":"lon-3","host":"lon-1.uk.uncletopia.com","port":27035,"enabled":true,"region":"eu","cc":"gb","latitude":51.509865,"longitude":-0.118092,"reserved":0,"last_update":"0001-01-01T00:00:00Z","name_a2s":"Uncletopia | London | 3 | All Maps","protocol":17,"map":"pl_snowycoast","folder":"tf","game":"Team Fortress","app_id":440,"player_count":23,"max_players":24,"Bots":0,"server_type":"Dedicated","server_os":"Linux","password":true,"vac":true,"version":"7757534","steam_id":85568392924510192,"keywords":["nocrits","nodmgspread","payload","uncletopia"],"game_id":440,"stv_port":27036,"stv_name":"Uncletopia | London | 3 | All Maps | STV","players":[{"user_id":451,"name":"TezzRexx","steam_id":76561197965758653,"connected_time":1424000000000,"state":"active","ping":56},{"user_id":449,"name":"Dr_Agent","steam_id":76561198330355519,"connected_time":1465000000000,"state":"active","ping":67},{"user_id":452,"name":"bonanna Rotat E Pudi","steam_id":76561198329519727,"connected_time":1217000000000,"state":"active","ping":63},{"user_id":453,"name":"AlexBlob","steam_id":76561198046291549,"connected_time":1150000000000,"state":"active","ping":42},{"user_id":456,"name":"Knightking309","steam_id":76561199076546834,"connected_time":817000000000,"state":"active","ping":159},{"user_id":455,"name":"Minotaur milking","steam_id":76561198799097492,"connected_time":1044000000000,"state":"active","ping":46},{"user_id":457,"name":"gerg","steam_id":76561198041663219,"connected_time":505000000000,"state":"active","ping":53},{"user_id":458,"name":"mr meeseeks","steam_id":76561198176978061,"connected_time":500000000000,"state":"active","ping":57},{"user_id":459,"name":"JaffaPearl","steam_id":76561198044759745,"connected_time":491000000000,"state":"active","ping":62},{"user_id":460,"name":"Kevin the Teenager","steam_id":76561199037900256,"connected_time":489000000000,"state":"active","ping":62},{"user_id":461,"name":".4b (fourbee)","steam_id":76561198249832770,"connected_time":486000000000,"state":"active","ping":46},{"user_id":462,"name":"Boyarishnik","steam_id":76561198986324207,"connected_time":481000000000,"state":"active","ping":98},{"user_id":463,"name":"Mememonster","steam_id":76561198253893073,"connected_time":479000000000,"state":"active","ping":78},{"user_id":465,"name":"Koalified","steam_id":76561198095350290,"connected_time":417000000000,"state":"active","ping":181},{"user_id":466,"name":"Magnificent Marie","steam_id":76561198067928790,"connected_time":350000000000,"state":"active","ping":59},{"user_id":467,"name":"quickfast","steam_id":76561199438900919,"connected_time":283000000000,"state":"active","ping":44},{"user_id":468,"name":"kinimon","steam_id":76561198178453270,"connected_time":270000000000,"state":"active","ping":61},{"user_id":469,"name":"Jankyo","steam_id":76561198083339492,"connected_time":244000000000,"state":"active","ping":158},{"user_id":470,"name":"risco1bolota","steam_id":76561198323074603,"connected_time":222000000000,"state":"active","ping":88},{"user_id":471,"name":"nachtraaf","steam_id":76561197960473205,"connected_time":133000000000,"state":"active","ping":47},{"user_id":472,"name":"Pepperonipizza","steam_id":76561198044471610,"connected_time":120000000000,"state":"active","ping":64},{"user_id":473,"name":"Mooshoo","steam_id":76561198081650114,"connected_time":111000000000,"state":"active","ping":61},{"user_id":474,"name":"-TG morlo^","steam_id":76561198249301650,"connected_time":45000000000,"state":"active","ping":50}]},{"server_id":321,"name":"Uncletopia | London | 4 | All Maps","name_short":"lon-4","host":"lon-1.uk.uncletopia.com","port":27045,"enabled":true,"region":"eu","cc":"gb","latitude":51.509865,"longitude":-0.118092,"reserved":0,"last_update":"0001-01-01T00:00:00Z","name_a2s":"Uncletopia | London | 4 | All Maps","protocol":17,"map":"pl_snowycoast","folder":"tf","game":"Team Fortress","app_id":440,"player_count":23,"max_players":24,"Bots":0,"server_type":"Dedicated","server_os":"Linux","password":true,"vac":true,"version":"7757534","steam_id":85568392924510193,"keywords":["nocrits","nodmgspread","payload","uncletopia"],"game_id":440,"stv_port":27046,"stv_name":"Uncletopia | London | 4 | All Maps | STV","players":[{"user_id":616,"name":"Anemia","steam_id":76561198071595988,"connected_time":2489000000000,"state":"active","ping":43},{"user_id":664,"name":"Skinny101","steam_id":76561197985599360,"connected_time":630000000000,"state":"active","ping":55},{"user_id":666,"name":"Cheesy","steam_id":76561198171439893,"connected_time":388000000000,"state":"active","ping":58},{"user_id":668,"name":"Dark ^^","steam_id":76561198036241064,"connected_time":135000000000,"state":"active","ping":72},{"user_id":653,"name":"Blacksheep","steam_id":76561198019621063,"connected_time":1353000000000,"state":"active","ping":45},{"user_id":659,"name":"Codex","steam_id":76561198068748584,"connected_time":770000000000,"state":"active","ping":47},{"user_id":654,"name":"marcel","steam_id":76561198305784078,"connected_time":1297000000000,"state":"active","ping":71},{"user_id":670,"name":"Dirt Road","steam_id":76561198210372012,"connected_time":74000000000,"state":"active","ping":145},{"user_id":588,"name":"Not Friends","steam_id":76561198043775605,"connected_time":3376000000000,"state":"active","ping":93},{"user_id":587,"name":"T K","steam_id":76561198134256917,"connected_time":3416000000000,"state":"active","ping":74},{"user_id":657,"name":"Pink-Beard","steam_id":76561199013777200,"connected_time":818000000000,"state":"active","ping":72},{"user_id":578,"name":"Varia Maius","steam_id":76561198249997376,"connected_time":3613000000000,"state":"active","ping":132},{"user_id":665,"name":"Jude!","steam_id":76561197983597798,"connected_time":507000000000,"state":"active","ping":40},{"user_id":667,"name":"Pingutaro","steam_id":76561198112803718,"connected_time":214000000000,"state":"active","ping":45},{"user_id":661,"name":"khey","steam_id":76561198035380064,"connected_time":739000000000,"state":"active","ping":59},{"user_id":669,"name":"GardenFungus","steam_id":76561198054894337,"connected_time":111000000000,"state":"active","ping":31},{"user_id":656,"name":"Papajus","steam_id":76561198344672219,"connected_time":1189000000000,"state":"active","ping":60},{"user_id":662,"name":"Armo PRO90","steam_id":76561198138789964,"connected_time":734000000000,"state":"active","ping":55},{"user_id":644,"name":"implyDoods","steam_id":76561198856320759,"connected_time":1810000000000,"state":"active","ping":48},{"user_id":610,"name":"poliakov.noam","steam_id":76561199259322961,"connected_time":2844000000000,"state":"active","ping":102},{"user_id":614,"name":"combat collin","steam_id":76561198011450253,"connected_time":2662000000000,"state":"active","ping":44},{"user_id":645,"name":"The pot-bellied hobgoblin","steam_id":76561199190918059,"connected_time":1793000000000,"state":"active","ping":54},{"user_id":590,"name":"ThatTFguy","steam_id":76561198056794321,"connected_time":3269000000000,"state":"active","ping":59}]},{"server_id":21,"name":"Uncletopia | London | 5 | All Maps","name_short":"lon-5","host":"lon-1.uk.uncletopia.com","port":27055,"enabled":true,"region":"eu","cc":"gb","latitude":51.509865,"longitude":-0.118092,"reserved":0,"last_update":"0001-01-01T00:00:00Z","name_a2s":"Uncletopia | London | 5 | All Maps","protocol":17,"map":"pl_frontier_final","folder":"tf","game":"Team Fortress","app_id":440,"player_count":24,"max_players":24,"Bots":0,"server_type":"Dedicated","server_os":"Linux","password":true,"vac":true,"version":"7757534","steam_id":85568392924742829,"keywords":["nocrits","nodmgspread","payload","uncletopia"],"game_id":440,"stv_port":27056,"stv_name":"Uncletopia | London | 5 | All Maps | STV","players":[{"user_id":422,"name":"Not Jessie","steam_id":76561198025129721,"connected_time":1715000000000,"state":"active","ping":30},{"user_id":425,"name":"Glam Stachee‚òÜ","steam_id":76561198115252607,"connected_time":1690000000000,"state":"active","ping":99},{"user_id":372,"name":"UNQ Mihai","steam_id":76561199181038346,"connected_time":5872000000000,"state":"active","ping":77},{"user_id":441,"name":"AftiksPL #femboygaming","steam_id":76561198875182686,"connected_time":405000000000,"state":"active","ping":126},{"user_id":426,"name":"Kermit the frog","steam_id":76561198073354238,"connected_time":1685000000000,"state":"active","ping":67},{"user_id":443,"name":"elchi","steam_id":76561198009531752,"connected_time":368000000000,"state":"active","ping":52},{"user_id":435,"name":"mishka.*","steam_id":76561198040003628,"connected_time":812000000000,"state":"active","ping":83},{"user_id":429,"name":"Bun","steam_id":76561198311686229,"connected_time":1602000000000,"state":"active","ping":136},{"user_id":432,"name":"Mr. Panny","steam_id":76561198412524704,"connected_time":1206000000000,"state":"active","ping":55},{"user_id":437,"name":"nynon","steam_id":76561197998432126,"connected_time":648000000000,"state":"active","ping":93},{"user_id":371,"name":"Tata Cobraz0r","steam_id":76561198017693962,"connected_time":5895000000000,"state":"active","ping":82},{"user_id":404,"name":"glyph","steam_id":76561197980736364,"connected_time":2808000000000,"state":"active","ping":89},{"user_id":439,"name":"Mao Zedong","steam_id":76561198347020945,"connected_time":414000000000,"state":"active","ping":91},{"user_id":415,"name":"Delta‚ú†","steam_id":76561198094455892,"connected_time":1957000000000,"state":"active","ping":75},{"user_id":417,"name":"Dasmonson","steam_id":76561199029771850,"connected_time":1882000000000,"state":"active","ping":131},{"user_id":409,"name":".bRdyyy","steam_id":76561198057256978,"connected_time":2732000000000,"state":"active","ping":58},{"user_id":405,"name":"--","steam_id":76561198837706438,"connected_time":2802000000000,"state":"active","ping":61},{"user_id":418,"name":"meatsoupcube","steam_id":76561198276802249,"connected_time":1870000000000,"state":"active","ping":109},{"user_id":399,"name":"TK","steam_id":76561199384193338,"connected_time":3390000000000,"state":"active","ping":72},{"user_id":428,"name":"Rubi","steam_id":76561198139410003,"connected_time":1648000000000,"state":"active","ping":71},{"user_id":442,"name":"stupid fucking anime girl","steam_id":76561198166773704,"connected_time":391000000000,"state":"active","ping":106},{"user_id":444,"name":"Martin","steam_id":76561197963416927,"connected_time":361000000000,"state":"active","ping":52},{"user_id":411,"name":"FoOzTV","steam_id":76561197998636728,"connected_time":2621000000000,"state":"active","ping":71},{"user_id":440,"name":"plays tation 3","steam_id":76561198885548458,"connected_time":413000000000,"state":"active","ping":139}]},{"server_id":22,"name":"Uncletopia | London | 6 | All Maps","name_short":"lon-6","host":"lon-1.uk.uncletopia.com","port":27065,"enabled":true,"region":"eu","cc":"gb","latitude":51.509865,"longitude":-0.118092,"reserved":0,"last_update":"0001-01-01T00:00:00Z","name_a2s":"Uncletopia | London | 6 | All Maps","protocol":17,"map":"koth_cascade","folder":"tf","game":"Team Fortress","app_id":440,"player_count":1,"max_players":24,"Bots":0,"server_type":"Dedicated","server_os":"Linux","password":true,"vac":true,"version":"7757534","steam_id":85568392924742830,"keywords":["cp","nocrits","nodmgspread","uncletopia"],"game_id":440,"stv_port":27066,"stv_name":"Uncletopia | London | 6 | All Maps | STV","players":[{"user_id":8,"name":"Denialman (Muted)","steam_id":76561198309182092,"connected_time":100000000000,"state":"active","ping":88}]},{"server_id":40,"name":"Uncletopia | London | 7 | No Payload","name_short":"lon-7","host":"lon-1.uk.uncletopia.com","port":27075,"enabled":true,"region":"eu","cc":"gb","latitude":51.509865,"longitude":-0.118092,"reserved":0,"last_update":"0001-01-01T00:00:00Z","name_a2s":"Uncletopia | London | 7 | No Payload","protocol":17,"map":"cp_dustbowl","folder":"tf","game":"Team Fortress","app_id":440,"player_count":24,"max_players":24,"Bots":0,"server_type":"Dedicated","server_os":"Linux","password":true,"vac":true,"version":"7757534","steam_id":85568392924964314,"keywords":["cp","nocrits","nodmgspread","uncletopia"],"game_id":440,"stv_port":27076,"stv_name":"Uncletopia | London | 7 | No Payload | STV","players":[{"user_id":131,"name":"gabagool","steam_id":76561198307111838,"connected_time":3361000000000,"state":"active","ping":52},{"user_id":171,"name":"FIX","steam_id":76561199426605359,"connected_time":776000000000,"state":"active","ping":131},{"user_id":129,"name":"Spliffendor","steam_id":76561198144020209,"connected_time":3492000000000,"state":"active","ping":51},{"user_id":172,"name":"GEP Gun","steam_id":76561197981821003,"connected_time":732000000000,"state":"active","ping":55},{"user_id":185,"name":"Space Rimmer","steam_id":76561198069243201,"connected_time":361000000000,"state":"active","ping":46},{"user_id":188,"name":"Ghorkin","steam_id":76561198070923312,"connected_time":168000000000,"state":"spawning","ping":238},{"user_id":186,"name":"3igen3ggy","steam_id":76561197989548015,"connected_time":230000000000,"state":"active","ping":71},{"user_id":181,"name":"sup3rfr3ddy.","steam_id":76561198119371683,"connected_time":548000000000,"state":"active","ping":65},{"user_id":182,"name":"zaleek69","steam_id":76561198058877595,"connected_time":546000000000,"state":"active","ping":77},{"user_id":175,"name":"jamkel #savetf2","steam_id":76561199088464666,"connected_time":659000000000,"state":"active","ping":120},{"user_id":153,"name":"NitPig","steam_id":76561198212991935,"connected_time":2615000000000,"state":"active","ping":97},{"user_id":144,"name":"Harrison256","steam_id":76561198078975210,"connected_time":2939000000000,"state":"active","ping":55},{"user_id":167,"name":"pepperonikorv","steam_id":76561198040665006,"connected_time":1263000000000,"state":"active","ping":66},{"user_id":170,"name":"sneb","steam_id":76561198039381855,"connected_time":1035000000000,"state":"active","ping":60},{"user_id":148,"name":"darktheif54","steam_id":76561198043650119,"connected_time":2762000000000,"state":"active","ping":52},{"user_id":160,"name":"alshep00","steam_id":76561198079585198,"connected_time":2006000000000,"state":"active","ping":57},{"user_id":141,"name":"Mark 'The Beast' Labbett","steam_id":76561198118892116,"connected_time":3010000000000,"state":"active","ping":50},{"user_id":177,"name":"Samus","steam_id":76561198045943019,"connected_time":587000000000,"state":"active","ping":60},{"user_id":187,"name":"h","steam_id":76561198092186935,"connected_time":219000000000,"state":"active","ping":45},{"user_id":116,"name":"kektuse","steam_id":76561198088426580,"connected_time":4687000000000,"state":"active","ping":74},{"user_id":164,"name":"M1rkus","steam_id":76561198171215447,"connected_time":1897000000000,"state":"active","ping":74},{"user_id":189,"name":"Qosmo","steam_id":76561197980806182,"connected_time":69000000000,"state":"active","ping":76},{"user_id":118,"name":"Captain HandicappedCock","steam_id":76561198109850402,"connected_time":4679000000000,"state":"active","ping":71},{"user_id":179,"name":"LionKing","steam_id":76561198023399545,"connected_time":585000000000,"state":"active","ping":60}]},{"server_id":41,"name":"Uncletopia | London | 8 | Community","name_short":"lon-8","host":"lon-1.uk.uncletopia.com","port":27085,"enabled":true,"region":"eu","cc":"gb","latitude":51.509865,"longitude":-0.118092,"reserved":0,"last_update":"0001-01-01T00:00:00Z","name_a2s":"Uncletopia | London | 8 | Community","protocol":17,"map":"workshop/pl_highwood_b13.ugc1769496557","folder":"tf","game":"Team Fortress","app_id":440,"player_count":9,"max_players":24,"Bots":0,"server_type":"Dedicated","server_os":"Linux","password":true,"vac":true,"version":"7757534","steam_id":85568392924964315,"keywords":["nocrits","nodmgspread","payload","uncletopia"],"game_id":440,"stv_port":27086,"stv_name":"Uncletopia | London | 8 | Community | STV","players":[{"user_id":57,"name":"Ruben Zo","steam_id":76561198063855616,"connected_time":889000000000,"state":"active","ping":66},{"user_id":19,"name":"Uncle Owen","steam_id":76561198157999291,"connected_time":4311000000000,"state":"active","ping":88},{"user_id":62,"name":"SFC Pump","steam_id":76561198129338259,"connected_time":532000000000,"state":"active","ping":74},{"user_id":63,"name":"DonD","steam_id":76561198061496731,"connected_time":507000000000,"state":"active","ping":75},{"user_id":65,"name":"Lag","steam_id":76561198159360376,"connected_time":347000000000,"state":"active","ping":48},{"user_id":67,"name":"Andrei12264","steam_id":76561199123066659,"connected_time":288000000000,"state":"active","ping":88},{"user_id":68,"name":"Black Sheep","steam_id":76561198042244701,"connected_time":156000000000,"state":"active","ping":59},{"user_id":35,"name":"Irbynx","steam_id":76561197980421195,"connected_time":3076000000000,"state":"active","ping":80},{"user_id":51,"name":"R A S M U S","steam_id":76561198279799226,"connected_time":1867000000000,"state":"active","ping":68}]},{"server_id":300,"name":"Uncletopia | Montr√©al | 1 | All Maps","name_short":"mtl-1","host":"mtl-1.ca.uncletopia.com","port":27015,"enabled":true,"region":"us-east","cc":"ca","latitude":45.50889,"longitude":-73.56167,"reserved":0,"last_update":"0001-01-01T00:00:00Z","name_a2s":"Uncletopia | Montr√©al | 1 | All Maps","protocol":17,"map":"pl_swiftwater_final1","folder":"tf","game":"Team Fortress","app_id":440,"player_count":0,"max_players":24,"Bots":0,"server_type":"Dedicated","server_os":"Linux","password":true,"vac":true,"version":"7757534","steam_id":85568392924500087,"keywords":["nocrits","nodmgspread","payload","uncletopia"],"game_id":440,"stv_port":27016,"stv_name":"Uncletopia | Montr√©al | 1 | All Maps | STV","players":null},{"server_id":301,"name":"Uncletopia | Montr√©al | 2 | All Maps","name_short":"mtl-2","host":"mtl-1.ca.uncletopia.com","port":27025,"enabled":true,"region":"us-east","cc":"ca","latitude":45.50889,"longitude":-73.56167,"reserved":0,"last_update":"0001-01-01T00:00:00Z","name_a2s":"Uncletopia | Montr√©al | 2 | All Maps","protocol":17,"map":"pl_snowycoast","folder":"tf","game":"Team Fortress","app_id":440,"player_count":0,"max_players":24,"Bots":0,"server_type":"Dedicated","server_os":"Linux","password":true,"vac":true,"version":"7757534","steam_id":85568392924500088,"keywords":["nocrits","nodmgspread","payload","uncletopia"],"game_id":440,"stv_port":27026,"stv_name":"Uncletopia | Montr√©al | 2 | All Maps | STV","players":null},{"server_id":302,"name":"Uncletopia | Montr√©al | 3 | All Maps","name_short":"mtl-3","host":"mtl-1.ca.uncletopia.com","port":27035,"enabled":true,"region":"us-east","cc":"ca","latitude":45.50889,"longitude":-73.56167,"reserved":0,"last_update":"0001-01-01T00:00:00Z","name_a2s":"Uncletopia | Montr√©al | 3 | All Maps","protocol":17,"map":"koth_cascade","folder":"tf","game":"Team Fortress","app_id":440,"player_count":0,"max_players":24,"Bots":0,"server_type":"Dedicated","server_os":"Linux","password":true,"vac":true,"version":"7757534","steam_id":85568392924500089,"keywords":["cp","nocrits","nodmgspread","uncletopia"],"game_id":440,"stv_port":27036,"stv_name":"Uncletopia | Montr√©al | 3 | All Maps | STV","players":null},{"server_id":303,"name":"Uncletopia | Montr√©al | 4 | No Payload","name_short":"mtl-4","host":"mtl-1.ca.uncletopia.com","port":27045,"enabled":true,"region":"us-east","cc":"ca","latitude":45.50889,"longitude":-73.56167,"reserved":0,"last_update":"0001-01-01T00:00:00Z","name_a2s":"Uncletopia | Montr√©al | 4 | No Payload","protocol":17,"map":"pl_borneo","folder":"tf","game":"Team Fortress","app_id":440,"player_count":0,"max_players":24,"Bots":0,"server_type":"Dedicated","server_os":"Linux","password":true,"vac":true,"version":"7757534","steam_id":85568392924500090,"keywords":["nocrits","nodmgspread","payload","uncletopia"],"game_id":440,"stv_port":27046,"stv_name":"Uncletopia | Montr√©al | 4 | No Payload | STV","players":null},{"server_id":13,"name":"Uncletopia | New York City | 1 | All Maps","name_short":"nyc-1","host":"nyc-1.us.uncletopia.com","port":27015,"enabled":true,"region":"us-east","cc":"us","latitude":40.73061,"longitude":-73.93524,"reserved":0,"last_update":"0001-01-01T00:00:00Z","name_a2s":"Uncletopia | New York City | 1 | All Maps","protocol":17,"map":"cp_dustbowl","folder":"tf","game":"Team Fortress","app_id":440,"player_count":24,"max_players":24,"Bots":0,"server_type":"Dedicated","server_os":"Linux","password":true,"vac":true,"version":"7757534","steam_id":85568392924469993,"keywords":["cp","nocrits","nodmgspread","uncletopia"],"game_id":440,"stv_port":27016,"stv_name":"Uncletopia | New York City | 1 | All Maps | STV","players":[{"user_id":136,"name":"Grecki","steam_id":76561198396610691,"connected_time":1721000000000,"state":"active","ping":83},{"user_id":134,"name":"Chachi","steam_id":76561199045511890,"connected_time":1896000000000,"state":"active","ping":61},{"user_id":124,"name":"Berries","steam_id":76561198109312962,"connected_time":2825000000000,"state":"active","ping":63},{"user_id":149,"name":"AjProductions","steam_id":76561198217950125,"connected_time":333000000000,"state":"active","ping":134},{"user_id":151,"name":"Fake Uncle","steam_id":76561198880227689,"connected_time":170000000000,"state":"active","ping":42},{"user_id":150,"name":"dvd of the simpsons season 6","steam_id":76561198075446150,"connected_time":203000000000,"state":"active","ping":149},{"user_id":14,"name":"SuperFresh","steam_id":76561198200723198,"connected_time":9002000000000,"state":"active","ping":49},{"user_id":142,"name":"Monsterjessy","steam_id":76561198035630985,"connected_time":846000000000,"state":"active","ping":63},{"user_id":121,"name":"Boogie","steam_id":76561198043626626,"connected_time":2892000000000,"state":"active","ping":74},{"user_id":147,"name":"Isu","steam_id":76561199081016589,"connected_time":472000000000,"state":"active","ping":76},{"user_id":128,"name":"ice spice","steam_id":76561198072657891,"connected_time":2654000000000,"state":"active","ping":38},{"user_id":96,"name":"chrisd149","steam_id":76561198018710480,"connected_time":4211000000000,"state":"active","ping":91},{"user_id":111,"name":"Nobody","steam_id":76561198160544586,"connected_time":3553000000000,"state":"active","ping":83},{"user_id":152,"name":"Architect","steam_id":76561198015242016,"connected_time":138000000000,"state":"active","ping":56},{"user_id":137,"name":"pizzachit","steam_id":76561198803053113,"connected_time":1700000000000,"state":"active","ping":113},{"user_id":145,"name":"Salad","steam_id":76561198842089895,"connected_time":607000000000,"state":"active","ping":81},{"user_id":102,"name":"Lots0","steam_id":76561198043143145,"connected_time":3779000000000,"state":"active","ping":110},{"user_id":98,"name":"Mochi Man","steam_id":76561198297892077,"connected_time":4151000000000,"state":"active","ping":56},{"user_id":141,"name":"'21 drift","steam_id":76561198093781093,"connected_time":916000000000,"state":"active","ping":34},{"user_id":139,"name":"imbadatvideogames","steam_id":76561198856246322,"connected_time":1331000000000,"state":"active","ping":84},{"user_id":90,"name":"Cam(era)","steam_id":76561198285054047,"connected_time":4483000000000,"state":"active","ping":81},{"user_id":132,"name":"‚ò§Medic Jesus‚Ä†","steam_id":76561197967470975,"connected_time":2375000000000,"state":"active","ping":90},{"user_id":148,"name":"RekTek249","steam_id":76561198118901719,"connected_time":400000000000,"state":"active","ping":76},{"user_id":117,"name":"TheAbstract","steam_id":76561198158086675,"connected_time":3024000000000,"state":"active","ping":90}]},{"server_id":14,"name":"Uncletopia | New York City | 2 | All Maps","name_short":"nyc-2","host":"nyc-1.us.uncletopia.com","port":27025,"enabled":true,"region":"us-east","cc":"us","latitude":40.73061,"longitude":-73.93524,"reserved":0,"last_update":"0001-01-01T00:00:00Z","name_a2s":"Uncletopia | New York City | 2 | All Maps","protocol":17,"map":"pl_swiftwater_final1","folder":"tf","game":"Team Fortress","app_id":440,"player_count":24,"max_players":24,"Bots":0,"server_type":"Dedicated","server_os":"Linux","password":true,"vac":true,"version":"7757534","steam_id":85568392924469994,"keywords":["nocrits","nodmgspread","payload","uncletopia"],"game_id":440,"stv_port":27026,"stv_name":"Uncletopia | New York City | 2 | All Maps | STV","players":[{"user_id":373,"name":"Wesg","steam_id":76561198220436820,"connected_time":4283000000000,"state":"active","ping":87},{"user_id":395,"name":"Chaotic Rushu","steam_id":76561198170054407,"connected_time":2195000000000,"state":"active","ping":70},{"user_id":387,"name":"Vegerot","steam_id":76561197997843710,"connected_time":2458000000000,"state":"active","ping":40},{"user_id":303,"name":"Black Mage","steam_id":76561198031667381,"connected_time":8585000000000,"state":"active","ping":58},{"user_id":371,"name":"TheMoneyMaker","steam_id":76561198313007819,"connected_time":4303000000000,"state":"active","ping":74},{"user_id":398,"name":"kametro4","steam_id":76561198835430429,"connected_time":1590000000000,"state":"active","ping":66},{"user_id":382,"name":"VioletSpecs","steam_id":76561198089366466,"connected_time":2997000000000,"state":"active","ping":68},{"user_id":368,"name":"Tyler\u0026Fingers","steam_id":76561198085154485,"connected_time":4607000000000,"state":"active","ping":88},{"user_id":372,"name":"Florida Man","steam_id":76561198016526708,"connected_time":4298000000000,"state":"active","ping":79},{"user_id":332,"name":"white obama","steam_id":76561199465040669,"connected_time":7406000000000,"state":"active","ping":114},{"user_id":378,"name":"Fizz","steam_id":76561197985230931,"connected_time":3750000000000,"state":"active","ping":63},{"user_id":406,"name":"amnyak","steam_id":76561198165831950,"connected_time":599000000000,"state":"active","ping":72},{"user_id":402,"name":"Glory","steam_id":76561198013975080,"connected_time":781000000000,"state":"active","ping":94},{"user_id":403,"name":"Dr.BendyBones","steam_id":76561198048846641,"connected_time":777000000000,"state":"active","ping":64},{"user_id":407,"name":"+r Testament 2.0","steam_id":76561198257691881,"connected_time":583000000000,"state":"active","ping":87},{"user_id":399,"name":"KING GEEDORAH - Fazer . . .","steam_id":76561198294013916,"connected_time":1137000000000,"state":"active","ping":48},{"user_id":405,"name":"BucketOfGondor","steam_id":76561198313660223,"connected_time":732000000000,"state":"active","ping":84},{"user_id":390,"name":"TV","steam_id":76561198177326926,"connected_time":2357000000000,"state":"active","ping":93},{"user_id":408,"name":"M17 lft adv","steam_id":76561198124771378,"connected_time":466000000000,"state":"active","ping":45},{"user_id":391,"name":"HOGGGG RIDAAAAHHHH","steam_id":76561198181870309,"connected_time":2335000000000,"state":"active","ping":76},{"user_id":369,"name":"SpinetinglingToast","steam_id":76561198099470670,"connected_time":4477000000000,"state":"active","ping":54},{"user_id":404,"name":"Glad","steam_id":76561199388372220,"connected_time":775000000000,"state":"active","ping":55},{"user_id":377,"name":"VII","steam_id":76561198077902438,"connected_time":3969000000000,"state":"active","ping":75},{"user_id":342,"name":"ooBah!","steam_id":76561198133684216,"connected_time":6720000000000,"state":"active","ping":38}]},{"server_id":15,"name":"Uncletopia | New York City | 3 | Stopwatch Beta","name_short":"nyc-3","host":"nyc-1.us.uncletopia.com","port":27035,"enabled":true,"region":"us-east","cc":"us","latitude":40.73061,"longitude":-73.93524,"reserved":0,"last_update":"0001-01-01T00:00:00Z","name_a2s":"Uncletopia | New York City | 3 | Stopwatch Beta","protocol":17,"map":"cp_mountainlab","folder":"tf","game":"Team Fortress","app_id":440,"player_count":0,"max_players":24,"Bots":0,"server_type":"Dedicated","server_os":"Linux","password":true,"vac":true,"version":"7757534","steam_id":85568392924742820,"keywords":["cp","nocrits","nodmgspread","uncletopia"],"game_id":440,"stv_port":27036,"stv_name":"Uncletopia | New York City | 3 | Stopwatch Beta | STV","players":null},{"server_id":16,"name":"Uncletopia | New York City | 4 | Community","name_short":"nyc-4","host":"nyc-1.us.uncletopia.com","port":27045,"enabled":true,"region":"us-east","cc":"us","latitude":40.73061,"longitude":-73.93524,"reserved":0,"last_update":"0001-01-01T00:00:00Z","name_a2s":"Uncletopia | New York City | 4 | Community","protocol":17,"map":"workshop/koth_product_final.ugc454272353","folder":"tf","game":"Team Fortress","app_id":440,"player_count":0,"max_players":24,"Bots":0,"server_type":"Dedicated","server_os":"Linux","password":true,"vac":true,"version":"7757534","steam_id":85568392924742821,"keywords":["cp","nocrits","nodmgspread","uncletopia"],"game_id":440,"stv_port":27046,"stv_name":"Uncletopia | New York City | 4 | Community | STV","players":null},{"server_id":142,"name":"Uncletopia | S√£o Paulo | 1 | All Maps","name_short":"sao-1","host":"sao-1.br.uncletopia.com","port":27015,"enabled":true,"region":"sa","cc":"br","latitude":-23.533773,"longitude":-46.62529,"reserved":0,"last_update":"0001-01-01T00:00:00Z","name_a2s":"Uncletopia | S√£o Paulo | 1 | All Maps","protocol":17,"map":"koth_lakeside_final","folder":"tf","game":"Team Fortress","app_id":440,"player_count":0,"max_players":24,"Bots":0,"server_type":"Dedicated","server_os":"Linux","password":true,"vac":true,"version":"7757534","steam_id":85568392924469996,"keywords":["cp","nocrits","nodmgspread","uncletopia"],"game_id":440,"stv_port":27016,"stv_name":"Uncletopia | S√£o Paulo | 1 | All Maps | STV","players":null},{"server_id":143,"name":"Uncletopia | S√£o Paulo | 2 | All Maps","name_short":"sao-2","host":"sao-2.br.uncletopia.com","port":27015,"enabled":true,"region":"sa","cc":"br","latitude":-23.533773,"longitude":-46.62529,"reserved":0,"last_update":"0001-01-01T00:00:00Z","name_a2s":"Uncletopia | S√£o Paulo | 2 | All Maps","protocol":17,"map":"koth_viaduct","folder":"tf","game":"Team Fortress","app_id":440,"player_count":0,"max_players":24,"Bots":0,"server_type":"Dedicated","server_os":"Linux","password":true,"vac":true,"version":"7757534","steam_id":85568392924485349,"keywords":["cp","nocrits","nodmgspread","uncletopia"],"game_id":440,"stv_port":27016,"stv_name":"Uncletopia | S√£o Paulo | 2 | All Maps | STV","players":null},{"server_id":7,"name":"Uncletopia | Seattle | 1 | All Maps","name_short":"sea-1","host":"sea-1.us.uncletopia.com","port":27015,"enabled":true,"region":"us-west","cc":"us","latitude":47.608013,"longitude":-122.33517,"reserved":0,"last_update":"0001-01-01T00:00:00Z","name_a2s":"Uncletopia | Seattle | 1 | All Maps","protocol":17,"map":"pl_frontier_final","folder":"tf","game":"Team Fortress","app_id":440,"player_count":24,"max_players":24,"Bots":0,"server_type":"Dedicated","server_os":"Linux","password":true,"vac":true,"version":"7757534","steam_id":85568392924469997,"keywords":["nocrits","nodmgspread","payload","uncletopia"],"game_id":440,"stv_port":27016,"stv_name":"Uncletopia | Seattle | 1 | All Maps | STV","players":[{"user_id":209,"name":"Maid 'n' China","steam_id":76561198423392976,"connected_time":1347000000000,"state":"active","ping":75},{"user_id":68,"name":"Tommy Pickles (Very Cool)","steam_id":76561198391261463,"connected_time":16702000000000,"state":"active","ping":91},{"user_id":222,"name":"Schnitz","steam_id":76561198265484253,"connected_time":813000000000,"state":"active","ping":82},{"user_id":181,"name":"KnotsAreUs","steam_id":76561198306522669,"connected_time":5075000000000,"state":"active","ping":78},{"user_id":208,"name":"werm","steam_id":76561198872316133,"connected_time":1662000000000,"state":"active","ping":64},{"user_id":186,"name":"egyptiangodcard","steam_id":76561198855935442,"connected_time":4426000000000,"state":"active","ping":63},{"user_id":122,"name":"Lolxdloldx","steam_id":76561198136887125,"connected_time":10912000000000,"state":"active","ping":97},{"user_id":221,"name":"Encore","steam_id":76561198029433812,"connected_time":825000000000,"state":"active","ping":64},{"user_id":161,"name":"Eris","steam_id":76561199471434875,"connected_time":7040000000000,"state":"active","ping":30},{"user_id":189,"name":"Florist","steam_id":76561198009121060,"connected_time":3679000000000,"state":"active","ping":46},{"user_id":184,"name":"Dorte Voloxi","steam_id":76561198118620969,"connected_time":4616000000000,"state":"active","ping":49},{"user_id":198,"name":"Alf Creepypasta","steam_id":76561198841844093,"connected_time":3225000000000,"state":"active","ping":77},{"user_id":223,"name":"Yam Jazzy Jim","steam_id":76561198000788950,"connected_time":772000000000,"state":"active","ping":108},{"user_id":212,"name":"AmiableNebula","steam_id":76561198094306627,"connected_time":1324000000000,"state":"active","ping":76},{"user_id":220,"name":"Cornpop","steam_id":76561197998894854,"connected_time":829000000000,"state":"active","ping":132},{"user_id":225,"name":"Confirmed Bachelor","steam_id":76561198441041496,"connected_time":197000000000,"state":"active","ping":59},{"user_id":201,"name":"COOL master_9","steam_id":76561198073041151,"connected_time":2601000000000,"state":"active","ping":106},{"user_id":204,"name":"Type Three Dabeetus","steam_id":76561198062710038,"connected_time":2228000000000,"state":"active","ping":89},{"user_id":195,"name":"Virgil Van Dijk","steam_id":76561199106996759,"connected_time":3292000000000,"state":"active","ping":141},{"user_id":196,"name":"Klone","steam_id":76561198854485605,"connected_time":3269000000000,"state":"active","ping":119},{"user_id":217,"name":"‚úø PoutyBun ‚úø","steam_id":76561197965762847,"connected_time":989000000000,"state":"active","ping":31},{"user_id":206,"name":"Anthid","steam_id":76561198074493797,"connected_time":1817000000000,"state":"active","ping":62},{"user_id":224,"name":"gasparmx","steam_id":76561197998611994,"connected_time":743000000000,"state":"active","ping":90},{"user_id":170,"name":"Oldengie","steam_id":76561199074712665,"connected_time":5857000000000,"state":"active","ping":137}]},{"server_id":119,"name":"Uncletopia | Seattle | 2 | All Maps","name_short":"sea-2","host":"sea-1.us.uncletopia.com","port":27025,"enabled":true,"region":"us-west","cc":"us","latitude":47.608013,"longitude":-122.33517,"reserved":0,"last_update":"0001-01-01T00:00:00Z","name_a2s":"Uncletopia | Seattle | 2 | All Maps","protocol":17,"map":"pl_upward","folder":"tf","game":"Team Fortress","app_id":440,"player_count":22,"max_players":24,"Bots":0,"server_type":"Dedicated","server_os":"Linux","password":true,"vac":true,"version":"7757534","steam_id":85568392924469998,"keywords":["nocrits","nodmgspread","payload","uncletopia"],"game_id":440,"stv_port":27026,"stv_name":"Uncletopia | Seattle | 2 | All Maps | STV","players":[{"user_id":74,"name":"silly jester","steam_id":76561198079609974,"connected_time":64000000000,"state":"active","ping":87},{"user_id":11,"name":"Friedrich Van Bingle","steam_id":76561198185952115,"connected_time":3783000000000,"state":"active","ping":72},{"user_id":13,"name":"Bernaners","steam_id":76561198142665643,"connected_time":3765000000000,"state":"active","ping":69},{"user_id":14,"name":"wjnger","steam_id":76561198120498226,"connected_time":3755000000000,"state":"active","ping":104},{"user_id":57,"name":"FiddyFoMike","steam_id":76561198057072581,"connected_time":1250000000000,"state":"active","ping":54},{"user_id":31,"name":"shiftshock01","steam_id":76561199049488870,"connected_time":2416000000000,"state":"active","ping":45},{"user_id":18,"name":"Dargoos","steam_id":76561198366212046,"connected_time":3291000000000,"state":"active","ping":67},{"user_id":23,"name":"EatSomeBEES","steam_id":76561198047334307,"connected_time":3060000000000,"state":"active","ping":86},{"user_id":65,"name":"M√°tame","steam_id":76561198060680045,"connected_time":646000000000,"state":"active","ping":71},{"user_id":21,"name":"goongremlin","steam_id":76561198278196215,"connected_time":3215000000000,"state":"active","ping":69},{"user_id":75,"name":"paint thinner victim","steam_id":76561198176069217,"connected_time":34000000000,"state":"active","ping":51},{"user_id":62,"name":"kitsu ‚ô•","steam_id":76561198091741658,"connected_time":1023000000000,"state":"active","ping":75},{"user_id":72,"name":"Sticky Ethan","steam_id":76561198277211625,"connected_time":108000000000,"state":"active","ping":74},{"user_id":68,"name":"Shmebulock","steam_id":76561198046941925,"connected_time":501000000000,"state":"active","ping":109},{"user_id":37,"name":"Aoi Akuma","steam_id":76561198046358800,"connected_time":2172000000000,"state":"active","ping":72},{"user_id":38,"name":"mobe","steam_id":76561198121633820,"connected_time":2113000000000,"state":"active","ping":74},{"user_id":59,"name":"strbry","steam_id":76561198155133601,"connected_time":1194000000000,"state":"active","ping":45},{"user_id":69,"name":"Void","steam_id":76561198308290211,"connected_time":419000000000,"state":"active","ping":100},{"user_id":55,"name":"MerkZ","steam_id":76561198047620432,"connected_time":1363000000000,"state":"active","ping":70},{"user_id":64,"name":"Mystic man of potatoe","steam_id":76561198027267207,"connected_time":987000000000,"state":"active","ping":91},{"user_id":71,"name":"‚§£RASCAL","steam_id":76561198269038647,"connected_time":338000000000,"state":"active","ping":69},{"user_id":73,"name":"mumbles","steam_id":76561197994528974,"connected_time":103000000000,"state":"active","ping":82}]},{"server_id":406,"name":"Uncletopia | Seattle | 3 | Stopwatch Beta","name_short":"sea-3","host":"sea-1.us.uncletopia.com","port":27035,"enabled":true,"region":"us-west","cc":"us","latitude":47.608013,"longitude":-122.33517,"reserved":0,"last_update":"0001-01-01T00:00:00Z","name_a2s":"Uncletopia | Seattle | 3 | Stopwatch Beta","protocol":17,"map":"pl_barnblitz","folder":"tf","game":"Team Fortress","app_id":440,"player_count":0,"max_players":24,"Bots":0,"server_type":"Dedicated","server_os":"Linux","password":true,"vac":true,"version":"7757534","steam_id":85568392924515217,"keywords":["nocrits","nodmgspread","payload","uncletopia"],"game_id":440,"stv_port":27036,"stv_name":"Uncletopia | Seattle | 3 | Stopwatch Beta | STV","players":null},{"server_id":17,"name":"Uncletopia | San Francisco | 1 | All Maps","name_short":"sfo-1","host":"sfo-1.us.uncletopia.com","port":27015,"enabled":true,"region":"us-west","cc":"us","latitude":37.77397,"longitude":-122.4313,"reserved":0,"last_update":"0001-01-01T00:00:00Z","name_a2s":"Uncletopia | San Francisco | 1 | All Maps","protocol":17,"map":"cp_process_final","folder":"tf","game":"Team Fortress","app_id":440,"player_count":0,"max_players":24,"Bots":0,"server_type":"Dedicated","server_os":"Linux","password":true,"vac":true,"version":"7757534","steam_id":85568392924469999,"keywords":["cp","nocrits","nodmgspread","uncletopia"],"game_id":440,"stv_port":27016,"stv_name":"Uncletopia | San Francisco | 1 | All Maps | STV","players":null},{"server_id":18,"name":"Uncletopia | San Francisco | 2 | All Maps","name_short":"sfo-2","host":"sfo-1.us.uncletopia.com","port":27025,"enabled":true,"region":"us-west","cc":"us","latitude":37.77397,"longitude":-122.4313,"reserved":0,"last_update":"0001-01-01T00:00:00Z","name_a2s":"Uncletopia | San Francisco | 2 | All Maps","protocol":17,"map":"koth_highpass","folder":"tf","game":"Team Fortress","app_id":440,"player_count":0,"max_players":24,"Bots":0,"server_type":"Dedicated","server_os":"Linux","password":true,"vac":true,"version":"7757534","steam_id":85568392924470000,"keywords":["cp","nocrits","nodmgspread","uncletopia"],"game_id":440,"stv_port":27026,"stv_name":"Uncletopia | San Francisco | 2 | All Maps | STV","players":null},{"server_id":19,"name":"Uncletopia | San Francisco | 3 | Stopwatch Beta","name_short":"sfo-3","host":"sfo-1.us.uncletopia.com","port":27035,"enabled":true,"region":"us-west","cc":"us","latitude":37.77397,"longitude":-122.4313,"reserved":0,"last_update":"0001-01-01T00:00:00Z","name_a2s":"Uncletopia | San Francisco | 3 | Stopwatch Beta","protocol":17,"map":"pl_borneo","folder":"tf","game":"Team Fortress","app_id":440,"player_count":0,"max_players":24,"Bots":0,"server_type":"Dedicated","server_os":"Linux","password":true,"vac":true,"version":"7757534","steam_id":85568392924742824,"keywords":["nocrits","nodmgspread","payload","uncletopia"],"game_id":440,"stv_port":27036,"stv_name":"Uncletopia | San Francisco | 3 | Stopwatch Beta | STV","players":null},{"server_id":20,"name":"Uncletopia | San Francisco | 4 | Community","name_short":"sfo-4","host":"sfo-1.us.uncletopia.com","port":27045,"enabled":true,"region":"us-west","cc":"us","latitude":37.77397,"longitude":-122.4313,"reserved":0,"last_update":"0001-01-01T00:00:00Z","name_a2s":"Uncletopia | San Francisco | 4 | Community","protocol":17,"map":"koth_highpass","folder":"tf","game":"Team Fortress","app_id":440,"player_count":0,"max_players":24,"Bots":0,"server_type":"Dedicated","server_os":"Linux","password":true,"vac":true,"version":"7757534","steam_id":85568392924742826,"keywords":["cp","nocrits","nodmgspread","uncletopia"],"game_id":440,"stv_port":27046,"stv_name":"Uncletopia | San Francisco | 4 | Community | STV","players":null},{"server_id":141,"name":"Uncletopia | Sydney | 1 | All Maps","name_short":"syd-1","host":"syd-1.au.uncletopia.com","port":27015,"enabled":true,"region":"au","cc":"au","latitude":-33.865143,"longitude":151.2099,"reserved":0,"last_update":"0001-01-01T00:00:00Z","name_a2s":"Uncletopia | Sydney | 1 | All Maps","protocol":17,"map":"cp_process_final","folder":"tf","game":"Team Fortress","app_id":440,"player_count":0,"max_players":24,"Bots":0,"server_type":"Dedicated","server_os":"Linux","password":true,"vac":true,"version":"7757534","steam_id":85568392924470001,"keywords":["cp","nocrits","nodmgspread","uncletopia"],"game_id":440,"stv_port":27016,"stv_name":"Uncletopia | Sydney | 1 | All Maps | STV","players":null},{"server_id":123,"name":"Uncletopia | Sydney | 2 | All Maps","name_short":"syd-2","host":"syd-1.au.uncletopia.com","port":27025,"enabled":true,"region":"au","cc":"au","latitude":-33.865143,"longitude":151.2099,"reserved":0,"last_update":"0001-01-01T00:00:00Z","name_a2s":"Uncletopia | Sydney | 2 | All Maps","protocol":17,"map":"koth_viaduct","folder":"tf","game":"Team Fortress","app_id":440,"player_count":0,"max_players":24,"Bots":0,"server_type":"Dedicated","server_os":"Linux","password":true,"vac":true,"version":"7757534","steam_id":85568392924470002,"keywords":["cp","nocrits","nodmgspread","uncletopia"],"game_id":440,"stv_port":27026,"stv_name":"Uncletopia | Sydney | 2 | All Maps | STV","players":null},{"server_id":395,"name":"Uncletopia | Sydney | 3 | All Maps","name_short":"syd-3","host":"syd-1.au.uncletopia.com","port":27035,"enabled":true,"region":"au","cc":"au","latitude":-33.865143,"longitude":151.2099,"reserved":0,"last_update":"0001-01-01T00:00:00Z","name_a2s":"Uncletopia | Sydney | 3 | All Maps","protocol":17,"map":"pl_upward","folder":"tf","game":"Team Fortress","app_id":440,"player_count":0,"max_players":24,"Bots":0,"server_type":"Dedicated","server_os":"Linux","password":true,"vac":true,"version":"7757534","steam_id":85568392925194467,"keywords":["nocrits","nodmgspread","payload","uncletopia"],"game_id":440,"stv_port":27036,"stv_name":"Uncletopia | Sydney | 3 | All Maps | STV","players":null},{"server_id":396,"name":"Uncletopia | Sydney | 4 | All Maps","name_short":"syd-4","host":"syd-1.au.uncletopia.com","port":27045,"enabled":true,"region":"au","cc":"au","latitude":-33.865143,"longitude":151.2099,"reserved":0,"last_update":"0001-01-01T00:00:00Z","name_a2s":"Uncletopia | Sydney | 4 | All Maps","protocol":17,"map":"koth_lakeside_final","folder":"tf","game":"Team Fortress","app_id":440,"player_count":0,"max_players":24,"Bots":0,"server_type":"Dedicated","server_os":"Linux","password":true,"vac":true,"version":"7757534","steam_id":85568392925397958,"keywords":["cp","nocrits","nodmgspread","uncletopia"],"game_id":440,"stv_port":27046,"stv_name":"Uncletopia | Sydney | 4 | All Maps | STV","players":null},{"server_id":58,"name":"Uncletopia | Sydney | 5 | Stopwatch Beta","name_short":"syd-5","host":"syd-1.au.uncletopia.com","port":27055,"enabled":true,"region":"au","cc":"au","latitude":-33.865143,"longitude":151.2099,"reserved":0,"last_update":"0001-01-01T00:00:00Z","name_a2s":"Uncletopia | Sydney | 5 | Stopwatch Beta","protocol":17,"map":"koth_highpass","folder":"tf","game":"Team Fortress","app_id":440,"player_count":0,"max_players":24,"Bots":0,"server_type":"Dedicated","server_os":"Linux","password":true,"vac":true,"version":"7757534","steam_id":85568392925397959,"keywords":["cp","nocrits","nodmgspread","uncletopia"],"game_id":440,"stv_port":27056,"stv_name":"Uncletopia | Sydney | 5 | Stopwatch Beta | STV","players":null},{"server_id":59,"name":"Uncletopia | Sydney | 6 | Community","name_short":"syd-6","host":"syd-1.au.uncletopia.com","port":27065,"enabled":true,"region":"au","cc":"au","latitude":-33.865143,"longitude":151.2099,"reserved":0,"last_update":"0001-01-01T00:00:00Z","name_a2s":"Uncletopia | Sydney | 6 | Community","protocol":17,"map":"cp_sunshine","folder":"tf","game":"Team Fortress","app_id":440,"player_count":0,"max_players":24,"Bots":0,"server_type":"Dedicated","server_os":"Linux","password":true,"vac":true,"version":"7757534","steam_id":85568392925397960,"keywords":["cp","nocrits","nodmgspread","uncletopia"],"game_id":440,"stv_port":27066,"stv_name":"Uncletopia | Sydney | 6 | Community | STV","players":null},{"server_id":49,"name":"Uncletopia | Warsaw | 1 | All Maps","name_short":"waw-1","host":"waw-1.pl.uncletopia.com","port":27015,"enabled":true,"region":"eu","cc":"pl","latitude":52.2297,"longitude":21.017532,"reserved":0,"last_update":"0001-01-01T00:00:00Z","name_a2s":"","protocol":0,"map":"","folder":"","game":"","app_id":0,"player_count":0,"max_players":0,"Bots":0,"server_type":"","server_os":"","password":false,"vac":false,"version":"","steam_id":0,"keywords":null,"game_id":0,"stv_port":0,"stv_name":"","players":null},{"server_id":50,"name":"Uncletopia | Warsaw | 2 | All Maps","name_short":"waw-2","host":"waw-1.pl.uncletopia.com","port":27025,"enabled":true,"region":"eu","cc":"pl","latitude":52.2297,"longitude":21.017532,"reserved":0,"last_update":"0001-01-01T00:00:00Z","name_a2s":"Uncletopia | Warsaw | 2 | All Maps","protocol":17,"map":"pl_borneo","folder":"tf","game":"Team Fortress","app_id":440,"player_count":2,"max_players":24,"Bots":0,"server_type":"Dedicated","server_os":"Linux","password":true,"vac":true,"version":"7757534","steam_id":85568392925397851,"keywords":["nocrits","nodmgspread","payload","uncletopia"],"game_id":440,"stv_port":27026,"stv_name":"Uncletopia | Warsaw | 2 | All Maps | STV","players":[{"user_id":113,"name":"Wojtasek0505","steam_id":76561199236721669,"connected_time":1383000000000,"state":"active","ping":80},{"user_id":117,"name":"Rybigiusz","steam_id":76561198799311754,"connected_time":309000000000,"state":"active","ping":65}]},{"server_id":51,"name":"Uncletopia | Warsaw | 3 | All Maps","name_short":"waw-3","host":"waw-1.pl.uncletopia.com","port":27035,"enabled":true,"region":"eu","cc":"pl","latitude":52.2297,"longitude":21.017532,"reserved":0,"last_update":"0001-01-01T00:00:00Z","name_a2s":"Uncletopia | Warsaw | 3 | All Maps","protocol":17,"map":"cp_snakewater_final1","folder":"tf","game":"Team Fortress","app_id":440,"player_count":0,"max_players":24,"Bots":0,"server_type":"Dedicated","server_os":"Linux","password":true,"vac":true,"version":"7757534","steam_id":85568392925397852,"keywords":["cp","nocrits","nodmgspread","uncletopia"],"game_id":440,"stv_port":27036,"stv_name":"Uncletopia | Warsaw | 3 | All Maps | STV","players":null},{"server_id":52,"name":"Uncletopia | Warsaw | 4 | All Maps","name_short":"waw-4","host":"waw-1.pl.uncletopia.com","port":27045,"enabled":true,"region":"eu","cc":"pl","latitude":52.2297,"longitude":21.017532,"reserved":0,"last_update":"0001-01-01T00:00:00Z","name_a2s":"Uncletopia | Warsaw | 4 | All Maps","protocol":17,"map":"pl_upward","folder":"tf","game":"Team Fortress","app_id":440,"player_count":0,"max_players":24,"Bots":0,"server_type":"Dedicated","server_os":"Linux","password":true,"vac":true,"version":"7757534","steam_id":85568392925397853,"keywords":["nocrits","nodmgspread","payload","uncletopia"],"game_id":440,"stv_port":27046,"stv_name":"Uncletopia | Warsaw | 4 | All Maps | STV","players":null},{"server_id":53,"name":"Uncletopia | Warsaw | 5 | Stopwatch Beta","name_short":"waw-5","host":"waw-1.pl.uncletopia.com","port":27055,"enabled":true,"region":"eu","cc":"pl","latitude":52.2297,"longitude":21.017532,"reserved":0,"last_update":"0001-01-01T00:00:00Z","name_a2s":"Uncletopia | Warsaw | 5 | Stopwatch Beta","protocol":17,"map":"koth_lakeside_final","folder":"tf","game":"Team Fortress","app_id":440,"player_count":0,"max_players":24,"Bots":0,"server_type":"Dedicated","server_os":"Linux","password":true,"vac":true,"version":"7757534","steam_id":85568392925397854,"keywords":["cp","nocrits","nodmgspread","uncletopia"],"game_id":440,"stv_port":27056,"stv_name":"Uncletopia | Warsaw | 5 | Stopwatch Beta | STV","players":null},{"server_id":54,"name":"Uncletopia | Warsaw | 6 | Community","name_short":"waw-6","host":"waw-1.pl.uncletopia.com","port":27065,"enabled":true,"region":"eu","cc":"pl","latitude":52.2297,"longitude":21.017532,"reserved":0,"last_update":"0001-01-01T00:00:00Z","name_a2s":"Uncletopia | Warsaw | 6 | Community","protocol":17,"map":"workshop/cp_glassworks_rc6a.ugc454118349","folder":"tf","game":"Team Fortress","app_id":440,"player_count":0,"max_players":24,"Bots":0,"server_type":"Dedicated","server_os":"Linux","password":true,"vac":true,"version":"7757534","steam_id":85568392925397856,"keywords":["cp","nocrits","nodmgspread","uncletopia"],"game_id":440,"stv_port":27066,"stv_name":"Uncletopia | Warsaw | 6 | Community | STV","players":null}]}