{"status":true,"message":"","result":[{"server_id":9,"name":"Uncletopia | Atlanta | 1 | All Maps","name_short":"atl-1","host":"atl-1.us.uncletopia.com","port":27015,"enabled":true,"region":"us-east","cc":"us","latitude":33.753746,"longitude":-84.38633,"reserved":0,"last_update":"0001-01-01T00:00:00Z","name_a2s":"Uncletopia | Atlanta | 1 | All Maps","protocol":17,"map":"pl_upward","folder":"tf","game":"Team Fortress","app_id":440,"player_count":4,"max_players":24,"Bots":0,"server_type":"Dedicated","server_os":"Linux","password":true,"vac":true,"version":"7932396","steam_id":85568392924469982,"keywords":["nocrits","nodmgspread","payload","uncletopia"],"game_id":440,"stv_port":27016,"stv_name":"Uncletopia | Atlanta | 1 | All Maps | STV","players":[{"user_id":79,"name":"Secret Derg","steam_id":76561198065005979,"connected_time":956000000000,"state":"active","ping":82},{"user_id":80,"name":"AwesomeMissB","steam_id":76561199066244584,"connected_time":847000000000,"state":"active","ping":45},{"user_id":81,"name":"gamerroo","steam_id":76561199065347643,"connected_time":630000000000,"state":"active","ping":75},{"user_id":83,"name":"Arjen PSN 23","steam_id":76561198963682232,"connected_time":310000000000,"state":"active","ping":68}]},{"server_id":104,"name":"Uncletopia | Atlanta | 2 | All Maps","name_short":"atl-2","host":"atl-1.us.uncletopia.com","port":27025,"enabled":true,"region":"us-east","cc":"us","latitude":33.753746,"longitude":-84.38633,"reserved":0,"last_update":"0001-01-01T00:00:00Z","name_a2s":"Uncletopia | Atlanta | 2 | All Maps","protocol":17,"map":"koth_viaduct","folder":"tf","game":"Team Fortress","app_id":440,"player_count":0,"max_players":24,"Bots":0,"server_type":"Dedicated","server_os":"Linux","password":true,"vac":true,"version":"7932396","steam_id":85568392924469983,"keywords":["cp","nocrits","nodmgspread","uncletopia"],"game_id":440,"stv_port":27026,"stv_name":"Uncletopia | Atlanta | 2 | All Maps | STV","players":null},{"server_id":400,"name":"Uncletopia | Atlanta | 3 | Community","name_short":"atl-3","host":"atl-1.us.uncletopia.com","port":27035,"enabled":true,"region":"us-east","cc":"us","latitude":33.753746,"longitude":-84.38633,"reserved":0,"last_update":"0001-01-01T00:00:00Z","name_a2s":"Uncletopia | Atlanta | 3 | Community","protocol":17,"map":"workshop/cp_logjam_rc12.ugc454812035","folder":"tf","game":"Team Fortress","app_id":440,"player_count":0,"max_players":24,"Bots":0,"server_type":"Dedicated","server_os":"Linux","password":true,"vac":true,"version":"7932396","steam_id":85568392924515187,"keywords":["cp","nocrits","nodmgspread","uncletopia"],"game_id":440,"stv_port":27036,"stv_name":"Uncletopia | Atlanta | 3 | Community | STV","players":null},{"server_id":401,"name":"Uncletopia | Atlanta | 4 | No Payload","name_short":"atl-4","host":"atl-1.us.uncletopia.com","port":27045,"enabled":true,"region":"us-east","cc":"us","latitude":33.753746,"longitude":-84.38633,"reserved":0,"last_update":"0001-01-01T00:00:00Z","name_a2s":"","protocol":0,"map":"","folder":"","game":"","app_id":0,"player_count":0,"max_players":0,"Bots":0,"server_type":"","server_os":"","password":false,"vac":false,"version":"","steam_id":0,"keywords":null,"game_id":0,"stv_port":0,"stv_name":"","players":null},{"server_id":2,"name":"Uncletopia | Chicago | 1 | All Maps","name_short":"chi-1","host":"chi-1.us.uncletopia.com","port":27015,"enabled":true,"region":"us-central","cc":"us","latitude":41.881832,"longitude":-87.62318,"reserved":0,"last_update":"0001-01-01T00:00:00Z","name_a2s":"Uncletopia | Chicago | 1 | All Maps","protocol":17,"map":"pl_snowycoast","folder":"tf","game":"Team Fortress","app_id":440,"player_count":22,"max_players":24,"Bots":0,"server_type":"Dedicated","server_os":"Linux","password":true,"vac":true,"version":"7932396","steam_id":85568392924469984,"keywords":["nocrits","nodmgspread","payload","uncletopia"],"game_id":440,"stv_port":27016,"stv_name":"Uncletopia | Chicago | 1 | All Maps | STV","players":[{"user_id":338,"name":"PROFILE NAME","steam_id":76561199438851854,"connected_time":994000000000,"state":"active","ping":123},{"user_id":335,"name":"Glitcherton","steam_id":76561198046750499,"connected_time":1286000000000,"state":"active","ping":60},{"user_id":340,"name":"Monsieur l'INGENIEUR","steam_id":76561198090504334,"connected_time":948000000000,"state":"active","ping":71},{"user_id":329,"name":"Broadsword","steam_id":76561198011160411,"connected_time":2120000000000,"state":"active","ping":76},{"user_id":120,"name":"dirty tuna","steam_id":76561198021535785,"connected_time":18863000000000,"state":"active","ping":72},{"user_id":316,"name":"DFR oak","steam_id":76561198092135570,"connected_time":3538000000000,"state":"active","ping":60},{"user_id":353,"name":"Space","steam_id":76561198350489754,"connected_time":122000000000,"state":"active","ping":39},{"user_id":347,"name":"Lawnmower","steam_id":76561198186680197,"connected_time":759000000000,"state":"active","ping":88},{"user_id":312,"name":"Ras","steam_id":76561198123546775,"connected_time":4374000000000,"state":"active","ping":71},{"user_id":287,"name":"roman numeral thirteen","steam_id":76561198079416036,"connected_time":5176000000000,"state":"active","ping":44},{"user_id":281,"name":"eat Pant","steam_id":76561197974965536,"connected_time":5546000000000,"state":"active","ping":62},{"user_id":283,"name":"eish","steam_id":76561198089463603,"connected_time":5463000000000,"state":"active","ping":130},{"user_id":357,"name":"Swiftmend","steam_id":76561197995595692,"connected_time":36000000000,"state":"active","ping":77},{"user_id":345,"name":"Ginger Jesus","steam_id":76561198052386458,"connected_time":850000000000,"state":"active","ping":60},{"user_id":314,"name":"kite","steam_id":76561198346516392,"connected_time":4155000000000,"state":"active","ping":70},{"user_id":313,"name":"sumireko kinnie","steam_id":76561198061868020,"connected_time":4205000000000,"state":"active","ping":135},{"user_id":354,"name":"BIDEN BLAST","steam_id":76561198107343544,"connected_time":96000000000,"state":"spawning","ping":89},{"user_id":356,"name":"flaccid","steam_id":76561198299241777,"connected_time":66000000000,"state":"active","ping":88},{"user_id":349,"name":"squash the beef","steam_id":76561198277163301,"connected_time":729000000000,"state":"active","ping":63},{"user_id":325,"name":"notweN giF","steam_id":76561198064255155,"connected_time":2468000000000,"state":"active","ping":62},{"user_id":232,"name":"blob","steam_id":76561198122375328,"connected_time":10246000000000,"state":"active","ping":56},{"user_id":350,"name":"Suspiciously Black Spy","steam_id":76561199050642411,"connected_time":674000000000,"state":"active","ping":90}]},{"server_id":106,"name":"Uncletopia | Chicago | 2 | All Maps","name_short":"chi-2","host":"chi-1.us.uncletopia.com","port":27025,"enabled":true,"region":"us-central","cc":"us","latitude":41.881832,"longitude":-87.62318,"reserved":0,"last_update":"0001-01-01T00:00:00Z","name_a2s":"Uncletopia | Chicago | 2 | All Maps","protocol":17,"map":"pl_snowycoast","folder":"tf","game":"Team Fortress","app_id":440,"player_count":24,"max_players":24,"Bots":0,"server_type":"Dedicated","server_os":"Linux","password":true,"vac":true,"version":"7932396","steam_id":85568392924469985,"keywords":["nocrits","nodmgspread","payload","uncletopia"],"game_id":440,"stv_port":27026,"stv_name":"Uncletopia | Chicago | 2 | All Maps | STV","players":[{"user_id":520,"name":"\"This juice is bangin', yo.\"","steam_id":76561198413125750,"connected_time":451000000000,"state":"active","ping":64},{"user_id":521,"name":"KingSteve42","steam_id":76561198409455888,"connected_time":446000000000,"state":"active","ping":112},{"user_id":518,"name":"DerSpectre","steam_id":76561198133045544,"connected_time":930000000000,"state":"active","ping":127},{"user_id":444,"name":"Andale","steam_id":76561198326236983,"connected_time":6555000000000,"state":"active","ping":142},{"user_id":456,"name":"AnonymousCritter","steam_id":76561198864475187,"connected_time":4894000000000,"state":"active","ping":50},{"user_id":516,"name":"PieSpie","steam_id":76561198054531169,"connected_time":1036000000000,"state":"active","ping":81},{"user_id":524,"name":"roo the observer","steam_id":76561198120684348,"connected_time":158000000000,"state":"active","ping":73},{"user_id":464,"name":"TechnoBear2099","steam_id":76561198238863596,"connected_time":4546000000000,"state":"active","ping":71},{"user_id":507,"name":"Dusken","steam_id":76561198020696265,"connected_time":1260000000000,"state":"active","ping":63},{"user_id":501,"name":"flameboy50","steam_id":76561198258638052,"connected_time":1727000000000,"state":"active","ping":128},{"user_id":457,"name":"Dietrich","steam_id":76561198028163840,"connected_time":4885000000000,"state":"active","ping":88},{"user_id":425,"name":"Rukks","steam_id":76561197993918954,"connected_time":8272000000000,"state":"active","ping":89},{"user_id":522,"name":"Xrath","steam_id":76561198220741860,"connected_time":421000000000,"state":"active","ping":67},{"user_id":508,"name":"Man With the Magic Hat","steam_id":76561198100627758,"connected_time":1249000000000,"state":"active","ping":45},{"user_id":523,"name":"SneakyJayMLP","steam_id":76561198969565685,"connected_time":419000000000,"state":"active","ping":84},{"user_id":504,"name":"Jeiyo","steam_id":76561199070161957,"connected_time":1325000000000,"state":"active","ping":78},{"user_id":509,"name":"juha","steam_id":76561198133102865,"connected_time":1236000000000,"state":"active","ping":72},{"user_id":460,"name":"incredirocks","steam_id":76561198061079993,"connected_time":4824000000000,"state":"active","ping":50},{"user_id":510,"name":"RarestGuide","steam_id":76561198050338923,"connected_time":1233000000000,"state":"active","ping":71},{"user_id":511,"name":"♥ kiss me! ♥","steam_id":76561198014557455,"connected_time":1203000000000,"state":"active","ping":59},{"user_id":438,"name":"GamingGeneral","steam_id":76561198872339275,"connected_time":7137000000000,"state":"active","ping":66},{"user_id":517,"name":"Kid named download","steam_id":76561199192074448,"connected_time":963000000000,"state":"active","ping":91},{"user_id":477,"name":"malon milk","steam_id":76561198042558913,"connected_time":2845000000000,"state":"active","ping":83},{"user_id":525,"name":"the speeding pyro","steam_id":76561199039152146,"connected_time":105000000000,"state":"active","ping":67}]},{"server_id":402,"name":"Uncletopia | Chicago | 3 | All Maps","name_short":"chi-3","host":"chi-1.us.uncletopia.com","port":27035,"enabled":true,"region":"us-central","cc":"us","latitude":41.881832,"longitude":-87.62318,"reserved":0,"last_update":"0001-01-01T00:00:00Z","name_a2s":"Uncletopia | Chicago | 3 | All Maps","protocol":17,"map":"pl_barnblitz","folder":"tf","game":"Team Fortress","app_id":440,"player_count":24,"max_players":24,"Bots":0,"server_type":"Dedicated","server_os":"Linux","password":true,"vac":true,"version":"7932396","steam_id":85568392924515191,"keywords":["nocrits","nodmgspread","payload","uncletopia"],"game_id":440,"stv_port":27036,"stv_name":"Uncletopia | Chicago | 3 | All Maps | STV","players":[{"user_id":332,"name":"shmoney maker","steam_id":76561198241948526,"connected_time":150000000000,"state":"active","ping":63},{"user_id":289,"name":"OlympicChamp_12","steam_id":76561198830574526,"connected_time":2496000000000,"state":"active","ping":98},{"user_id":290,"name":"Waddlehi","steam_id":76561198072553840,"connected_time":2467000000000,"state":"active","ping":55},{"user_id":281,"name":"Jabawakai","steam_id":76561198088881254,"connected_time":2957000000000,"state":"active","ping":57},{"user_id":335,"name":"Tue","steam_id":76561198181668501,"connected_time":28000000000,"state":"active","ping":89},{"user_id":318,"name":"Tokey","steam_id":76561198825943127,"connected_time":880000000000,"state":"active","ping":90},{"user_id":319,"name":"Joseph Stalin","steam_id":76561198126234142,"connected_time":781000000000,"state":"active","ping":79},{"user_id":313,"name":"the pigeonkicker","steam_id":76561199078815637,"connected_time":1203000000000,"state":"active","ping":67},{"user_id":294,"name":"dr spwewps","steam_id":76561198144784420,"connected_time":2309000000000,"state":"active","ping":63},{"user_id":295,"name":"totoro","steam_id":76561198210420871,"connected_time":2297000000000,"state":"active","ping":44},{"user_id":333,"name":"LuckiFan69","steam_id":76561198449527009,"connected_time":76000000000,"state":"active","ping":92},{"user_id":296,"name":"Arsonist","steam_id":76561198277989140,"connected_time":2283000000000,"state":"active","ping":117},{"user_id":326,"name":"Spaghetti","steam_id":76561198019383013,"connected_time":419000000000,"state":"active","ping":73},{"user_id":297,"name":"MacchuPeachu","steam_id":76561199093242587,"connected_time":2172000000000,"state":"active","ping":75},{"user_id":330,"name":"Jfrvl Gvl","steam_id":76561199013465852,"connected_time":236000000000,"state":"active","ping":63},{"user_id":325,"name":"The Super Mario Bros. Movie","steam_id":76561198871692156,"connected_time":497000000000,"state":"active","ping":103},{"user_id":320,"name":"aint that just the way","steam_id":76561198301423746,"connected_time":762000000000,"state":"active","ping":57},{"user_id":334,"name":"Project_Counter","steam_id":76561198152786076,"connected_time":62000000000,"state":"active","ping":76},{"user_id":310,"name":"Farm3rJh0nson","steam_id":76561199166153873,"connected_time":1368000000000,"state":"active","ping":83},{"user_id":270,"name":"Pika","steam_id":76561198068063436,"connected_time":4026000000000,"state":"active","ping":56},{"user_id":322,"name":"Lieutenant Columbo","steam_id":76561198104357839,"connected_time":722000000000,"state":"active","ping":116},{"user_id":288,"name":"Voyager","steam_id":76561199128786637,"connected_time":2669000000000,"state":"active","ping":102},{"user_id":316,"name":"Spookskeppnook","steam_id":76561199216336545,"connected_time":1127000000000,"state":"active","ping":85},{"user_id":324,"name":"the boi","steam_id":76561198813451249,"connected_time":709000000000,"state":"active","ping":53}]},{"server_id":403,"name":"Uncletopia | Chicago | 4 | All Maps","name_short":"chi-4","host":"chi-1.us.uncletopia.com","port":27045,"enabled":true,"region":"us-central","cc":"us","latitude":41.881832,"longitude":-87.62318,"reserved":0,"last_update":"0001-01-01T00:00:00Z","name_a2s":"Uncletopia | Chicago | 4 | All Maps","protocol":17,"map":"koth_cascade","folder":"tf","game":"Team Fortress","app_id":440,"player_count":24,"max_players":24,"Bots":0,"server_type":"Dedicated","server_os":"Linux","password":true,"vac":true,"version":"7932396","steam_id":85568392924515193,"keywords":["cp","nocrits","nodmgspread","uncletopia"],"game_id":440,"stv_port":27046,"stv_name":"Uncletopia | Chicago | 4 | All Maps | STV","players":[{"user_id":540,"name":"naruto from naruto","steam_id":76561198069600113,"connected_time":45000000000,"state":"active","ping":48},{"user_id":538,"name":"Snake Handler","steam_id":76561198027198306,"connected_time":132000000000,"state":"active","ping":57},{"user_id":503,"name":"Cherry Bomb!","steam_id":76561198017947020,"connected_time":2698000000000,"state":"active","ping":60},{"user_id":530,"name":"Tri-Dot","steam_id":76561199075186597,"connected_time":625000000000,"state":"active","ping":64},{"user_id":541,"name":"Lindes","steam_id":76561198132472867,"connected_time":41000000000,"state":"active","ping":41},{"user_id":517,"name":"[Z80] Princess Kittycath","steam_id":76561198023770278,"connected_time":1165000000000,"state":"active","ping":64},{"user_id":522,"name":"DeadErebus","steam_id":76561198286117045,"connected_time":1095000000000,"state":"active","ping":30},{"user_id":478,"name":"A Can of AriZona Green Tea","steam_id":76561198062481133,"connected_time":5196000000000,"state":"active","ping":79},{"user_id":534,"name":"saber","steam_id":76561197980089457,"connected_time":347000000000,"state":"active","ping":62},{"user_id":514,"name":"Festive Conch Shell","steam_id":76561198042072993,"connected_time":1899000000000,"state":"active","ping":81},{"user_id":539,"name":"Kamin","steam_id":76561198255299559,"connected_time":123000000000,"state":"active","ping":93},{"user_id":518,"name":"Turtle Merchandiser","steam_id":76561198109160634,"connected_time":1160000000000,"state":"active","ping":66},{"user_id":535,"name":"El Bondin","steam_id":76561198820792434,"connected_time":202000000000,"state":"active","ping":99},{"user_id":537,"name":"Dawg","steam_id":76561198214090164,"connected_time":185000000000,"state":"active","ping":72},{"user_id":533,"name":"ShawnLmao","steam_id":76561198350691501,"connected_time":469000000000,"state":"active","ping":85},{"user_id":521,"name":"we're so back","steam_id":76561198058485742,"connected_time":1100000000000,"state":"active","ping":64},{"user_id":523,"name":"180p","steam_id":76561198342171751,"connected_time":1079000000000,"state":"active","ping":89},{"user_id":489,"name":"bluebird","steam_id":76561198065219155,"connected_time":3948000000000,"state":"active","ping":42},{"user_id":446,"name":"nori_420","steam_id":76561199117134203,"connected_time":7788000000000,"state":"active","ping":106},{"user_id":532,"name":"Bitter","steam_id":76561198146532457,"connected_time":567000000000,"state":"active","ping":93},{"user_id":500,"name":"Cliff Uppercut","steam_id":76561197999439391,"connected_time":3358000000000,"state":"active","ping":77},{"user_id":527,"name":"Mehman","steam_id":76561199020244051,"connected_time":937000000000,"state":"active","ping":85},{"user_id":501,"name":"Kasodani Kyouko","steam_id":76561198023178589,"connected_time":3329000000000,"state":"active","ping":88},{"user_id":524,"name":"The Domb Loid","steam_id":76561198295791203,"connected_time":1076000000000,"state":"active","ping":55}]},{"server_id":36,"name":"Uncletopia | Chicago | 5 | All Maps","name_short":"chi-5","host":"chi-2.us.uncletopia.com","port":27015,"enabled":true,"region":"us-central","cc":"us","latitude":41.881832,"longitude":-87.62318,"reserved":0,"last_update":"0001-01-01T00:00:00Z","name_a2s":"Uncletopia | Chicago | 5 | All Maps","protocol":17,"map":"cp_dustbowl","folder":"tf","game":"Team Fortress","app_id":440,"player_count":22,"max_players":24,"Bots":0,"server_type":"Dedicated","server_os":"Linux","password":true,"vac":true,"version":"7932396","steam_id":85568392924866362,"keywords":["cp","nocrits","nodmgspread","uncletopia"],"game_id":440,"stv_port":27016,"stv_name":"Uncletopia | Chicago | 5 | All Maps | STV","players":[{"user_id":188,"name":"RedSock","steam_id":76561198161243404,"connected_time":3165000000000,"state":"active","ping":40},{"user_id":189,"name":"10KO!","steam_id":76561199134895220,"connected_time":3164000000000,"state":"active","ping":75},{"user_id":222,"name":"Bum","steam_id":76561198108372769,"connected_time":757000000000,"state":"active","ping":85},{"user_id":230,"name":"Maron Tickles","steam_id":76561199125982967,"connected_time":18000000000,"state":"active","ping":65},{"user_id":227,"name":"TheSecretNewbie","steam_id":76561198194671218,"connected_time":219000000000,"state":"active","ping":54},{"user_id":219,"name":"Skull emoji","steam_id":76561199387783793,"connected_time":929000000000,"state":"active","ping":101},{"user_id":223,"name":"ATL","steam_id":76561198431196926,"connected_time":704000000000,"state":"active","ping":84},{"user_id":231,"name":"Sneetch [sRb]","steam_id":76561197996693506,"connected_time":4000000000,"state":"spawning","ping":65},{"user_id":137,"name":"Voids","steam_id":76561198128386726,"connected_time":7624000000000,"state":"active","ping":82},{"user_id":228,"name":"chilis baby back ribs","steam_id":76561198813516435,"connected_time":209000000000,"state":"active","ping":93},{"user_id":197,"name":"ThatGamingKiwi","steam_id":76561199170522237,"connected_time":2760000000000,"state":"active","ping":80},{"user_id":136,"name":"J The Jounin","steam_id":76561198034583622,"connected_time":7707000000000,"state":"active","ping":77},{"user_id":226,"name":"The Power","steam_id":76561198060566884,"connected_time":351000000000,"state":"active","ping":147},{"user_id":224,"name":"Mr. Soupman","steam_id":76561198021649598,"connected_time":686000000000,"state":"active","ping":59},{"user_id":179,"name":"Clear Sky Soldier","steam_id":76561199234350287,"connected_time":4146000000000,"state":"active","ping":55},{"user_id":225,"name":"Jeff the 19th","steam_id":76561198189315491,"connected_time":672000000000,"state":"active","ping":70},{"user_id":125,"name":"Illusionism","steam_id":76561198167878499,"connected_time":8018000000000,"state":"active","ping":83},{"user_id":218,"name":"Lesbian Gamin Avery.","steam_id":76561199035402139,"connected_time":992000000000,"state":"active","ping":86},{"user_id":220,"name":"GibbusGod","steam_id":76561199232436690,"connected_time":899000000000,"state":"active","ping":84},{"user_id":208,"name":"coolplums","steam_id":76561198072154720,"connected_time":1641000000000,"state":"active","ping":54},{"user_id":205,"name":"Riboflavin","steam_id":76561198077328593,"connected_time":1941000000000,"state":"active","ping":85},{"user_id":175,"name":"ChozoChorizo","steam_id":76561198272609196,"connected_time":4317000000000,"state":"active","ping":69}]},{"server_id":37,"name":"Uncletopia | Chicago | 6 | All Maps","name_short":"chi-6","host":"chi-2.us.uncletopia.com","port":27025,"enabled":true,"region":"us-central","cc":"us","latitude":41.881832,"longitude":-87.62318,"reserved":0,"last_update":"0001-01-01T00:00:00Z","name_a2s":"Uncletopia | Chicago | 6 | All Maps","protocol":17,"map":"pl_badwater","folder":"tf","game":"Team Fortress","app_id":440,"player_count":21,"max_players":24,"Bots":0,"server_type":"Dedicated","server_os":"Linux","password":true,"vac":true,"version":"7932396","steam_id":85568392924866363,"keywords":["nocrits","nodmgspread","payload","uncletopia"],"game_id":440,"stv_port":27026,"stv_name":"Uncletopia | Chicago | 6 | All Maps | STV","players":[{"user_id":179,"name":"Schmingus","steam_id":76561199476148332,"connected_time":2198000000000,"state":"spawning","ping":124},{"user_id":216,"name":"CJspellsfish","steam_id":76561198277342368,"connected_time":27000000000,"state":"spawning","ping":240},{"user_id":217,"name":"OmniMoto","steam_id":76561198091298557,"connected_time":11000000000,"state":"spawning","ping":353},{"user_id":195,"name":"Athelas","steam_id":76561198066842406,"connected_time":836000000000,"state":"spawning","ping":80},{"user_id":192,"name":"Peri","steam_id":76561198255311543,"connected_time":1185000000000,"state":"spawning","ping":131},{"user_id":149,"name":"EvilsConscience","steam_id":76561198073451760,"connected_time":4604000000000,"state":"spawning","ping":71},{"user_id":193,"name":"baby got GAK","steam_id":76561198120569764,"connected_time":1013000000000,"state":"spawning","ping":103},{"user_id":211,"name":"Kindagoodplayer","steam_id":76561198814625843,"connected_time":311000000000,"state":"spawning","ping":74},{"user_id":213,"name":"Vega","steam_id":76561198057374871,"connected_time":190000000000,"state":"spawning","ping":95},{"user_id":162,"name":"leonardo doujinshi","steam_id":76561198025810326,"connected_time":3671000000000,"state":"spawning","ping":133},{"user_id":170,"name":"K. O. E.","steam_id":76561198025188490,"connected_time":2752000000000,"state":"connecting","ping":87},{"user_id":185,"name":"Elias","steam_id":76561198106431732,"connected_time":1451000000000,"state":"spawning","ping":98},{"user_id":203,"name":"twix","steam_id":76561198040912048,"connected_time":670000000000,"state":"spawning","ping":73},{"user_id":163,"name":"Mega","steam_id":76561198067217593,"connected_time":3658000000000,"state":"spawning","ping":70},{"user_id":206,"name":"skipper","steam_id":76561198395965181,"connected_time":626000000000,"state":"spawning","ping":105},{"user_id":157,"name":"|WS| Don't_Taze_Me_Bro","steam_id":76561198043289495,"connected_time":4181000000000,"state":"spawning","ping":147},{"user_id":212,"name":"Jbomb","steam_id":76561199197866625,"connected_time":305000000000,"state":"spawning","ping":103},{"user_id":188,"name":"Blazing Hyena","steam_id":76561199121852680,"connected_time":1406000000000,"state":"spawning","ping":119},{"user_id":215,"name":"*","steam_id":76561198173047169,"connected_time":85000000000,"state":"spawning","ping":75},{"user_id":172,"name":"brolio","steam_id":76561199189416201,"connected_time":2717000000000,"state":"spawning","ping":91},{"user_id":209,"name":"ButterMaker3","steam_id":76561198098577013,"connected_time":556000000000,"state":"spawning","ping":102}]},{"server_id":38,"name":"Uncletopia | Chicago | 7 | Stopwatch Beta","name_short":"chi-7","host":"chi-2.us.uncletopia.com","port":27035,"enabled":true,"region":"us-central","cc":"us","latitude":41.881832,"longitude":-87.62318,"reserved":0,"last_update":"0001-01-01T00:00:00Z","name_a2s":"Uncletopia | Chicago | 7 | Stopwatch Beta","protocol":17,"map":"workshop/pl_barnblitz_pro7.ugc582280235","folder":"tf","game":"Team Fortress","app_id":440,"player_count":0,"max_players":24,"Bots":0,"server_type":"Dedicated","server_os":"Linux","password":true,"vac":true,"version":"7932396","steam_id":85568392924866364,"keywords":["nocrits","nodmgspread","payload","uncletopia"],"game_id":440,"stv_port":27036,"stv_name":"Uncletopia | Chicago | 7 | Stopwatch Beta | STV","players":null},{"server_id":39,"name":"Uncletopia | Chicago | 8 | Community","name_short":"chi-8","host":"chi-2.us.uncletopia.com","port":27045,"enabled":true,"region":"us-central","cc":"us","latitude":41.881832,"longitude":-87.62318,"reserved":0,"last_update":"0001-01-01T00:00:00Z","name_a2s":"Uncletopia | Chicago | 8 | Community","protocol":17,"map":"workshop/pl_barnblitz_pro7.ugc582280235","folder":"tf","game":"Team Fortress","app_id":440,"player_count":6,"max_players":24,"Bots":0,"server_type":"Dedicated","server_os":"Linux","password":true,"vac":true,"version":"7932396","steam_id":85568392924866365,"keywords":["nocrits","nodmgspread","payload","uncletopia"],"game_id":440,"stv_port":27046,"stv_name":"Uncletopia | Chicago | 8 | Community | STV","players":[{"user_id":110,"name":"Kamikaze Soldier#SaveTF2","steam_id":76561198860370749,"connected_time":34000000000,"state":"spawning","ping":433},{"user_id":96,"name":"Skiddy","steam_id":76561198125942665,"connected_time":2038000000000,"state":"active","ping":73},{"user_id":108,"name":"Cynicalrage #TF2center","steam_id":76561198085805532,"connected_time":192000000000,"state":"active","ping":32},{"user_id":99,"name":"Captain Coochie","steam_id":76561198441729702,"connected_time":1651000000000,"state":"active","ping":79},{"user_id":100,"name":"TEXAN DREAM","steam_id":76561198119067958,"connected_time":1643000000000,"state":"active","ping":86},{"user_id":47,"name":"WalrusIncarnate","steam_id":76561198059867060,"connected_time":5463000000000,"state":"active","ping":109}]},{"server_id":8,"name":"Uncletopia | Dallas | 1 | All Maps","name_short":"dal-1","host":"dal-1.us.uncletopia.com","port":27015,"enabled":true,"region":"us-central","cc":"us","latitude":32.779167,"longitude":-96.80889,"reserved":0,"last_update":"0001-01-01T00:00:00Z","name_a2s":"Uncletopia | Dallas | 1 | All Maps","protocol":17,"map":"koth_lakeside_final","folder":"tf","game":"Team Fortress","app_id":440,"player_count":24,"max_players":24,"Bots":0,"server_type":"Dedicated","server_os":"Linux","password":true,"vac":true,"version":"7932396","steam_id":85568392924469986,"keywords":["cp","nocrits","nodmgspread","uncletopia"],"game_id":440,"stv_port":27016,"stv_name":"Uncletopia | Dallas | 1 | All Maps | STV","players":[{"user_id":429,"name":"Grand Piano Tuna","steam_id":76561198135137213,"connected_time":752000000000,"state":"active","ping":45},{"user_id":397,"name":"Jatt","steam_id":76561198822011219,"connected_time":2003000000000,"state":"active","ping":90},{"user_id":406,"name":"Nyplestheclown","steam_id":76561198028600291,"connected_time":1251000000000,"state":"active","ping":51},{"user_id":433,"name":"BigBubble42","steam_id":76561198136286123,"connected_time":497000000000,"state":"active","ping":29},{"user_id":423,"name":"Doomagedden","steam_id":76561198272589475,"connected_time":829000000000,"state":"active","ping":52},{"user_id":416,"name":"Huey","steam_id":76561198972816386,"connected_time":1071000000000,"state":"active","ping":75},{"user_id":410,"name":"Engideer","steam_id":76561198145733164,"connected_time":1174000000000,"state":"active","ping":45},{"user_id":415,"name":"Imrgrim","steam_id":76561198135866481,"connected_time":1096000000000,"state":"active","ping":66},{"user_id":439,"name":"Fostrel","steam_id":76561198152160601,"connected_time":85000000000,"state":"active","ping":82},{"user_id":422,"name":"Lee-Ch","steam_id":76561198164980622,"connected_time":846000000000,"state":"active","ping":76},{"user_id":424,"name":"[BALLS] r30848","steam_id":76561199123984543,"connected_time":799000000000,"state":"active","ping":54},{"user_id":435,"name":"MayKaye","steam_id":76561199016092265,"connected_time":470000000000,"state":"active","ping":74},{"user_id":441,"name":"DiscoChickenNugget","steam_id":76561198114461685,"connected_time":71000000000,"state":"active","ping":108},{"user_id":337,"name":"TheGFG","steam_id":76561198166150556,"connected_time":6196000000000,"state":"active","ping":70},{"user_id":430,"name":"Faerun_F","steam_id":76561198443906094,"connected_time":732000000000,"state":"active","ping":67},{"user_id":417,"name":"MALWARE9000","steam_id":76561198065238093,"connected_time":1070000000000,"state":"active","ping":61},{"user_id":408,"name":"hill of the king","steam_id":76561198099491925,"connected_time":1212000000000,"state":"active","ping":74},{"user_id":438,"name":"Contender","steam_id":76561198074607715,"connected_time":198000000000,"state":"active","ping":79},{"user_id":338,"name":"MyTeamIsAzz","steam_id":76561198241921220,"connected_time":6195000000000,"state":"active","ping":99},{"user_id":444,"name":"Sophi","steam_id":76561198958125792,"connected_time":6000000000,"state":"spawning","ping":193},{"user_id":427,"name":"catfish from toontown","steam_id":76561198060070002,"connected_time":774000000000,"state":"active","ping":59},{"user_id":428,"name":"gnome zone","steam_id":76561198883349445,"connected_time":773000000000,"state":"active","ping":91},{"user_id":431,"name":"Foxeii","steam_id":76561199119178422,"connected_time":597000000000,"state":"active","ping":114},{"user_id":442,"name":"Nothing","steam_id":76561198094903045,"connected_time":67000000000,"state":"active","ping":42}]},{"server_id":108,"name":"Uncletopia | Dallas | 2 | All Maps","name_short":"dal-2","host":"dal-1.us.uncletopia.com","port":27025,"enabled":true,"region":"us-central","cc":"us","latitude":32.779167,"longitude":-96.80889,"reserved":0,"last_update":"0001-01-01T00:00:00Z","name_a2s":"Uncletopia | Dallas | 2 | All Maps","protocol":17,"map":"pl_badwater","folder":"tf","game":"Team Fortress","app_id":440,"player_count":24,"max_players":24,"Bots":0,"server_type":"Dedicated","server_os":"Linux","password":true,"vac":true,"version":"7932396","steam_id":85568392924469988,"keywords":["nocrits","nodmgspread","payload","uncletopia"],"game_id":440,"stv_port":27026,"stv_name":"Uncletopia | Dallas | 2 | All Maps | STV","players":[{"user_id":380,"name":"IanFishooks","steam_id":76561199403427527,"connected_time":2994000000000,"state":"active","ping":85},{"user_id":403,"name":"CockDick69","steam_id":76561198051882744,"connected_time":1555000000000,"state":"active","ping":121},{"user_id":404,"name":"Ayylmao","steam_id":76561198104780147,"connected_time":1553000000000,"state":"active","ping":62},{"user_id":410,"name":"Dark Lord","steam_id":76561198044199150,"connected_time":1281000000000,"state":"active","ping":97},{"user_id":349,"name":"Guess I'm just popo","steam_id":76561197966419253,"connected_time":5067000000000,"state":"active","ping":86},{"user_id":409,"name":"TweetTweet17","steam_id":76561198994956859,"connected_time":1399000000000,"state":"active","ping":104},{"user_id":393,"name":"♦♣Quadric♥♠","steam_id":76561198061003853,"connected_time":2835000000000,"state":"active","ping":93},{"user_id":402,"name":"webaline","steam_id":76561199052450127,"connected_time":1607000000000,"state":"active","ping":76},{"user_id":381,"name":"SizableChap","steam_id":76561199148162904,"connected_time":2989000000000,"state":"active","ping":69},{"user_id":421,"name":"MuffinConsumer","steam_id":76561199472498725,"connected_time":81000000000,"state":"active","ping":90},{"user_id":401,"name":"pookie","steam_id":76561199024464321,"connected_time":1826000000000,"state":"active","ping":98},{"user_id":419,"name":"SPIRE_FAN","steam_id":76561198001486573,"connected_time":145000000000,"state":"active","ping":107},{"user_id":273,"name":"Smug","steam_id":76561198448205229,"connected_time":10414000000000,"state":"active","ping":76},{"user_id":270,"name":"cypherzero","steam_id":76561199182960322,"connected_time":10500000000000,"state":"active","ping":52},{"user_id":387,"name":"LittleFieryOne","steam_id":76561198107463724,"connected_time":2941000000000,"state":"active","ping":82},{"user_id":413,"name":"Sagertooth","steam_id":76561198060863894,"connected_time":917000000000,"state":"active","ping":45},{"user_id":415,"name":"FishGod","steam_id":76561198056156434,"connected_time":727000000000,"state":"active","ping":41},{"user_id":417,"name":"Dagoth Ur","steam_id":76561199007079402,"connected_time":467000000000,"state":"active","ping":85},{"user_id":388,"name":"Bᵢg Bₒₛₛ","steam_id":76561198090271815,"connected_time":2936000000000,"state":"active","ping":127},{"user_id":399,"name":"bladees saddest, realest verse","steam_id":76561198098099826,"connected_time":1947000000000,"state":"active","ping":69},{"user_id":353,"name":"King Cotton","steam_id":76561198292444376,"connected_time":5040000000000,"state":"active","ping":69},{"user_id":416,"name":"Kidjays","steam_id":76561198124941901,"connected_time":707000000000,"state":"active","ping":92},{"user_id":361,"name":"KeithStone","steam_id":76561197986083582,"connected_time":4720000000000,"state":"active","ping":76},{"user_id":378,"name":"younggflylyfe","steam_id":76561199477357832,"connected_time":3061000000000,"state":"active","ping":39}]},{"server_id":5,"name":"Uncletopia | Frankfurt | 1 | All Maps","name_short":"frk-1","host":"frk-1.de.uncletopia.com","port":27015,"enabled":true,"region":"eu","cc":"de","latitude":50.110924,"longitude":8.682127,"reserved":0,"last_update":"0001-01-01T00:00:00Z","name_a2s":"Uncletopia | Frankfurt | 1 | All Maps","protocol":17,"map":"koth_highpass","folder":"tf","game":"Team Fortress","app_id":440,"player_count":0,"max_players":24,"Bots":0,"server_type":"Dedicated","server_os":"Linux","password":true,"vac":true,"version":"7932396","steam_id":85568392924469989,"keywords":["cp","nocrits","nodmgspread","uncletopia"],"game_id":440,"stv_port":27016,"stv_name":"Uncletopia | Frankfurt | 1 | All Maps | STV","players":null},{"server_id":110,"name":"Uncletopia | Frankfurt | 2 | All Maps","name_short":"frk-2","host":"frk-1.de.uncletopia.com","port":27025,"enabled":true,"region":"eu","cc":"de","latitude":50.110924,"longitude":8.682127,"reserved":0,"last_update":"0001-01-01T00:00:00Z","name_a2s":"Uncletopia | Frankfurt | 2 | All Maps","protocol":17,"map":"plr_hightower","folder":"tf","game":"Team Fortress","app_id":440,"player_count":0,"max_players":24,"Bots":0,"server_type":"Dedicated","server_os":"Linux","password":true,"vac":true,"version":"7932396","steam_id":85568392924469990,"keywords":["nocrits","nodmgspread","payload","uncletopia"],"game_id":440,"stv_port":27026,"stv_name":"Uncletopia | Frankfurt | 2 | All Maps | STV","players":null},{"server_id":308,"name":"Uncletopia | Frankfurt | 3 | All Maps","name_short":"frk-3","host":"frk-1.de.uncletopia.com","port":27035,"enabled":true,"region":"eu","cc":"de","latitude":50.110924,"longitude":8.682127,"reserved":0,"last_update":"0001-01-01T00:00:00Z","name_a2s":"Uncletopia | Frankfurt | 3 | All Maps","protocol":17,"map":"ctf_2fort","folder":"tf","game":"Team Fortress","app_id":440,"player_count":0,"max_players":24,"Bots":0,"server_type":"Dedicated","server_os":"Linux","password":true,"vac":true,"version":"7932396","steam_id":85568392924504274,"keywords":["ctf","nocrits","nodmgspread","uncletopia"],"game_id":440,"stv_port":27036,"stv_name":"Uncletopia | Frankfurt | 3 | All Maps | STV","players":null},{"server_id":309,"name":"Uncletopia | Frankfurt | 4 | All Maps","name_short":"frk-4","host":"frk-1.de.uncletopia.com","port":27045,"enabled":true,"region":"eu","cc":"de","latitude":50.110924,"longitude":8.682127,"reserved":0,"last_update":"0001-01-01T00:00:00Z","name_a2s":"Uncletopia | Frankfurt | 4 | All Maps","protocol":17,"map":"pl_snowycoast","folder":"tf","game":"Team Fortress","app_id":440,"player_count":5,"max_players":24,"Bots":0,"server_type":"Dedicated","server_os":"Linux","password":true,"vac":true,"version":"7932396","steam_id":85568392924504275,"keywords":["nocrits","nodmgspread","payload","uncletopia"],"game_id":440,"stv_port":27046,"stv_name":"Uncletopia | Frankfurt | 4 | All Maps | STV","players":[{"user_id":541,"name":"Tabris","steam_id":76561198339682113,"connected_time":81000000000,"state":"active","ping":74},{"user_id":536,"name":"Ostara","steam_id":76561198200054489,"connected_time":839000000000,"state":"active","ping":57},{"user_id":520,"name":"ya boi","steam_id":76561198320746074,"connected_time":1387000000000,"state":"active","ping":50},{"user_id":508,"name":"Snowmotion","steam_id":76561198075022454,"connected_time":2900000000000,"state":"active","ping":55},{"user_id":521,"name":"Kelpy G gaming","steam_id":76561198056995633,"connected_time":1386000000000,"state":"active","ping":81}]},{"server_id":310,"name":"Uncletopia | Frankfurt | 5 | All Maps","name_short":"frk-5","host":"frk-1.de.uncletopia.com","port":27055,"enabled":true,"region":"eu","cc":"de","latitude":50.110924,"longitude":8.682127,"reserved":0,"last_update":"0001-01-01T00:00:00Z","name_a2s":"Uncletopia | Frankfurt | 5 | All Maps","protocol":17,"map":"cp_dustbowl","folder":"tf","game":"Team Fortress","app_id":440,"player_count":13,"max_players":24,"Bots":0,"server_type":"Dedicated","server_os":"Linux","password":true,"vac":true,"version":"7932396","steam_id":85568392924504277,"keywords":["cp","nocrits","nodmgspread","uncletopia"],"game_id":440,"stv_port":27056,"stv_name":"Uncletopia | Frankfurt | 5 | All Maps | STV","players":[{"user_id":720,"name":"Młody dzi","steam_id":76561199145943588,"connected_time":124000000000,"state":"active","ping":60},{"user_id":716,"name":"ev1lboyo","steam_id":76561199199499453,"connected_time":219000000000,"state":"active","ping":80},{"user_id":704,"name":"lisivi","steam_id":76561198365503306,"connected_time":650000000000,"state":"active","ping":55},{"user_id":708,"name":"TaKina","steam_id":76561198062977164,"connected_time":455000000000,"state":"active","ping":60},{"user_id":709,"name":"LordWoodpecker","steam_id":76561198031647387,"connected_time":423000000000,"state":"active","ping":57},{"user_id":707,"name":"manic","steam_id":76561198144588096,"connected_time":496000000000,"state":"active","ping":76},{"user_id":710,"name":"Discount","steam_id":76561198022287078,"connected_time":420000000000,"state":"active","ping":55},{"user_id":714,"name":"Pogmanson","steam_id":76561198919953445,"connected_time":357000000000,"state":"active","ping":41},{"user_id":718,"name":"Genesis","steam_id":76561198999652040,"connected_time":158000000000,"state":"active","ping":41},{"user_id":721,"name":"StingyLettuce","steam_id":76561199010337406,"connected_time":90000000000,"state":"active","ping":105},{"user_id":717,"name":"Mr. Master","steam_id":76561199198569317,"connected_time":196000000000,"state":"active","ping":62},{"user_id":722,"name":"big poo","steam_id":76561198129157178,"connected_time":8000000000,"state":"spawning","ping":94},{"user_id":651,"name":"Wriggles","steam_id":76561198863416998,"connected_time":4092000000000,"state":"active","ping":94}]},{"server_id":311,"name":"Uncletopia | Frankfurt | 6 | All Maps","name_short":"frk-6","host":"frk-1.de.uncletopia.com","port":27065,"enabled":true,"region":"eu","cc":"de","latitude":50.110924,"longitude":8.682127,"reserved":0,"last_update":"0001-01-01T00:00:00Z","name_a2s":"Uncletopia | Frankfurt | 6 | All Maps","protocol":17,"map":"koth_highpass","folder":"tf","game":"Team Fortress","app_id":440,"player_count":1,"max_players":24,"Bots":0,"server_type":"Dedicated","server_os":"Linux","password":true,"vac":true,"version":"7932396","steam_id":85568392924504278,"keywords":["cp","nocrits","nodmgspread","uncletopia"],"game_id":440,"stv_port":27066,"stv_name":"Uncletopia | Frankfurt | 6 | All Maps | STV","players":[{"user_id":120,"name":"Ink in veins","steam_id":76561199082262091,"connected_time":0,"state":"spawning","ping":14}]},{"server_id":23,"name":"Uncletopia | Frankfurt | 7 | Stopwatch Beta","name_short":"frk-7","host":"frk-1.de.uncletopia.com","port":27075,"enabled":true,"region":"eu","cc":"de","latitude":50.110924,"longitude":8.682127,"reserved":0,"last_update":"0001-01-01T00:00:00Z","name_a2s":"Uncletopia | Frankfurt | 7 | Stopwatch Beta","protocol":17,"map":"cp_gullywash_final1","folder":"tf","game":"Team Fortress","app_id":440,"player_count":5,"max_players":24,"Bots":0,"server_type":"Dedicated","server_os":"Linux","password":true,"vac":true,"version":"7932396","steam_id":85568392924742827,"keywords":["cp","nocrits","nodmgspread","uncletopia"],"game_id":440,"stv_port":27076,"stv_name":"Uncletopia | Frankfurt | 7 | Stopwatch Beta | STV","players":[{"user_id":17,"name":"Xenowolfraptor","steam_id":76561199085273567,"connected_time":1551000000000,"state":"active","ping":85},{"user_id":18,"name":"wörb","steam_id":76561198159517104,"connected_time":1547000000000,"state":"active","ping":68},{"user_id":19,"name":"Quewosha","steam_id":76561198967144540,"connected_time":1350000000000,"state":"active","ping":68},{"user_id":20,"name":"Alex rotačakovy","steam_id":76561198271781695,"connected_time":796000000000,"state":"active","ping":77},{"user_id":22,"name":"YOU ARE SHITTING YOUR SELF","steam_id":76561198371719058,"connected_time":34000000000,"state":"active","ping":237}]},{"server_id":24,"name":"Uncletopia | Frankfurt | 8 | Community","name_short":"frk-8","host":"frk-1.de.uncletopia.com","port":27085,"enabled":true,"region":"eu","cc":"de","latitude":50.110924,"longitude":8.682127,"reserved":0,"last_update":"0001-01-01T00:00:00Z","name_a2s":"Uncletopia | Frankfurt | 8 | Community","protocol":17,"map":"workshop/koth_ramjam_rc1.ugc459778887","folder":"tf","game":"Team Fortress","app_id":440,"player_count":0,"max_players":24,"Bots":0,"server_type":"Dedicated","server_os":"Linux","password":true,"vac":true,"version":"7932396","steam_id":85568392924742828,"keywords":["cp","nocrits","nodmgspread","uncletopia"],"game_id":440,"stv_port":27086,"stv_name":"Uncletopia | Frankfurt | 8 | Community | STV","players":null},{"server_id":202,"name":"Uncletopia | Hong Kong | 1 | All Maps","name_short":"hgk-1","host":"hgk-1.hk.uncletopia.com","port":27015,"enabled":true,"region":"asia","cc":"hk","latitude":22.302711,"longitude":114.177216,"reserved":0,"last_update":"0001-01-01T00:00:00Z","name_a2s":"Uncletopia | Hong Kong | 1 | All Maps","protocol":17,"map":"pl_swiftwater_final1","folder":"tf","game":"Team Fortress","app_id":440,"player_count":0,"max_players":24,"Bots":0,"server_type":"Dedicated","server_os":"Linux","password":true,"vac":true,"version":"7932396","steam_id":85568392924494504,"keywords":["nocrits","nodmgspread","payload","uncletopia"],"game_id":440,"stv_port":27016,"stv_name":"Uncletopia | Hong Kong | 1 | All Maps | STV","players":null},{"server_id":1,"name":"Uncletopia | Los Angeles | 1 | All Maps","name_short":"lax-1","host":"lax-1.us.uncletopia.com","port":27015,"enabled":true,"region":"us-west","cc":"us","latitude":33.94279,"longitude":-118.41004,"reserved":0,"last_update":"0001-01-01T00:00:00Z","name_a2s":"Uncletopia | Los Angeles | 1 | All Maps","protocol":17,"map":"cp_powerhouse","folder":"tf","game":"Team Fortress","app_id":440,"player_count":24,"max_players":24,"Bots":0,"server_type":"Dedicated","server_os":"Linux","password":true,"vac":true,"version":"7932396","steam_id":85568392924469991,"keywords":["cp","nocrits","nodmgspread","uncletopia"],"game_id":440,"stv_port":27016,"stv_name":"Uncletopia | Los Angeles | 1 | All Maps | STV","players":[{"user_id":326,"name":"selvhat","steam_id":76561198114225509,"connected_time":1276000000000,"state":"active","ping":45},{"user_id":324,"name":"tsbro40","steam_id":76561199455605580,"connected_time":1361000000000,"state":"active","ping":127},{"user_id":320,"name":"doughboy","steam_id":76561198219012928,"connected_time":1798000000000,"state":"active","ping":47},{"user_id":302,"name":"Lickybunghol","steam_id":76561198052696183,"connected_time":2770000000000,"state":"active","ping":45},{"user_id":307,"name":"no vc no c","steam_id":76561197989503095,"connected_time":2604000000000,"state":"active","ping":164},{"user_id":333,"name":"dweaver","steam_id":76561198119610135,"connected_time":1114000000000,"state":"active","ping":60},{"user_id":303,"name":"Asteri","steam_id":76561198044393092,"connected_time":2723000000000,"state":"active","ping":120},{"user_id":327,"name":"Rock Kickass","steam_id":76561198450510841,"connected_time":1239000000000,"state":"active","ping":86},{"user_id":304,"name":"The Rivet Smasher","steam_id":76561198083502963,"connected_time":2703000000000,"state":"active","ping":161},{"user_id":282,"name":"Sax","steam_id":76561198055425123,"connected_time":4039000000000,"state":"active","ping":95},{"user_id":336,"name":"remble","steam_id":76561198150137369,"connected_time":806000000000,"state":"active","ping":55},{"user_id":334,"name":"xypage","steam_id":76561198050587775,"connected_time":1033000000000,"state":"active","ping":56},{"user_id":329,"name":"Adachi 安達と","steam_id":76561199077494551,"connected_time":1222000000000,"state":"active","ping":46},{"user_id":335,"name":"spherewithahat","steam_id":76561199122192660,"connected_time":828000000000,"state":"active","ping":122},{"user_id":292,"name":"Unknowname","steam_id":76561198132253342,"connected_time":3577000000000,"state":"active","ping":58},{"user_id":277,"name":"minimalpair","steam_id":76561198071788709,"connected_time":4233000000000,"state":"active","ping":91},{"user_id":337,"name":"Nez","steam_id":76561197963109059,"connected_time":419000000000,"state":"active","ping":62},{"user_id":338,"name":"IMM0RTAL","steam_id":76561198013747901,"connected_time":329000000000,"state":"active","ping":101},{"user_id":298,"name":"sora","steam_id":76561198094256973,"connected_time":3234000000000,"state":"active","ping":58},{"user_id":313,"name":"pissacrash","steam_id":76561198110723576,"connected_time":2289000000000,"state":"active","ping":33},{"user_id":330,"name":"danielarmvt","steam_id":76561198799723201,"connected_time":1217000000000,"state":"active","ping":103},{"user_id":318,"name":"MouxeWare","steam_id":76561199339512223,"connected_time":2099000000000,"state":"active","ping":91},{"user_id":331,"name":"Pugman1","steam_id":76561198371710729,"connected_time":1213000000000,"state":"active","ping":59},{"user_id":164,"name":"HAT-WEARING™ Maggot Gamer Cat","steam_id":76561197973992705,"connected_time":12948000000000,"state":"active","ping":70}]},{"server_id":112,"name":"Uncletopia | Los Angeles | 2 | All Maps","name_short":"lax-2","host":"lax-1.us.uncletopia.com","port":27025,"enabled":true,"region":"us-west","cc":"us","latitude":33.94279,"longitude":-118.41004,"reserved":0,"last_update":"0001-01-01T00:00:00Z","name_a2s":"Uncletopia | Los Angeles | 2 | All Maps","protocol":17,"map":"pl_frontier_final","folder":"tf","game":"Team Fortress","app_id":440,"player_count":24,"max_players":24,"Bots":0,"server_type":"Dedicated","server_os":"Linux","password":true,"vac":true,"version":"7932396","steam_id":85568392924469992,"keywords":["nocrits","nodmgspread","payload","uncletopia"],"game_id":440,"stv_port":27026,"stv_name":"Uncletopia | Los Angeles | 2 | All Maps | STV","players":[{"user_id":145,"name":"Potatoderr","steam_id":76561198287639211,"connected_time":1223000000000,"state":"active","ping":94},{"user_id":150,"name":"goopgrabber","steam_id":76561199029951083,"connected_time":1051000000000,"state":"active","ping":58},{"user_id":158,"name":"Vito","steam_id":76561198060846419,"connected_time":867000000000,"state":"active","ping":84},{"user_id":144,"name":"hoOmIN","steam_id":76561198334947079,"connected_time":1291000000000,"state":"active","ping":41},{"user_id":162,"name":"oil","steam_id":76561198099980149,"connected_time":524000000000,"state":"active","ping":45},{"user_id":163,"name":"CPTforever","steam_id":76561198237767198,"connected_time":428000000000,"state":"active","ping":45},{"user_id":167,"name":"meisNate","steam_id":76561198215261695,"connected_time":263000000000,"state":"active","ping":67},{"user_id":149,"name":"beans","steam_id":76561199082781884,"connected_time":1101000000000,"state":"active","ping":97},{"user_id":151,"name":"garbo","steam_id":76561198149280150,"connected_time":1040000000000,"state":"active","ping":51},{"user_id":152,"name":"silly jester","steam_id":76561198079609974,"connected_time":1017000000000,"state":"active","ping":54},{"user_id":159,"name":"DarkMewMew","steam_id":76561199471715552,"connected_time":831000000000,"state":"active","ping":96},{"user_id":155,"name":"ceres","steam_id":76561198291976960,"connected_time":944000000000,"state":"active","ping":90},{"user_id":131,"name":"autumnal.messenger","steam_id":76561199345816635,"connected_time":2175000000000,"state":"active","ping":83},{"user_id":112,"name":"flame","steam_id":76561198079321914,"connected_time":3169000000000,"state":"active","ping":72},{"user_id":87,"name":"havarti gaming","steam_id":76561198069895678,"connected_time":5013000000000,"state":"active","ping":93},{"user_id":81,"name":"HTML","steam_id":76561198099061153,"connected_time":5303000000000,"state":"active","ping":41},{"user_id":135,"name":"Krabs","steam_id":76561198126190606,"connected_time":2021000000000,"state":"active","ping":91},{"user_id":136,"name":"Dav","steam_id":76561198116862395,"connected_time":2002000000000,"state":"active","ping":84},{"user_id":164,"name":"VELOURIA","steam_id":76561198116550170,"connected_time":409000000000,"state":"active","ping":60},{"user_id":137,"name":"Adalbern","steam_id":76561197991785034,"connected_time":1978000000000,"state":"active","ping":77},{"user_id":160,"name":"Cleverless Biped","steam_id":76561198045984856,"connected_time":700000000000,"state":"active","ping":64},{"user_id":165,"name":"IronStriker","steam_id":76561199059487122,"connected_time":390000000000,"state":"active","ping":47},{"user_id":157,"name":"♥","steam_id":76561198824691581,"connected_time":882000000000,"state":"active","ping":121},{"user_id":166,"name":"MeAmJosh","steam_id":76561198064983436,"connected_time":388000000000,"state":"active","ping":88}]},{"server_id":324,"name":"Uncletopia | Los Angeles | 3 | All Maps","name_short":"lax-3","host":"lax-1.us.uncletopia.com","port":27035,"enabled":true,"region":"us-west","cc":"us","latitude":33.94279,"longitude":-118.41004,"reserved":0,"last_update":"0001-01-01T00:00:00Z","name_a2s":"Uncletopia | Los Angeles | 3 | All Maps","protocol":17,"map":"koth_brazil","folder":"tf","game":"Team Fortress","app_id":440,"player_count":0,"max_players":24,"Bots":0,"server_type":"Dedicated","server_os":"Linux","password":true,"vac":true,"version":"7932396","steam_id":85568392924510198,"keywords":["cp","nocrits","nodmgspread","uncletopia"],"game_id":440,"stv_port":27036,"stv_name":"Uncletopia | Los Angeles | 3 | All Maps | STV","players":null},{"server_id":25,"name":"Uncletopia | Los Angeles | 4 | Stopwatch Beta","name_short":"lax-4","host":"lax-1.us.uncletopia.com","port":27045,"enabled":true,"region":"us-west","cc":"us","latitude":33.94279,"longitude":-118.41004,"reserved":0,"last_update":"0001-01-01T00:00:00Z","name_a2s":"Uncletopia | Los Angeles | 4 | Stopwatch Beta","protocol":17,"map":"pl_swiftwater_final1","folder":"tf","game":"Team Fortress","app_id":440,"player_count":0,"max_players":24,"Bots":0,"server_type":"Dedicated","server_os":"Linux","password":true,"vac":true,"version":"7932396","steam_id":85568392924510199,"keywords":["nocrits","nodmgspread","payload","uncletopia"],"game_id":440,"stv_port":27046,"stv_name":"Uncletopia | Los Angeles | 4 | Stopwatch Beta | STV","players":null},{"server_id":11,"name":"Uncletopia | London | 1 | All Maps","name_short":"lon-1","host":"lon-1.uk.uncletopia.com","port":27015,"enabled":true,"region":"eu","cc":"gb","latitude":51.509865,"longitude":-0.118092,"reserved":0,"last_update":"0001-01-01T00:00:00Z","name_a2s":"Uncletopia | London | 1 | All Maps","protocol":17,"map":"plr_hightower","folder":"tf","game":"Team Fortress","app_id":440,"player_count":24,"max_players":24,"Bots":0,"server_type":"Dedicated","server_os":"Linux","password":true,"vac":true,"version":"7932396","steam_id":85568392924367362,"keywords":["nocrits","nodmgspread","payload","uncletopia"],"game_id":440,"stv_port":27016,"stv_name":"Uncletopia | London | 1 | All Maps | STV","players":[{"user_id":760,"name":"Isuurn","steam_id":76561198150201094,"connected_time":515000000000,"state":"active","ping":84},{"user_id":756,"name":"hedon/","steam_id":76561198249832770,"connected_time":608000000000,"state":"active","ping":50},{"user_id":738,"name":"JUST","steam_id":76561198069064885,"connected_time":1954000000000,"state":"active","ping":60},{"user_id":761,"name":"Cosmetic brain","steam_id":76561198055936410,"connected_time":485000000000,"state":"active","ping":82},{"user_id":754,"name":"mkwii","steam_id":76561198062507768,"connected_time":710000000000,"state":"active","ping":60},{"user_id":737,"name":"shooer!","steam_id":76561198110531281,"connected_time":1981000000000,"state":"active","ping":70},{"user_id":772,"name":"I hate 5-3 I hate 5-3 I hate 5-","steam_id":76561198173218318,"connected_time":259000000000,"state":"active","ping":47},{"user_id":771,"name":"IdiDoge","steam_id":76561199345575259,"connected_time":299000000000,"state":"active","ping":46},{"user_id":763,"name":"perry the platypus","steam_id":76561199379159771,"connected_time":469000000000,"state":"active","ping":145},{"user_id":764,"name":"Orbit","steam_id":76561198242999878,"connected_time":465000000000,"state":"active","ping":56},{"user_id":777,"name":"zMd","steam_id":76561198033001402,"connected_time":75000000000,"state":"active","ping":41},{"user_id":734,"name":"rigel_","steam_id":76561198148640847,"connected_time":2020000000000,"state":"active","ping":90},{"user_id":748,"name":"Remizer","steam_id":76561198799755616,"connected_time":1065000000000,"state":"active","ping":75},{"user_id":765,"name":"Swift","steam_id":76561197998799889,"connected_time":460000000000,"state":"active","ping":45},{"user_id":770,"name":"VeliIlves","steam_id":76561198038731353,"connected_time":395000000000,"state":"active","ping":99},{"user_id":749,"name":"SeaKane","steam_id":76561198165453318,"connected_time":972000000000,"state":"active","ping":55},{"user_id":769,"name":"Ecton","steam_id":76561198025103720,"connected_time":428000000000,"state":"active","ping":55},{"user_id":774,"name":"RAZOR_7","steam_id":76561198027222035,"connected_time":163000000000,"state":"active","ping":98},{"user_id":773,"name":"Krefa12","steam_id":76561198268375393,"connected_time":246000000000,"state":"active","ping":91},{"user_id":753,"name":"CuJIA_TPAHCJIuTA","steam_id":76561198149654361,"connected_time":824000000000,"state":"active","ping":73},{"user_id":767,"name":"Garoiop","steam_id":76561198082326459,"connected_time":444000000000,"state":"active","ping":40},{"user_id":724,"name":"killer of noob, winner of game","steam_id":76561198190583242,"connected_time":4230000000000,"state":"active","ping":76},{"user_id":778,"name":"Giggen","steam_id":76561198070986689,"connected_time":59000000000,"state":"active","ping":45},{"user_id":768,"name":"Dyfed","steam_id":76561198055389492,"connected_time":442000000000,"state":"active","ping":45}]},{"server_id":114,"name":"Uncletopia | London | 2 | All Maps","name_short":"lon-2","host":"lon-1.uk.uncletopia.com","port":27025,"enabled":true,"region":"eu","cc":"gb","latitude":51.509865,"longitude":-0.118092,"reserved":0,"last_update":"0001-01-01T00:00:00Z","name_a2s":"Uncletopia | London | 2 | All Maps","protocol":17,"map":"pl_barnblitz","folder":"tf","game":"Team Fortress","app_id":440,"player_count":23,"max_players":24,"Bots":0,"server_type":"Dedicated","server_os":"Linux","password":true,"vac":true,"version":"7932396","steam_id":85568392924470941,"keywords":["nocrits","nodmgspread","payload","uncletopia"],"game_id":440,"stv_port":27026,"stv_name":"Uncletopia | London | 2 | All Maps | STV","players":[{"user_id":626,"name":"MIG","steam_id":76561198099245500,"connected_time":224000000000,"state":"active","ping":48},{"user_id":629,"name":"paradise ✨","steam_id":76561198966057450,"connected_time":39000000000,"state":"active","ping":76},{"user_id":620,"name":"Insain Bolt!","steam_id":76561198025687726,"connected_time":810000000000,"state":"active","ping":69},{"user_id":610,"name":"Purpurea","steam_id":76561198075376419,"connected_time":1448000000000,"state":"active","ping":84},{"user_id":614,"name":"seigfried","steam_id":76561198047260133,"connected_time":924000000000,"state":"active","ping":89},{"user_id":630,"name":"Puss in Boots","steam_id":76561198211599767,"connected_time":16000000000,"state":"active","ping":106},{"user_id":632,"name":"juicy","steam_id":76561198127264835,"connected_time":9000000000,"state":"spawning","ping":52},{"user_id":603,"name":"Udinese Dion","steam_id":76561198067931573,"connected_time":2085000000000,"state":"active","ping":69},{"user_id":622,"name":"Zina Tv","steam_id":76561198116530769,"connected_time":668000000000,"state":"spawning","ping":90},{"user_id":601,"name":"breezingthrough","steam_id":76561198032582116,"connected_time":2554000000000,"state":"active","ping":107},{"user_id":599,"name":"Hildreth","steam_id":76561197995254867,"connected_time":2603000000000,"state":"active","ping":49},{"user_id":627,"name":"bird","steam_id":76561198228854000,"connected_time":192000000000,"state":"active","ping":36},{"user_id":539,"name":"Kahvi","steam_id":76561198723244199,"connected_time":6632000000000,"state":"active","ping":73},{"user_id":623,"name":"Rigby","steam_id":76561198021552128,"connected_time":584000000000,"state":"active","ping":123},{"user_id":598,"name":"Mi Manchi","steam_id":76561198171573129,"connected_time":2663000000000,"state":"active","ping":66},{"user_id":624,"name":"Starach","steam_id":76561198084530972,"connected_time":583000000000,"state":"active","ping":49},{"user_id":616,"name":"Iqyax","steam_id":76561198439831782,"connected_time":894000000000,"state":"active","ping":72},{"user_id":604,"name":"lulu","steam_id":76561199147764133,"connected_time":2057000000000,"state":"active","ping":73},{"user_id":586,"name":"Snake-chan","steam_id":76561199044755854,"connected_time":3479000000000,"state":"active","ping":130},{"user_id":631,"name":"xavier","steam_id":76561198076494034,"connected_time":15000000000,"state":"active","ping":64},{"user_id":608,"name":"Vershal Smershal","steam_id":76561198116223995,"connected_time":1725000000000,"state":"active","ping":71},{"user_id":617,"name":"cuddles \u003c3","steam_id":76561198805181599,"connected_time":889000000000,"state":"active","ping":54},{"user_id":621,"name":"ackermann","steam_id":76561199129801006,"connected_time":734000000000,"state":"active","ping":59}]},{"server_id":320,"name":"Uncletopia | London | 3 | All Maps","name_short":"lon-3","host":"lon-1.uk.uncletopia.com","port":27035,"enabled":true,"region":"eu","cc":"gb","latitude":51.509865,"longitude":-0.118092,"reserved":0,"last_update":"0001-01-01T00:00:00Z","name_a2s":"Uncletopia | London | 3 | All Maps","protocol":17,"map":"pl_goldrush","folder":"tf","game":"Team Fortress","app_id":440,"player_count":24,"max_players":24,"Bots":0,"server_type":"Dedicated","server_os":"Linux","password":true,"vac":true,"version":"7932396","steam_id":85568392924510192,"keywords":["nocrits","nodmgspread","payload","uncletopia"],"game_id":440,"stv_port":27036,"stv_name":"Uncletopia | London | 3 | All Maps | STV","players":[{"user_id":530,"name":"Ṛikạ","steam_id":76561199085478311,"connected_time":3872000000000,"state":"active","ping":84},{"user_id":548,"name":"meriones","steam_id":76561198034234373,"connected_time":1583000000000,"state":"active","ping":45},{"user_id":555,"name":"Яain","steam_id":76561198877954730,"connected_time":683000000000,"state":"active","ping":43},{"user_id":498,"name":"Tea Follet","steam_id":76561198852408734,"connected_time":6011000000000,"state":"active","ping":65},{"user_id":523,"name":"FTN | Nice1","steam_id":76561198026969020,"connected_time":4658000000000,"state":"active","ping":99},{"user_id":521,"name":"FTN | Shakaman","steam_id":76561198039829758,"connected_time":4752000000000,"state":"active","ping":120},{"user_id":524,"name":"Format Warper","steam_id":76561199008933241,"connected_time":4473000000000,"state":"active","ping":56},{"user_id":557,"name":"hananamanna","steam_id":76561198006570285,"connected_time":641000000000,"state":"active","ping":116},{"user_id":541,"name":"vi hava en usel regering","steam_id":76561198037978654,"connected_time":2240000000000,"state":"active","ping":74},{"user_id":556,"name":"Husk","steam_id":76561198271808519,"connected_time":669000000000,"state":"active","ping":58},{"user_id":562,"name":"Vorkytaka","steam_id":76561198002998620,"connected_time":321000000000,"state":"active","ping":77},{"user_id":558,"name":"HRCR118","steam_id":76561199146388596,"connected_time":636000000000,"state":"active","ping":69},{"user_id":501,"name":"junkfilter178","steam_id":76561198099005384,"connected_time":5930000000000,"state":"active","ping":64},{"user_id":496,"name":"Heihashit","steam_id":76561198323372946,"connected_time":6268000000000,"state":"active","ping":58},{"user_id":505,"name":"Gregor Mays","steam_id":76561198355292280,"connected_time":5909000000000,"state":"active","ping":53},{"user_id":566,"name":"Q U E E N A L E X","steam_id":76561198186341157,"connected_time":223000000000,"state":"active","ping":51},{"user_id":563,"name":"H2n9","steam_id":76561198055811259,"connected_time":317000000000,"state":"active","ping":51},{"user_id":534,"name":"Aroo","steam_id":76561198132601368,"connected_time":3569000000000,"state":"active","ping":80},{"user_id":535,"name":"sponge","steam_id":76561198388679411,"connected_time":3432000000000,"state":"active","ping":69},{"user_id":543,"name":"Mr_Pulse_","steam_id":76561198095001602,"connected_time":2162000000000,"state":"active","ping":106},{"user_id":564,"name":"JamesPepega","steam_id":76561198019156154,"connected_time":291000000000,"state":"active","ping":84},{"user_id":551,"name":"Vivi The VVitch","steam_id":76561198199110998,"connected_time":1036000000000,"state":"active","ping":81},{"user_id":553,"name":"Hot._.Chocopops","steam_id":76561199025668594,"connected_time":900000000000,"state":"active","ping":84},{"user_id":550,"name":"rolmos","steam_id":76561198024121853,"connected_time":1400000000000,"state":"active","ping":74}]},{"server_id":321,"name":"Uncletopia | London | 4 | All Maps","name_short":"lon-4","host":"lon-1.uk.uncletopia.com","port":27045,"enabled":true,"region":"eu","cc":"gb","latitude":51.509865,"longitude":-0.118092,"reserved":0,"last_update":"0001-01-01T00:00:00Z","name_a2s":"Uncletopia | London | 4 | All Maps","protocol":17,"map":"koth_viaduct","folder":"tf","game":"Team Fortress","app_id":440,"player_count":24,"max_players":24,"Bots":0,"server_type":"Dedicated","server_os":"Linux","password":true,"vac":true,"version":"7932396","steam_id":85568392924510193,"keywords":["cp","nocrits","nodmgspread","uncletopia"],"game_id":440,"stv_port":27046,"stv_name":"Uncletopia | London | 4 | All Maps | STV","players":[{"user_id":210,"name":"Soerlssoelssöen","steam_id":76561197993060585,"connected_time":5503000000000,"state":"active","ping":81},{"user_id":277,"name":"Dragon","steam_id":76561198163255365,"connected_time":167000000000,"state":"active","ping":119},{"user_id":263,"name":"Bounter","steam_id":76561198072614188,"connected_time":930000000000,"state":"active","ping":70},{"user_id":276,"name":"wren","steam_id":76561198087727260,"connected_time":246000000000,"state":"active","ping":49},{"user_id":258,"name":"B O R F","steam_id":76561197962461333,"connected_time":1399000000000,"state":"active","ping":53},{"user_id":262,"name":"fence_","steam_id":76561198150386379,"connected_time":1073000000000,"state":"active","ping":47},{"user_id":266,"name":"Lorenzo Lovers","steam_id":76561198073973581,"connected_time":785000000000,"state":"active","ping":89},{"user_id":228,"name":"ZOOKY","steam_id":76561198028806392,"connected_time":3619000000000,"state":"active","ping":45},{"user_id":267,"name":"armadillo","steam_id":76561198324656652,"connected_time":779000000000,"state":"active","ping":46},{"user_id":256,"name":"Rez","steam_id":76561198410598772,"connected_time":1798000000000,"state":"active","ping":55},{"user_id":231,"name":"Yuzu","steam_id":76561198121694613,"connected_time":3509000000000,"state":"active","ping":46},{"user_id":250,"name":"Sam","steam_id":76561198230947820,"connected_time":2611000000000,"state":"active","ping":82},{"user_id":268,"name":"cister0","steam_id":76561198130195469,"connected_time":767000000000,"state":"active","ping":84},{"user_id":279,"name":"Creature from the piss drawer","steam_id":76561198055949151,"connected_time":17000000000,"state":"active","ping":46},{"user_id":255,"name":"PrimeTarget","steam_id":76561198046409289,"connected_time":2352000000000,"state":"active","ping":82},{"user_id":278,"name":"Spinya","steam_id":76561198086653667,"connected_time":102000000000,"state":"active","ping":57},{"user_id":274,"name":"asko","steam_id":76561198081966620,"connected_time":565000000000,"state":"active","ping":94},{"user_id":234,"name":"Well, off to hang myself","steam_id":76561198053374944,"connected_time":3491000000000,"state":"active","ping":65},{"user_id":253,"name":"Os Rose Britt","steam_id":76561198109332049,"connected_time":2549000000000,"state":"active","ping":36},{"user_id":270,"name":"FishNachoz","steam_id":76561198026519426,"connected_time":633000000000,"state":"active","ping":57},{"user_id":220,"name":"K'aax Itzam","steam_id":76561198044024509,"connected_time":3860000000000,"state":"active","ping":75},{"user_id":248,"name":"Anri Okita's Massive Milkers","steam_id":76561199186352720,"connected_time":2707000000000,"state":"active","ping":69},{"user_id":272,"name":"TylowStar","steam_id":76561198357107806,"connected_time":623000000000,"state":"active","ping":61},{"user_id":273,"name":"Kubertos","steam_id":76561198154465952,"connected_time":613000000000,"state":"active","ping":79}]},{"server_id":21,"name":"Uncletopia | London | 5 | All Maps","name_short":"lon-5","host":"lon-1.uk.uncletopia.com","port":27055,"enabled":true,"region":"eu","cc":"gb","latitude":51.509865,"longitude":-0.118092,"reserved":0,"last_update":"0001-01-01T00:00:00Z","name_a2s":"Uncletopia | London | 5 | All Maps","protocol":17,"map":"pl_upward","folder":"tf","game":"Team Fortress","app_id":440,"player_count":24,"max_players":24,"Bots":0,"server_type":"Dedicated","server_os":"Linux","password":true,"vac":true,"version":"7932396","steam_id":85568392924742829,"keywords":["nocrits","nodmgspread","payload","uncletopia"],"game_id":440,"stv_port":27056,"stv_name":"Uncletopia | London | 5 | All Maps | STV","players":[{"user_id":612,"name":"Milca, One eye'd Drunkard","steam_id":76561198848650365,"connected_time":4943000000000,"state":"active","ping":69},{"user_id":667,"name":"Teacup","steam_id":76561198190654091,"connected_time":1451000000000,"state":"active","ping":56},{"user_id":554,"name":"Nornia","steam_id":76561198040509712,"connected_time":6829000000000,"state":"active","ping":59},{"user_id":631,"name":"R3inis","steam_id":76561199030393569,"connected_time":3862000000000,"state":"active","ping":89},{"user_id":653,"name":"Ross from F.R.I.E.N.D.S.","steam_id":76561198008511665,"connected_time":1848000000000,"state":"active","ping":54},{"user_id":679,"name":"twitch.tv/MorVill_","steam_id":76561198809859945,"connected_time":348000000000,"state":"active","ping":45},{"user_id":654,"name":"G1","steam_id":76561199097753630,"connected_time":1802000000000,"state":"active","ping":76},{"user_id":655,"name":"KrowPan","steam_id":76561198403587919,"connected_time":1777000000000,"state":"active","ping":57},{"user_id":638,"name":"Weebot00","steam_id":76561199479204459,"connected_time":3345000000000,"state":"active","ping":64},{"user_id":675,"name":"Mamaki","steam_id":76561198799617313,"connected_time":524000000000,"state":"active","ping":85},{"user_id":658,"name":"thegreenslug1985","steam_id":76561198872072250,"connected_time":1704000000000,"state":"active","ping":57},{"user_id":672,"name":"MaypulSoyrup","steam_id":76561199213966821,"connected_time":1116000000000,"state":"active","ping":82},{"user_id":556,"name":"Cataleptic","steam_id":76561197997966949,"connected_time":6774000000000,"state":"active","ping":63},{"user_id":677,"name":"Germanium_Ge","steam_id":76561198130561775,"connected_time":500000000000,"state":"active","ping":56},{"user_id":670,"name":"Dzan50","steam_id":76561198059758591,"connected_time":1287000000000,"state":"active","ping":95},{"user_id":660,"name":"Aeinzalot","steam_id":76561198195288449,"connected_time":1679000000000,"state":"active","ping":45},{"user_id":621,"name":"Day 10","steam_id":76561198024438352,"connected_time":4349000000000,"state":"active","ping":43},{"user_id":673,"name":"vadr","steam_id":76561198334528186,"connected_time":1067000000000,"state":"active","ping":52},{"user_id":662,"name":"Michał","steam_id":76561198320346362,"connected_time":1599000000000,"state":"active","ping":93},{"user_id":663,"name":"avenje","steam_id":76561198155824845,"connected_time":1595000000000,"state":"active","ping":70},{"user_id":678,"name":"Kiki","steam_id":76561197997323419,"connected_time":484000000000,"state":"active","ping":82},{"user_id":674,"name":"Faustino","steam_id":76561198061771785,"connected_time":905000000000,"state":"active","ping":84},{"user_id":665,"name":"Cherry","steam_id":76561198150841824,"connected_time":1580000000000,"state":"active","ping":70},{"user_id":668,"name":"astigmatic","steam_id":76561199103959197,"connected_time":1431000000000,"state":"active","ping":100}]},{"server_id":22,"name":"Uncletopia | London | 6 | All Maps","name_short":"lon-6","host":"lon-1.uk.uncletopia.com","port":27065,"enabled":true,"region":"eu","cc":"gb","latitude":51.509865,"longitude":-0.118092,"reserved":0,"last_update":"0001-01-01T00:00:00Z","name_a2s":"Uncletopia | London | 6 | All Maps","protocol":17,"map":"pl_barnblitz","folder":"tf","game":"Team Fortress","app_id":440,"player_count":24,"max_players":24,"Bots":0,"server_type":"Dedicated","server_os":"Linux","password":true,"vac":true,"version":"7932396","steam_id":85568392924742830,"keywords":["nocrits","nodmgspread","payload","uncletopia"],"game_id":440,"stv_port":27066,"stv_name":"Uncletopia | London | 6 | All Maps | STV","players":[{"user_id":422,"name":"Syd","steam_id":76561198020515027,"connected_time":1392000000000,"state":"active","ping":75},{"user_id":391,"name":"√(-Wolf)","steam_id":76561198024769704,"connected_time":3163000000000,"state":"active","ping":89},{"user_id":417,"name":"mohemmedmokhter2005","steam_id":76561199197650506,"connected_time":2372000000000,"state":"active","ping":143},{"user_id":355,"name":"tïger","steam_id":76561198260483157,"connected_time":5946000000000,"state":"active","ping":82},{"user_id":416,"name":"W","steam_id":76561198273623211,"connected_time":2393000000000,"state":"active","ping":88},{"user_id":380,"name":"CombustionCamel","steam_id":76561198168085530,"connected_time":3967000000000,"state":"active","ping":36},{"user_id":357,"name":"S.Scary","steam_id":76561198248602386,"connected_time":5891000000000,"state":"active","ping":78},{"user_id":433,"name":"Ozy","steam_id":76561198257359584,"connected_time":652000000000,"state":"active","ping":61},{"user_id":420,"name":"tete","steam_id":76561198045222850,"connected_time":1813000000000,"state":"active","ping":61},{"user_id":404,"name":"Ewelinka Zniszczenia","steam_id":76561198307374456,"connected_time":2634000000000,"state":"active","ping":71},{"user_id":430,"name":"Frampoid","steam_id":76561197997137121,"connected_time":908000000000,"state":"active","ping":59},{"user_id":398,"name":"LurkingPancake","steam_id":76561199488567082,"connected_time":2888000000000,"state":"active","ping":93},{"user_id":405,"name":".:Mr. SnipeR:.","steam_id":76561198070091899,"connected_time":2633000000000,"state":"active","ping":66},{"user_id":407,"name":"-TA- Sussy Gilaric","steam_id":76561198067540283,"connected_time":2575000000000,"state":"active","ping":75},{"user_id":432,"name":"Dr Livesey","steam_id":76561199231642090,"connected_time":719000000000,"state":"active","ping":95},{"user_id":423,"name":"sgt borkdag","steam_id":76561199064170305,"connected_time":1383000000000,"state":"active","ping":91},{"user_id":409,"name":"Dagoth Ur","steam_id":76561198220232352,"connected_time":2512000000000,"state":"active","ping":45},{"user_id":429,"name":"Max Andrew","steam_id":76561198158955194,"connected_time":1030000000000,"state":"active","ping":61},{"user_id":434,"name":"BeRicedBack","steam_id":76561198064234501,"connected_time":648000000000,"state":"active","ping":45},{"user_id":424,"name":"Sculkit","steam_id":76561199162882411,"connected_time":1280000000000,"state":"active","ping":89},{"user_id":431,"name":"bad farter","steam_id":76561198261853441,"connected_time":884000000000,"state":"active","ping":75},{"user_id":435,"name":"lactose father","steam_id":76561199408853457,"connected_time":606000000000,"state":"active","ping":87},{"user_id":419,"name":"Mirage","steam_id":76561199013190566,"connected_time":2295000000000,"state":"active","ping":52},{"user_id":436,"name":"Shovelhalfrusty","steam_id":76561198346447513,"connected_time":591000000000,"state":"active","ping":61}]},{"server_id":40,"name":"Uncletopia | London | 7 | No Payload","name_short":"lon-7","host":"lon-1.uk.uncletopia.com","port":27075,"enabled":true,"region":"eu","cc":"gb","latitude":51.509865,"longitude":-0.118092,"reserved":0,"last_update":"0001-01-01T00:00:00Z","name_a2s":"Uncletopia | London | 7 | No Payload","protocol":17,"map":"cp_metalworks","folder":"tf","game":"Team Fortress","app_id":440,"player_count":24,"max_players":24,"Bots":0,"server_type":"Dedicated","server_os":"Linux","password":true,"vac":true,"version":"7932396","steam_id":85568392924964314,"keywords":["cp","nocrits","nodmgspread","uncletopia"],"game_id":440,"stv_port":27076,"stv_name":"Uncletopia | London | 7 | No Payload | STV","players":[{"user_id":222,"name":"Xanshi","steam_id":76561198152392309,"connected_time":6561000000000,"state":"active","ping":45},{"user_id":273,"name":"Candibun","steam_id":76561198039276208,"connected_time":2627000000000,"state":"active","ping":54},{"user_id":290,"name":"mt","steam_id":76561197961319303,"connected_time":1992000000000,"state":"active","ping":60},{"user_id":190,"name":"cream gravy","steam_id":76561198973069177,"connected_time":7270000000000,"state":"active","ping":57},{"user_id":242,"name":"IndigoJones","steam_id":76561198050284262,"connected_time":5896000000000,"state":"active","ping":50},{"user_id":223,"name":"Fat Pigeon","steam_id":76561198817940142,"connected_time":6312000000000,"state":"active","ping":45},{"user_id":299,"name":"Steen","steam_id":76561198122992510,"connected_time":767000000000,"state":"active","ping":54},{"user_id":297,"name":"Cathedra","steam_id":76561198430227030,"connected_time":1137000000000,"state":"active","ping":68},{"user_id":191,"name":"xX_Veritas_Lux_Mea1337_Xx","steam_id":76561198350754203,"connected_time":7228000000000,"state":"active","ping":69},{"user_id":287,"name":"cobhlaith","steam_id":76561198039851829,"connected_time":2254000000000,"state":"active","ping":129},{"user_id":296,"name":"Kılıçdar","steam_id":76561198267528331,"connected_time":1172000000000,"state":"active","ping":108},{"user_id":291,"name":"joachym","steam_id":76561198428579761,"connected_time":1699000000000,"state":"active","ping":70},{"user_id":279,"name":"Mobster Tortoise","steam_id":76561199036837091,"connected_time":2437000000000,"state":"active","ping":87},{"user_id":259,"name":"Just1s","steam_id":76561198026597437,"connected_time":4230000000000,"state":"active","ping":75},{"user_id":304,"name":"etc","steam_id":76561197998394797,"connected_time":164000000000,"state":"active","ping":58},{"user_id":281,"name":"BarbÀtrou","steam_id":76561199439141531,"connected_time":2414000000000,"state":"active","ping":66},{"user_id":300,"name":"P3rsErkki","steam_id":76561198063093495,"connected_time":740000000000,"state":"active","ping":63},{"user_id":301,"name":"Grønkjær","steam_id":76561198041075280,"connected_time":706000000000,"state":"active","ping":81},{"user_id":262,"name":"☞LaZe☜","steam_id":76561198202191400,"connected_time":3356000000000,"state":"active","ping":46},{"user_id":303,"name":"MrBanana","steam_id":76561198116021623,"connected_time":572000000000,"state":"active","ping":60},{"user_id":302,"name":"hallu","steam_id":76561198198581079,"connected_time":666000000000,"state":"active","ping":85},{"user_id":285,"name":"Moon","steam_id":76561198808108594,"connected_time":2345000000000,"state":"active","ping":93},{"user_id":252,"name":"Zazou","steam_id":76561198028076362,"connected_time":4782000000000,"state":"active","ping":59},{"user_id":298,"name":"Adopted?","steam_id":76561198118667043,"connected_time":1108000000000,"state":"active","ping":41}]},{"server_id":41,"name":"Uncletopia | London | 8 | Community","name_short":"lon-8","host":"lon-1.uk.uncletopia.com","port":27085,"enabled":true,"region":"eu","cc":"gb","latitude":51.509865,"longitude":-0.118092,"reserved":0,"last_update":"0001-01-01T00:00:00Z","name_a2s":"Uncletopia | London | 8 | Community","protocol":17,"map":"workshop/pl_fifthcurve_rc1.ugc648227046","folder":"tf","game":"Team Fortress","app_id":440,"player_count":0,"max_players":24,"Bots":0,"server_type":"Dedicated","server_os":"Linux","password":true,"vac":true,"version":"7932396","steam_id":85568392924964315,"keywords":["nocrits","nodmgspread","payload","uncletopia"],"game_id":440,"stv_port":27086,"stv_name":"Uncletopia | London | 8 | Community | STV","players":null},{"server_id":300,"name":"Uncletopia | Montréal | 1 | All Maps","name_short":"mtl-1","host":"mtl-1.ca.uncletopia.com","port":27015,"enabled":true,"region":"us-east","cc":"ca","latitude":45.50889,"longitude":-73.56167,"reserved":0,"last_update":"0001-01-01T00:00:00Z","name_a2s":"Uncletopia | Montréal | 1 | All Maps","protocol":17,"map":"pl_barnblitz","folder":"tf","game":"Team Fortress","app_id":440,"player_count":0,"max_players":24,"Bots":0,"server_type":"Dedicated","server_os":"Linux","password":true,"vac":true,"version":"7932396","steam_id":85568392924500087,"keywords":["nocrits","nodmgspread","payload","uncletopia"],"game_id":440,"stv_port":27016,"stv_name":"Uncletopia | Montréal | 1 | All Maps | STV","players":null},{"server_id":301,"name":"Uncletopia | Montréal | 2 | All Maps","name_short":"mtl-2","host":"mtl-1.ca.uncletopia.com","port":27025,"enabled":true,"region":"us-east","cc":"ca","latitude":45.50889,"longitude":-73.56167,"reserved":0,"last_update":"0001-01-01T00:00:00Z","name_a2s":"Uncletopia | Montréal | 2 | All Maps","protocol":17,"map":"koth_lakeside_final","folder":"tf","game":"Team Fortress","app_id":440,"player_count":2,"max_players":24,"Bots":0,"server_type":"Dedicated","server_os":"Linux","password":true,"vac":true,"version":"7932396","steam_id":85568392924500088,"keywords":["cp","nocrits","nodmgspread","uncletopia"],"game_id":440,"stv_port":27026,"stv_name":"Uncletopia | Montréal | 2 | All Maps | STV","players":[{"user_id":3,"name":"Mugenman88","steam_id":76561198041261388,"connected_time":1306000000000,"state":"active","ping":72},{"user_id":4,"name":"dj magdogrozen","steam_id":76561198984131011,"connected_time":1211000000000,"state":"active","ping":50}]},{"server_id":302,"name":"Uncletopia | Montréal | 3 | All Maps","name_short":"mtl-3","host":"mtl-1.ca.uncletopia.com","port":27035,"enabled":true,"region":"us-east","cc":"ca","latitude":45.50889,"longitude":-73.56167,"reserved":0,"last_update":"0001-01-01T00:00:00Z","name_a2s":"Uncletopia | Montréal | 3 | All Maps","protocol":17,"map":"cp_mountainlab","folder":"tf","game":"Team Fortress","app_id":440,"player_count":0,"max_players":24,"Bots":0,"server_type":"Dedicated","server_os":"Linux","password":true,"vac":true,"version":"7932396","steam_id":85568392924500089,"keywords":["cp","nocrits","nodmgspread","uncletopia"],"game_id":440,"stv_port":27036,"stv_name":"Uncletopia | Montréal | 3 | All Maps | STV","players":null},{"server_id":303,"name":"Uncletopia | Montréal | 4 | No Payload","name_short":"mtl-4","host":"mtl-1.ca.uncletopia.com","port":27045,"enabled":true,"region":"us-east","cc":"ca","latitude":45.50889,"longitude":-73.56167,"reserved":0,"last_update":"0001-01-01T00:00:00Z","name_a2s":"Uncletopia | Montréal | 4 | No Payload","protocol":17,"map":"cp_snakewater_final1","folder":"tf","game":"Team Fortress","app_id":440,"player_count":0,"max_players":24,"Bots":0,"server_type":"Dedicated","server_os":"Linux","password":true,"vac":true,"version":"7932396","steam_id":85568392924500090,"keywords":["cp","nocrits","nodmgspread","uncletopia"],"game_id":440,"stv_port":27046,"stv_name":"Uncletopia | Montréal | 4 | No Payload | STV","players":null},{"server_id":13,"name":"Uncletopia | New York City | 1 | All Maps","name_short":"nyc-1","host":"nyc-1.us.uncletopia.com","port":27015,"enabled":true,"region":"us-east","cc":"us","latitude":40.73061,"longitude":-73.93524,"reserved":0,"last_update":"0001-01-01T00:00:00Z","name_a2s":"Uncletopia | New York City | 1 | All Maps","protocol":17,"map":"pl_upward","folder":"tf","game":"Team Fortress","app_id":440,"player_count":24,"max_players":24,"Bots":0,"server_type":"Dedicated","server_os":"Linux","password":true,"vac":true,"version":"7932396","steam_id":85568392924469993,"keywords":["nocrits","nodmgspread","payload","uncletopia"],"game_id":440,"stv_port":27016,"stv_name":"Uncletopia | New York City | 1 | All Maps | STV","players":[{"user_id":357,"name":"O B S E R V E R","steam_id":76561198397143311,"connected_time":108000000000,"state":"active","ping":140},{"user_id":321,"name":"Patrick Bateman","steam_id":76561198048146017,"connected_time":1779000000000,"state":"active","ping":60},{"user_id":275,"name":"Anamm","steam_id":76561198328762510,"connected_time":2993000000000,"state":"active","ping":46},{"user_id":335,"name":"Uncle Spaghettio","steam_id":76561198878393084,"connected_time":1149000000000,"state":"active","ping":65},{"user_id":332,"name":"kid squid","steam_id":76561198167016289,"connected_time":1389000000000,"state":"active","ping":77},{"user_id":353,"name":"Andy Sixx","steam_id":76561199224337121,"connected_time":282000000000,"state":"active","ping":115},{"user_id":334,"name":"Snugboo","steam_id":76561198147970327,"connected_time":1301000000000,"state":"active","ping":38},{"user_id":226,"name":"1996 Chrysler Town and Country","steam_id":76561199147039906,"connected_time":5141000000000,"state":"active","ping":58},{"user_id":282,"name":"Professional Woman Blender","steam_id":76561198799712847,"connected_time":2810000000000,"state":"active","ping":86},{"user_id":270,"name":"Zalthair","steam_id":76561198052698533,"connected_time":3193000000000,"state":"active","ping":157},{"user_id":271,"name":"1-800-GHOST-DANCE","steam_id":76561198835430429,"connected_time":3187000000000,"state":"active","ping":66},{"user_id":340,"name":"you forgot the sauce","steam_id":76561198387016713,"connected_time":1005000000000,"state":"active","ping":62},{"user_id":341,"name":"Tony hawks pro skater 2 dlc","steam_id":76561198243387974,"connected_time":951000000000,"state":"active","ping":54},{"user_id":354,"name":"pigswill","steam_id":76561197999081865,"connected_time":261000000000,"state":"active","ping":74},{"user_id":347,"name":"a table","steam_id":76561198158461279,"connected_time":659000000000,"state":"active","ping":68},{"user_id":344,"name":"Prsm","steam_id":76561198053344995,"connected_time":812000000000,"state":"active","ping":42},{"user_id":358,"name":"capetanunito","steam_id":76561199364524852,"connected_time":80000000000,"state":"active","ping":172},{"user_id":349,"name":"CourUltra","steam_id":76561198820834097,"connected_time":602000000000,"state":"active","ping":99},{"user_id":355,"name":"Goth Spy Boyfriend","steam_id":76561198104086771,"connected_time":181000000000,"state":"active","ping":105},{"user_id":287,"name":"beans","steam_id":76561198074275991,"connected_time":2605000000000,"state":"active","ping":64},{"user_id":288,"name":"Pol Pot Pie","steam_id":76561198043225721,"connected_time":2602000000000,"state":"active","ping":54},{"user_id":338,"name":"Plutia","steam_id":76561197996787193,"connected_time":1136000000000,"state":"active","ping":70},{"user_id":289,"name":"Rambly Dambly","steam_id":76561198844496567,"connected_time":2580000000000,"state":"active","ping":56},{"user_id":331,"name":"Draco6257","steam_id":76561199147322448,"connected_time":1511000000000,"state":"active","ping":32}]},{"server_id":14,"name":"Uncletopia | New York City | 2 | All Maps","name_short":"nyc-2","host":"nyc-1.us.uncletopia.com","port":27025,"enabled":true,"region":"us-east","cc":"us","latitude":40.73061,"longitude":-73.93524,"reserved":0,"last_update":"0001-01-01T00:00:00Z","name_a2s":"Uncletopia | New York City | 2 | All Maps","protocol":17,"map":"pl_upward","folder":"tf","game":"Team Fortress","app_id":440,"player_count":24,"max_players":24,"Bots":0,"server_type":"Dedicated","server_os":"Linux","password":true,"vac":true,"version":"7932396","steam_id":85568392924469994,"keywords":["nocrits","nodmgspread","payload","uncletopia"],"game_id":440,"stv_port":27026,"stv_name":"Uncletopia | New York City | 2 | All Maps | STV","players":[{"user_id":473,"name":"Big Ears","steam_id":76561198851363077,"connected_time":379000000000,"state":"active","ping":74},{"user_id":459,"name":"wool","steam_id":76561198869689933,"connected_time":1112000000000,"state":"active","ping":55},{"user_id":471,"name":"flr","steam_id":76561198249327786,"connected_time":731000000000,"state":"active","ping":134},{"user_id":479,"name":"npc energy","steam_id":76561198035342207,"connected_time":147000000000,"state":"active","ping":57},{"user_id":480,"name":"Orange Triangle","steam_id":76561198320498182,"connected_time":28000000000,"state":"active","ping":75},{"user_id":448,"name":"SСАТТЕR","steam_id":76561198405168492,"connected_time":1393000000000,"state":"active","ping":75},{"user_id":474,"name":"wahooka","steam_id":76561197981211922,"connected_time":336000000000,"state":"active","ping":55},{"user_id":457,"name":"Nameless Knight","steam_id":76561199184394651,"connected_time":1182000000000,"state":"active","ping":115},{"user_id":438,"name":"Joy #savetf2","steam_id":76561198073690173,"connected_time":1842000000000,"state":"active","ping":54},{"user_id":425,"name":"ADRIEN BRODY","steam_id":76561198009299473,"connected_time":2600000000000,"state":"active","ping":51},{"user_id":462,"name":"instigator extraordinaire","steam_id":76561198860826977,"connected_time":1001000000000,"state":"active","ping":45},{"user_id":418,"name":"Wique","steam_id":76561198071217597,"connected_time":3236000000000,"state":"active","ping":69},{"user_id":336,"name":"[IRP] Dover","steam_id":76561198417653786,"connected_time":7941000000000,"state":"active","ping":120},{"user_id":451,"name":"hazel","steam_id":76561198447244031,"connected_time":1255000000000,"state":"active","ping":58},{"user_id":481,"name":"DanikVelocity","steam_id":76561199015911962,"connected_time":20000000000,"state":"spawning","ping":75},{"user_id":467,"name":"Neophyte","steam_id":76561198027183394,"connected_time":822000000000,"state":"active","ping":106},{"user_id":368,"name":"BNTF","steam_id":76561198062740087,"connected_time":5554000000000,"state":"active","ping":74},{"user_id":444,"name":"Holdie","steam_id":76561198070378200,"connected_time":1690000000000,"state":"active","ping":61},{"user_id":463,"name":"Sasu","steam_id":76561198893447505,"connected_time":981000000000,"state":"active","ping":90},{"user_id":476,"name":"FliturbiousRex","steam_id":76561199217583334,"connected_time":309000000000,"state":"active","ping":66},{"user_id":455,"name":"cosmic ambiance","steam_id":76561198042788986,"connected_time":1208000000000,"state":"active","ping":71},{"user_id":482,"name":"Fiendish Frog","steam_id":76561198029478821,"connected_time":18000000000,"state":"active","ping":51},{"user_id":472,"name":"Borat Voice My Wife","steam_id":76561198020474727,"connected_time":494000000000,"state":"active","ping":57},{"user_id":440,"name":"Bongos","steam_id":76561198865285465,"connected_time":1829000000000,"state":"active","ping":118}]},{"server_id":15,"name":"Uncletopia | New York City | 3 | Stopwatch Beta","name_short":"nyc-3","host":"nyc-1.us.uncletopia.com","port":27035,"enabled":true,"region":"us-east","cc":"us","latitude":40.73061,"longitude":-73.93524,"reserved":0,"last_update":"0001-01-01T00:00:00Z","name_a2s":"Uncletopia | New York City | 3 | Stopwatch Beta","protocol":17,"map":"cp_sunshine","folder":"tf","game":"Team Fortress","app_id":440,"player_count":0,"max_players":24,"Bots":0,"server_type":"Dedicated","server_os":"Linux","password":true,"vac":true,"version":"7932396","steam_id":85568392924742820,"keywords":["cp","nocrits","nodmgspread","uncletopia"],"game_id":440,"stv_port":27036,"stv_name":"Uncletopia | New York City | 3 | Stopwatch Beta | STV","players":null},{"server_id":16,"name":"Uncletopia | New York City | 4 | Community","name_short":"nyc-4","host":"nyc-1.us.uncletopia.com","port":27045,"enabled":true,"region":"us-east","cc":"us","latitude":40.73061,"longitude":-73.93524,"reserved":0,"last_update":"0001-01-01T00:00:00Z","name_a2s":"Uncletopia | New York City | 4 | Community","protocol":17,"map":"workshop/koth_product_final.ugc454272353","folder":"tf","game":"Team Fortress","app_id":440,"player_count":2,"max_players":24,"Bots":0,"server_type":"Dedicated","server_os":"Linux","password":true,"vac":true,"version":"7932396","steam_id":85568392924742821,"keywords":["cp","nocrits","nodmgspread","uncletopia"],"game_id":440,"stv_port":27046,"stv_name":"Uncletopia | New York City | 4 | Community | STV","players":[{"user_id":21,"name":"ChubbinsMothYT","steam_id":76561198999215730,"connected_time":669000000000,"state":"active","ping":69},{"user_id":22,"name":"gideon nav my beloved","steam_id":76561198259092181,"connected_time":648000000000,"state":"active","ping":62}]},{"server_id":142,"name":"Uncletopia | São Paulo | 1 | All Maps","name_short":"sao-1","host":"sao-1.br.uncletopia.com","port":27015,"enabled":true,"region":"sa","cc":"br","latitude":-23.533773,"longitude":-46.62529,"reserved":0,"last_update":"0001-01-01T00:00:00Z","name_a2s":"Uncletopia | São Paulo | 1 | All Maps","protocol":17,"map":"koth_viaduct","folder":"tf","game":"Team Fortress","app_id":440,"player_count":0,"max_players":24,"Bots":0,"server_type":"Dedicated","server_os":"Linux","password":true,"vac":true,"version":"7932396","steam_id":85568392924469996,"keywords":["cp","nocrits","nodmgspread","uncletopia"],"game_id":440,"stv_port":27016,"stv_name":"Uncletopia | São Paulo | 1 | All Maps | STV","players":null},{"server_id":143,"name":"Uncletopia | São Paulo | 2 | All Maps","name_short":"sao-2","host":"sao-2.br.uncletopia.com","port":27015,"enabled":true,"region":"sa","cc":"br","latitude":-23.533773,"longitude":-46.62529,"reserved":0,"last_update":"0001-01-01T00:00:00Z","name_a2s":"Uncletopia | São Paulo | 2 | All Maps","protocol":17,"map":"pl_snowycoast","folder":"tf","game":"Team Fortress","app_id":440,"player_count":0,"max_players":24,"Bots":0,"server_type":"Dedicated","server_os":"Linux","password":true,"vac":true,"version":"7932396","steam_id":85568392924485349,"keywords":["nocrits","nodmgspread","payload","uncletopia"],"game_id":440,"stv_port":27016,"stv_name":"Uncletopia | São Paulo | 2 | All Maps | STV","players":null},{"server_id":7,"name":"Uncletopia | Seattle | 1 | All Maps","name_short":"sea-1","host":"sea-1.us.uncletopia.com","port":27015,"enabled":true,"region":"us-west","cc":"us","latitude":47.608013,"longitude":-122.33517,"reserved":0,"last_update":"0001-01-01T00:00:00Z","name_a2s":"Uncletopia | Seattle | 1 | All Maps","protocol":17,"map":"cp_process_final","folder":"tf","game":"Team Fortress","app_id":440,"player_count":24,"max_players":24,"Bots":0,"server_type":"Dedicated","server_os":"Linux","password":true,"vac":true,"version":"7932396","steam_id":85568392924469997,"keywords":["cp","nocrits","nodmgspread","uncletopia"],"game_id":440,"stv_port":27016,"stv_name":"Uncletopia | Seattle | 1 | All Maps | STV","players":[{"user_id":412,"name":"Ping","steam_id":76561199206514106,"connected_time":1937000000000,"state":"active","ping":142},{"user_id":359,"name":"mine diam","steam_id":76561198119123981,"connected_time":5748000000000,"state":"active","ping":45},{"user_id":409,"name":"Potatobreeder","steam_id":76561199077867000,"connected_time":2150000000000,"state":"active","ping":72},{"user_id":436,"name":"BolognaWithOlives","steam_id":76561198101262668,"connected_time":181000000000,"state":"active","ping":75},{"user_id":399,"name":"uncle grandpa gaming","steam_id":76561198063024859,"connected_time":2618000000000,"state":"active","ping":115},{"user_id":406,"name":"Strikerbolt","steam_id":76561199095622897,"connected_time":2226000000000,"state":"active","ping":76},{"user_id":434,"name":"trackpad gaming | f2p","steam_id":76561198840414371,"connected_time":994000000000,"state":"active","ping":50},{"user_id":358,"name":"Peppy","steam_id":76561198866629645,"connected_time":5772000000000,"state":"active","ping":59},{"user_id":408,"name":"blinkerton city","steam_id":76561198054270410,"connected_time":2210000000000,"state":"active","ping":52},{"user_id":435,"name":"Raian","steam_id":76561199138048671,"connected_time":308000000000,"state":"active","ping":61},{"user_id":431,"name":"Glue Gobbler","steam_id":76561198237034712,"connected_time":1490000000000,"state":"active","ping":45},{"user_id":437,"name":"RaixaR","steam_id":76561198025289430,"connected_time":82000000000,"state":"active","ping":105},{"user_id":438,"name":"Rorver","steam_id":76561198114030795,"connected_time":62000000000,"state":"active","ping":53},{"user_id":415,"name":"Elfy","steam_id":76561199166448617,"connected_time":1819000000000,"state":"active","ping":57},{"user_id":423,"name":"Mico (Mico)","steam_id":76561198125462953,"connected_time":1684000000000,"state":"active","ping":48},{"user_id":419,"name":"rilelyscastle","steam_id":76561198090372870,"connected_time":1776000000000,"state":"active","ping":55},{"user_id":356,"name":"greens beans","steam_id":76561198153611491,"connected_time":5782000000000,"state":"active","ping":41},{"user_id":439,"name":"CatThulhu","steam_id":76561198211620004,"connected_time":58000000000,"state":"active","ping":113},{"user_id":440,"name":"YoZiggy","steam_id":76561198192485274,"connected_time":49000000000,"state":"active","ping":74},{"user_id":429,"name":"magic","steam_id":76561198031957385,"connected_time":1521000000000,"state":"active","ping":63},{"user_id":424,"name":"cockroach massive","steam_id":76561198011675372,"connected_time":1679000000000,"state":"active","ping":57},{"user_id":441,"name":"bcizzo","steam_id":76561197994399953,"connected_time":25000000000,"state":"active","ping":74},{"user_id":433,"name":"ZEKKER","steam_id":76561197967968980,"connected_time":1461000000000,"state":"active","ping":43},{"user_id":442,"name":"Kylar","steam_id":76561198196979431,"connected_time":24000000000,"state":"active","ping":88}]},{"server_id":119,"name":"Uncletopia | Seattle | 2 | All Maps","name_short":"sea-2","host":"sea-1.us.uncletopia.com","port":27025,"enabled":true,"region":"us-west","cc":"us","latitude":47.608013,"longitude":-122.33517,"reserved":0,"last_update":"0001-01-01T00:00:00Z","name_a2s":"Uncletopia | Seattle | 2 | All Maps","protocol":17,"map":"pl_badwater","folder":"tf","game":"Team Fortress","app_id":440,"player_count":23,"max_players":24,"Bots":0,"server_type":"Dedicated","server_os":"Linux","password":true,"vac":true,"version":"7932396","steam_id":85568392924469998,"keywords":["nocrits","nodmgspread","payload","uncletopia"],"game_id":440,"stv_port":27026,"stv_name":"Uncletopia | Seattle | 2 | All Maps | STV","players":[{"user_id":317,"name":"Sweatpants","steam_id":76561198097188001,"connected_time":853000000000,"state":"active","ping":45},{"user_id":320,"name":"Dimo","steam_id":76561199145809112,"connected_time":645000000000,"state":"active","ping":116},{"user_id":262,"name":"Coop","steam_id":76561199145266151,"connected_time":4816000000000,"state":"active","ping":51},{"user_id":308,"name":"Forty","steam_id":76561198257410181,"connected_time":1288000000000,"state":"active","ping":59},{"user_id":312,"name":"Keamy","steam_id":76561199471434875,"connected_time":958000000000,"state":"active","ping":38},{"user_id":302,"name":"BlazedBunny","steam_id":76561198243610560,"connected_time":1994000000000,"state":"active","ping":70},{"user_id":319,"name":"The Combine","steam_id":76561199229605707,"connected_time":649000000000,"state":"active","ping":104},{"user_id":282,"name":"NotAName","steam_id":76561198192584098,"connected_time":3600000000000,"state":"active","ping":76},{"user_id":325,"name":"rad killl raccoon","steam_id":76561198980975595,"connected_time":276000000000,"state":"active","ping":86},{"user_id":321,"name":"CashGordon","steam_id":76561197975594096,"connected_time":484000000000,"state":"active","ping":38},{"user_id":318,"name":"awesomebrololo","steam_id":76561198374283489,"connected_time":779000000000,"state":"active","ping":80},{"user_id":292,"name":"feathered_turtle","steam_id":76561199079858371,"connected_time":2866000000000,"state":"active","ping":113},{"user_id":293,"name":"Greskrendtregk","steam_id":76561197969553142,"connected_time":2850000000000,"state":"active","ping":51},{"user_id":311,"name":"♥ Milo Stefferson ♥ (Soupca","steam_id":76561198056269538,"connected_time":975000000000,"state":"active","ping":57},{"user_id":322,"name":"lil boogie","steam_id":76561198064059721,"connected_time":453000000000,"state":"active","ping":46},{"user_id":324,"name":"xPhoot","steam_id":76561198407926973,"connected_time":340000000000,"state":"active","ping":57},{"user_id":326,"name":"H4V0C","steam_id":76561199129350925,"connected_time":226000000000,"state":"active","ping":57},{"user_id":296,"name":"Col. RizzCheese","steam_id":76561198269459945,"connected_time":2757000000000,"state":"active","ping":56},{"user_id":286,"name":"LProduct","steam_id":76561199442139670,"connected_time":3191000000000,"state":"active","ping":75},{"user_id":270,"name":"Moonlily","steam_id":76561198852670061,"connected_time":4504000000000,"state":"active","ping":77},{"user_id":304,"name":"Coowil","steam_id":76561198070985437,"connected_time":1943000000000,"state":"active","ping":42},{"user_id":305,"name":"pafijohn","steam_id":76561198002535190,"connected_time":1910000000000,"state":"active","ping":68},{"user_id":310,"name":"Antwan","steam_id":76561198246200638,"connected_time":1177000000000,"state":"active","ping":99}]},{"server_id":406,"name":"Uncletopia | Seattle | 3 | Stopwatch Beta","name_short":"sea-3","host":"sea-1.us.uncletopia.com","port":27035,"enabled":true,"region":"us-west","cc":"us","latitude":47.608013,"longitude":-122.33517,"reserved":0,"last_update":"0001-01-01T00:00:00Z","name_a2s":"Uncletopia | Seattle | 3 | Stopwatch Beta","protocol":17,"map":"pl_upward","folder":"tf","game":"Team Fortress","app_id":440,"player_count":0,"max_players":24,"Bots":0,"server_type":"Dedicated","server_os":"Linux","password":true,"vac":true,"version":"7932396","steam_id":85568392924515217,"keywords":["nocrits","nodmgspread","payload","uncletopia"],"game_id":440,"stv_port":27036,"stv_name":"Uncletopia | Seattle | 3 | Stopwatch Beta | STV","players":null},{"server_id":17,"name":"Uncletopia | San Francisco | 1 | All Maps","name_short":"sfo-1","host":"sfo-1.us.uncletopia.com","port":27015,"enabled":true,"region":"us-west","cc":"us","latitude":37.77397,"longitude":-122.4313,"reserved":0,"last_update":"0001-01-01T00:00:00Z","name_a2s":"Uncletopia | San Francisco | 1 | All Maps","protocol":17,"map":"cp_dustbowl","folder":"tf","game":"Team Fortress","app_id":440,"player_count":24,"max_players":24,"Bots":0,"server_type":"Dedicated","server_os":"Linux","password":true,"vac":true,"version":"7932396","steam_id":85568392924469999,"keywords":["cp","nocrits","nodmgspread","uncletopia"],"game_id":440,"stv_port":27016,"stv_name":"Uncletopia | San Francisco | 1 | All Maps | STV","players":[{"user_id":263,"name":"omnislime","steam_id":76561199382475668,"connected_time":2137000000000,"state":"active","ping":163},{"user_id":223,"name":"Earl Acton","steam_id":76561198064273772,"connected_time":4500000000000,"state":"active","ping":109},{"user_id":287,"name":"Peter","steam_id":76561198065796300,"connected_time":475000000000,"state":"active","ping":58},{"user_id":295,"name":"Golden","steam_id":76561198099617491,"connected_time":300000000000,"state":"active","ping":75},{"user_id":301,"name":"fisherman","steam_id":76561198157435832,"connected_time":122000000000,"state":"active","ping":115},{"user_id":289,"name":"TORN RETINAS","steam_id":76561198033822457,"connected_time":470000000000,"state":"active","ping":73},{"user_id":245,"name":"Nuggies","steam_id":76561198272432592,"connected_time":3365000000000,"state":"active","ping":50},{"user_id":291,"name":"bit05","steam_id":76561198841456067,"connected_time":414000000000,"state":"active","ping":56},{"user_id":297,"name":"scamchez","steam_id":76561198447562701,"connected_time":246000000000,"state":"active","ping":71},{"user_id":196,"name":"whittecar","steam_id":76561198169715643,"connected_time":6518000000000,"state":"active","ping":67},{"user_id":225,"name":"Deflated Horse","steam_id":76561199260931005,"connected_time":4469000000000,"state":"active","ping":91},{"user_id":293,"name":"hjelmberg","steam_id":76561197997901420,"connected_time":332000000000,"state":"active","ping":116},{"user_id":273,"name":"Squirrel","steam_id":76561198026605788,"connected_time":1393000000000,"state":"active","ping":46},{"user_id":294,"name":"nerfthemedium","steam_id":76561198179833102,"connected_time":325000000000,"state":"active","ping":75},{"user_id":285,"name":"Caspian","steam_id":76561199041466962,"connected_time":514000000000,"state":"active","ping":41},{"user_id":279,"name":"ATL1 | TheRealMud","steam_id":76561198138312993,"connected_time":949000000000,"state":"active","ping":166},{"user_id":248,"name":"Mihy","steam_id":76561199042677419,"connected_time":3348000000000,"state":"active","ping":60},{"user_id":302,"name":"jefrey the nutral","steam_id":76561198388545003,"connected_time":105000000000,"state":"active","ping":99},{"user_id":258,"name":"Krysar","steam_id":76561198202077555,"connected_time":2977000000000,"state":"active","ping":98},{"user_id":250,"name":"Goldwalker","steam_id":76561198279461590,"connected_time":3319000000000,"state":"active","ping":102},{"user_id":203,"name":"lili","steam_id":76561199391478575,"connected_time":5801000000000,"state":"active","ping":81},{"user_id":283,"name":"Smitty Werbenjagermanjensen","steam_id":76561198065782439,"connected_time":643000000000,"state":"active","ping":99},{"user_id":303,"name":"Chi -fr","steam_id":76561198121085178,"connected_time":58000000000,"state":"active","ping":104},{"user_id":300,"name":"ryqset","steam_id":76561198349299874,"connected_time":174000000000,"state":"active","ping":111}]},{"server_id":18,"name":"Uncletopia | San Francisco | 2 | All Maps","name_short":"sfo-2","host":"sfo-1.us.uncletopia.com","port":27025,"enabled":true,"region":"us-west","cc":"us","latitude":37.77397,"longitude":-122.4313,"reserved":0,"last_update":"0001-01-01T00:00:00Z","name_a2s":"Uncletopia | San Francisco | 2 | All Maps","protocol":17,"map":"pl_badwater","folder":"tf","game":"Team Fortress","app_id":440,"player_count":23,"max_players":24,"Bots":0,"server_type":"Dedicated","server_os":"Linux","password":true,"vac":true,"version":"7932396","steam_id":85568392924470000,"keywords":["nocrits","nodmgspread","payload","uncletopia"],"game_id":440,"stv_port":27026,"stv_name":"Uncletopia | San Francisco | 2 | All Maps | STV","players":[{"user_id":53,"name":"Qrowniniee","steam_id":76561198273028245,"connected_time":6160000000000,"state":"active","ping":68},{"user_id":127,"name":"dudescore","steam_id":76561199091453555,"connected_time":1303000000000,"state":"active","ping":55},{"user_id":133,"name":"Spectral","steam_id":76561198074678801,"connected_time":863000000000,"state":"active","ping":70},{"user_id":128,"name":"gold","steam_id":76561199085827238,"connected_time":1285000000000,"state":"active","ping":70},{"user_id":91,"name":"steelzepplin","steam_id":76561197993182335,"connected_time":3450000000000,"state":"active","ping":101},{"user_id":101,"name":"JVKYSL","steam_id":76561199482157711,"connected_time":3087000000000,"state":"active","ping":96},{"user_id":92,"name":"M3L","steam_id":76561199474189433,"connected_time":3445000000000,"state":"active","ping":115},{"user_id":131,"name":"MrJolly","steam_id":76561198417637965,"connected_time":1038000000000,"state":"active","ping":128},{"user_id":132,"name":"Green_GarBear","steam_id":76561199468912415,"connected_time":1021000000000,"state":"active","ping":51},{"user_id":146,"name":"ZeeKThe3rd","steam_id":76561198190156546,"connected_time":444000000000,"state":"active","ping":48},{"user_id":74,"name":"K2f","steam_id":76561198049600563,"connected_time":4050000000000,"state":"active","ping":60},{"user_id":134,"name":"BigCheeseNips","steam_id":76561198169567089,"connected_time":851000000000,"state":"active","ping":75},{"user_id":143,"name":"Obama","steam_id":76561198194065283,"connected_time":627000000000,"state":"active","ping":55},{"user_id":125,"name":"Croxsbow","steam_id":76561198893327481,"connected_time":1399000000000,"state":"active","ping":63},{"user_id":149,"name":"Pancake Policy","steam_id":76561197970629132,"connected_time":13000000000,"state":"active","ping":61},{"user_id":138,"name":"teratoma","steam_id":76561198179249054,"connected_time":793000000000,"state":"active","ping":36},{"user_id":147,"name":"Orenji","steam_id":76561199229204857,"connected_time":302000000000,"state":"active","ping":164},{"user_id":139,"name":"Nugget","steam_id":76561198353353735,"connected_time":688000000000,"state":"active","ping":59},{"user_id":84,"name":"Jelo Waso","steam_id":76561198261929108,"connected_time":3655000000000,"state":"active","ping":115},{"user_id":140,"name":"Shalom","steam_id":76561198410005222,"connected_time":675000000000,"state":"active","ping":62},{"user_id":141,"name":"Lord Shit Fuck","steam_id":76561199191345780,"connected_time":664000000000,"state":"active","ping":52},{"user_id":142,"name":"Igrium","steam_id":76561198119549811,"connected_time":664000000000,"state":"active","ping":54},{"user_id":148,"name":"caca sniffer","steam_id":76561199099914725,"connected_time":218000000000,"state":"active","ping":73}]},{"server_id":19,"name":"Uncletopia | San Francisco | 3 | Stopwatch Beta","name_short":"sfo-3","host":"sfo-1.us.uncletopia.com","port":27035,"enabled":true,"region":"us-west","cc":"us","latitude":37.77397,"longitude":-122.4313,"reserved":0,"last_update":"0001-01-01T00:00:00Z","name_a2s":"Uncletopia | San Francisco | 3 | Stopwatch Beta","protocol":17,"map":"cp_process_final","folder":"tf","game":"Team Fortress","app_id":440,"player_count":0,"max_players":24,"Bots":0,"server_type":"Dedicated","server_os":"Linux","password":true,"vac":true,"version":"7932396","steam_id":85568392924742824,"keywords":["cp","nocrits","nodmgspread","uncletopia"],"game_id":440,"stv_port":27036,"stv_name":"Uncletopia | San Francisco | 3 | Stopwatch Beta | STV","players":null},{"server_id":20,"name":"Uncletopia | San Francisco | 4 | Community","name_short":"sfo-4","host":"sfo-1.us.uncletopia.com","port":27045,"enabled":true,"region":"us-west","cc":"us","latitude":37.77397,"longitude":-122.4313,"reserved":0,"last_update":"0001-01-01T00:00:00Z","name_a2s":"Uncletopia | San Francisco | 4 | Community","protocol":17,"map":"workshop/cp_hazyfort_rc6.ugc1365963729","folder":"tf","game":"Team Fortress","app_id":440,"player_count":0,"max_players":24,"Bots":0,"server_type":"Dedicated","server_os":"Linux","password":true,"vac":true,"version":"7932396","steam_id":85568392924742826,"keywords":["cp","nocrits","nodmgspread","uncletopia"],"game_id":440,"stv_port":27046,"stv_name":"Uncletopia | San Francisco | 4 | Community | STV","players":null},{"server_id":141,"name":"Uncletopia | Sydney | 1 | All Maps","name_short":"syd-1","host":"syd-1.au.uncletopia.com","port":27015,"enabled":true,"region":"au","cc":"au","latitude":-33.865143,"longitude":151.2099,"reserved":0,"last_update":"0001-01-01T00:00:00Z","name_a2s":"Uncletopia | Sydney | 1 | All Maps","protocol":17,"map":"koth_viaduct","folder":"tf","game":"Team Fortress","app_id":440,"player_count":1,"max_players":24,"Bots":0,"server_type":"Dedicated","server_os":"Linux","password":true,"vac":true,"version":"7932396","steam_id":85568392924470001,"keywords":["cp","nocrits","nodmgspread","uncletopia"],"game_id":440,"stv_port":27016,"stv_name":"Uncletopia | Sydney | 1 | All Maps | STV","players":[{"user_id":7,"name":"Michaelsoft Binbows","steam_id":76561198422847304,"connected_time":83000000000,"state":"active","ping":69}]},{"server_id":123,"name":"Uncletopia | Sydney | 2 | All Maps","name_short":"syd-2","host":"syd-1.au.uncletopia.com","port":27025,"enabled":true,"region":"au","cc":"au","latitude":-33.865143,"longitude":151.2099,"reserved":0,"last_update":"0001-01-01T00:00:00Z","name_a2s":"Uncletopia | Sydney | 2 | All Maps","protocol":17,"map":"koth_lakeside_final","folder":"tf","game":"Team Fortress","app_id":440,"player_count":0,"max_players":24,"Bots":0,"server_type":"Dedicated","server_os":"Linux","password":true,"vac":true,"version":"7932396","steam_id":85568392924470002,"keywords":["cp","nocrits","nodmgspread","uncletopia"],"game_id":440,"stv_port":27026,"stv_name":"Uncletopia | Sydney | 2 | All Maps | STV","players":null},{"server_id":395,"name":"Uncletopia | Sydney | 3 | All Maps","name_short":"syd-3","host":"syd-1.au.uncletopia.com","port":27035,"enabled":true,"region":"au","cc":"au","latitude":-33.865143,"longitude":151.2099,"reserved":0,"last_update":"0001-01-01T00:00:00Z","name_a2s":"Uncletopia | Sydney | 3 | All Maps","protocol":17,"map":"pl_badwater","folder":"tf","game":"Team Fortress","app_id":440,"player_count":0,"max_players":24,"Bots":0,"server_type":"Dedicated","server_os":"Linux","password":true,"vac":true,"version":"7932396","steam_id":85568392925194467,"keywords":["nocrits","nodmgspread","payload","uncletopia"],"game_id":440,"stv_port":27036,"stv_name":"Uncletopia | Sydney | 3 | All Maps | STV","players":null},{"server_id":396,"name":"Uncletopia | Sydney | 4 | All Maps","name_short":"syd-4","host":"syd-1.au.uncletopia.com","port":27045,"enabled":true,"region":"au","cc":"au","latitude":-33.865143,"longitude":151.2099,"reserved":0,"last_update":"0001-01-01T00:00:00Z","name_a2s":"Uncletopia | Sydney | 4 | All Maps","protocol":17,"map":"pl_pier","folder":"tf","game":"Team Fortress","app_id":440,"player_count":0,"max_players":24,"Bots":0,"server_type":"Dedicated","server_os":"Linux","password":true,"vac":true,"version":"7932396","steam_id":85568392925397958,"keywords":["nocrits","nodmgspread","payload","uncletopia"],"game_id":440,"stv_port":27046,"stv_name":"Uncletopia | Sydney | 4 | All Maps | STV","players":null},{"server_id":58,"name":"Uncletopia | Sydney | 5 | Stopwatch Beta","name_short":"syd-5","host":"syd-1.au.uncletopia.com","port":27055,"enabled":true,"region":"au","cc":"au","latitude":-33.865143,"longitude":151.2099,"reserved":0,"last_update":"0001-01-01T00:00:00Z","name_a2s":"Uncletopia | Sydney | 5 | Stopwatch Beta","protocol":17,"map":"workshop/koth_ashville_final.ugc2130459942","folder":"tf","game":"Team Fortress","app_id":440,"player_count":0,"max_players":24,"Bots":0,"server_type":"Dedicated","server_os":"Linux","password":true,"vac":true,"version":"7932396","steam_id":85568392925397959,"keywords":["cp","nocrits","nodmgspread","uncletopia"],"game_id":440,"stv_port":27056,"stv_name":"Uncletopia | Sydney | 5 | Stopwatch Beta | STV","players":null},{"server_id":59,"name":"Uncletopia | Sydney | 6 | Community","name_short":"syd-6","host":"syd-1.au.uncletopia.com","port":27065,"enabled":true,"region":"au","cc":"au","latitude":-33.865143,"longitude":151.2099,"reserved":0,"last_update":"0001-01-01T00:00:00Z","name_a2s":"Uncletopia | Sydney | 6 | Community","protocol":17,"map":"pl_badwater","folder":"tf","game":"Team Fortress","app_id":440,"player_count":0,"max_players":24,"Bots":0,"server_type":"Dedicated","server_os":"Linux","password":true,"vac":true,"version":"7932396","steam_id":85568392925397960,"keywords":["nocrits","nodmgspread","payload","uncletopia"],"game_id":440,"stv_port":27066,"stv_name":"Uncletopia | Sydney | 6 | Community | STV","players":null},{"server_id":49,"name":"Uncletopia | Warsaw | 1 | All Maps","name_short":"waw-1","host":"waw-1.pl.uncletopia.com","port":27015,"enabled":true,"region":"eu","cc":"pl","latitude":52.2297,"longitude":21.017532,"reserved":0,"last_update":"0001-01-01T00:00:00Z","name_a2s":"","protocol":0,"map":"","folder":"","game":"","app_id":0,"player_count":0,"max_players":0,"Bots":0,"server_type":"","server_os":"","password":false,"vac":false,"version":"","steam_id":0,"keywords":null,"game_id":0,"stv_port":0,"stv_name":"","players":null},{"server_id":50,"name":"Uncletopia | Warsaw | 2 | All Maps","name_short":"waw-2","host":"waw-1.pl.uncletopia.com","port":27025,"enabled":true,"region":"eu","cc":"pl","latitude":52.2297,"longitude":21.017532,"reserved":0,"last_update":"0001-01-01T00:00:00Z","name_a2s":"Uncletopia | Warsaw | 2 | All Maps","protocol":17,"map":"pl_barnblitz","folder":"tf","game":"Team Fortress","app_id":440,"player_count":0,"max_players":24,"Bots":0,"server_type":"Dedicated","server_os":"Linux","password":true,"vac":true,"version":"7932396","steam_id":85568392925397851,"keywords":["nocrits","nodmgspread","payload","uncletopia"],"game_id":440,"stv_port":27026,"stv_name":"Uncletopia | Warsaw | 2 | All Maps | STV","players":null},{"server_id":51,"name":"Uncletopia | Warsaw | 3 | All Maps","name_short":"waw-3","host":"waw-1.pl.uncletopia.com","port":27035,"enabled":true,"region":"eu","cc":"pl","latitude":52.2297,"longitude":21.017532,"reserved":0,"last_update":"0001-01-01T00:00:00Z","name_a2s":"Uncletopia | Warsaw | 3 | All Maps","protocol":17,"map":"pl_swiftwater_final1","folder":"tf","game":"Team Fortress","app_id":440,"player_count":0,"max_players":24,"Bots":0,"server_type":"Dedicated","server_os":"Linux","password":true,"vac":true,"version":"7932396","steam_id":85568392925397852,"keywords":["nocrits","nodmgspread","payload","uncletopia"],"game_id":440,"stv_port":27036,"stv_name":"Uncletopia | Warsaw | 3 | All Maps | STV","players":null},{"server_id":52,"name":"Uncletopia | Warsaw | 4 | All Maps","name_short":"waw-4","host":"waw-1.pl.uncletopia.com","port":27045,"enabled":true,"region":"eu","cc":"pl","latitude":52.2297,"longitude":21.017532,"reserved":0,"last_update":"0001-01-01T00:00:00Z","name_a2s":"Uncletopia | Warsaw | 4 | All Maps","protocol":17,"map":"pl_swiftwater_final1","folder":"tf","game":"Team Fortress","app_id":440,"player_count":0,"max_players":24,"Bots":0,"server_type":"Dedicated","server_os":"Linux","password":true,"vac":true,"version":"7932396","steam_id":85568392925397853,"keywords":["nocrits","nodmgspread","payload","uncletopia"],"game_id":440,"stv_port":27046,"stv_name":"Uncletopia | Warsaw | 4 | All Maps | STV","players":null},{"server_id":53,"name":"Uncletopia | Warsaw | 5 | Stopwatch Beta","name_short":"waw-5","host":"waw-1.pl.uncletopia.com","port":27055,"enabled":true,"region":"eu","cc":"pl","latitude":52.2297,"longitude":21.017532,"reserved":0,"last_update":"0001-01-01T00:00:00Z","name_a2s":"Uncletopia | Warsaw | 5 | Stopwatch Beta","protocol":17,"map":"koth_lakeside_final","folder":"tf","game":"Team Fortress","app_id":440,"player_count":0,"max_players":24,"Bots":0,"server_type":"Dedicated","server_os":"Linux","password":true,"vac":true,"version":"7932396","steam_id":85568392925397854,"keywords":["cp","nocrits","nodmgspread","uncletopia"],"game_id":440,"stv_port":27056,"stv_name":"Uncletopia | Warsaw | 5 | Stopwatch Beta | STV","players":null},{"server_id":54,"name":"Uncletopia | Warsaw | 6 | Community","name_short":"waw-6","host":"waw-1.pl.uncletopia.com","port":27065,"enabled":true,"region":"eu","cc":"pl","latitude":52.2297,"longitude":21.017532,"reserved":0,"last_update":"0001-01-01T00:00:00Z","name_a2s":"Uncletopia | Warsaw | 6 | Community","protocol":17,"map":"workshop/koth_ramjam_rc1.ugc459778887","folder":"tf","game":"Team Fortress","app_id":440,"player_count":0,"max_players":24,"Bots":0,"server_type":"Dedicated","server_os":"Linux","password":true,"vac":true,"version":"7932396","steam_id":85568392925397856,"keywords":["cp","nocrits","nodmgspread","uncletopia"],"game_id":440,"stv_port":27066,"stv_name":"Uncletopia | Warsaw | 6 | Community | STV","players":null}]}