{"status":true,"message":"","result":[{"server_id":9,"name":"Uncletopia | Atlanta | 1 | All Maps","name_short":"atl-1","host":"atl-1.us.uncletopia.com","port":27015,"enabled":true,"region":"us-east","cc":"us","latitude":33.753746,"longitude":-84.38633,"reserved":0,"last_update":"0001-01-01T00:00:00Z","name_a2s":"Uncletopia | Atlanta | 1 | All Maps","protocol":17,"map":"cp_mossrock","folder":"tf","game":"Team Fortress","app_id":440,"player_count":23,"max_players":24,"Bots":0,"server_type":"Dedicated","server_os":"Linux","password":true,"vac":true,"version":"7961495","steam_id":85568392924469982,"keywords":["cp","nocrits","nodmgspread","uncletopia"],"game_id":440,"stv_port":27016,"stv_name":"Uncletopia | Atlanta | 1 | All Maps | STV","players":null},{"server_id":104,"name":"Uncletopia | Atlanta | 2 | All Maps","name_short":"atl-2","host":"atl-1.us.uncletopia.com","port":27025,"enabled":true,"region":"us-east","cc":"us","latitude":33.753746,"longitude":-84.38633,"reserved":0,"last_update":"0001-01-01T00:00:00Z","name_a2s":"Uncletopia | Atlanta | 2 | All Maps","protocol":17,"map":"koth_sawmill","folder":"tf","game":"Team Fortress","app_id":440,"player_count":0,"max_players":24,"Bots":0,"server_type":"Dedicated","server_os":"Linux","password":true,"vac":true,"version":"7961495","steam_id":85568392924469983,"keywords":["cp","nocrits","nodmgspread","uncletopia"],"game_id":440,"stv_port":27026,"stv_name":"Uncletopia | Atlanta | 2 | All Maps | STV","players":null},{"server_id":400,"name":"Uncletopia | Atlanta | 3 | Stopwatch","name_short":"atl-3","host":"atl-1.us.uncletopia.com","port":27035,"enabled":true,"region":"us-east","cc":"us","latitude":33.753746,"longitude":-84.38633,"reserved":0,"last_update":"0001-01-01T00:00:00Z","name_a2s":"Uncletopia | Atlanta | 3 | Stopwatch","protocol":17,"map":"koth_ramjam_rc1","folder":"tf","game":"Team Fortress","app_id":440,"player_count":0,"max_players":24,"Bots":0,"server_type":"Dedicated","server_os":"Linux","password":true,"vac":true,"version":"7961495","steam_id":85568392924515187,"keywords":["cp","nocrits","nodmgspread","uncletopia"],"game_id":440,"stv_port":27036,"stv_name":"Uncletopia | Atlanta | 3 | Stopwatch | STV","players":null},{"server_id":401,"name":"Uncletopia | Atlanta | 4 | Community","name_short":"atl-4","host":"atl-1.us.uncletopia.com","port":27045,"enabled":true,"region":"us-east","cc":"us","latitude":33.753746,"longitude":-84.38633,"reserved":0,"last_update":"0001-01-01T00:00:00Z","name_a2s":"Uncletopia | Atlanta | 4 | Community","protocol":17,"map":"koth_slaughter_rc1","folder":"tf","game":"Team Fortress","app_id":440,"player_count":2,"max_players":24,"Bots":0,"server_type":"Dedicated","server_os":"Linux","password":true,"vac":true,"version":"7961495","steam_id":85568392924515188,"keywords":["cp","nocrits","nodmgspread","uncletopia"],"game_id":440,"stv_port":27046,"stv_name":"Uncletopia | Atlanta | 4 | Community | STV","players":null},{"server_id":2,"name":"Uncletopia | Chicago | 1 | All Maps","name_short":"chi-1","host":"chi-1.us.uncletopia.com","port":27015,"enabled":true,"region":"us-central","cc":"us","latitude":41.881832,"longitude":-87.62318,"reserved":0,"last_update":"0001-01-01T00:00:00Z","name_a2s":"Uncletopia | Chicago | 1 | All Maps","protocol":17,"map":"pl_pier","folder":"tf","game":"Team Fortress","app_id":440,"player_count":23,"max_players":24,"Bots":0,"server_type":"Dedicated","server_os":"Linux","password":true,"vac":true,"version":"7961495","steam_id":85568392924469984,"keywords":["nocrits","nodmgspread","payload","uncletopia"],"game_id":440,"stv_port":27016,"stv_name":"Uncletopia | Chicago | 1 | All Maps | STV","players":[{"user_id":759,"name":"wile","steam_id":76561198125261443,"connected_time":469000000000,"state":"active","ping":112},{"user_id":765,"name":"rudy","steam_id":76561198088712799,"connected_time":311000000000,"state":"active","ping":76},{"user_id":749,"name":"Sheep","steam_id":76561198161218914,"connected_time":901000000000,"state":"active","ping":93},{"user_id":731,"name":"lalalemons","steam_id":76561198243965308,"connected_time":2265000000000,"state":"active","ping":69},{"user_id":760,"name":"gay furry cumflation","steam_id":76561199495570478,"connected_time":452000000000,"state":"active","ping":120},{"user_id":716,"name":"sooty","steam_id":76561198830243167,"connected_time":2610000000000,"state":"active","ping":72},{"user_id":737,"name":"evilclownattack","steam_id":76561198001627114,"connected_time":1504000000000,"state":"active","ping":71},{"user_id":761,"name":"bird with bad aim","steam_id":76561198062360755,"connected_time":446000000000,"state":"active","ping":60},{"user_id":718,"name":"SpockASD","steam_id":76561198307516731,"connected_time":2607000000000,"state":"active","ping":84},{"user_id":762,"name":"Quirinus","steam_id":76561198011516889,"connected_time":446000000000,"state":"active","ping":45},{"user_id":763,"name":"grill master","steam_id":76561198087637901,"connected_time":407000000000,"state":"active","ping":74},{"user_id":753,"name":"jeffus","steam_id":76561199347238848,"connected_time":784000000000,"state":"active","ping":105},{"user_id":770,"name":"LazySushi","steam_id":76561198043802202,"connected_time":76000000000,"state":"active","ping":48},{"user_id":768,"name":"CosmicKlown","steam_id":76561198158386235,"connected_time":240000000000,"state":"active","ping":67},{"user_id":721,"name":"flappyflap2","steam_id":76561198285048973,"connected_time":2486000000000,"state":"active","ping":60},{"user_id":771,"name":"Smells","steam_id":76561197985297402,"connected_time":18000000000,"state":"active","ping":128},{"user_id":756,"name":"Ringo x Seiran","steam_id":76561198357437908,"connected_time":634000000000,"state":"active","ping":74},{"user_id":766,"name":"BurritoCat","steam_id":76561198059822805,"connected_time":308000000000,"state":"active","ping":100},{"user_id":767,"name":"GamingJuice42","steam_id":76561198110469437,"connected_time":275000000000,"state":"active","ping":60},{"user_id":748,"name":"Leifvs","steam_id":76561198255946142,"connected_time":1184000000000,"state":"active","ping":89},{"user_id":696,"name":"alvöru","steam_id":76561198273488925,"connected_time":4368000000000,"state":"active","ping":92},{"user_id":758,"name":"Mr. Misterious","steam_id":76561198075485539,"connected_time":501000000000,"state":"active","ping":79},{"user_id":739,"name":"reis","steam_id":76561199232952016,"connected_time":1468000000000,"state":"active","ping":183}]},{"server_id":106,"name":"Uncletopia | Chicago | 2 | All Maps","name_short":"chi-2","host":"chi-1.us.uncletopia.com","port":27025,"enabled":true,"region":"us-central","cc":"us","latitude":41.881832,"longitude":-87.62318,"reserved":0,"last_update":"0001-01-01T00:00:00Z","name_a2s":"Uncletopia | Chicago | 2 | All Maps","protocol":17,"map":"pl_barnblitz","folder":"tf","game":"Team Fortress","app_id":440,"player_count":23,"max_players":24,"Bots":0,"server_type":"Dedicated","server_os":"Linux","password":true,"vac":true,"version":"7961495","steam_id":85568392924469985,"keywords":["nocrits","nodmgspread","payload","uncletopia"],"game_id":440,"stv_port":27026,"stv_name":"Uncletopia | Chicago | 2 | All Maps | STV","players":[{"user_id":689,"name":"Capt.Swag","steam_id":76561198088340994,"connected_time":1695000000000,"state":"active","ping":77},{"user_id":693,"name":"GruntRule","steam_id":76561198039987143,"connected_time":1363000000000,"state":"active","ping":82},{"user_id":690,"name":"PaD_Ding","steam_id":76561198831202965,"connected_time":1412000000000,"state":"active","ping":160},{"user_id":691,"name":"Sunflower","steam_id":76561198081223793,"connected_time":1403000000000,"state":"active","ping":56},{"user_id":692,"name":"Rambly Dambly","steam_id":76561198844496567,"connected_time":1398000000000,"state":"active","ping":60},{"user_id":728,"name":"02vg3","steam_id":76561198404320154,"connected_time":539000000000,"state":"active","ping":116},{"user_id":736,"name":"WillieMakit","steam_id":76561197985391684,"connected_time":332000000000,"state":"active","ping":121},{"user_id":747,"name":"Bulunpundunparanpan","steam_id":76561198271821839,"connected_time":21000000000,"state":"spawning","ping":332},{"user_id":698,"name":"Clownfucker","steam_id":76561198091713728,"connected_time":1025000000000,"state":"active","ping":93},{"user_id":699,"name":"Lumi","steam_id":76561198089978036,"connected_time":1025000000000,"state":"active","ping":67},{"user_id":741,"name":"es","steam_id":76561198006892337,"connected_time":219000000000,"state":"active","ping":138},{"user_id":744,"name":"._.","steam_id":76561198300316801,"connected_time":119000000000,"state":"active","ping":60},{"user_id":727,"name":"NormalManPerson","steam_id":76561198007436312,"connected_time":590000000000,"state":"active","ping":89},{"user_id":745,"name":"Gibs Degrossi","steam_id":76561198066152609,"connected_time":109000000000,"state":"active","ping":45},{"user_id":685,"name":"090-nsalih","steam_id":76561199467467873,"connected_time":2100000000000,"state":"active","ping":196},{"user_id":626,"name":"TÖZI","steam_id":76561198045268695,"connected_time":6312000000000,"state":"active","ping":83},{"user_id":732,"name":"Landshark Obliterator","steam_id":76561198070236848,"connected_time":469000000000,"state":"active","ping":57},{"user_id":718,"name":"KBoneski ♡","steam_id":76561198307409065,"connected_time":759000000000,"state":"active","ping":84},{"user_id":746,"name":"phallic tractor","steam_id":76561198361326855,"connected_time":96000000000,"state":"active","ping":60},{"user_id":721,"name":"gooch_masta","steam_id":76561198151578423,"connected_time":736000000000,"state":"active","ping":98},{"user_id":720,"name":"DeftlyDyl","steam_id":76561198098986187,"connected_time":747000000000,"state":"active","ping":58},{"user_id":738,"name":"caca sniffer","steam_id":76561199099914725,"connected_time":311000000000,"state":"active","ping":104},{"user_id":739,"name":"glubin39","steam_id":76561197972331989,"connected_time":261000000000,"state":"active","ping":60}]},{"server_id":402,"name":"Uncletopia | Chicago | 3 | All Maps","name_short":"chi-3","host":"chi-1.us.uncletopia.com","port":27035,"enabled":true,"region":"us-central","cc":"us","latitude":41.881832,"longitude":-87.62318,"reserved":0,"last_update":"0001-01-01T00:00:00Z","name_a2s":"Uncletopia | Chicago | 3 | All Maps","protocol":17,"map":"pl_borneo","folder":"tf","game":"Team Fortress","app_id":440,"player_count":24,"max_players":24,"Bots":0,"server_type":"Dedicated","server_os":"Linux","password":true,"vac":true,"version":"7961495","steam_id":85568392924515191,"keywords":["nocrits","nodmgspread","payload","uncletopia"],"game_id":440,"stv_port":27036,"stv_name":"Uncletopia | Chicago | 3 | All Maps | STV","players":[{"user_id":725,"name":"Ace Attorney","steam_id":76561198133011705,"connected_time":2826000000000,"state":"active","ping":61},{"user_id":744,"name":"The_epic_crab","steam_id":76561199121903803,"connected_time":687000000000,"state":"active","ping":92},{"user_id":707,"name":"badboy6996","steam_id":76561197969386201,"connected_time":4417000000000,"state":"active","ping":47},{"user_id":702,"name":"yomommasabitch","steam_id":76561198323217150,"connected_time":4901000000000,"state":"active","ping":60},{"user_id":743,"name":"Adolf Rizzler","steam_id":76561198392407790,"connected_time":825000000000,"state":"active","ping":81},{"user_id":727,"name":"Sipder","steam_id":76561198147474387,"connected_time":2190000000000,"state":"active","ping":57},{"user_id":741,"name":"Baegel","steam_id":76561198027447051,"connected_time":924000000000,"state":"active","ping":101},{"user_id":731,"name":"Unholy","steam_id":76561198058312481,"connected_time":1784000000000,"state":"active","ping":75},{"user_id":717,"name":"\"Psychotic Chiaki Nanami\" GF","steam_id":76561198164782653,"connected_time":3213000000000,"state":"active","ping":63},{"user_id":728,"name":"BLOCKHEAD","steam_id":76561198808224331,"connected_time":1936000000000,"state":"active","ping":125},{"user_id":718,"name":"gerg","steam_id":76561197997127387,"connected_time":3211000000000,"state":"active","ping":96},{"user_id":732,"name":"DustBowl TF2","steam_id":76561199171572966,"connected_time":1735000000000,"state":"active","ping":44},{"user_id":699,"name":"LVL","steam_id":76561198334403617,"connected_time":5014000000000,"state":"active","ping":57},{"user_id":726,"name":"gwen","steam_id":76561198046815360,"connected_time":2601000000000,"state":"active","ping":90},{"user_id":722,"name":"viagra addict","steam_id":76561198017705248,"connected_time":3086000000000,"state":"active","ping":47},{"user_id":735,"name":"Stupid Monkey =3","steam_id":76561198024580166,"connected_time":1066000000000,"state":"active","ping":101},{"user_id":678,"name":"JP\u003c3","steam_id":76561198126686695,"connected_time":7050000000000,"state":"active","ping":59},{"user_id":729,"name":"Kaluka","steam_id":76561198036861445,"connected_time":1924000000000,"state":"active","ping":67},{"user_id":736,"name":"McGruble","steam_id":76561198136317340,"connected_time":1066000000000,"state":"active","ping":89},{"user_id":709,"name":"CHIKN","steam_id":76561198277792665,"connected_time":4380000000000,"state":"active","ping":105},{"user_id":719,"name":"b","steam_id":76561198156336213,"connected_time":3209000000000,"state":"active","ping":75},{"user_id":721,"name":"social distance warrior","steam_id":76561198128992994,"connected_time":3176000000000,"state":"active","ping":89},{"user_id":745,"name":"aversa","steam_id":76561198840460101,"connected_time":592000000000,"state":"active","ping":71},{"user_id":742,"name":"ANGELHAWK3337","steam_id":76561199387122038,"connected_time":921000000000,"state":"active","ping":57}]},{"server_id":403,"name":"Uncletopia | Chicago | 4 | All Maps","name_short":"chi-4","host":"chi-1.us.uncletopia.com","port":27045,"enabled":true,"region":"us-central","cc":"us","latitude":41.881832,"longitude":-87.62318,"reserved":0,"last_update":"0001-01-01T00:00:00Z","name_a2s":"Uncletopia | Chicago | 4 | All Maps","protocol":17,"map":"cp_process_final","folder":"tf","game":"Team Fortress","app_id":440,"player_count":24,"max_players":24,"Bots":0,"server_type":"Dedicated","server_os":"Linux","password":true,"vac":true,"version":"7961495","steam_id":85568392924515193,"keywords":["cp","nocrits","nodmgspread","uncletopia"],"game_id":440,"stv_port":27046,"stv_name":"Uncletopia | Chicago | 4 | All Maps | STV","players":[{"user_id":877,"name":"Hydroxianchaos","steam_id":76561198043786828,"connected_time":107000000000,"state":"active","ping":64},{"user_id":878,"name":"selvhat","steam_id":76561198114225509,"connected_time":7000000000,"state":"spawning","ping":94},{"user_id":866,"name":"boogiedog","steam_id":76561198074678273,"connected_time":1240000000000,"state":"active","ping":57},{"user_id":860,"name":"M17","steam_id":76561198124771378,"connected_time":1672000000000,"state":"active","ping":59},{"user_id":845,"name":"kaputon","steam_id":76561198146299782,"connected_time":2697000000000,"state":"active","ping":60},{"user_id":859,"name":"the rock","steam_id":76561198046251318,"connected_time":1840000000000,"state":"active","ping":58},{"user_id":846,"name":"Kamin","steam_id":76561198255299559,"connected_time":2545000000000,"state":"active","ping":84},{"user_id":867,"name":"Fostrel","steam_id":76561198152160601,"connected_time":1212000000000,"state":"active","ping":79},{"user_id":806,"name":"SIN K4RMA","steam_id":76561198869287223,"connected_time":6007000000000,"state":"active","ping":77},{"user_id":765,"name":"kicks","steam_id":76561199228854923,"connected_time":9060000000000,"state":"active","ping":59},{"user_id":851,"name":"Smog","steam_id":76561198043705383,"connected_time":2087000000000,"state":"active","ping":74},{"user_id":837,"name":"Gammaplex","steam_id":76561198981228176,"connected_time":3224000000000,"state":"active","ping":55},{"user_id":868,"name":"lobotomized","steam_id":76561198135559825,"connected_time":1211000000000,"state":"active","ping":60},{"user_id":876,"name":"rice white","steam_id":76561198320732910,"connected_time":125000000000,"state":"active","ping":77},{"user_id":853,"name":"Lullaby","steam_id":76561198061103166,"connected_time":2033000000000,"state":"active","ping":60},{"user_id":836,"name":"MechaZard","steam_id":76561198985919768,"connected_time":3679000000000,"state":"active","ping":85},{"user_id":872,"name":"1000 Ping","steam_id":76561198098330939,"connected_time":380000000000,"state":"active","ping":124},{"user_id":879,"name":"1998 Subaru Forester","steam_id":76561198350491491,"connected_time":6000000000,"state":"spawning","ping":97},{"user_id":844,"name":"An Engineer","steam_id":76561198110381643,"connected_time":2811000000000,"state":"active","ping":74},{"user_id":874,"name":"Sigo Chambeando","steam_id":76561198025668771,"connected_time":275000000000,"state":"active","ping":135},{"user_id":861,"name":"firm worm","steam_id":76561198073103529,"connected_time":1481000000000,"state":"active","ping":76},{"user_id":875,"name":"☹","steam_id":76561198804763186,"connected_time":265000000000,"state":"active","ping":65},{"user_id":822,"name":"GreekYogurt","steam_id":76561198037671890,"connected_time":4959000000000,"state":"active","ping":116},{"user_id":871,"name":"Atomic Waffles","steam_id":76561197970935570,"connected_time":520000000000,"state":"active","ping":74}]},{"server_id":36,"name":"Uncletopia | Chicago | 5 | All Maps","name_short":"chi-5","host":"chi-2.us.uncletopia.com","port":27015,"enabled":true,"region":"us-central","cc":"us","latitude":41.881832,"longitude":-87.62318,"reserved":0,"last_update":"0001-01-01T00:00:00Z","name_a2s":"Uncletopia | Chicago | 5 | All Maps","protocol":17,"map":"pl_frontier_final","folder":"tf","game":"Team Fortress","app_id":440,"player_count":0,"max_players":24,"Bots":0,"server_type":"Dedicated","server_os":"Linux","password":true,"vac":true,"version":"7961495","steam_id":85568392924866362,"keywords":["nocrits","nodmgspread","payload","uncletopia"],"game_id":440,"stv_port":27016,"stv_name":"Uncletopia | Chicago | 5 | All Maps | STV","players":null},{"server_id":37,"name":"Uncletopia | Chicago | 6 | All Maps","name_short":"chi-6","host":"chi-2.us.uncletopia.com","port":27025,"enabled":true,"region":"us-central","cc":"us","latitude":41.881832,"longitude":-87.62318,"reserved":0,"last_update":"0001-01-01T00:00:00Z","name_a2s":"Uncletopia | Chicago | 6 | All Maps","protocol":17,"map":"cp_sunshine","folder":"tf","game":"Team Fortress","app_id":440,"player_count":17,"max_players":24,"Bots":0,"server_type":"Dedicated","server_os":"Linux","password":true,"vac":true,"version":"7961495","steam_id":85568392924866363,"keywords":["cp","nocrits","nodmgspread","uncletopia"],"game_id":440,"stv_port":27026,"stv_name":"Uncletopia | Chicago | 6 | All Maps | STV","players":[{"user_id":588,"name":"cat lesbian","steam_id":76561198012480197,"connected_time":3527000000000,"state":"active","ping":82},{"user_id":668,"name":"New Reno","steam_id":76561198156522866,"connected_time":184000000000,"state":"active","ping":89},{"user_id":589,"name":"opossum","steam_id":76561198148905570,"connected_time":3517000000000,"state":"active","ping":70},{"user_id":670,"name":"Hidden Phantom","steam_id":76561198115531799,"connected_time":109000000000,"state":"active","ping":77},{"user_id":607,"name":"Blobbyfish","steam_id":76561198822962650,"connected_time":2952000000000,"state":"active","ping":66},{"user_id":665,"name":"im spongebob","steam_id":76561198870728607,"connected_time":427000000000,"state":"active","ping":85},{"user_id":625,"name":"oblongshape2335.1","steam_id":76561198232617936,"connected_time":2132000000000,"state":"active","ping":45},{"user_id":624,"name":"Tanuki Lesbian","steam_id":76561198005989915,"connected_time":2167000000000,"state":"active","ping":94},{"user_id":626,"name":"sofa king wee todd ed","steam_id":76561198040741271,"connected_time":2107000000000,"state":"active","ping":58},{"user_id":627,"name":"slayworld soldier","steam_id":76561198037518646,"connected_time":2103000000000,"state":"active","ping":60},{"user_id":587,"name":"Xyverle","steam_id":76561198799726415,"connected_time":3738000000000,"state":"active","ping":60},{"user_id":594,"name":"Owl Bisexual","steam_id":76561198075469828,"connected_time":3468000000000,"state":"active","ping":69},{"user_id":638,"name":"SilentFootba11","steam_id":76561199006570947,"connected_time":1680000000000,"state":"active","ping":68},{"user_id":602,"name":"Lesbian Mommy","steam_id":76561198074612980,"connected_time":3178000000000,"state":"active","ping":91},{"user_id":571,"name":"toastman","steam_id":76561198207073088,"connected_time":5332000000000,"state":"active","ping":64},{"user_id":598,"name":"Mint Jelly","steam_id":76561197991286751,"connected_time":3420000000000,"state":"active","ping":46},{"user_id":572,"name":"Anna","steam_id":76561199071867217,"connected_time":5332000000000,"state":"active","ping":60}]},{"server_id":38,"name":"Uncletopia | Chicago | 7 | Stopwatch","name_short":"chi-7","host":"chi-2.us.uncletopia.com","port":27035,"enabled":true,"region":"us-central","cc":"us","latitude":41.881832,"longitude":-87.62318,"reserved":0,"last_update":"0001-01-01T00:00:00Z","name_a2s":"Uncletopia | Chicago | 7 | Stopwatch","protocol":17,"map":"workshop/koth_clearcut_b15.ugc2107050255","folder":"tf","game":"Team Fortress","app_id":440,"player_count":0,"max_players":24,"Bots":0,"server_type":"Dedicated","server_os":"Linux","password":true,"vac":true,"version":"7961495","steam_id":85568392924866364,"keywords":["cp","nocrits","nodmgspread","uncletopia"],"game_id":440,"stv_port":27036,"stv_name":"Uncletopia | Chicago | 7 | Stopwatch | STV","players":null},{"server_id":39,"name":"Uncletopia | Chicago | 8 | Community","name_short":"chi-8","host":"chi-2.us.uncletopia.com","port":27045,"enabled":true,"region":"us-central","cc":"us","latitude":41.881832,"longitude":-87.62318,"reserved":0,"last_update":"0001-01-01T00:00:00Z","name_a2s":"Uncletopia | Chicago | 8 | Community","protocol":17,"map":"workshop/koth_ramjam_rc1.ugc459778887","folder":"tf","game":"Team Fortress","app_id":440,"player_count":0,"max_players":24,"Bots":0,"server_type":"Dedicated","server_os":"Linux","password":true,"vac":true,"version":"7961495","steam_id":85568392924866365,"keywords":["cp","nocrits","nodmgspread","uncletopia"],"game_id":440,"stv_port":27046,"stv_name":"Uncletopia | Chicago | 8 | Community | STV","players":null},{"server_id":8,"name":"Uncletopia | Dallas | 1 | All Maps","name_short":"dal-1","host":"dal-1.us.uncletopia.com","port":27015,"enabled":true,"region":"us-central","cc":"us","latitude":32.779167,"longitude":-96.80889,"reserved":0,"last_update":"0001-01-01T00:00:00Z","name_a2s":"Uncletopia | Dallas | 1 | All Maps","protocol":17,"map":"pl_pier","folder":"tf","game":"Team Fortress","app_id":440,"player_count":24,"max_players":24,"Bots":0,"server_type":"Dedicated","server_os":"Linux","password":true,"vac":true,"version":"7961495","steam_id":85568392924469986,"keywords":["nocrits","nodmgspread","payload","uncletopia"],"game_id":440,"stv_port":27016,"stv_name":"Uncletopia | Dallas | 1 | All Maps | STV","players":[{"user_id":668,"name":"Rick St. Riot","steam_id":76561198058891470,"connected_time":1100000000000,"state":"active","ping":82},{"user_id":636,"name":"Zaid","steam_id":76561199142840666,"connected_time":4109000000000,"state":"active","ping":143},{"user_id":663,"name":"paypur -rng","steam_id":76561198214370515,"connected_time":2055000000000,"state":"active","ping":73},{"user_id":677,"name":"xXPhantomBloodXx","steam_id":76561199357691447,"connected_time":399000000000,"state":"active","ping":119},{"user_id":664,"name":"Nero25","steam_id":76561198027720631,"connected_time":1505000000000,"state":"active","ping":112},{"user_id":670,"name":"mbell1199","steam_id":76561198827517736,"connected_time":838000000000,"state":"active","ping":58},{"user_id":567,"name":"Vaun Leon","steam_id":76561199223266577,"connected_time":11369000000000,"state":"active","ping":74},{"user_id":637,"name":"Railly","steam_id":76561198357355915,"connected_time":3960000000000,"state":"active","ping":86},{"user_id":669,"name":"The Notorious Nutter","steam_id":76561198145058709,"connected_time":1018000000000,"state":"active","ping":56},{"user_id":667,"name":"sans undertale","steam_id":76561199128903858,"connected_time":1202000000000,"state":"active","ping":86},{"user_id":671,"name":"Datguy","steam_id":76561198009429780,"connected_time":819000000000,"state":"active","ping":99},{"user_id":647,"name":"karlonieva2005","steam_id":76561199098573261,"connected_time":3297000000000,"state":"active","ping":77},{"user_id":666,"name":"ComradeofSucc","steam_id":76561198076025718,"connected_time":1405000000000,"state":"active","ping":72},{"user_id":672,"name":"saucy jack","steam_id":76561198307012859,"connected_time":788000000000,"state":"active","ping":113},{"user_id":679,"name":"Seojer","steam_id":76561198234965408,"connected_time":97000000000,"state":"active","ping":146},{"user_id":676,"name":"RighteousAlarm","steam_id":76561198998502202,"connected_time":674000000000,"state":"active","ping":106},{"user_id":673,"name":"MoonWolf","steam_id":76561198095735033,"connected_time":757000000000,"state":"active","ping":70},{"user_id":602,"name":"BADWOLF42","steam_id":76561198055447523,"connected_time":7617000000000,"state":"active","ping":56},{"user_id":661,"name":"The Roto Grip Exotic Gem","steam_id":76561197961141994,"connected_time":2110000000000,"state":"active","ping":137},{"user_id":674,"name":"Artic_Ryuu","steam_id":76561198182194918,"connected_time":754000000000,"state":"active","ping":72},{"user_id":624,"name":"Rira","steam_id":76561197995224164,"connected_time":5596000000000,"state":"active","ping":75},{"user_id":625,"name":"poopshitter420","steam_id":76561198074624639,"connected_time":5441000000000,"state":"active","ping":67},{"user_id":572,"name":"Hedless","steam_id":76561197992723400,"connected_time":10602000000000,"state":"active","ping":87},{"user_id":654,"name":"The Sex Defender","steam_id":76561198152976188,"connected_time":2843000000000,"state":"active","ping":84}]},{"server_id":108,"name":"Uncletopia | Dallas | 2 | All Maps","name_short":"dal-2","host":"dal-1.us.uncletopia.com","port":27025,"enabled":true,"region":"us-central","cc":"us","latitude":32.779167,"longitude":-96.80889,"reserved":0,"last_update":"0001-01-01T00:00:00Z","name_a2s":"Uncletopia | Dallas | 2 | All Maps","protocol":17,"map":"pl_pier","folder":"tf","game":"Team Fortress","app_id":440,"player_count":4,"max_players":24,"Bots":0,"server_type":"Dedicated","server_os":"Linux","password":true,"vac":true,"version":"7961495","steam_id":85568392924469988,"keywords":["nocrits","nodmgspread","payload","uncletopia"],"game_id":440,"stv_port":27026,"stv_name":"Uncletopia | Dallas | 2 | All Maps | STV","players":[{"user_id":595,"name":"Cynicalrage #TF2center","steam_id":76561198085805532,"connected_time":409000000000,"state":"active","ping":78},{"user_id":596,"name":"shield","steam_id":76561198976876859,"connected_time":97000000000,"state":"active","ping":88},{"user_id":593,"name":"seats","steam_id":76561197998756039,"connected_time":2018000000000,"state":"active","ping":60},{"user_id":577,"name":"Saintlike #SaveTF2","steam_id":76561198368576108,"connected_time":3102000000000,"state":"active","ping":85}]},{"server_id":404,"name":"Uncletopia | Dallas | 3 | All Maps","name_short":"dal-3","host":"dal-1.us.uncletopia.com","port":27035,"enabled":true,"region":"us-central","cc":"us","latitude":32.779167,"longitude":-96.80889,"reserved":0,"last_update":"0001-01-01T00:00:00Z","name_a2s":"Uncletopia | Dallas | 3 | All Maps","protocol":17,"map":"cp_sunshine","folder":"tf","game":"Team Fortress","app_id":440,"player_count":0,"max_players":24,"Bots":0,"server_type":"Dedicated","server_os":"Linux","password":true,"vac":true,"version":"7961495","steam_id":85568392924515219,"keywords":["cp","nocrits","nodmgspread","uncletopia"],"game_id":440,"stv_port":27036,"stv_name":"Uncletopia | Dallas | 3 | All Maps | STV","players":null},{"server_id":405,"name":"Uncletopia | Dallas | 4 | Community","name_short":"dal-4","host":"dal-1.us.uncletopia.com","port":27045,"enabled":true,"region":"us-central","cc":"us","latitude":32.779167,"longitude":-96.80889,"reserved":0,"last_update":"0001-01-01T00:00:00Z","name_a2s":"Uncletopia | Dallas | 4 | Community","protocol":17,"map":"workshop/koth_bagel_rc6.ugc2514036946","folder":"tf","game":"Team Fortress","app_id":440,"player_count":0,"max_players":24,"Bots":0,"server_type":"Dedicated","server_os":"Linux","password":true,"vac":true,"version":"7961495","steam_id":85568392924515220,"keywords":["cp","nocrits","nodmgspread","uncletopia"],"game_id":440,"stv_port":27046,"stv_name":"Uncletopia | Dallas | 4 | Community | STV","players":null},{"server_id":5,"name":"Uncletopia | Frankfurt | 1 | All Maps","name_short":"frk-1","host":"frk-1.de.uncletopia.com","port":27015,"enabled":true,"region":"eu","cc":"de","latitude":50.110924,"longitude":8.682127,"reserved":0,"last_update":"0001-01-01T00:00:00Z","name_a2s":"Uncletopia | Frankfurt | 1 | All Maps","protocol":17,"map":"koth_highpass","folder":"tf","game":"Team Fortress","app_id":440,"player_count":0,"max_players":24,"Bots":0,"server_type":"Dedicated","server_os":"Linux","password":true,"vac":true,"version":"7961495","steam_id":85568392924469989,"keywords":["cp","nocrits","nodmgspread","uncletopia"],"game_id":440,"stv_port":27016,"stv_name":"Uncletopia | Frankfurt | 1 | All Maps | STV","players":null},{"server_id":110,"name":"Uncletopia | Frankfurt | 2 | All Maps","name_short":"frk-2","host":"frk-1.de.uncletopia.com","port":27025,"enabled":true,"region":"eu","cc":"de","latitude":50.110924,"longitude":8.682127,"reserved":0,"last_update":"0001-01-01T00:00:00Z","name_a2s":"Uncletopia | Frankfurt | 2 | All Maps","protocol":17,"map":"cp_dustbowl","folder":"tf","game":"Team Fortress","app_id":440,"player_count":0,"max_players":24,"Bots":0,"server_type":"Dedicated","server_os":"Linux","password":true,"vac":true,"version":"7961495","steam_id":85568392924469990,"keywords":["cp","nocrits","nodmgspread","uncletopia"],"game_id":440,"stv_port":27026,"stv_name":"Uncletopia | Frankfurt | 2 | All Maps | STV","players":null},{"server_id":308,"name":"Uncletopia | Frankfurt | 3 | All Maps","name_short":"frk-3","host":"frk-1.de.uncletopia.com","port":27035,"enabled":true,"region":"eu","cc":"de","latitude":50.110924,"longitude":8.682127,"reserved":0,"last_update":"0001-01-01T00:00:00Z","name_a2s":"Uncletopia | Frankfurt | 3 | All Maps","protocol":17,"map":"pl_barnblitz","folder":"tf","game":"Team Fortress","app_id":440,"player_count":0,"max_players":24,"Bots":0,"server_type":"Dedicated","server_os":"Linux","password":true,"vac":true,"version":"7961495","steam_id":85568392924504274,"keywords":["nocrits","nodmgspread","payload","uncletopia"],"game_id":440,"stv_port":27036,"stv_name":"Uncletopia | Frankfurt | 3 | All Maps | STV","players":null},{"server_id":309,"name":"Uncletopia | Frankfurt | 4 | All Maps","name_short":"frk-4","host":"frk-1.de.uncletopia.com","port":27045,"enabled":true,"region":"eu","cc":"de","latitude":50.110924,"longitude":8.682127,"reserved":0,"last_update":"0001-01-01T00:00:00Z","name_a2s":"Uncletopia | Frankfurt | 4 | All Maps","protocol":17,"map":"koth_highpass","folder":"tf","game":"Team Fortress","app_id":440,"player_count":0,"max_players":24,"Bots":0,"server_type":"Dedicated","server_os":"Linux","password":true,"vac":true,"version":"7961495","steam_id":85568392924504275,"keywords":["cp","nocrits","nodmgspread","uncletopia"],"game_id":440,"stv_port":27046,"stv_name":"Uncletopia | Frankfurt | 4 | All Maps | STV","players":null},{"server_id":310,"name":"Uncletopia | Frankfurt | 5 | All Maps","name_short":"frk-5","host":"frk-1.de.uncletopia.com","port":27055,"enabled":true,"region":"eu","cc":"de","latitude":50.110924,"longitude":8.682127,"reserved":0,"last_update":"0001-01-01T00:00:00Z","name_a2s":"Uncletopia | Frankfurt | 5 | All Maps","protocol":17,"map":"plr_hightower","folder":"tf","game":"Team Fortress","app_id":440,"player_count":22,"max_players":24,"Bots":0,"server_type":"Dedicated","server_os":"Linux","password":true,"vac":true,"version":"7961495","steam_id":85568392924504277,"keywords":["nocrits","nodmgspread","payload","uncletopia"],"game_id":440,"stv_port":27056,"stv_name":"Uncletopia | Frankfurt | 5 | All Maps | STV","players":[{"user_id":54,"name":"Hot Bean","steam_id":76561198803639155,"connected_time":1393000000000,"state":"active","ping":85},{"user_id":66,"name":"noseb","steam_id":76561199480942903,"connected_time":871000000000,"state":"active","ping":60},{"user_id":23,"name":"DaKing","steam_id":76561197995935273,"connected_time":3109000000000,"state":"active","ping":120},{"user_id":73,"name":"Empyrean","steam_id":76561198138552502,"connected_time":80000000000,"state":"active","ping":71},{"user_id":74,"name":"WHO WAS IN PARIS?","steam_id":76561198071502515,"connected_time":0,"state":"spawning","ping":26},{"user_id":55,"name":"SOULDOG;)","steam_id":76561199212057006,"connected_time":1369000000000,"state":"active","ping":84},{"user_id":69,"name":"Qdarks","steam_id":76561198013391340,"connected_time":391000000000,"state":"active","ping":142},{"user_id":24,"name":"cestmir","steam_id":76561198083346999,"connected_time":3104000000000,"state":"active","ping":47},{"user_id":19,"name":"katten","steam_id":76561198163615254,"connected_time":3545000000000,"state":"active","ping":47},{"user_id":20,"name":"Aida","steam_id":76561198311044984,"connected_time":3509000000000,"state":"active","ping":58},{"user_id":68,"name":"Deer ❤","steam_id":76561198325775413,"connected_time":554000000000,"state":"active","ping":48},{"user_id":72,"name":"Kepucz","steam_id":76561197977634244,"connected_time":154000000000,"state":"active","ping":40},{"user_id":25,"name":"videogaming","steam_id":76561198818037965,"connected_time":3093000000000,"state":"active","ping":110},{"user_id":52,"name":"Kyuta","steam_id":76561198382281653,"connected_time":1596000000000,"state":"active","ping":69},{"user_id":31,"name":"Jennifer","steam_id":76561199474556920,"connected_time":2909000000000,"state":"active","ping":75},{"user_id":37,"name":"Jonkheervanflep","steam_id":76561198006853101,"connected_time":2497000000000,"state":"active","ping":60},{"user_id":38,"name":"Battlefield Medic","steam_id":76561198167539381,"connected_time":2469000000000,"state":"active","ping":53},{"user_id":70,"name":"Grekofun","steam_id":76561198758029808,"connected_time":286000000000,"state":"active","ping":70},{"user_id":47,"name":"ᗜˬᗜ Rei's Top Incel","steam_id":76561198237648498,"connected_time":1723000000000,"state":"spawning","ping":53},{"user_id":46,"name":"NeonPixel","steam_id":76561198165901066,"connected_time":2000000000000,"state":"active","ping":60},{"user_id":65,"name":"GlueTasty {she/her}","steam_id":76561199086480891,"connected_time":942000000000,"state":"active","ping":65},{"user_id":71,"name":"Resigner112","steam_id":76561197984261307,"connected_time":261000000000,"state":"active","ping":96}]},{"server_id":311,"name":"Uncletopia | Frankfurt | 6 | All Maps","name_short":"frk-6","host":"frk-1.de.uncletopia.com","port":27065,"enabled":true,"region":"eu","cc":"de","latitude":50.110924,"longitude":8.682127,"reserved":0,"last_update":"0001-01-01T00:00:00Z","name_a2s":"Uncletopia | Frankfurt | 6 | All Maps","protocol":17,"map":"cp_altitude","folder":"tf","game":"Team Fortress","app_id":440,"player_count":0,"max_players":24,"Bots":0,"server_type":"Dedicated","server_os":"Linux","password":true,"vac":true,"version":"7961495","steam_id":85568392924504278,"keywords":["cp","nocrits","nodmgspread","uncletopia"],"game_id":440,"stv_port":27066,"stv_name":"Uncletopia | Frankfurt | 6 | All Maps | STV","players":null},{"server_id":23,"name":"Uncletopia | Frankfurt | 7 | Stopwatch","name_short":"frk-7","host":"frk-1.de.uncletopia.com","port":27075,"enabled":true,"region":"eu","cc":"de","latitude":50.110924,"longitude":8.682127,"reserved":0,"last_update":"0001-01-01T00:00:00Z","name_a2s":"Uncletopia | Frankfurt | 7 | Stopwatch","protocol":17,"map":"pl_frontier_final","folder":"tf","game":"Team Fortress","app_id":440,"player_count":0,"max_players":24,"Bots":0,"server_type":"Dedicated","server_os":"Linux","password":true,"vac":true,"version":"7961495","steam_id":85568392924742827,"keywords":["nocrits","nodmgspread","payload","uncletopia"],"game_id":440,"stv_port":27076,"stv_name":"Uncletopia | Frankfurt | 7 | Stopwatch | STV","players":null},{"server_id":24,"name":"Uncletopia | Frankfurt | 8 | Community","name_short":"frk-8","host":"frk-1.de.uncletopia.com","port":27085,"enabled":true,"region":"eu","cc":"de","latitude":50.110924,"longitude":8.682127,"reserved":0,"last_update":"0001-01-01T00:00:00Z","name_a2s":"Uncletopia | Frankfurt | 8 | Community","protocol":17,"map":"workshop/cp_overgrown_rc8.ugc503939302","folder":"tf","game":"Team Fortress","app_id":440,"player_count":0,"max_players":24,"Bots":0,"server_type":"Dedicated","server_os":"Linux","password":true,"vac":true,"version":"7961495","steam_id":85568392924742828,"keywords":["cp","nocrits","nodmgspread","uncletopia"],"game_id":440,"stv_port":27086,"stv_name":"Uncletopia | Frankfurt | 8 | Community | STV","players":null},{"server_id":202,"name":"Uncletopia | Hong Kong | 1 | All Maps","name_short":"hgk-1","host":"hgk-1.hk.uncletopia.com","port":27015,"enabled":true,"region":"asia","cc":"hk","latitude":22.302711,"longitude":114.177216,"reserved":0,"last_update":"0001-01-01T00:00:00Z","name_a2s":"Uncletopia | Hong Kong | 1 | All Maps","protocol":17,"map":"pl_rumford_event","folder":"tf","game":"Team Fortress","app_id":440,"player_count":24,"max_players":24,"Bots":0,"server_type":"Dedicated","server_os":"Linux","password":true,"vac":true,"version":"7961495","steam_id":85568392924494504,"keywords":["nocrits","nodmgspread","payload","uncletopia"],"game_id":440,"stv_port":27016,"stv_name":"Uncletopia | Hong Kong | 1 | All Maps | STV","players":[{"user_id":84,"name":"Windmill","steam_id":76561199230997986,"connected_time":9413000000000,"state":"active","ping":69},{"user_id":166,"name":"NOPE","steam_id":76561199244543572,"connected_time":510000000000,"state":"active","ping":60},{"user_id":148,"name":"xPhid","steam_id":76561199080808930,"connected_time":2035000000000,"state":"active","ping":88},{"user_id":143,"name":"penis muncher","steam_id":76561199205335227,"connected_time":2457000000000,"state":"active","ping":64},{"user_id":161,"name":"MANCO FETT","steam_id":76561198107128889,"connected_time":523000000000,"state":"active","ping":86},{"user_id":126,"name":"Davey Jone's Locker","steam_id":76561199049981494,"connected_time":3931000000000,"state":"active","ping":44},{"user_id":58,"name":"Corbezy","steam_id":76561197993398349,"connected_time":11546000000000,"state":"active","ping":98},{"user_id":124,"name":"god of cum (platinum cum arc)","steam_id":76561199161406614,"connected_time":4227000000000,"state":"active","ping":89},{"user_id":146,"name":"JDSFE","steam_id":76561198975490851,"connected_time":2102000000000,"state":"active","ping":85},{"user_id":170,"name":"SunShine","steam_id":76561198323642446,"connected_time":268000000000,"state":"active","ping":90},{"user_id":85,"name":"yvethpostin","steam_id":76561198320532821,"connected_time":9293000000000,"state":"active","ping":55},{"user_id":127,"name":"ArcticDolphin","steam_id":76561198203626319,"connected_time":3829000000000,"state":"active","ping":147},{"user_id":167,"name":"juice","steam_id":76561199009556495,"connected_time":466000000000,"state":"active","ping":102},{"user_id":140,"name":"feet fetish","steam_id":76561198164297839,"connected_time":2658000000000,"state":"active","ping":79},{"user_id":104,"name":"123456","steam_id":76561198333809604,"connected_time":7464000000000,"state":"active","ping":74},{"user_id":150,"name":"wom","steam_id":76561199375834537,"connected_time":1593000000000,"state":"active","ping":83},{"user_id":168,"name":"Rafelandroid2","steam_id":76561198349807521,"connected_time":385000000000,"state":"active","ping":98},{"user_id":135,"name":"Nephew Nate","steam_id":76561199137872034,"connected_time":3033000000000,"state":"active","ping":102},{"user_id":159,"name":"Hay","steam_id":76561199438952901,"connected_time":543000000000,"state":"active","ping":58},{"user_id":88,"name":"silverhouse7 | A |","steam_id":76561198349634906,"connected_time":9081000000000,"state":"active","ping":128},{"user_id":171,"name":"flying rocket","steam_id":76561199401766251,"connected_time":234000000000,"state":"active","ping":75},{"user_id":153,"name":"Bezerk","steam_id":76561198247793836,"connected_time":1576000000000,"state":"active","ping":114},{"user_id":110,"name":"im_0ff","steam_id":76561198339346695,"connected_time":6958000000000,"state":"active","ping":127},{"user_id":157,"name":"dasglizzygobbler!","steam_id":76561198093314100,"connected_time":871000000000,"state":"active","ping":80}]},{"server_id":1,"name":"Uncletopia | Los Angeles | 1 | All Maps","name_short":"lax-1","host":"lax-1.us.uncletopia.com","port":27015,"enabled":true,"region":"us-west","cc":"us","latitude":33.94279,"longitude":-118.41004,"reserved":0,"last_update":"0001-01-01T00:00:00Z","name_a2s":"Uncletopia | Los Angeles | 1 | All Maps","protocol":17,"map":"pl_thundermountain","folder":"tf","game":"Team Fortress","app_id":440,"player_count":24,"max_players":24,"Bots":0,"server_type":"Dedicated","server_os":"Linux","password":true,"vac":true,"version":"7961495","steam_id":85568392924469991,"keywords":["nocrits","nodmgspread","payload","uncletopia"],"game_id":440,"stv_port":27016,"stv_name":"Uncletopia | Los Angeles | 1 | All Maps | STV","players":[{"user_id":893,"name":"armdouz","steam_id":76561199170540341,"connected_time":3337000000000,"state":"active","ping":57},{"user_id":872,"name":"vvitch","steam_id":76561198279661941,"connected_time":4034000000000,"state":"active","ping":45},{"user_id":895,"name":"costco hot dog","steam_id":76561199112000229,"connected_time":2931000000000,"state":"active","ping":77},{"user_id":910,"name":"Bodhi","steam_id":76561198043199143,"connected_time":1727000000000,"state":"active","ping":58},{"user_id":873,"name":"a chicken","steam_id":76561198313121580,"connected_time":3756000000000,"state":"active","ping":46},{"user_id":913,"name":"64","steam_id":76561199496059845,"connected_time":926000000000,"state":"active","ping":109},{"user_id":879,"name":"Octo","steam_id":76561198024056355,"connected_time":3643000000000,"state":"active","ping":52},{"user_id":909,"name":"gamer_cruncher","steam_id":76561198973306314,"connected_time":1835000000000,"state":"active","ping":54},{"user_id":918,"name":"armeen","steam_id":76561198168492250,"connected_time":61000000000,"state":"active","ping":43},{"user_id":878,"name":"spy's flat ass","steam_id":76561198163164053,"connected_time":3655000000000,"state":"active","ping":154},{"user_id":888,"name":"jimmy outlaw","steam_id":76561198070380402,"connected_time":3481000000000,"state":"active","ping":117},{"user_id":914,"name":"deokemi","steam_id":76561199480055194,"connected_time":760000000000,"state":"active","ping":59},{"user_id":911,"name":"Rock Kickass","steam_id":76561198450510841,"connected_time":1672000000000,"state":"active","ping":85},{"user_id":880,"name":"Fireheart","steam_id":76561198171109323,"connected_time":3636000000000,"state":"active","ping":53},{"user_id":858,"name":"Satori Komeiji","steam_id":76561198158211423,"connected_time":5612000000000,"state":"active","ping":51},{"user_id":881,"name":"Kng","steam_id":76561198993248203,"connected_time":3636000000000,"state":"active","ping":114},{"user_id":912,"name":"FROYO b4nny","steam_id":76561197970669109,"connected_time":1103000000000,"state":"active","ping":46},{"user_id":897,"name":"Whisper!","steam_id":76561198119609795,"connected_time":2876000000000,"state":"active","ping":54},{"user_id":884,"name":"Savaqa","steam_id":76561198158016688,"connected_time":3546000000000,"state":"active","ping":54},{"user_id":917,"name":"Feldspaten","steam_id":76561199122059102,"connected_time":300000000000,"state":"active","ping":122},{"user_id":915,"name":"skel","steam_id":76561198106291969,"connected_time":624000000000,"state":"active","ping":105},{"user_id":889,"name":"happer","steam_id":76561198018252253,"connected_time":3479000000000,"state":"active","ping":55},{"user_id":840,"name":"ChiMaTa","steam_id":76561198067166198,"connected_time":6163000000000,"state":"active","ping":105},{"user_id":890,"name":"risoray","steam_id":76561198351900955,"connected_time":3470000000000,"state":"active","ping":52}]},{"server_id":112,"name":"Uncletopia | Los Angeles | 2 | All Maps","name_short":"lax-2","host":"lax-1.us.uncletopia.com","port":27025,"enabled":true,"region":"us-west","cc":"us","latitude":33.94279,"longitude":-118.41004,"reserved":0,"last_update":"0001-01-01T00:00:00Z","name_a2s":"Uncletopia | Los Angeles | 2 | All Maps","protocol":17,"map":"pl_frontier_final","folder":"tf","game":"Team Fortress","app_id":440,"player_count":24,"max_players":24,"Bots":0,"server_type":"Dedicated","server_os":"Linux","password":true,"vac":true,"version":"7961495","steam_id":85568392924469992,"keywords":["nocrits","nodmgspread","payload","uncletopia"],"game_id":440,"stv_port":27026,"stv_name":"Uncletopia | Los Angeles | 2 | All Maps | STV","players":[{"user_id":354,"name":"Mastercrazybird","steam_id":76561198085747599,"connected_time":1705000000000,"state":"active","ping":58},{"user_id":349,"name":"bf","steam_id":76561198026032347,"connected_time":1854000000000,"state":"active","ping":55},{"user_id":355,"name":"Bing Soy","steam_id":76561199091381775,"connected_time":1695000000000,"state":"active","ping":49},{"user_id":356,"name":"dweamy","steam_id":76561198119181880,"connected_time":1671000000000,"state":"active","ping":78},{"user_id":346,"name":"Mo","steam_id":76561198035399708,"connected_time":2000000000000,"state":"active","ping":48},{"user_id":378,"name":"Dragoncreepy17","steam_id":76561199041545533,"connected_time":169000000000,"state":"active","ping":63},{"user_id":347,"name":"Oryx, Nightmare Daddy","steam_id":76561197989271492,"connected_time":1974000000000,"state":"active","ping":61},{"user_id":319,"name":"Skarp129","steam_id":76561198108679057,"connected_time":5435000000000,"state":"active","ping":46},{"user_id":363,"name":"bulletproofdog2","steam_id":76561199123661226,"connected_time":1511000000000,"state":"active","ping":98},{"user_id":303,"name":"for eel? on cod? no carp?","steam_id":76561198095121758,"connected_time":7096000000000,"state":"active","ping":53},{"user_id":350,"name":"Transgender Spider Priestess","steam_id":76561198111286397,"connected_time":1844000000000,"state":"active","ping":69},{"user_id":351,"name":"Lj3online","steam_id":76561198009960926,"connected_time":1840000000000,"state":"active","ping":69},{"user_id":376,"name":"Caker1234","steam_id":76561198871989710,"connected_time":305000000000,"state":"active","ping":56},{"user_id":352,"name":"Bocchi the Rock Johnson","steam_id":76561198216017952,"connected_time":1833000000000,"state":"active","ping":130},{"user_id":333,"name":"bigpoo (lean addict)","steam_id":76561198864139320,"connected_time":3639000000000,"state":"active","ping":150},{"user_id":353,"name":"Vaccine Eater","steam_id":76561198026301425,"connected_time":1723000000000,"state":"active","ping":59},{"user_id":289,"name":"紅鬍子","steam_id":76561198072410042,"connected_time":9279000000000,"state":"active","ping":50},{"user_id":364,"name":"Ma dick itchy","steam_id":76561199080912379,"connected_time":1498000000000,"state":"active","ping":68},{"user_id":379,"name":"Pizza Delivery Maid","steam_id":76561198444610862,"connected_time":119000000000,"state":"active","ping":67},{"user_id":380,"name":"The Inn of Ill Omen","steam_id":76561198042402172,"connected_time":110000000000,"state":"active","ping":102},{"user_id":367,"name":"Alejandro","steam_id":76561197970051493,"connected_time":1466000000000,"state":"active","ping":159},{"user_id":375,"name":"Squids023","steam_id":76561199013031576,"connected_time":331000000000,"state":"active","ping":74},{"user_id":377,"name":"pwadvisor1","steam_id":76561199230039839,"connected_time":291000000000,"state":"active","ping":62},{"user_id":374,"name":"Moonshine","steam_id":76561198068859240,"connected_time":1208000000000,"state":"active","ping":74}]},{"server_id":324,"name":"Uncletopia | Los Angeles | 3 | All Maps","name_short":"lax-3","host":"lax-1.us.uncletopia.com","port":27035,"enabled":true,"region":"us-west","cc":"us","latitude":33.94279,"longitude":-118.41004,"reserved":0,"last_update":"0001-01-01T00:00:00Z","name_a2s":"Uncletopia | Los Angeles | 3 | All Maps","protocol":17,"map":"cp_mountainlab","folder":"tf","game":"Team Fortress","app_id":440,"player_count":24,"max_players":24,"Bots":0,"server_type":"Dedicated","server_os":"Linux","password":true,"vac":true,"version":"7961495","steam_id":85568392924510198,"keywords":["cp","nocrits","nodmgspread","uncletopia"],"game_id":440,"stv_port":27036,"stv_name":"Uncletopia | Los Angeles | 3 | All Maps | STV","players":[{"user_id":157,"name":"Wick","steam_id":76561198062996360,"connected_time":2763000000000,"state":"active","ping":66},{"user_id":149,"name":"ROGUE-PLANET","steam_id":76561198116023052,"connected_time":3408000000000,"state":"active","ping":78},{"user_id":185,"name":"vuldrin","steam_id":76561198383695069,"connected_time":920000000000,"state":"active","ping":61},{"user_id":156,"name":"brando_not_lando","steam_id":76561198163197384,"connected_time":2784000000000,"state":"active","ping":54},{"user_id":162,"name":"TüCold","steam_id":76561198111278197,"connected_time":2557000000000,"state":"active","ping":62},{"user_id":186,"name":"CaiGaming","steam_id":76561198313023508,"connected_time":893000000000,"state":"active","ping":67},{"user_id":135,"name":"greens beans","steam_id":76561198153611491,"connected_time":5259000000000,"state":"active","ping":68},{"user_id":187,"name":"kwetzal","steam_id":76561198845749671,"connected_time":871000000000,"state":"active","ping":73},{"user_id":164,"name":"Seshreb","steam_id":76561198846614634,"connected_time":2507000000000,"state":"active","ping":58},{"user_id":158,"name":"ඞ⁧⁧OͭnͪeͤTrueDev","steam_id":76561198107400823,"connected_time":2744000000000,"state":"active","ping":102},{"user_id":159,"name":"fried rice","steam_id":76561198928939100,"connected_time":2691000000000,"state":"active","ping":100},{"user_id":193,"name":"The Piss Warrior","steam_id":76561198151927029,"connected_time":655000000000,"state":"active","ping":86},{"user_id":188,"name":"lightsword24","steam_id":76561198227552556,"connected_time":842000000000,"state":"active","ping":78},{"user_id":198,"name":"CMC","steam_id":76561198065859204,"connected_time":245000000000,"state":"active","ping":103},{"user_id":178,"name":"Generator","steam_id":76561198011762257,"connected_time":1908000000000,"state":"active","ping":128},{"user_id":189,"name":"RadioRave","steam_id":76561198240837534,"connected_time":835000000000,"state":"active","ping":54},{"user_id":190,"name":"sleepytuna12","steam_id":76561199258347093,"connected_time":803000000000,"state":"active","ping":40},{"user_id":196,"name":"Tralf Hardy","steam_id":76561197973818765,"connected_time":567000000000,"state":"active","ping":69},{"user_id":182,"name":"Snoopy","steam_id":76561198273735974,"connected_time":1736000000000,"state":"active","ping":97},{"user_id":183,"name":"mine diam","steam_id":76561198119123981,"connected_time":1349000000000,"state":"active","ping":74},{"user_id":194,"name":"Shopkeeper","steam_id":76561198105888756,"connected_time":645000000000,"state":"active","ping":52},{"user_id":195,"name":"M_Zuy","steam_id":76561199005898955,"connected_time":634000000000,"state":"active","ping":60},{"user_id":170,"name":"Garfelf","steam_id":76561198419850129,"connected_time":2385000000000,"state":"active","ping":76},{"user_id":184,"name":"Phantom Thief","steam_id":76561198254482947,"connected_time":1020000000000,"state":"active","ping":54}]},{"server_id":25,"name":"Uncletopia | Los Angeles | 4 | Stopwatch","name_short":"lax-4","host":"lax-1.us.uncletopia.com","port":27045,"enabled":true,"region":"us-west","cc":"us","latitude":33.94279,"longitude":-118.41004,"reserved":0,"last_update":"0001-01-01T00:00:00Z","name_a2s":"Uncletopia | Los Angeles | 4 | Stopwatch","protocol":17,"map":"koth_highpass","folder":"tf","game":"Team Fortress","app_id":440,"player_count":0,"max_players":24,"Bots":0,"server_type":"Dedicated","server_os":"Linux","password":true,"vac":true,"version":"7961495","steam_id":85568392924510199,"keywords":["cp","nocrits","nodmgspread","uncletopia"],"game_id":440,"stv_port":27046,"stv_name":"Uncletopia | Los Angeles | 4 | Stopwatch | STV","players":null},{"server_id":11,"name":"Uncletopia | London | 1 | All Maps","name_short":"lon-1","host":"lon-1.uk.uncletopia.com","port":27015,"enabled":true,"region":"eu","cc":"gb","latitude":51.509865,"longitude":-0.118092,"reserved":0,"last_update":"0001-01-01T00:00:00Z","name_a2s":"Uncletopia | London | 1 | All Maps","protocol":17,"map":"koth_highpass","folder":"tf","game":"Team Fortress","app_id":440,"player_count":0,"max_players":24,"Bots":0,"server_type":"Dedicated","server_os":"Linux","password":true,"vac":true,"version":"7961495","steam_id":85568392924367362,"keywords":["cp","nocrits","nodmgspread","uncletopia"],"game_id":440,"stv_port":27016,"stv_name":"Uncletopia | London | 1 | All Maps | STV","players":null},{"server_id":114,"name":"Uncletopia | London | 2 | All Maps","name_short":"lon-2","host":"lon-1.uk.uncletopia.com","port":27025,"enabled":true,"region":"eu","cc":"gb","latitude":51.509865,"longitude":-0.118092,"reserved":0,"last_update":"0001-01-01T00:00:00Z","name_a2s":"Uncletopia | London | 2 | All Maps","protocol":17,"map":"koth_lakeside_final","folder":"tf","game":"Team Fortress","app_id":440,"player_count":0,"max_players":24,"Bots":0,"server_type":"Dedicated","server_os":"Linux","password":true,"vac":true,"version":"7961495","steam_id":85568392924470941,"keywords":["cp","nocrits","nodmgspread","uncletopia"],"game_id":440,"stv_port":27026,"stv_name":"Uncletopia | London | 2 | All Maps | STV","players":null},{"server_id":320,"name":"Uncletopia | London | 3 | All Maps","name_short":"lon-3","host":"lon-1.uk.uncletopia.com","port":27035,"enabled":true,"region":"eu","cc":"gb","latitude":51.509865,"longitude":-0.118092,"reserved":0,"last_update":"0001-01-01T00:00:00Z","name_a2s":"Uncletopia | London | 3 | All Maps","protocol":17,"map":"cp_process_final","folder":"tf","game":"Team Fortress","app_id":440,"player_count":0,"max_players":24,"Bots":0,"server_type":"Dedicated","server_os":"Linux","password":true,"vac":true,"version":"7961495","steam_id":85568392924510192,"keywords":["cp","nocrits","nodmgspread","uncletopia"],"game_id":440,"stv_port":27036,"stv_name":"Uncletopia | London | 3 | All Maps | STV","players":null},{"server_id":321,"name":"Uncletopia | London | 4 | All Maps","name_short":"lon-4","host":"lon-1.uk.uncletopia.com","port":27045,"enabled":true,"region":"eu","cc":"gb","latitude":51.509865,"longitude":-0.118092,"reserved":0,"last_update":"0001-01-01T00:00:00Z","name_a2s":"Uncletopia | London | 4 | All Maps","protocol":17,"map":"koth_cascade","folder":"tf","game":"Team Fortress","app_id":440,"player_count":0,"max_players":24,"Bots":0,"server_type":"Dedicated","server_os":"Linux","password":true,"vac":true,"version":"7961495","steam_id":85568392924510193,"keywords":["cp","nocrits","nodmgspread","uncletopia"],"game_id":440,"stv_port":27046,"stv_name":"Uncletopia | London | 4 | All Maps | STV","players":null},{"server_id":21,"name":"Uncletopia | London | 5 | All Maps","name_short":"lon-5","host":"lon-1.uk.uncletopia.com","port":27055,"enabled":true,"region":"eu","cc":"gb","latitude":51.509865,"longitude":-0.118092,"reserved":0,"last_update":"0001-01-01T00:00:00Z","name_a2s":"Uncletopia | London | 5 | All Maps","protocol":17,"map":"koth_lakeside_final","folder":"tf","game":"Team Fortress","app_id":440,"player_count":0,"max_players":24,"Bots":0,"server_type":"Dedicated","server_os":"Linux","password":true,"vac":true,"version":"7961495","steam_id":85568392924742829,"keywords":["cp","nocrits","nodmgspread","uncletopia"],"game_id":440,"stv_port":27056,"stv_name":"Uncletopia | London | 5 | All Maps | STV","players":null},{"server_id":22,"name":"Uncletopia | London | 6 | All Maps","name_short":"lon-6","host":"lon-1.uk.uncletopia.com","port":27065,"enabled":true,"region":"eu","cc":"gb","latitude":51.509865,"longitude":-0.118092,"reserved":0,"last_update":"0001-01-01T00:00:00Z","name_a2s":"Uncletopia | London | 6 | All Maps","protocol":17,"map":"cp_dustbowl","folder":"tf","game":"Team Fortress","app_id":440,"player_count":0,"max_players":24,"Bots":0,"server_type":"Dedicated","server_os":"Linux","password":true,"vac":true,"version":"7961495","steam_id":85568392924742830,"keywords":["cp","nocrits","nodmgspread","uncletopia"],"game_id":440,"stv_port":27066,"stv_name":"Uncletopia | London | 6 | All Maps | STV","players":null},{"server_id":40,"name":"Uncletopia | London | 7 | Stopwatch","name_short":"lon-7","host":"lon-1.uk.uncletopia.com","port":27075,"enabled":true,"region":"eu","cc":"gb","latitude":51.509865,"longitude":-0.118092,"reserved":0,"last_update":"0001-01-01T00:00:00Z","name_a2s":"Uncletopia | London | 7 | Stopwatch","protocol":17,"map":"koth_lakeside_final","folder":"tf","game":"Team Fortress","app_id":440,"player_count":0,"max_players":24,"Bots":0,"server_type":"Dedicated","server_os":"Linux","password":true,"vac":true,"version":"7961495","steam_id":85568392924964314,"keywords":["cp","nocrits","nodmgspread","uncletopia"],"game_id":440,"stv_port":27076,"stv_name":"Uncletopia | London | 7 | Stopwatch | STV","players":null},{"server_id":41,"name":"Uncletopia | London | 8 | Community","name_short":"lon-8","host":"lon-1.uk.uncletopia.com","port":27085,"enabled":true,"region":"eu","cc":"gb","latitude":51.509865,"longitude":-0.118092,"reserved":0,"last_update":"0001-01-01T00:00:00Z","name_a2s":"Uncletopia | London | 8 | Community","protocol":17,"map":"cp_snakewater_final1","folder":"tf","game":"Team Fortress","app_id":440,"player_count":0,"max_players":24,"Bots":0,"server_type":"Dedicated","server_os":"Linux","password":true,"vac":true,"version":"7961495","steam_id":85568392924964315,"keywords":["cp","nocrits","nodmgspread","uncletopia"],"game_id":440,"stv_port":27086,"stv_name":"Uncletopia | London | 8 | Community | STV","players":null},{"server_id":300,"name":"Uncletopia | Montréal | 1 | One Thousand Uncles","name_short":"mtl-1","host":"mtl-1.ca.uncletopia.com","port":27015,"enabled":true,"region":"us-east","cc":"ca","latitude":45.50889,"longitude":-73.56167,"reserved":0,"last_update":"0001-01-01T00:00:00Z","name_a2s":"","protocol":0,"map":"","folder":"","game":"","app_id":0,"player_count":11,"max_players":0,"Bots":0,"server_type":"","server_os":"","password":false,"vac":false,"version":"","steam_id":0,"keywords":null,"game_id":0,"stv_port":0,"stv_name":"","players":[{"user_id":476,"name":"Draco","steam_id":76561198031226933,"connected_time":7667000000000,"state":"active","ping":130},{"user_id":500,"name":"Muffin","steam_id":76561198111403028,"connected_time":4290000000000,"state":"active","ping":45},{"user_id":477,"name":"Vix The Vulpix","steam_id":76561198292181452,"connected_time":7659000000000,"state":"active","ping":90},{"user_id":540,"name":"Joe Nathan","steam_id":76561198041030399,"connected_time":1816000000000,"state":"active","ping":89},{"user_id":541,"name":"1-800-GHOST-DANCE","steam_id":76561198835430429,"connected_time":1540000000000,"state":"active","ping":90},{"user_id":543,"name":"Amber","steam_id":76561198031298701,"connected_time":1025000000000,"state":"active","ping":59},{"user_id":544,"name":"viedoamges","steam_id":76561198025295263,"connected_time":978000000000,"state":"active","ping":84},{"user_id":545,"name":"Resistance","steam_id":76561198146782074,"connected_time":898000000000,"state":"active","ping":51},{"user_id":473,"name":"spyackaso spyu","steam_id":76561198039728594,"connected_time":8404000000000,"state":"active","ping":118},{"user_id":546,"name":"Tom Crúaich","steam_id":76561197999439911,"connected_time":879000000000,"state":"active","ping":76},{"user_id":548,"name":"Funne Monke","steam_id":76561198147868601,"connected_time":806000000000,"state":"active","ping":57}]},{"server_id":301,"name":"Uncletopia | Montréal | 2 | One Thousand Uncles","name_short":"mtl-2","host":"mtl-1.ca.uncletopia.com","port":27025,"enabled":true,"region":"us-east","cc":"ca","latitude":45.50889,"longitude":-73.56167,"reserved":0,"last_update":"0001-01-01T00:00:00Z","name_a2s":"","protocol":0,"map":"","folder":"","game":"","app_id":0,"player_count":0,"max_players":0,"Bots":0,"server_type":"","server_os":"","password":false,"vac":false,"version":"","steam_id":0,"keywords":null,"game_id":0,"stv_port":0,"stv_name":"","players":null},{"server_id":302,"name":"Uncletopia | Montréal | 3 | One Thousand Uncles","name_short":"mtl-3","host":"mtl-1.ca.uncletopia.com","port":27035,"enabled":true,"region":"us-east","cc":"ca","latitude":45.50889,"longitude":-73.56167,"reserved":0,"last_update":"0001-01-01T00:00:00Z","name_a2s":"","protocol":0,"map":"","folder":"","game":"","app_id":0,"player_count":0,"max_players":0,"Bots":0,"server_type":"","server_os":"","password":false,"vac":false,"version":"","steam_id":0,"keywords":null,"game_id":0,"stv_port":0,"stv_name":"","players":null},{"server_id":13,"name":"Uncletopia | New York City | 1 | All Maps","name_short":"nyc-1","host":"nyc-1.us.uncletopia.com","port":27015,"enabled":true,"region":"us-east","cc":"us","latitude":40.73061,"longitude":-73.93524,"reserved":0,"last_update":"0001-01-01T00:00:00Z","name_a2s":"Uncletopia | New York City | 1 | All Maps","protocol":17,"map":"koth_cascade","folder":"tf","game":"Team Fortress","app_id":440,"player_count":0,"max_players":24,"Bots":0,"server_type":"Dedicated","server_os":"Linux","password":true,"vac":true,"version":"7961495","steam_id":85568392924469993,"keywords":["cp","nocrits","nodmgspread","uncletopia"],"game_id":440,"stv_port":27016,"stv_name":"Uncletopia | New York City | 1 | All Maps | STV","players":null},{"server_id":14,"name":"Uncletopia | New York City | 2 | All Maps","name_short":"nyc-2","host":"nyc-1.us.uncletopia.com","port":27025,"enabled":true,"region":"us-east","cc":"us","latitude":40.73061,"longitude":-73.93524,"reserved":0,"last_update":"0001-01-01T00:00:00Z","name_a2s":"Uncletopia | New York City | 2 | All Maps","protocol":17,"map":"pl_swiftwater_final1","folder":"tf","game":"Team Fortress","app_id":440,"player_count":24,"max_players":24,"Bots":0,"server_type":"Dedicated","server_os":"Linux","password":true,"vac":true,"version":"7961495","steam_id":85568392924469994,"keywords":["nocrits","nodmgspread","payload","uncletopia"],"game_id":440,"stv_port":27026,"stv_name":"Uncletopia | New York City | 2 | All Maps | STV","players":[{"user_id":983,"name":"RGGIGIT","steam_id":76561198398194578,"connected_time":1454000000000,"state":"active","ping":124},{"user_id":867,"name":"Chanddy","steam_id":76561198058949058,"connected_time":9098000000000,"state":"active","ping":58},{"user_id":978,"name":"Amiti","steam_id":76561198039521029,"connected_time":2088000000000,"state":"active","ping":89},{"user_id":976,"name":"Feces","steam_id":76561198380219187,"connected_time":2302000000000,"state":"active","ping":64},{"user_id":864,"name":"hopdon","steam_id":76561198051616613,"connected_time":9120000000000,"state":"active","ping":87},{"user_id":951,"name":"Slauvy","steam_id":76561198001479663,"connected_time":4187000000000,"state":"active","ping":74},{"user_id":891,"name":"Dusk","steam_id":76561198119302704,"connected_time":8321000000000,"state":"active","ping":44},{"user_id":992,"name":"hamletespacial","steam_id":76561199084414649,"connected_time":872000000000,"state":"active","ping":84},{"user_id":962,"name":"hamilton","steam_id":76561198034096096,"connected_time":3124000000000,"state":"active","ping":66},{"user_id":990,"name":"Epifiny","steam_id":76561198027958086,"connected_time":885000000000,"state":"active","ping":77},{"user_id":989,"name":"joachym","steam_id":76561198428579761,"connected_time":908000000000,"state":"active","ping":163},{"user_id":996,"name":"The Final Terminus","steam_id":76561197964985183,"connected_time":85000000000,"state":"active","ping":44},{"user_id":946,"name":"DivineBanana","steam_id":76561198026529731,"connected_time":5178000000000,"state":"active","ping":89},{"user_id":961,"name":"Gram Tokers Count Doinkula","steam_id":76561198112811565,"connected_time":3263000000000,"state":"active","ping":59},{"user_id":987,"name":"on that zaza?","steam_id":76561198038713198,"connected_time":1228000000000,"state":"active","ping":48},{"user_id":956,"name":"he suckin on my rick til i mort","steam_id":76561198310711692,"connected_time":3988000000000,"state":"active","ping":166},{"user_id":973,"name":"Wique","steam_id":76561198071217597,"connected_time":2383000000000,"state":"active","ping":69},{"user_id":974,"name":"Captain Emerald The Changeling","steam_id":76561198320651177,"connected_time":2345000000000,"state":"active","ping":54},{"user_id":836,"name":"˗ˏˋNima´ˎ˗","steam_id":76561198102045762,"connected_time":11936000000000,"state":"active","ping":71},{"user_id":918,"name":"Bush Inspector","steam_id":76561198287505512,"connected_time":7698000000000,"state":"active","ping":128},{"user_id":988,"name":"Walter and the Band of the Hawk","steam_id":76561198028431416,"connected_time":1154000000000,"state":"active","ping":104},{"user_id":993,"name":"TinyTator","steam_id":76561198799282234,"connected_time":855000000000,"state":"active","ping":76},{"user_id":562,"name":"zpalmtree","steam_id":76561198134307620,"connected_time":27171000000000,"state":"active","ping":67},{"user_id":995,"name":"peee pee man","steam_id":76561198044979205,"connected_time":361000000000,"state":"active","ping":47}]},{"server_id":15,"name":"Uncletopia | New York City | 3 | Stopwatch","name_short":"nyc-3","host":"nyc-1.us.uncletopia.com","port":27035,"enabled":true,"region":"us-east","cc":"us","latitude":40.73061,"longitude":-73.93524,"reserved":0,"last_update":"0001-01-01T00:00:00Z","name_a2s":"Uncletopia | New York City | 3 | Stopwatch","protocol":17,"map":"koth_lakeside_final","folder":"tf","game":"Team Fortress","app_id":440,"player_count":0,"max_players":24,"Bots":0,"server_type":"Dedicated","server_os":"Linux","password":true,"vac":true,"version":"7961495","steam_id":85568392924742820,"keywords":["cp","nocrits","nodmgspread","uncletopia"],"game_id":440,"stv_port":27036,"stv_name":"Uncletopia | New York City | 3 | Stopwatch | STV","players":null},{"server_id":16,"name":"Uncletopia | New York City | 4 | Community","name_short":"nyc-4","host":"nyc-1.us.uncletopia.com","port":27045,"enabled":true,"region":"us-east","cc":"us","latitude":40.73061,"longitude":-73.93524,"reserved":0,"last_update":"0001-01-01T00:00:00Z","name_a2s":"Uncletopia | New York City | 4 | Community","protocol":17,"map":"workshop/koth_trenchfoot_b1a.ugc731436616","folder":"tf","game":"Team Fortress","app_id":440,"player_count":0,"max_players":24,"Bots":0,"server_type":"Dedicated","server_os":"Linux","password":true,"vac":true,"version":"7961495","steam_id":85568392924742821,"keywords":["cp","nocrits","nodmgspread","uncletopia"],"game_id":440,"stv_port":27046,"stv_name":"Uncletopia | New York City | 4 | Community | STV","players":null},{"server_id":142,"name":"Uncletopia | São Paulo | 1 | All Maps","name_short":"sao-1","host":"sao-1.br.uncletopia.com","port":27015,"enabled":true,"region":"sa","cc":"br","latitude":-23.533773,"longitude":-46.62529,"reserved":0,"last_update":"0001-01-01T00:00:00Z","name_a2s":"Uncletopia | São Paulo | 1 | All Maps","protocol":17,"map":"pl_frontier_final","folder":"tf","game":"Team Fortress","app_id":440,"player_count":0,"max_players":24,"Bots":0,"server_type":"Dedicated","server_os":"Linux","password":true,"vac":true,"version":"7961495","steam_id":85568392924469996,"keywords":["nocrits","nodmgspread","payload","uncletopia"],"game_id":440,"stv_port":27016,"stv_name":"Uncletopia | São Paulo | 1 | All Maps | STV","players":null},{"server_id":143,"name":"Uncletopia | São Paulo | 2 | Community","name_short":"sao-2","host":"sao-2.br.uncletopia.com","port":27015,"enabled":true,"region":"sa","cc":"br","latitude":-23.533773,"longitude":-46.62529,"reserved":0,"last_update":"0001-01-01T00:00:00Z","name_a2s":"Uncletopia | São Paulo | 2 | Community","protocol":17,"map":"workshop/koth_product_final.ugc454272353","folder":"tf","game":"Team Fortress","app_id":440,"player_count":0,"max_players":24,"Bots":0,"server_type":"Dedicated","server_os":"Linux","password":true,"vac":true,"version":"7961495","steam_id":85568392924485349,"keywords":["cp","nocrits","nodmgspread","uncletopia"],"game_id":440,"stv_port":27016,"stv_name":"Uncletopia | São Paulo | 2 | Community | STV","players":null},{"server_id":7,"name":"Uncletopia | Seattle | 1 | All Maps","name_short":"sea-1","host":"sea-1.us.uncletopia.com","port":27015,"enabled":true,"region":"us-west","cc":"us","latitude":47.608013,"longitude":-122.33517,"reserved":0,"last_update":"0001-01-01T00:00:00Z","name_a2s":"Uncletopia | Seattle | 1 | All Maps","protocol":17,"map":"cp_gorge","folder":"tf","game":"Team Fortress","app_id":440,"player_count":24,"max_players":24,"Bots":0,"server_type":"Dedicated","server_os":"Linux","password":true,"vac":true,"version":"7961495","steam_id":85568392924469997,"keywords":["cp","nocrits","nodmgspread","uncletopia"],"game_id":440,"stv_port":27016,"stv_name":"Uncletopia | Seattle | 1 | All Maps | STV","players":[{"user_id":722,"name":"HotHead","steam_id":76561198138468982,"connected_time":3531000000000,"state":"active","ping":30},{"user_id":688,"name":"jayeskae","steam_id":76561198144220801,"connected_time":6928000000000,"state":"active","ping":47},{"user_id":726,"name":"An Old Lady","steam_id":76561198047480318,"connected_time":2895000000000,"state":"active","ping":64},{"user_id":583,"name":"nolove","steam_id":76561198274550638,"connected_time":15556000000000,"state":"active","ping":105},{"user_id":733,"name":"Dragoninventor (He/Him)","steam_id":76561198956224948,"connected_time":1906000000000,"state":"active","ping":96},{"user_id":595,"name":"Ayayayayayahuasca","steam_id":76561199002906056,"connected_time":14427000000000,"state":"active","ping":47},{"user_id":746,"name":"rat who can kickflip","steam_id":76561198073620027,"connected_time":115000000000,"state":"active","ping":41},{"user_id":678,"name":"Defeat","steam_id":76561198065203818,"connected_time":7341000000000,"state":"active","ping":45},{"user_id":596,"name":"Steeb","steam_id":76561198008058593,"connected_time":14386000000000,"state":"active","ping":75},{"user_id":738,"name":"EforEstrogen","steam_id":76561198086787295,"connected_time":1173000000000,"state":"active","ping":38},{"user_id":742,"name":"Finkly","steam_id":76561198049828110,"connected_time":945000000000,"state":"active","ping":46},{"user_id":743,"name":"profile name","steam_id":76561198032625036,"connected_time":749000000000,"state":"active","ping":53},{"user_id":727,"name":"Arsonist Goose","steam_id":76561198147441830,"connected_time":2894000000000,"state":"active","ping":70},{"user_id":713,"name":"rat gets the cheese","steam_id":76561198031234032,"connected_time":5290000000000,"state":"active","ping":97},{"user_id":677,"name":"Gm_Trash","steam_id":76561199445091548,"connected_time":7358000000000,"state":"active","ping":57},{"user_id":728,"name":"Toaster (Hamilton Beach)","steam_id":76561198039891934,"connected_time":2884000000000,"state":"active","ping":60},{"user_id":737,"name":"jadeite","steam_id":76561198022298676,"connected_time":1322000000000,"state":"active","ping":38},{"user_id":582,"name":"smeasly","steam_id":76561198028718812,"connected_time":15560000000000,"state":"active","ping":45},{"user_id":741,"name":"Apollo","steam_id":76561198162364702,"connected_time":989000000000,"state":"active","ping":47},{"user_id":744,"name":"Wafflemuscle","steam_id":76561198868628982,"connected_time":307000000000,"state":"active","ping":36},{"user_id":745,"name":"Username","steam_id":76561199033122306,"connected_time":306000000000,"state":"active","ping":151},{"user_id":709,"name":"soup","steam_id":76561198043209046,"connected_time":6159000000000,"state":"active","ping":71},{"user_id":721,"name":"Henchie!","steam_id":76561198047567464,"connected_time":3605000000000,"state":"active","ping":82},{"user_id":730,"name":"bigcabbage73","steam_id":76561198271939793,"connected_time":2883000000000,"state":"active","ping":107}]},{"server_id":119,"name":"Uncletopia | Seattle | 2 | All Maps","name_short":"sea-2","host":"sea-1.us.uncletopia.com","port":27025,"enabled":true,"region":"us-west","cc":"us","latitude":47.608013,"longitude":-122.33517,"reserved":0,"last_update":"0001-01-01T00:00:00Z","name_a2s":"Uncletopia | Seattle | 2 | All Maps","protocol":17,"map":"cp_mountainlab","folder":"tf","game":"Team Fortress","app_id":440,"player_count":24,"max_players":24,"Bots":0,"server_type":"Dedicated","server_os":"Linux","password":true,"vac":true,"version":"7961495","steam_id":85568392924469998,"keywords":["cp","nocrits","nodmgspread","uncletopia"],"game_id":440,"stv_port":27026,"stv_name":"Uncletopia | Seattle | 2 | All Maps | STV","players":[{"user_id":516,"name":"«Dᵃʳᵏ.,,.Tᵉᵐᵖ»","steam_id":76561198018185884,"connected_time":5481000000000,"state":"active","ping":36},{"user_id":554,"name":"Lily Thorn","steam_id":76561198305488625,"connected_time":658000000000,"state":"active","ping":56},{"user_id":543,"name":"Azary56","steam_id":76561198321404617,"connected_time":2075000000000,"state":"active","ping":61},{"user_id":555,"name":"Donny Q","steam_id":76561198020901703,"connected_time":387000000000,"state":"active","ping":38},{"user_id":557,"name":"Quite Tired","steam_id":76561197991632493,"connected_time":85000000000,"state":"active","ping":46},{"user_id":547,"name":"Drone #0432 (they/it)","steam_id":76561198027321950,"connected_time":1268000000000,"state":"active","ping":84},{"user_id":534,"name":"squart guy","steam_id":76561199411560141,"connected_time":3352000000000,"state":"active","ping":36},{"user_id":512,"name":"habanero chilli pepper","steam_id":76561197970371943,"connected_time":6431000000000,"state":"active","ping":165},{"user_id":388,"name":"ilun","steam_id":76561198042913843,"connected_time":18271000000000,"state":"active","ping":51},{"user_id":544,"name":"donn","steam_id":76561198113080083,"connected_time":2061000000000,"state":"active","ping":103},{"user_id":550,"name":"Reisen Udongein Inaba","steam_id":76561198051082314,"connected_time":1152000000000,"state":"active","ping":64},{"user_id":530,"name":"toasterturret5","steam_id":76561199406940732,"connected_time":3724000000000,"state":"active","ping":94},{"user_id":391,"name":"SCARCELY LETHAL BUTTERFLY KNIFE","steam_id":76561199488457138,"connected_time":17918000000000,"state":"active","ping":51},{"user_id":524,"name":"Steve","steam_id":76561198352805460,"connected_time":4587000000000,"state":"active","ping":65},{"user_id":556,"name":"[Bandit]","steam_id":76561197986919852,"connected_time":163000000000,"state":"active","ping":45},{"user_id":537,"name":"sierra","steam_id":76561197969873415,"connected_time":2605000000000,"state":"active","ping":148},{"user_id":548,"name":"Jacob Highrise","steam_id":76561198346327753,"connected_time":1181000000000,"state":"active","ping":62},{"user_id":546,"name":"vacachimuela","steam_id":76561198297332421,"connected_time":1550000000000,"state":"active","ping":76},{"user_id":551,"name":"RURU","steam_id":76561198039758987,"connected_time":1144000000000,"state":"active","ping":85},{"user_id":528,"name":"↟ ↟ callie ↟ ↟","steam_id":76561198058199952,"connected_time":4180000000000,"state":"active","ping":38},{"user_id":521,"name":"R5-D4","steam_id":76561198025196439,"connected_time":4747000000000,"state":"active","ping":56},{"user_id":552,"name":"Keamy","steam_id":76561199471434875,"connected_time":1143000000000,"state":"active","ping":45},{"user_id":541,"name":"digitaldisorder","steam_id":76561198041841128,"connected_time":2165000000000,"state":"active","ping":87},{"user_id":540,"name":"ZaniZ","steam_id":76561198161467000,"connected_time":2191000000000,"state":"active","ping":31}]},{"server_id":406,"name":"Uncletopia | Seattle | 3 | Stopwatch","name_short":"sea-3","host":"sea-1.us.uncletopia.com","port":27035,"enabled":true,"region":"us-west","cc":"us","latitude":47.608013,"longitude":-122.33517,"reserved":0,"last_update":"0001-01-01T00:00:00Z","name_a2s":"Uncletopia | Seattle | 3 | Stopwatch","protocol":17,"map":"workshop/pl_vigil_rc10.ugc1266210012","folder":"tf","game":"Team Fortress","app_id":440,"player_count":19,"max_players":24,"Bots":0,"server_type":"Dedicated","server_os":"Linux","password":true,"vac":true,"version":"7961495","steam_id":85568392924515217,"keywords":["nocrits","nodmgspread","payload","uncletopia"],"game_id":440,"stv_port":27036,"stv_name":"Uncletopia | Seattle | 3 | Stopwatch | STV","players":[{"user_id":153,"name":"Shai-Hulud","steam_id":76561198131567365,"connected_time":459000000000,"state":"active","ping":48},{"user_id":144,"name":"Zraskan","steam_id":76561198076382731,"connected_time":1287000000000,"state":"active","ping":67},{"user_id":107,"name":"mr sakurai a 2nd animatronic ha","steam_id":76561198243695590,"connected_time":3852000000000,"state":"active","ping":56},{"user_id":71,"name":"Acuzik","steam_id":76561198045453400,"connected_time":5699000000000,"state":"active","ping":93},{"user_id":141,"name":"eyeofgrey","steam_id":76561199068404061,"connected_time":1396000000000,"state":"active","ping":74},{"user_id":156,"name":"Stolas","steam_id":76561199244587861,"connected_time":106000000000,"state":"active","ping":47},{"user_id":155,"name":"Chaseuuu","steam_id":76561197961572365,"connected_time":182000000000,"state":"active","ping":61},{"user_id":157,"name":"allahsdroptop","steam_id":76561198133195238,"connected_time":49000000000,"state":"active","ping":122},{"user_id":152,"name":"An Alien Mango","steam_id":76561198864823970,"connected_time":476000000000,"state":"active","ping":58},{"user_id":150,"name":"vi6ann","steam_id":76561199228658309,"connected_time":672000000000,"state":"active","ping":68},{"user_id":78,"name":"One Horned Bitch Destroyer","steam_id":76561198045810191,"connected_time":5508000000000,"state":"active","ping":41},{"user_id":96,"name":"Braingoo Hex","steam_id":76561198083094783,"connected_time":4851000000000,"state":"active","ping":111},{"user_id":116,"name":"Shibuya 808","steam_id":76561198040462757,"connected_time":2938000000000,"state":"active","ping":123},{"user_id":81,"name":"Doogly","steam_id":76561198080281457,"connected_time":5402000000000,"state":"active","ping":45},{"user_id":130,"name":"The boys","steam_id":76561198248799906,"connected_time":1712000000000,"state":"active","ping":77},{"user_id":92,"name":"El Gato Paranoico","steam_id":76561198116567116,"connected_time":5121000000000,"state":"active","ping":136},{"user_id":119,"name":"Keth","steam_id":76561198155903648,"connected_time":2803000000000,"state":"active","ping":50},{"user_id":90,"name":"Future_Max","steam_id":76561198312718139,"connected_time":5146000000000,"state":"active","ping":48},{"user_id":148,"name":"O V A L ™","steam_id":76561198162558053,"connected_time":1005000000000,"state":"active","ping":67}]},{"server_id":17,"name":"Uncletopia | San Francisco | 1 | All Maps","name_short":"sfo-1","host":"sfo-1.us.uncletopia.com","port":27015,"enabled":true,"region":"us-west","cc":"us","latitude":37.77397,"longitude":-122.4313,"reserved":0,"last_update":"0001-01-01T00:00:00Z","name_a2s":"Uncletopia | San Francisco | 1 | All Maps","protocol":17,"map":"cp_sunshine","folder":"tf","game":"Team Fortress","app_id":440,"player_count":23,"max_players":24,"Bots":0,"server_type":"Dedicated","server_os":"Linux","password":true,"vac":true,"version":"7961495","steam_id":85568392924469999,"keywords":["cp","nocrits","nodmgspread","uncletopia"],"game_id":440,"stv_port":27016,"stv_name":"Uncletopia | San Francisco | 1 | All Maps | STV","players":[{"user_id":621,"name":"codeine demon","steam_id":76561198051015496,"connected_time":1441000000000,"state":"active","ping":52},{"user_id":569,"name":"Sleepy Bunny","steam_id":76561198069870490,"connected_time":4393000000000,"state":"active","ping":65},{"user_id":500,"name":"aisu","steam_id":76561198043768507,"connected_time":10710000000000,"state":"active","ping":95},{"user_id":599,"name":"Pyrotek⁴","steam_id":76561198072747672,"connected_time":2430000000000,"state":"active","ping":54},{"user_id":617,"name":"Dr. Bob","steam_id":76561198020215410,"connected_time":1647000000000,"state":"active","ping":48},{"user_id":620,"name":"cat gaming","steam_id":76561198058940913,"connected_time":1484000000000,"state":"active","ping":55},{"user_id":622,"name":"MALWARE9000","steam_id":76561198065238093,"connected_time":1418000000000,"state":"active","ping":99},{"user_id":601,"name":"cameltoe joe","steam_id":76561198100779419,"connected_time":2417000000000,"state":"active","ping":55},{"user_id":606,"name":"ninety9dragonfly","steam_id":76561198363406983,"connected_time":2097000000000,"state":"active","ping":60},{"user_id":630,"name":"moomin","steam_id":76561198336244269,"connected_time":1101000000000,"state":"active","ping":70},{"user_id":572,"name":"Chills","steam_id":76561198086144555,"connected_time":4382000000000,"state":"active","ping":82},{"user_id":602,"name":"Rusty","steam_id":76561198055585129,"connected_time":2295000000000,"state":"active","ping":61},{"user_id":623,"name":"mwee machine","steam_id":76561198047126327,"connected_time":1416000000000,"state":"active","ping":91},{"user_id":603,"name":"rock gaming","steam_id":76561199402868311,"connected_time":2293000000000,"state":"active","ping":71},{"user_id":573,"name":"Hello Citizen","steam_id":76561198055522364,"connected_time":4373000000000,"state":"active","ping":65},{"user_id":608,"name":"marantmed06","steam_id":76561199180381715,"connected_time":2063000000000,"state":"active","ping":39},{"user_id":633,"name":"Microsoft Word","steam_id":76561198797633439,"connected_time":472000000000,"state":"active","ping":147},{"user_id":625,"name":"I.AM.THE.DOCTOR","steam_id":76561198040178538,"connected_time":1398000000000,"state":"active","ping":58},{"user_id":629,"name":"(TPT) Ghost","steam_id":76561198123262873,"connected_time":1236000000000,"state":"active","ping":74},{"user_id":634,"name":"鯖の塩焼き","steam_id":76561199445932533,"connected_time":88000000000,"state":"active","ping":160},{"user_id":627,"name":"copper","steam_id":76561198146250533,"connected_time":1323000000000,"state":"active","ping":57},{"user_id":532,"name":"Melody","steam_id":76561198407789232,"connected_time":8273000000000,"state":"active","ping":76},{"user_id":596,"name":"smushedtomato","steam_id":76561198383837457,"connected_time":2797000000000,"state":"active","ping":58}]},{"server_id":18,"name":"Uncletopia | San Francisco | 2 | All Maps","name_short":"sfo-2","host":"sfo-1.us.uncletopia.com","port":27025,"enabled":true,"region":"us-west","cc":"us","latitude":37.77397,"longitude":-122.4313,"reserved":0,"last_update":"0001-01-01T00:00:00Z","name_a2s":"Uncletopia | San Francisco | 2 | All Maps","protocol":17,"map":"cp_dustbowl","folder":"tf","game":"Team Fortress","app_id":440,"player_count":2,"max_players":24,"Bots":0,"server_type":"Dedicated","server_os":"Linux","password":true,"vac":true,"version":"7961495","steam_id":85568392924470000,"keywords":["cp","nocrits","nodmgspread","uncletopia"],"game_id":440,"stv_port":27026,"stv_name":"Uncletopia | San Francisco | 2 | All Maps | STV","players":[{"user_id":24,"name":"Yackaboi","steam_id":76561199444911765,"connected_time":3447000000000,"state":"active","ping":85},{"user_id":25,"name":"johnman gooberguy","steam_id":76561199014859764,"connected_time":3392000000000,"state":"active","ping":54}]},{"server_id":19,"name":"Uncletopia | San Francisco | 3 | Stopwatch","name_short":"sfo-3","host":"sfo-1.us.uncletopia.com","port":27035,"enabled":true,"region":"us-west","cc":"us","latitude":37.77397,"longitude":-122.4313,"reserved":0,"last_update":"0001-01-01T00:00:00Z","name_a2s":"Uncletopia | San Francisco | 3 | Stopwatch","protocol":17,"map":"workshop/pl_badwater_pro_v12.ugc2142942074","folder":"tf","game":"Team Fortress","app_id":440,"player_count":0,"max_players":24,"Bots":0,"server_type":"Dedicated","server_os":"Linux","password":true,"vac":true,"version":"7961495","steam_id":85568392924742824,"keywords":["nocrits","nodmgspread","payload","uncletopia"],"game_id":440,"stv_port":27036,"stv_name":"Uncletopia | San Francisco | 3 | Stopwatch | STV","players":null},{"server_id":20,"name":"Uncletopia | San Francisco | 4 | Community","name_short":"sfo-4","host":"sfo-1.us.uncletopia.com","port":27045,"enabled":true,"region":"us-west","cc":"us","latitude":37.77397,"longitude":-122.4313,"reserved":0,"last_update":"0001-01-01T00:00:00Z","name_a2s":"Uncletopia | San Francisco | 4 | Community","protocol":17,"map":"workshop/cp_mannbase_rc2a.ugc1900737467","folder":"tf","game":"Team Fortress","app_id":440,"player_count":0,"max_players":24,"Bots":0,"server_type":"Dedicated","server_os":"Linux","password":true,"vac":true,"version":"7961495","steam_id":85568392924742826,"keywords":["cp","nocrits","nodmgspread","uncletopia"],"game_id":440,"stv_port":27046,"stv_name":"Uncletopia | San Francisco | 4 | Community | STV","players":null},{"server_id":141,"name":"Uncletopia | Sydney | 1 | All Maps","name_short":"syd-1","host":"syd-1.au.uncletopia.com","port":27015,"enabled":true,"region":"au","cc":"au","latitude":-33.865143,"longitude":151.2099,"reserved":0,"last_update":"0001-01-01T00:00:00Z","name_a2s":"Uncletopia | Sydney | 1 | All Maps","protocol":17,"map":"cp_dustbowl","folder":"tf","game":"Team Fortress","app_id":440,"player_count":24,"max_players":24,"Bots":0,"server_type":"Dedicated","server_os":"Linux","password":true,"vac":true,"version":"7961495","steam_id":85568392924470001,"keywords":["cp","nocrits","nodmgspread","uncletopia"],"game_id":440,"stv_port":27016,"stv_name":"Uncletopia | Sydney | 1 | All Maps | STV","players":[{"user_id":350,"name":"SubHam","steam_id":76561198071578622,"connected_time":768000000000,"state":"active","ping":78},{"user_id":283,"name":"horrid webbon ᘛ⁐̤ᕐᐷ","steam_id":76561198061998379,"connected_time":4951000000000,"state":"active","ping":47},{"user_id":366,"name":"jacob!","steam_id":76561199253363005,"connected_time":155000000000,"state":"active","ping":113},{"user_id":349,"name":"LegEaterHK","steam_id":76561199357838817,"connected_time":791000000000,"state":"active","ping":61},{"user_id":329,"name":"lunar","steam_id":76561198102469410,"connected_time":1586000000000,"state":"active","ping":50},{"user_id":355,"name":"Sichuan Spicy Noodle Sauce","steam_id":76561198072545299,"connected_time":675000000000,"state":"active","ping":50},{"user_id":345,"name":"Proton Destroyer","steam_id":76561198870891313,"connected_time":841000000000,"state":"active","ping":70},{"user_id":365,"name":"Saturn-Based Hooliganism","steam_id":76561198072845816,"connected_time":222000000000,"state":"active","ping":51},{"user_id":359,"name":".hyak","steam_id":76561198175700625,"connected_time":521000000000,"state":"active","ping":90},{"user_id":360,"name":"Sputtsthedamngod","steam_id":76561199152151734,"connected_time":512000000000,"state":"active","ping":73},{"user_id":363,"name":"Covenant","steam_id":76561199094827289,"connected_time":336000000000,"state":"active","ping":96},{"user_id":298,"name":"The Return of Wolfie","steam_id":76561198264237939,"connected_time":3873000000000,"state":"active","ping":146},{"user_id":327,"name":"Dupiter","steam_id":76561198108820767,"connected_time":1646000000000,"state":"active","ping":57},{"user_id":362,"name":"reClyde beans","steam_id":76561198301282416,"connected_time":399000000000,"state":"active","ping":60},{"user_id":352,"name":"jono","steam_id":76561198059701670,"connected_time":738000000000,"state":"active","ping":45},{"user_id":353,"name":"Kouroboros","steam_id":76561198141283669,"connected_time":725000000000,"state":"active","ping":87},{"user_id":342,"name":"iliana","steam_id":76561198304080170,"connected_time":959000000000,"state":"active","ping":48},{"user_id":356,"name":"nurf","steam_id":76561198019391327,"connected_time":673000000000,"state":"active","ping":69},{"user_id":320,"name":"Teflon","steam_id":76561198001224301,"connected_time":2123000000000,"state":"active","ping":74},{"user_id":321,"name":"plr_jack","steam_id":76561199124321542,"connected_time":1904000000000,"state":"active","ping":71},{"user_id":367,"name":"saturation","steam_id":76561199457046392,"connected_time":20000000000,"state":"active","ping":81},{"user_id":326,"name":"Blondie","steam_id":76561198046977058,"connected_time":1779000000000,"state":"active","ping":69},{"user_id":338,"name":"scubasteve","steam_id":76561198101975391,"connected_time":1066000000000,"state":"active","ping":55},{"user_id":316,"name":"Cheese","steam_id":76561198862913374,"connected_time":2326000000000,"state":"active","ping":59}]},{"server_id":123,"name":"Uncletopia | Sydney | 2 | All Maps","name_short":"syd-2","host":"syd-1.au.uncletopia.com","port":27025,"enabled":true,"region":"au","cc":"au","latitude":-33.865143,"longitude":151.2099,"reserved":0,"last_update":"0001-01-01T00:00:00Z","name_a2s":"Uncletopia | Sydney | 2 | All Maps","protocol":17,"map":"koth_lakeside_final","folder":"tf","game":"Team Fortress","app_id":440,"player_count":0,"max_players":24,"Bots":0,"server_type":"Dedicated","server_os":"Linux","password":true,"vac":true,"version":"7961495","steam_id":85568392924470002,"keywords":["cp","nocrits","nodmgspread","uncletopia"],"game_id":440,"stv_port":27026,"stv_name":"Uncletopia | Sydney | 2 | All Maps | STV","players":null},{"server_id":395,"name":"Uncletopia | Sydney | 3 | All Maps","name_short":"syd-3","host":"syd-1.au.uncletopia.com","port":27035,"enabled":true,"region":"au","cc":"au","latitude":-33.865143,"longitude":151.2099,"reserved":0,"last_update":"0001-01-01T00:00:00Z","name_a2s":"Uncletopia | Sydney | 3 | All Maps","protocol":17,"map":"pl_pier","folder":"tf","game":"Team Fortress","app_id":440,"player_count":9,"max_players":24,"Bots":0,"server_type":"Dedicated","server_os":"Linux","password":true,"vac":true,"version":"7961495","steam_id":85568392925194467,"keywords":["nocrits","nodmgspread","payload","uncletopia"],"game_id":440,"stv_port":27036,"stv_name":"Uncletopia | Sydney | 3 | All Maps | STV","players":[{"user_id":9,"name":"JellyPeaPot","steam_id":76561198341952092,"connected_time":2078000000000,"state":"active","ping":56},{"user_id":10,"name":"Sam","steam_id":76561198181330537,"connected_time":2000000000000,"state":"active","ping":62},{"user_id":11,"name":"NightSpawn","steam_id":76561199447160011,"connected_time":1952000000000,"state":"active","ping":160},{"user_id":15,"name":"NXME1Z","steam_id":76561199183646299,"connected_time":799000000000,"state":"active","ping":69},{"user_id":16,"name":"Tiger_Tan","steam_id":76561198221733844,"connected_time":651000000000,"state":"active","ping":65},{"user_id":17,"name":"Emerald the Snake","steam_id":76561199013344853,"connected_time":256000000000,"state":"active","ping":54},{"user_id":18,"name":"Plan B","steam_id":76561199121735459,"connected_time":97000000000,"state":"active","ping":403},{"user_id":19,"name":"Motormouth","steam_id":76561197980851839,"connected_time":33000000000,"state":"spawning","ping":62},{"user_id":20,"name":"Gonna","steam_id":76561198281131757,"connected_time":22000000000,"state":"spawning","ping":113}]},{"server_id":396,"name":"Uncletopia | Sydney | 4 | All Maps","name_short":"syd-4","host":"syd-1.au.uncletopia.com","port":27045,"enabled":true,"region":"au","cc":"au","latitude":-33.865143,"longitude":151.2099,"reserved":0,"last_update":"0001-01-01T00:00:00Z","name_a2s":"Uncletopia | Sydney | 4 | All Maps","protocol":17,"map":"cp_dustbowl","folder":"tf","game":"Team Fortress","app_id":440,"player_count":0,"max_players":24,"Bots":0,"server_type":"Dedicated","server_os":"Linux","password":true,"vac":true,"version":"7961495","steam_id":85568392925397958,"keywords":["cp","nocrits","nodmgspread","uncletopia"],"game_id":440,"stv_port":27046,"stv_name":"Uncletopia | Sydney | 4 | All Maps | STV","players":null},{"server_id":58,"name":"Uncletopia | Sydney | 5 | Stopwatch","name_short":"syd-5","host":"syd-1.au.uncletopia.com","port":27055,"enabled":true,"region":"au","cc":"au","latitude":-33.865143,"longitude":151.2099,"reserved":0,"last_update":"0001-01-01T00:00:00Z","name_a2s":"Uncletopia | Sydney | 5 | Stopwatch","protocol":17,"map":"koth_highpass","folder":"tf","game":"Team Fortress","app_id":440,"player_count":0,"max_players":24,"Bots":0,"server_type":"Dedicated","server_os":"Linux","password":true,"vac":true,"version":"7961495","steam_id":85568392925397959,"keywords":["cp","nocrits","nodmgspread","uncletopia"],"game_id":440,"stv_port":27056,"stv_name":"Uncletopia | Sydney | 5 | Stopwatch | STV","players":null},{"server_id":59,"name":"Uncletopia | Sydney | 6 | Community","name_short":"syd-6","host":"syd-1.au.uncletopia.com","port":27065,"enabled":true,"region":"au","cc":"au","latitude":-33.865143,"longitude":151.2099,"reserved":0,"last_update":"0001-01-01T00:00:00Z","name_a2s":"Uncletopia | Sydney | 6 | Community","protocol":17,"map":"cp_sunshine","folder":"tf","game":"Team Fortress","app_id":440,"player_count":0,"max_players":24,"Bots":0,"server_type":"Dedicated","server_os":"Linux","password":true,"vac":true,"version":"7961495","steam_id":85568392925397960,"keywords":["cp","nocrits","nodmgspread","uncletopia"],"game_id":440,"stv_port":27066,"stv_name":"Uncletopia | Sydney | 6 | Community | STV","players":null},{"server_id":49,"name":"Uncletopia | Warsaw | 1 | One Thousand Uncles","name_short":"waw-1","host":"waw-1.pl.uncletopia.com","port":27015,"enabled":true,"region":"eu","cc":"pl","latitude":52.2297,"longitude":21.017532,"reserved":0,"last_update":"0001-01-01T00:00:00Z","name_a2s":"Uncletopia | Warsaw | 1 | One Thousand Uncles","protocol":17,"map":"cp_altitude","folder":"tf","game":"Team Fortress","app_id":440,"player_count":20,"max_players":32,"Bots":16,"server_type":"Dedicated","server_os":"Linux","password":true,"vac":true,"version":"7961495","steam_id":85568392925397850,"keywords":["alltalk","bots","cp","danepve","increased_maxplayers","nocrits","norespawntime","uncletopia"],"game_id":440,"stv_port":0,"stv_name":"","players":[{"user_id":61,"name":"DeerBoy 1940","steam_id":76561199125245697,"connected_time":2508000000000,"state":"active","ping":132},{"user_id":40,"name":"?TheEnd","steam_id":76561198055280327,"connected_time":3569000000000,"state":"active","ping":60},{"user_id":64,"name":"leonardini.w","steam_id":76561199097963071,"connected_time":562000000000,"state":"active","ping":67},{"user_id":65,"name":"bot(i)","steam_id":76561199055593849,"connected_time":112000000000,"state":"active","ping":82}]},{"server_id":50,"name":"Uncletopia | Warsaw | 2 | One Thousand Uncles","name_short":"waw-2","host":"waw-1.pl.uncletopia.com","port":27025,"enabled":true,"region":"eu","cc":"pl","latitude":52.2297,"longitude":21.017532,"reserved":0,"last_update":"0001-01-01T00:00:00Z","name_a2s":"Uncletopia | Warsaw | 2 | One Thousand Uncles","protocol":17,"map":"pl_goldrush","folder":"tf","game":"Team Fortress","app_id":440,"player_count":0,"max_players":32,"Bots":0,"server_type":"Dedicated","server_os":"Linux","password":true,"vac":true,"version":"7961495","steam_id":85568392925397851,"keywords":["alltalk","danepve","increased_maxplayers","nocrits","norespawntime","payload","uncletopia"],"game_id":440,"stv_port":0,"stv_name":"","players":null},{"server_id":51,"name":"Uncletopia | Warsaw | 3 | All Maps","name_short":"waw-3","host":"waw-1.pl.uncletopia.com","port":27035,"enabled":true,"region":"eu","cc":"pl","latitude":52.2297,"longitude":21.017532,"reserved":0,"last_update":"0001-01-01T00:00:00Z","name_a2s":"Uncletopia | Warsaw | 3 | All Maps","protocol":17,"map":"plr_pipeline","folder":"tf","game":"Team Fortress","app_id":440,"player_count":1,"max_players":24,"Bots":0,"server_type":"Dedicated","server_os":"Linux","password":true,"vac":true,"version":"7961495","steam_id":85568392925397852,"keywords":["nocrits","nodmgspread","payload","uncletopia"],"game_id":440,"stv_port":27036,"stv_name":"Uncletopia | Warsaw | 3 | All Maps | STV","players":[{"user_id":3,"name":"fondle balls","steam_id":76561199376424891,"connected_time":29000000000,"state":"active","ping":169}]},{"server_id":52,"name":"Uncletopia | Warsaw | 4 | All Maps","name_short":"waw-4","host":"waw-1.pl.uncletopia.com","port":27045,"enabled":true,"region":"eu","cc":"pl","latitude":52.2297,"longitude":21.017532,"reserved":0,"last_update":"0001-01-01T00:00:00Z","name_a2s":"Uncletopia | Warsaw | 4 | All Maps","protocol":17,"map":"cp_coldfront","folder":"tf","game":"Team Fortress","app_id":440,"player_count":0,"max_players":24,"Bots":0,"server_type":"Dedicated","server_os":"Linux","password":true,"vac":true,"version":"7961495","steam_id":85568392925397853,"keywords":["cp","nocrits","nodmgspread","uncletopia"],"game_id":440,"stv_port":27046,"stv_name":"Uncletopia | Warsaw | 4 | All Maps | STV","players":null},{"server_id":53,"name":"Uncletopia | Warsaw | 5 | Stopwatch","name_short":"waw-5","host":"waw-1.pl.uncletopia.com","port":27055,"enabled":true,"region":"eu","cc":"pl","latitude":52.2297,"longitude":21.017532,"reserved":0,"last_update":"0001-01-01T00:00:00Z","name_a2s":"Uncletopia | Warsaw | 5 | Stopwatch","protocol":17,"map":"workshop/koth_bagel_rc6.ugc2514036946","folder":"tf","game":"Team Fortress","app_id":440,"player_count":0,"max_players":24,"Bots":0,"server_type":"Dedicated","server_os":"Linux","password":true,"vac":true,"version":"7961495","steam_id":85568392925397854,"keywords":["cp","nocrits","nodmgspread","uncletopia"],"game_id":440,"stv_port":27056,"stv_name":"Uncletopia | Warsaw | 5 | Stopwatch | STV","players":null},{"server_id":54,"name":"Uncletopia | Warsaw | 6 | Community","name_short":"waw-6","host":"waw-1.pl.uncletopia.com","port":27065,"enabled":true,"region":"eu","cc":"pl","latitude":52.2297,"longitude":21.017532,"reserved":0,"last_update":"0001-01-01T00:00:00Z","name_a2s":"Uncletopia | Warsaw | 6 | Community","protocol":17,"map":"workshop/pl_badwater_pro_v12.ugc2142942074","folder":"tf","game":"Team Fortress","app_id":440,"player_count":0,"max_players":24,"Bots":0,"server_type":"Dedicated","server_os":"Linux","password":true,"vac":true,"version":"7961495","steam_id":85568392925397856,"keywords":["nocrits","nodmgspread","payload","uncletopia"],"game_id":440,"stv_port":27066,"stv_name":"Uncletopia | Warsaw | 6 | Community | STV","players":null}]}