{"status":true,"message":"","result":[{"server_id":9,"name":"Uncletopia | Atlanta | 1 | All Maps","name_short":"atl-1","host":"atl-1.us.uncletopia.com","port":27015,"enabled":true,"region":"us-east","cc":"us","latitude":33.753746,"longitude":-84.38633,"reserved":0,"last_update":"0001-01-01T00:00:00Z","name_a2s":"Uncletopia | Atlanta | 1 | All Maps","protocol":17,"map":"pl_snowycoast","folder":"tf","game":"Team Fortress","app_id":440,"player_count":24,"max_players":24,"Bots":0,"server_type":"Dedicated","server_os":"Linux","password":true,"vac":true,"version":"7757534","steam_id":85568392924469982,"keywords":["nocrits","nodmgspread","payload","uncletopia"],"game_id":440,"stv_port":27016,"stv_name":"Uncletopia | Atlanta | 1 | All Maps | STV","players":[{"user_id":339,"name":"Ghetto Smosh Fan","steam_id":76561198097272509,"connected_time":3207000000000,"state":"active","ping":35},{"user_id":347,"name":"snoops","steam_id":76561197986760351,"connected_time":2875000000000,"state":"active","ping":75},{"user_id":364,"name":"Intro Bonito","steam_id":76561198119478838,"connected_time":1424000000000,"state":"active","ping":45},{"user_id":371,"name":"--_Cook_--","steam_id":76561198080855748,"connected_time":813000000000,"state":"active","ping":57},{"user_id":368,"name":"Mister","steam_id":76561198097164652,"connected_time":967000000000,"state":"active","ping":70},{"user_id":372,"name":"Light","steam_id":76561198078818705,"connected_time":770000000000,"state":"active","ping":120},{"user_id":373,"name":"Fish","steam_id":76561199016308078,"connected_time":747000000000,"state":"active","ping":111},{"user_id":360,"name":"lil hog","steam_id":76561199230929836,"connected_time":2326000000000,"state":"active","ping":77},{"user_id":374,"name":"Duke_the_Duk","steam_id":76561199067095010,"connected_time":733000000000,"state":"active","ping":90},{"user_id":375,"name":"abomination","steam_id":76561198167974713,"connected_time":715000000000,"state":"active","ping":62},{"user_id":381,"name":"‚ô• PsychicCellar ‚ô•","steam_id":76561198045923020,"connected_time":362000000000,"state":"active","ping":75},{"user_id":369,"name":"hazel","steam_id":76561198880711743,"connected_time":826000000000,"state":"active","ping":125},{"user_id":376,"name":"Whoops!","steam_id":76561198151315898,"connected_time":705000000000,"state":"active","ping":79},{"user_id":304,"name":"marguerite","steam_id":76561198170873495,"connected_time":4959000000000,"state":"active","ping":57},{"user_id":379,"name":"‚ô•Bunny‚ô•Slut‚ô•","steam_id":76561198206376851,"connected_time":438000000000,"state":"active","ping":99},{"user_id":366,"name":"O'Keearns","steam_id":76561198042213797,"connected_time":1370000000000,"state":"active","ping":47},{"user_id":367,"name":"stink","steam_id":76561198099318923,"connected_time":1258000000000,"state":"active","ping":75},{"user_id":383,"name":"evan_is_sauce","steam_id":76561199086802383,"connected_time":330000000000,"state":"active","ping":108},{"user_id":382,"name":"turd ferguson","steam_id":76561198071620782,"connected_time":347000000000,"state":"active","ping":81},{"user_id":384,"name":"Touch Grass","steam_id":76561199480331257,"connected_time":302000000000,"state":"active","ping":92},{"user_id":344,"name":"NovaSc6ut","steam_id":76561198277163301,"connected_time":3135000000000,"state":"active","ping":84},{"user_id":362,"name":"BIG HOG","steam_id":76561198079923652,"connected_time":1612000000000,"state":"active","ping":69},{"user_id":378,"name":"Executioner Smough","steam_id":76561198176966911,"connected_time":666000000000,"state":"active","ping":162},{"user_id":386,"name":"Im totally a hacker","steam_id":76561198888005736,"connected_time":287000000000,"state":"active","ping":75}]},{"server_id":104,"name":"Uncletopia | Atlanta | 2 | All Maps","name_short":"atl-2","host":"atl-1.us.uncletopia.com","port":27025,"enabled":true,"region":"us-east","cc":"us","latitude":33.753746,"longitude":-84.38633,"reserved":0,"last_update":"0001-01-01T00:00:00Z","name_a2s":"Uncletopia | Atlanta | 2 | All Maps","protocol":17,"map":"pl_upward","folder":"tf","game":"Team Fortress","app_id":440,"player_count":24,"max_players":24,"Bots":0,"server_type":"Dedicated","server_os":"Linux","password":true,"vac":true,"version":"7757534","steam_id":85568392924469983,"keywords":["nocrits","nodmgspread","payload","uncletopia"],"game_id":440,"stv_port":27026,"stv_name":"Uncletopia | Atlanta | 2 | All Maps | STV","players":[{"user_id":288,"name":"Sneetch [sRb]","steam_id":76561197996693506,"connected_time":125000000000,"state":"active","ping":85},{"user_id":283,"name":"Flashtasm","steam_id":76561198026635660,"connected_time":933000000000,"state":"active","ping":137},{"user_id":269,"name":"Tomcouger","steam_id":76561198022866923,"connected_time":1928000000000,"state":"active","ping":139},{"user_id":257,"name":"A_Malebolgia","steam_id":76561198097722818,"connected_time":2512000000000,"state":"active","ping":94},{"user_id":219,"name":"roby","steam_id":76561198044660393,"connected_time":4931000000000,"state":"active","ping":160},{"user_id":280,"name":"Mallard","steam_id":76561198030597818,"connected_time":1318000000000,"state":"active","ping":115},{"user_id":285,"name":"Eins","steam_id":76561199030343810,"connected_time":697000000000,"state":"active","ping":52},{"user_id":229,"name":"Pom","steam_id":76561198043235509,"connected_time":4230000000000,"state":"active","ping":83},{"user_id":230,"name":"Aeonspassed","steam_id":76561198014016451,"connected_time":4222000000000,"state":"active","ping":77},{"user_id":263,"name":"Company0fWolves","steam_id":76561198347612341,"connected_time":2328000000000,"state":"active","ping":71},{"user_id":287,"name":"Brian","steam_id":76561198089908485,"connected_time":244000000000,"state":"active","ping":70},{"user_id":260,"name":"jerry","steam_id":76561198422891994,"connected_time":2459000000000,"state":"active","ping":96},{"user_id":289,"name":"Dixxy","steam_id":76561198010760019,"connected_time":116000000000,"state":"active","ping":61},{"user_id":183,"name":"El Bondin","steam_id":76561198820792434,"connected_time":8528000000000,"state":"active","ping":78},{"user_id":222,"name":"Spiral Mountain","steam_id":76561198058683715,"connected_time":4889000000000,"state":"active","ping":76},{"user_id":231,"name":"TI-83 Plus","steam_id":76561198316134443,"connected_time":4187000000000,"state":"active","ping":55},{"user_id":286,"name":"GltichBrah_T","steam_id":76561199467036505,"connected_time":386000000000,"state":"active","ping":60},{"user_id":274,"name":"igotmail","steam_id":76561198070631899,"connected_time":1773000000000,"state":"active","ping":81},{"user_id":247,"name":"The sad vanilla","steam_id":76561198268621447,"connected_time":3402000000000,"state":"active","ping":83},{"user_id":282,"name":"LionHeart","steam_id":76561198075573693,"connected_time":945000000000,"state":"active","ping":59},{"user_id":252,"name":"snapski_HJA","steam_id":76561198007052727,"connected_time":3264000000000,"state":"active","ping":69},{"user_id":217,"name":"Glowie Gus","steam_id":76561198047809106,"connected_time":5655000000000,"state":"active","ping":101},{"user_id":187,"name":"do not perceive me","steam_id":76561198030291655,"connected_time":8495000000000,"state":"active","ping":66},{"user_id":267,"name":"DogComrade","steam_id":76561199056013933,"connected_time":1997000000000,"state":"active","ping":110}]},{"server_id":400,"name":"Uncletopia | Atlanta | 3 | Community","name_short":"atl-3","host":"atl-1.us.uncletopia.com","port":27035,"enabled":true,"region":"us-east","cc":"us","latitude":33.753746,"longitude":-84.38633,"reserved":0,"last_update":"0001-01-01T00:00:00Z","name_a2s":"Uncletopia | Atlanta | 3 | Community","protocol":17,"map":"workshop/pl_cashworks_final1.ugc2904065412","folder":"tf","game":"Team Fortress","app_id":440,"player_count":0,"max_players":24,"Bots":0,"server_type":"Dedicated","server_os":"Linux","password":true,"vac":true,"version":"7757534","steam_id":85568392924515187,"keywords":["nocrits","nodmgspread","payload","uncletopia"],"game_id":440,"stv_port":27036,"stv_name":"Uncletopia | Atlanta | 3 | Community | STV","players":null},{"server_id":401,"name":"Uncletopia | Atlanta | 4 | No Payload","name_short":"atl-4","host":"atl-1.us.uncletopia.com","port":27045,"enabled":true,"region":"us-east","cc":"us","latitude":33.753746,"longitude":-84.38633,"reserved":0,"last_update":"0001-01-01T00:00:00Z","name_a2s":"","protocol":0,"map":"","folder":"","game":"","app_id":0,"player_count":0,"max_players":0,"Bots":0,"server_type":"","server_os":"","password":false,"vac":false,"version":"","steam_id":0,"keywords":null,"game_id":0,"stv_port":0,"stv_name":"","players":null},{"server_id":2,"name":"Uncletopia | Chicago | 1 | All Maps","name_short":"chi-1","host":"chi-1.us.uncletopia.com","port":27015,"enabled":true,"region":"us-central","cc":"us","latitude":41.881832,"longitude":-87.62318,"reserved":0,"last_update":"0001-01-01T00:00:00Z","name_a2s":"Uncletopia | Chicago | 1 | All Maps","protocol":17,"map":"cp_dustbowl","folder":"tf","game":"Team Fortress","app_id":440,"player_count":24,"max_players":24,"Bots":0,"server_type":"Dedicated","server_os":"Linux","password":true,"vac":true,"version":"7757534","steam_id":85568392924469984,"keywords":["cp","nocrits","nodmgspread","uncletopia"],"game_id":440,"stv_port":27016,"stv_name":"Uncletopia | Chicago | 1 | All Maps | STV","players":[{"user_id":525,"name":"Pan Wizard","steam_id":76561198031939694,"connected_time":1947000000000,"state":"active","ping":70},{"user_id":540,"name":"Tanman653","steam_id":76561199046653301,"connected_time":914000000000,"state":"active","ping":107},{"user_id":554,"name":"Enzo","steam_id":76561197975076681,"connected_time":466000000000,"state":"active","ping":48},{"user_id":545,"name":"pipis","steam_id":76561198140971525,"connected_time":878000000000,"state":"active","ping":60},{"user_id":555,"name":"ray (the based god)","steam_id":76561198311984941,"connected_time":267000000000,"state":"active","ping":60},{"user_id":496,"name":"lofile :]","steam_id":76561198083798918,"connected_time":3290000000000,"state":"active","ping":59},{"user_id":546,"name":"Pluto","steam_id":76561198338593690,"connected_time":873000000000,"state":"active","ping":76},{"user_id":552,"name":"DeanAdamFry","steam_id":76561198054153160,"connected_time":714000000000,"state":"active","ping":141},{"user_id":534,"name":"Osborn","steam_id":76561198045917425,"connected_time":1404000000000,"state":"active","ping":67},{"user_id":510,"name":"Aurora Boreivan","steam_id":76561199027819903,"connected_time":2414000000000,"state":"active","ping":86},{"user_id":511,"name":"Grinn","steam_id":76561199012396992,"connected_time":2404000000000,"state":"active","ping":86},{"user_id":513,"name":"i really like this dog :)","steam_id":76561198882404753,"connected_time":2388000000000,"state":"active","ping":74},{"user_id":544,"name":"Fraklin","steam_id":76561198136451087,"connected_time":886000000000,"state":"active","ping":38},{"user_id":547,"name":"9Bendy9","steam_id":76561198164023601,"connected_time":864000000000,"state":"active","ping":110},{"user_id":524,"name":"¬øskitt1eS?","steam_id":76561198330093211,"connected_time":1981000000000,"state":"active","ping":66},{"user_id":535,"name":"The Silkyest of Boys","steam_id":76561198320921269,"connected_time":1389000000000,"state":"active","ping":86},{"user_id":556,"name":"Blud walked 0 miles üò≠üò≠\ufffd\ufffd\ufffd","steam_id":76561199285074344,"connected_time":267000000000,"state":"active","ping":60},{"user_id":539,"name":"Grape Juice","steam_id":76561198380337568,"connected_time":1251000000000,"state":"active","ping":76},{"user_id":487,"name":"Peter McKay","steam_id":76561198842221188,"connected_time":3922000000000,"state":"active","ping":80},{"user_id":550,"name":"!","steam_id":76561198116821551,"connected_time":812000000000,"state":"active","ping":57},{"user_id":553,"name":"Joshua31704","steam_id":76561198125898714,"connected_time":657000000000,"state":"active","ping":82},{"user_id":557,"name":"Vision Spire","steam_id":76561198095923905,"connected_time":265000000000,"state":"active","ping":53},{"user_id":501,"name":"i should go","steam_id":76561198194614289,"connected_time":3098000000000,"state":"active","ping":54},{"user_id":522,"name":"jeff","steam_id":76561198059450566,"connected_time":2186000000000,"state":"active","ping":61}]},{"server_id":106,"name":"Uncletopia | Chicago | 2 | All Maps","name_short":"chi-2","host":"chi-1.us.uncletopia.com","port":27025,"enabled":true,"region":"us-central","cc":"us","latitude":41.881832,"longitude":-87.62318,"reserved":0,"last_update":"0001-01-01T00:00:00Z","name_a2s":"Uncletopia | Chicago | 2 | All Maps","protocol":17,"map":"koth_viaduct","folder":"tf","game":"Team Fortress","app_id":440,"player_count":23,"max_players":24,"Bots":0,"server_type":"Dedicated","server_os":"Linux","password":true,"vac":true,"version":"7757534","steam_id":85568392924469985,"keywords":["cp","nocrits","nodmgspread","uncletopia"],"game_id":440,"stv_port":27026,"stv_name":"Uncletopia | Chicago | 2 | All Maps | STV","players":[{"user_id":614,"name":"„ÅÑ„Å°„Åî„Åæ„Çç","steam_id":76561198166100997,"connected_time":263000000000,"state":"active","ping":62},{"user_id":601,"name":"Alteraxia","steam_id":76561198213333961,"connected_time":1233000000000,"state":"active","ping":89},{"user_id":604,"name":"rat eater","steam_id":76561199216874750,"connected_time":1163000000000,"state":"active","ping":59},{"user_id":608,"name":"Peter Popoff","steam_id":76561198027171160,"connected_time":941000000000,"state":"active","ping":47},{"user_id":593,"name":"gwen","steam_id":76561198046815360,"connected_time":1503000000000,"state":"active","ping":91},{"user_id":586,"name":"I hate gamers","steam_id":76561198288743767,"connected_time":1981000000000,"state":"active","ping":104},{"user_id":594,"name":"yateyay","steam_id":76561198311004039,"connected_time":1486000000000,"state":"active","ping":85},{"user_id":616,"name":"ComradeRobin","steam_id":76561198811153559,"connected_time":143000000000,"state":"active","ping":131},{"user_id":612,"name":"Kid named download","steam_id":76561199192074448,"connected_time":398000000000,"state":"active","ping":78},{"user_id":585,"name":"Nemcat.Jr","steam_id":76561198079821706,"connected_time":2365000000000,"state":"active","ping":58},{"user_id":488,"name":"nnobi","steam_id":76561198878729277,"connected_time":4821000000000,"state":"active","ping":75},{"user_id":477,"name":"reis","steam_id":76561199232952016,"connected_time":4928000000000,"state":"active","ping":192},{"user_id":602,"name":"Ozirion","steam_id":76561198108901767,"connected_time":1223000000000,"state":"active","ping":69},{"user_id":554,"name":"picnic blanket","steam_id":76561198308186037,"connected_time":3431000000000,"state":"active","ping":63},{"user_id":610,"name":"Seedkns","steam_id":76561199092210172,"connected_time":758000000000,"state":"active","ping":72},{"user_id":587,"name":"Error 4 Oh Four","steam_id":76561198121637567,"connected_time":1734000000000,"state":"active","ping":78},{"user_id":597,"name":"shiroko","steam_id":76561198211308328,"connected_time":1446000000000,"state":"active","ping":63},{"user_id":598,"name":"TallBit","steam_id":76561199059748976,"connected_time":1429000000000,"state":"active","ping":52},{"user_id":618,"name":"Deiler","steam_id":76561198988955474,"connected_time":28000000000,"state":"active","ping":66},{"user_id":570,"name":"Malignant","steam_id":76561199207759418,"connected_time":2843000000000,"state":"active","ping":90},{"user_id":603,"name":"ZigZag","steam_id":76561198261037986,"connected_time":1172000000000,"state":"active","ping":72},{"user_id":435,"name":"test","steam_id":76561198197388678,"connected_time":5753000000000,"state":"active","ping":94},{"user_id":613,"name":"Samrizo el Chorizo","steam_id":76561198009838162,"connected_time":395000000000,"state":"active","ping":65}]},{"server_id":402,"name":"Uncletopia | Chicago | 3 | All Maps","name_short":"chi-3","host":"chi-1.us.uncletopia.com","port":27035,"enabled":true,"region":"us-central","cc":"us","latitude":41.881832,"longitude":-87.62318,"reserved":0,"last_update":"0001-01-01T00:00:00Z","name_a2s":"Uncletopia | Chicago | 3 | All Maps","protocol":17,"map":"pl_badwater","folder":"tf","game":"Team Fortress","app_id":440,"player_count":24,"max_players":24,"Bots":0,"server_type":"Dedicated","server_os":"Linux","password":true,"vac":true,"version":"7757534","steam_id":85568392924515191,"keywords":["nocrits","nodmgspread","payload","uncletopia"],"game_id":440,"stv_port":27036,"stv_name":"Uncletopia | Chicago | 3 | All Maps | STV","players":[{"user_id":215,"name":"Miro","steam_id":76561198936412406,"connected_time":4005000000000,"state":"active","ping":79},{"user_id":185,"name":"Ex-PFC Wintergreen","steam_id":76561198203851303,"connected_time":6312000000000,"state":"active","ping":82},{"user_id":258,"name":"Wayne Dunlap","steam_id":76561198880287181,"connected_time":194000000000,"state":"active","ping":84},{"user_id":224,"name":"Giggles‚Ñ¢","steam_id":76561198058708019,"connected_time":3021000000000,"state":"active","ping":54},{"user_id":228,"name":"Apoc","steam_id":76561198376855927,"connected_time":2911000000000,"state":"active","ping":75},{"user_id":256,"name":"prettysureitschris","steam_id":76561198052648734,"connected_time":236000000000,"state":"active","ping":97},{"user_id":217,"name":"Uno!","steam_id":76561198799400617,"connected_time":3859000000000,"state":"active","ping":88},{"user_id":213,"name":"reign","steam_id":76561198047269484,"connected_time":4269000000000,"state":"active","ping":134},{"user_id":259,"name":"i cant take it anymore","steam_id":76561198337692867,"connected_time":179000000000,"state":"active","ping":69},{"user_id":255,"name":"JHLO","steam_id":76561198074359967,"connected_time":311000000000,"state":"active","ping":84},{"user_id":249,"name":"ultralisk52","steam_id":76561198051666604,"connected_time":754000000000,"state":"active","ping":60},{"user_id":239,"name":"Snake","steam_id":76561198161498557,"connected_time":2296000000000,"state":"active","ping":97},{"user_id":204,"name":"Kab","steam_id":76561198073503100,"connected_time":4815000000000,"state":"active","ping":66},{"user_id":261,"name":"joegn","steam_id":76561198197624767,"connected_time":74000000000,"state":"active","ping":104},{"user_id":260,"name":"Zeno","steam_id":76561199122275941,"connected_time":117000000000,"state":"active","ping":57},{"user_id":247,"name":"Synergy","steam_id":76561198365956073,"connected_time":997000000000,"state":"active","ping":64},{"user_id":231,"name":"Project_Counter","steam_id":76561198152786076,"connected_time":2891000000000,"state":"active","ping":76},{"user_id":250,"name":"canofspaghettios","steam_id":76561198124204246,"connected_time":734000000000,"state":"active","ping":54},{"user_id":232,"name":"The_Epic_Conclusion","steam_id":76561198084250179,"connected_time":2891000000000,"state":"active","ping":73},{"user_id":257,"name":"quiteabizarreone","steam_id":76561198407122862,"connected_time":219000000000,"state":"active","ping":95},{"user_id":252,"name":"rice white","steam_id":76561198320732910,"connected_time":636000000000,"state":"active","ping":74},{"user_id":253,"name":"cheenis","steam_id":76561198053523136,"connected_time":510000000000,"state":"active","ping":70},{"user_id":235,"name":"AlphaScout","steam_id":76561198047797890,"connected_time":2840000000000,"state":"active","ping":72},{"user_id":262,"name":"Training Arc","steam_id":76561198038832034,"connected_time":62000000000,"state":"active","ping":106}]},{"server_id":403,"name":"Uncletopia | Chicago | 4 | All Maps","name_short":"chi-4","host":"chi-1.us.uncletopia.com","port":27045,"enabled":true,"region":"us-central","cc":"us","latitude":41.881832,"longitude":-87.62318,"reserved":0,"last_update":"0001-01-01T00:00:00Z","name_a2s":"Uncletopia | Chicago | 4 | All Maps","protocol":17,"map":"cp_dustbowl","folder":"tf","game":"Team Fortress","app_id":440,"player_count":22,"max_players":24,"Bots":0,"server_type":"Dedicated","server_os":"Linux","password":true,"vac":true,"version":"7757534","steam_id":85568392924515193,"keywords":["cp","nocrits","nodmgspread","uncletopia"],"game_id":440,"stv_port":27046,"stv_name":"Uncletopia | Chicago | 4 | All Maps | STV","players":[{"user_id":466,"name":"Addy \u003c3","steam_id":76561198045819723,"connected_time":513000000000,"state":"active","ping":81},{"user_id":469,"name":"JMan","steam_id":76561198367705381,"connected_time":230000000000,"state":"active","ping":168},{"user_id":459,"name":"Laft","steam_id":76561198364501558,"connected_time":1384000000000,"state":"active","ping":73},{"user_id":347,"name":"ohton","steam_id":76561199033233448,"connected_time":9832000000000,"state":"active","ping":103},{"user_id":383,"name":"Ax0L_","steam_id":76561199008960175,"connected_time":7314000000000,"state":"active","ping":46},{"user_id":449,"name":"Ender","steam_id":76561198819439451,"connected_time":2693000000000,"state":"active","ping":59},{"user_id":473,"name":"dmlookinviolent","steam_id":76561198125863174,"connected_time":2000000000,"state":"spawning","ping":71},{"user_id":467,"name":"God's Drunkest Driver","steam_id":76561198165175875,"connected_time":259000000000,"state":"active","ping":51},{"user_id":445,"name":"pinguez","steam_id":76561199003447981,"connected_time":3262000000000,"state":"active","ping":81},{"user_id":470,"name":"Mr. Soupman","steam_id":76561198021649598,"connected_time":223000000000,"state":"active","ping":60},{"user_id":465,"name":"Menacing Pile of Frogs","steam_id":76561198360134800,"connected_time":700000000000,"state":"active","ping":71},{"user_id":452,"name":"JellyParrot","steam_id":76561199190990163,"connected_time":2648000000000,"state":"active","ping":68},{"user_id":446,"name":"Tuxedo_Mann2","steam_id":76561198172253219,"connected_time":2713000000000,"state":"active","ping":59},{"user_id":471,"name":"Huggle","steam_id":76561198141491662,"connected_time":214000000000,"state":"active","ping":66},{"user_id":448,"name":"TheTurtle220","steam_id":76561199403827814,"connected_time":2699000000000,"state":"active","ping":62},{"user_id":429,"name":"-‚Ç£‚Çµ-grease.goblin","steam_id":76561198077902438,"connected_time":4264000000000,"state":"active","ping":75},{"user_id":472,"name":"TheGamingJasper","steam_id":76561199054003635,"connected_time":206000000000,"state":"active","ping":116},{"user_id":430,"name":"-FC- malju","steam_id":76561199050174626,"connected_time":4227000000000,"state":"active","ping":60},{"user_id":453,"name":"Mr.Pan","steam_id":76561198069030613,"connected_time":2646000000000,"state":"active","ping":66},{"user_id":454,"name":"MAD ELITE","steam_id":76561199013168148,"connected_time":2533000000000,"state":"active","ping":86},{"user_id":461,"name":"Titar Industries","steam_id":76561198143078476,"connected_time":1382000000000,"state":"active","ping":66},{"user_id":443,"name":"Deathninja952","steam_id":76561199066489355,"connected_time":3765000000000,"state":"active","ping":108}]},{"server_id":36,"name":"Uncletopia | Chicago | 5 | All Maps","name_short":"chi-5","host":"chi-2.us.uncletopia.com","port":27015,"enabled":true,"region":"us-central","cc":"us","latitude":41.881832,"longitude":-87.62318,"reserved":0,"last_update":"0001-01-01T00:00:00Z","name_a2s":"Uncletopia | Chicago | 5 | All Maps","protocol":17,"map":"pl_badwater","folder":"tf","game":"Team Fortress","app_id":440,"player_count":25,"max_players":24,"Bots":0,"server_type":"Dedicated","server_os":"Linux","password":true,"vac":true,"version":"7757534","steam_id":85568392924866362,"keywords":["nocrits","nodmgspread","payload","uncletopia"],"game_id":440,"stv_port":27016,"stv_name":"Uncletopia | Chicago | 5 | All Maps | STV","players":[{"user_id":82,"name":"fallacy","steam_id":76561198057374871,"connected_time":3520000000000,"state":"active","ping":62},{"user_id":77,"name":"Owl Pacino","steam_id":76561197979970666,"connected_time":4336000000000,"state":"active","ping":48},{"user_id":19,"name":"roast beast","steam_id":76561198084433360,"connected_time":7517000000000,"state":"active","ping":67},{"user_id":20,"name":"Red Baron","steam_id":76561198067011766,"connected_time":7465000000000,"state":"active","ping":55},{"user_id":121,"name":"OrphanObliterator","steam_id":76561199185087795,"connected_time":1332000000000,"state":"active","ping":117},{"user_id":119,"name":"Discourse","steam_id":76561198984286678,"connected_time":1652000000000,"state":"active","ping":56},{"user_id":132,"name":"Donut1007rol (master of sex)","steam_id":76561198840560174,"connected_time":225000000000,"state":"active","ping":63},{"user_id":105,"name":"chururira!","steam_id":76561198284697381,"connected_time":2916000000000,"state":"active","ping":182},{"user_id":117,"name":"Niplets","steam_id":76561198021229322,"connected_time":2149000000000,"state":"active","ping":237},{"user_id":109,"name":"strawberry shortcock","steam_id":76561198032040831,"connected_time":2503000000000,"state":"active","ping":79},{"user_id":130,"name":"bananalover5","steam_id":76561199143854578,"connected_time":269000000000,"state":"active","ping":85},{"user_id":128,"name":"\u003e:3","steam_id":76561198083607304,"connected_time":309000000000,"state":"active","ping":67},{"user_id":136,"name":"Disco Fever","steam_id":76561198069532215,"connected_time":134000000000,"state":"active","ping":75},{"user_id":129,"name":"dipp","steam_id":76561198395577807,"connected_time":301000000000,"state":"active","ping":56},{"user_id":113,"name":"David Rainbowie","steam_id":76561198046237033,"connected_time":2330000000000,"state":"active","ping":84},{"user_id":106,"name":"Soup","steam_id":76561199202761955,"connected_time":2881000000000,"state":"active","ping":62},{"user_id":114,"name":"Mister Stabbeh","steam_id":76561197999776492,"connected_time":2318000000000,"state":"active","ping":78},{"user_id":131,"name":"i hate car seat headrest","steam_id":76561198055186751,"connected_time":266000000000,"state":"connecting","ping":0},{"user_id":124,"name":"Qevji","steam_id":76561198093815255,"connected_time":928000000000,"state":"active","ping":54},{"user_id":127,"name":"grate_fiter-232","steam_id":76561198073424589,"connected_time":318000000000,"state":"active","ping":74},{"user_id":133,"name":"Wrum Chum","steam_id":76561199049580624,"connected_time":221000000000,"state":"active","ping":88},{"user_id":125,"name":"Sheev Palpatine","steam_id":76561198252332430,"connected_time":868000000000,"state":"active","ping":74},{"user_id":134,"name":"CtpCarlos77","steam_id":76561198064312059,"connected_time":220000000000,"state":"active","ping":99},{"user_id":135,"name":"ShaiKai","steam_id":76561198333319986,"connected_time":174000000000,"state":"active","ping":78},{"user_id":137,"name":"real worm","steam_id":76561199065645094,"connected_time":113000000000,"state":"active","ping":84}]},{"server_id":37,"name":"Uncletopia | Chicago | 6 | All Maps","name_short":"chi-6","host":"chi-2.us.uncletopia.com","port":27025,"enabled":true,"region":"us-central","cc":"us","latitude":41.881832,"longitude":-87.62318,"reserved":0,"last_update":"0001-01-01T00:00:00Z","name_a2s":"Uncletopia | Chicago | 6 | All Maps","protocol":17,"map":"cp_snakewater_final1","folder":"tf","game":"Team Fortress","app_id":440,"player_count":24,"max_players":24,"Bots":0,"server_type":"Dedicated","server_os":"Linux","password":true,"vac":true,"version":"7757534","steam_id":85568392924866363,"keywords":["cp","nocrits","nodmgspread","uncletopia"],"game_id":440,"stv_port":27026,"stv_name":"Uncletopia | Chicago | 6 | All Maps | STV","players":[{"user_id":38,"name":"time has run out","steam_id":76561198066450438,"connected_time":3610000000000,"state":"active","ping":85},{"user_id":12,"name":"Michiru","steam_id":76561198878701671,"connected_time":4515000000000,"state":"active","ping":95},{"user_id":43,"name":"Aye","steam_id":76561198123441203,"connected_time":2622000000000,"state":"active","ping":64},{"user_id":14,"name":"Blondale Pringle","steam_id":76561198300104866,"connected_time":4501000000000,"state":"active","ping":75},{"user_id":63,"name":"O o g","steam_id":76561199267535506,"connected_time":590000000000,"state":"active","ping":80},{"user_id":16,"name":"Awaiting Her Return","steam_id":76561198055820194,"connected_time":4377000000000,"state":"active","ping":58},{"user_id":49,"name":"mari_","steam_id":76561198137855741,"connected_time":2262000000000,"state":"active","ping":46},{"user_id":60,"name":"mrselfdestruct13","steam_id":76561197992054553,"connected_time":777000000000,"state":"active","ping":78},{"user_id":51,"name":"Mburesh","steam_id":76561198137460717,"connected_time":2073000000000,"state":"active","ping":59},{"user_id":47,"name":"kevin supermarket","steam_id":76561198058287022,"connected_time":2309000000000,"state":"active","ping":60},{"user_id":35,"name":"Overduecat","steam_id":76561198092452824,"connected_time":3823000000000,"state":"active","ping":71},{"user_id":41,"name":"Astrodius","steam_id":76561199228913766,"connected_time":3100000000000,"state":"active","ping":97},{"user_id":58,"name":"Lain","steam_id":76561198252784944,"connected_time":805000000000,"state":"active","ping":90},{"user_id":24,"name":"Sockhead","steam_id":76561198253181773,"connected_time":4078000000000,"state":"active","ping":88},{"user_id":61,"name":"girlthing","steam_id":76561198799922000,"connected_time":693000000000,"state":"active","ping":106},{"user_id":54,"name":"Neon","steam_id":76561198089067907,"connected_time":1195000000000,"state":"active","ping":71},{"user_id":64,"name":"Nelson","steam_id":76561198850327678,"connected_time":138000000000,"state":"active","ping":99},{"user_id":40,"name":"Zho Biden","steam_id":76561198079224101,"connected_time":3172000000000,"state":"active","ping":55},{"user_id":29,"name":"Post nut clarity","steam_id":76561198060246831,"connected_time":3972000000000,"state":"active","ping":92},{"user_id":30,"name":"sailaser","steam_id":76561198035752229,"connected_time":3958000000000,"state":"active","ping":71},{"user_id":31,"name":"TJGSASQUATCH","steam_id":76561198077806921,"connected_time":3908000000000,"state":"active","ping":81},{"user_id":32,"name":"Lawn","steam_id":76561198267235228,"connected_time":3885000000000,"state":"active","ping":125},{"user_id":52,"name":"Mkwhackertracker","steam_id":76561198128343704,"connected_time":2056000000000,"state":"active","ping":71},{"user_id":57,"name":"goon squad","steam_id":76561198402168146,"connected_time":839000000000,"state":"active","ping":57}]},{"server_id":38,"name":"Uncletopia | Chicago | 7 | Stopwatch Beta","name_short":"chi-7","host":"chi-2.us.uncletopia.com","port":27035,"enabled":true,"region":"us-central","cc":"us","latitude":41.881832,"longitude":-87.62318,"reserved":0,"last_update":"0001-01-01T00:00:00Z","name_a2s":"Uncletopia | Chicago | 7 | Stopwatch Beta","protocol":17,"map":"pl_borneo","folder":"tf","game":"Team Fortress","app_id":440,"player_count":0,"max_players":24,"Bots":0,"server_type":"Dedicated","server_os":"Linux","password":true,"vac":true,"version":"7757534","steam_id":85568392924866364,"keywords":["nocrits","nodmgspread","payload","uncletopia"],"game_id":440,"stv_port":27036,"stv_name":"Uncletopia | Chicago | 7 | Stopwatch Beta | STV","players":null},{"server_id":39,"name":"Uncletopia | Chicago | 8 | Community","name_short":"chi-8","host":"chi-2.us.uncletopia.com","port":27045,"enabled":true,"region":"us-central","cc":"us","latitude":41.881832,"longitude":-87.62318,"reserved":0,"last_update":"0001-01-01T00:00:00Z","name_a2s":"Uncletopia | Chicago | 8 | Community","protocol":17,"map":"workshop/pl_emerge_rc2.ugc888027758","folder":"tf","game":"Team Fortress","app_id":440,"player_count":17,"max_players":24,"Bots":0,"server_type":"Dedicated","server_os":"Linux","password":true,"vac":true,"version":"7757534","steam_id":85568392924866365,"keywords":["nocrits","nodmgspread","payload","uncletopia"],"game_id":440,"stv_port":27046,"stv_name":"Uncletopia | Chicago | 8 | Community | STV","players":[{"user_id":61,"name":"Propaniac Gaming ‚òë","steam_id":76561198133963270,"connected_time":257000000000,"state":"active","ping":51},{"user_id":62,"name":"silly","steam_id":76561198311564850,"connected_time":166000000000,"state":"active","ping":98},{"user_id":63,"name":"DJ Chalice","steam_id":76561197974872458,"connected_time":99000000000,"state":"active","ping":70},{"user_id":64,"name":"GRONT","steam_id":76561198040464533,"connected_time":87000000000,"state":"active","ping":70},{"user_id":15,"name":"nicholasballard7109","steam_id":76561199434286633,"connected_time":1988000000000,"state":"active","ping":65},{"user_id":19,"name":"SUPERLilithEve (She/Her)","steam_id":76561198163264532,"connected_time":1935000000000,"state":"active","ping":91},{"user_id":17,"name":"unerringCaprition (She/Her)","steam_id":76561198042528476,"connected_time":1955000000000,"state":"active","ping":89},{"user_id":65,"name":"PinguEnjoyer6","steam_id":76561199186723516,"connected_time":77000000000,"state":"active","ping":89},{"user_id":56,"name":"mel","steam_id":76561198097124190,"connected_time":482000000000,"state":"active","ping":73},{"user_id":27,"name":"Kevin Cox","steam_id":76561198075658052,"connected_time":1601000000000,"state":"active","ping":52},{"user_id":28,"name":"cardboardwarrior1","steam_id":76561199145044693,"connected_time":1517000000000,"state":"active","ping":135},{"user_id":29,"name":"Nitro","steam_id":76561198044877244,"connected_time":1507000000000,"state":"active","ping":70},{"user_id":34,"name":"awtem","steam_id":76561198083673187,"connected_time":1199000000000,"state":"active","ping":122},{"user_id":32,"name":"SulfurFinest","steam_id":76561198039901632,"connected_time":1308000000000,"state":"active","ping":61},{"user_id":35,"name":"GuyGoom","steam_id":76561198254522178,"connected_time":1138000000000,"state":"active","ping":53},{"user_id":54,"name":"Kid B8","steam_id":76561198086764710,"connected_time":1019000000000,"state":"active","ping":77},{"user_id":57,"name":"kingding","steam_id":76561198148059714,"connected_time":481000000000,"state":"active","ping":64}]},{"server_id":8,"name":"Uncletopia | Dallas | 1 | All Maps","name_short":"dal-1","host":"dal-1.us.uncletopia.com","port":27015,"enabled":true,"region":"us-central","cc":"us","latitude":32.779167,"longitude":-96.80889,"reserved":0,"last_update":"0001-01-01T00:00:00Z","name_a2s":"Uncletopia | Dallas | 1 | All Maps","protocol":17,"map":"koth_viaduct","folder":"tf","game":"Team Fortress","app_id":440,"player_count":24,"max_players":24,"Bots":0,"server_type":"Dedicated","server_os":"Linux","password":true,"vac":true,"version":"7757534","steam_id":85568392924469986,"keywords":["cp","nocrits","nodmgspread","uncletopia"],"game_id":440,"stv_port":27016,"stv_name":"Uncletopia | Dallas | 1 | All Maps | STV","players":[{"user_id":239,"name":"Fredrick","steam_id":76561197981419964,"connected_time":838000000000,"state":"active","ping":88},{"user_id":244,"name":"dodecadron","steam_id":76561198027397222,"connected_time":239000000000,"state":"active","ping":110},{"user_id":243,"name":"Dr. MDF L","steam_id":76561198110497830,"connected_time":253000000000,"state":"active","ping":112},{"user_id":218,"name":"Stillkill","steam_id":76561198065069057,"connected_time":2530000000000,"state":"active","ping":38},{"user_id":242,"name":"Lexabyte","steam_id":76561198065032237,"connected_time":286000000000,"state":"active","ping":97},{"user_id":226,"name":"astro2xl","steam_id":76561198209122205,"connected_time":2263000000000,"state":"active","ping":60},{"user_id":190,"name":"krakowski","steam_id":76561198119536224,"connected_time":4905000000000,"state":"active","ping":77},{"user_id":187,"name":"trks","steam_id":76561198233984300,"connected_time":5410000000000,"state":"active","ping":71},{"user_id":245,"name":"DannyM","steam_id":76561198351165570,"connected_time":239000000000,"state":"active","ping":41},{"user_id":246,"name":"hestalus","steam_id":76561198420130869,"connected_time":228000000000,"state":"active","ping":115},{"user_id":247,"name":"Decs","steam_id":76561198825197974,"connected_time":220000000000,"state":"active","ping":129},{"user_id":238,"name":"FluttyPutty","steam_id":76561198218446556,"connected_time":854000000000,"state":"active","ping":64},{"user_id":224,"name":"SuperViolence","steam_id":76561198973670368,"connected_time":2282000000000,"state":"active","ping":104},{"user_id":204,"name":"Humon Player","steam_id":76561198013593178,"connected_time":4101000000000,"state":"active","ping":55},{"user_id":241,"name":"mkl","steam_id":76561197986401685,"connected_time":687000000000,"state":"active","ping":62},{"user_id":233,"name":"Missing Minus","steam_id":76561198120822928,"connected_time":1689000000000,"state":"active","ping":66},{"user_id":251,"name":"Nen","steam_id":76561198893347370,"connected_time":110000000000,"state":"active","ping":104},{"user_id":240,"name":"nemaxilb :3","steam_id":76561199074875663,"connected_time":828000000000,"state":"active","ping":76},{"user_id":249,"name":"KewlKris","steam_id":76561198260738308,"connected_time":160000000000,"state":"active","ping":34},{"user_id":214,"name":"Minlit","steam_id":76561198205832799,"connected_time":3091000000000,"state":"active","ping":57},{"user_id":250,"name":"Stubes","steam_id":76561198046220116,"connected_time":160000000000,"state":"active","ping":78},{"user_id":236,"name":"Ekuseebia","steam_id":76561198037504112,"connected_time":1654000000000,"state":"active","ping":69},{"user_id":227,"name":"SuperiorSone","steam_id":76561199212273433,"connected_time":2261000000000,"state":"active","ping":101},{"user_id":220,"name":"Wolverine Fingerblaster","steam_id":76561198095394582,"connected_time":2495000000000,"state":"active","ping":61}]},{"server_id":108,"name":"Uncletopia | Dallas | 2 | All Maps","name_short":"dal-2","host":"dal-1.us.uncletopia.com","port":27025,"enabled":true,"region":"us-central","cc":"us","latitude":32.779167,"longitude":-96.80889,"reserved":0,"last_update":"0001-01-01T00:00:00Z","name_a2s":"Uncletopia | Dallas | 2 | All Maps","protocol":17,"map":"cp_powerhouse","folder":"tf","game":"Team Fortress","app_id":440,"player_count":24,"max_players":24,"Bots":0,"server_type":"Dedicated","server_os":"Linux","password":true,"vac":true,"version":"7757534","steam_id":85568392924469988,"keywords":["cp","nocrits","nodmgspread","uncletopia"],"game_id":440,"stv_port":27026,"stv_name":"Uncletopia | Dallas | 2 | All Maps | STV","players":[{"user_id":153,"name":"maddoxmomo","steam_id":76561198816228532,"connected_time":1856000000000,"state":"active","ping":62},{"user_id":128,"name":"vgMaster749","steam_id":76561198205048900,"connected_time":3535000000000,"state":"active","ping":60},{"user_id":53,"name":"Beantama","steam_id":76561198986811476,"connected_time":9221000000000,"state":"active","ping":61},{"user_id":129,"name":"‚ú™ Y V E S","steam_id":76561198299479796,"connected_time":3528000000000,"state":"active","ping":74},{"user_id":146,"name":"Ferguson","steam_id":76561198121349387,"connected_time":2400000000000,"state":"active","ping":54},{"user_id":85,"name":"QueenPinharam","steam_id":76561199015626409,"connected_time":7646000000000,"state":"active","ping":56},{"user_id":101,"name":"Tyler\u0026Fingers","steam_id":76561198085154485,"connected_time":5846000000000,"state":"active","ping":87},{"user_id":130,"name":"Ethan7704","steam_id":76561198821010606,"connected_time":3516000000000,"state":"active","ping":78},{"user_id":161,"name":"austintacious","steam_id":76561198054118061,"connected_time":694000000000,"state":"active","ping":66},{"user_id":105,"name":"J.G. Klaus","steam_id":76561198001111196,"connected_time":5386000000000,"state":"active","ping":55},{"user_id":141,"name":"Saikyo","steam_id":76561198212461467,"connected_time":2966000000000,"state":"active","ping":43},{"user_id":109,"name":"Fantastic Mr. Fox Appreciator","steam_id":76561198096306325,"connected_time":5019000000000,"state":"active","ping":111},{"user_id":95,"name":"Rhutebeer","steam_id":76561198018302761,"connected_time":6460000000000,"state":"active","ping":76},{"user_id":152,"name":"jae","steam_id":76561199239926014,"connected_time":2185000000000,"state":"active","ping":63},{"user_id":126,"name":"CFG Ponder","steam_id":76561198127039453,"connected_time":3650000000000,"state":"active","ping":78},{"user_id":162,"name":"Type Three Dabeetus","steam_id":76561198062710038,"connected_time":498000000000,"state":"active","ping":87},{"user_id":142,"name":"CyberBeans","steam_id":76561198239042642,"connected_time":2848000000000,"state":"active","ping":61},{"user_id":151,"name":"MadsValentine","steam_id":76561198064832963,"connected_time":2228000000000,"state":"active","ping":77},{"user_id":98,"name":"bestie_boy","steam_id":76561199121946793,"connected_time":6420000000000,"state":"active","ping":100},{"user_id":163,"name":"carol in HR","steam_id":76561198071775268,"connected_time":492000000000,"state":"active","ping":104},{"user_id":164,"name":"Danger McHazard","steam_id":76561198059451274,"connected_time":492000000000,"state":"active","ping":78},{"user_id":112,"name":"mrnotsogudguy","steam_id":76561199289893241,"connected_time":4881000000000,"state":"active","ping":71},{"user_id":154,"name":"Carrot^7","steam_id":76561198060034109,"connected_time":1678000000000,"state":"active","ping":69},{"user_id":157,"name":"Metbol","steam_id":76561198001362410,"connected_time":921000000000,"state":"active","ping":58}]},{"server_id":5,"name":"Uncletopia | Frankfurt | 1 | All Maps","name_short":"frk-1","host":"frk-1.de.uncletopia.com","port":27015,"enabled":true,"region":"eu","cc":"de","latitude":50.110924,"longitude":8.682127,"reserved":0,"last_update":"0001-01-01T00:00:00Z","name_a2s":"Uncletopia | Frankfurt | 1 | All Maps","protocol":17,"map":"pl_swiftwater_final1","folder":"tf","game":"Team Fortress","app_id":440,"player_count":22,"max_players":24,"Bots":0,"server_type":"Dedicated","server_os":"Linux","password":true,"vac":true,"version":"7757534","steam_id":85568392924469989,"keywords":["nocrits","nodmgspread","payload","uncletopia"],"game_id":440,"stv_port":27016,"stv_name":"Uncletopia | Frankfurt | 1 | All Maps | STV","players":[{"user_id":489,"name":"Contemporary_Chaos","steam_id":76561198138784538,"connected_time":2020000000000,"state":"active","ping":91},{"user_id":493,"name":"Beirut chess piece","steam_id":76561198283416769,"connected_time":1865000000000,"state":"active","ping":69},{"user_id":497,"name":"thespe","steam_id":76561198088225107,"connected_time":1278000000000,"state":"active","ping":66},{"user_id":500,"name":"hananamanna","steam_id":76561198006570285,"connected_time":1178000000000,"state":"active","ping":107},{"user_id":436,"name":"giclure :;","steam_id":76561197986362828,"connected_time":5418000000000,"state":"active","ping":57},{"user_id":441,"name":"Mr_Joergen","steam_id":76561198364713702,"connected_time":5109000000000,"state":"active","ping":62},{"user_id":464,"name":"Voxil","steam_id":76561198013643001,"connected_time":4224000000000,"state":"active","ping":60},{"user_id":491,"name":"Borat","steam_id":76561198122226417,"connected_time":1953000000000,"state":"active","ping":59},{"user_id":481,"name":"lvl. 50 honkler","steam_id":76561198061688660,"connected_time":2712000000000,"state":"active","ping":101},{"user_id":509,"name":"Dave The Sloth","steam_id":76561199135831355,"connected_time":79000000000,"state":"active","ping":67},{"user_id":507,"name":"t√Øger","steam_id":76561198260483157,"connected_time":881000000000,"state":"active","ping":79},{"user_id":495,"name":"ChickyCoop","steam_id":76561199072983488,"connected_time":1398000000000,"state":"active","ping":74},{"user_id":499,"name":"spake","steam_id":76561198109247682,"connected_time":1224000000000,"state":"active","ping":66},{"user_id":435,"name":"Hearny","steam_id":76561198015413751,"connected_time":5672000000000,"state":"active","ping":73},{"user_id":501,"name":"Vermilion. -„É°„É©„Éà„Éã„É≥-","steam_id":76561198050555372,"connected_time":1157000000000,"state":"active","ping":60},{"user_id":506,"name":"Doomset","steam_id":76561198879996015,"connected_time":1075000000000,"state":"active","ping":105},{"user_id":503,"name":"Peams","steam_id":76561198343328308,"connected_time":1106000000000,"state":"active","ping":53},{"user_id":508,"name":"kloada","steam_id":76561198082113271,"connected_time":128000000000,"state":"active","ping":70},{"user_id":487,"name":"105 IQ Mastermind","steam_id":76561198061197114,"connected_time":2329000000000,"state":"active","ping":68},{"user_id":434,"name":"port :o3","steam_id":76561198059151809,"connected_time":5733000000000,"state":"active","ping":74},{"user_id":461,"name":"ProfessorCrack","steam_id":76561199035475627,"connected_time":4487000000000,"state":"active","ping":82},{"user_id":484,"name":"John Noob","steam_id":76561197999170026,"connected_time":2608000000000,"state":"active","ping":97}]},{"server_id":110,"name":"Uncletopia | Frankfurt | 2 | All Maps","name_short":"frk-2","host":"frk-1.de.uncletopia.com","port":27025,"enabled":true,"region":"eu","cc":"de","latitude":50.110924,"longitude":8.682127,"reserved":0,"last_update":"0001-01-01T00:00:00Z","name_a2s":"Uncletopia | Frankfurt | 2 | All Maps","protocol":17,"map":"koth_cascade","folder":"tf","game":"Team Fortress","app_id":440,"player_count":0,"max_players":24,"Bots":0,"server_type":"Dedicated","server_os":"Linux","password":true,"vac":true,"version":"7757534","steam_id":85568392924469990,"keywords":["cp","nocrits","nodmgspread","uncletopia"],"game_id":440,"stv_port":27026,"stv_name":"Uncletopia | Frankfurt | 2 | All Maps | STV","players":null},{"server_id":308,"name":"Uncletopia | Frankfurt | 3 | All Maps","name_short":"frk-3","host":"frk-1.de.uncletopia.com","port":27035,"enabled":true,"region":"eu","cc":"de","latitude":50.110924,"longitude":8.682127,"reserved":0,"last_update":"0001-01-01T00:00:00Z","name_a2s":"Uncletopia | Frankfurt | 3 | All Maps","protocol":17,"map":"pl_snowycoast","folder":"tf","game":"Team Fortress","app_id":440,"player_count":24,"max_players":24,"Bots":0,"server_type":"Dedicated","server_os":"Linux","password":true,"vac":true,"version":"7757534","steam_id":85568392924504274,"keywords":["nocrits","nodmgspread","payload","uncletopia"],"game_id":440,"stv_port":27036,"stv_name":"Uncletopia | Frankfurt | 3 | All Maps | STV","players":[{"user_id":179,"name":"dunduu","steam_id":76561198875240717,"connected_time":752000000000,"state":"active","ping":62},{"user_id":150,"name":"Droy","steam_id":76561198065854668,"connected_time":3220000000000,"state":"active","ping":58},{"user_id":175,"name":"Janasz","steam_id":76561198369709441,"connected_time":1205000000000,"state":"active","ping":62},{"user_id":185,"name":"Alibi","steam_id":76561198061845595,"connected_time":549000000000,"state":"active","ping":63},{"user_id":151,"name":"hey babe, you look sexy today","steam_id":76561199145336892,"connected_time":3195000000000,"state":"active","ping":58},{"user_id":159,"name":"Avast AntiPony 9445","steam_id":76561197992046533,"connected_time":2034000000000,"state":"active","ping":52},{"user_id":160,"name":"Sych06","steam_id":76561198798979302,"connected_time":2017000000000,"state":"active","ping":135},{"user_id":161,"name":"astigmatic","steam_id":76561199103959197,"connected_time":2014000000000,"state":"active","ping":88},{"user_id":182,"name":"Piteras","steam_id":76561198858532207,"connected_time":606000000000,"state":"active","ping":72},{"user_id":148,"name":"lettuce at 58p","steam_id":76561199401283123,"connected_time":3300000000000,"state":"active","ping":66},{"user_id":193,"name":"im wearing gunnars","steam_id":76561198045413005,"connected_time":259000000000,"state":"active","ping":55},{"user_id":166,"name":"Daga","steam_id":76561198055450219,"connected_time":1966000000000,"state":"active","ping":48},{"user_id":173,"name":"cheezy27","steam_id":76561198071067236,"connected_time":1533000000000,"state":"active","ping":90},{"user_id":181,"name":"subway vergil","steam_id":76561199110064166,"connected_time":650000000000,"state":"active","ping":72},{"user_id":191,"name":"kotamine","steam_id":76561198068907991,"connected_time":318000000000,"state":"active","ping":67},{"user_id":192,"name":"McMasterBG","steam_id":76561198271571307,"connected_time":275000000000,"state":"active","ping":57},{"user_id":154,"name":"Mean Green Peen","steam_id":76561198228455736,"connected_time":3170000000000,"state":"active","ping":75},{"user_id":194,"name":"Gryoss","steam_id":76561197999837111,"connected_time":231000000000,"state":"active","ping":92},{"user_id":197,"name":"tiny engi","steam_id":76561199380255051,"connected_time":184000000000,"state":"active","ping":79},{"user_id":186,"name":"im pretty glonky","steam_id":76561198256811438,"connected_time":540000000000,"state":"active","ping":108},{"user_id":190,"name":"metamikko","steam_id":76561198324704234,"connected_time":447000000000,"state":"active","ping":118},{"user_id":195,"name":"pajer0","steam_id":76561198002913482,"connected_time":193000000000,"state":"active","ping":94},{"user_id":189,"name":"yaldabaoth","steam_id":76561198084606869,"connected_time":519000000000,"state":"active","ping":146},{"user_id":103,"name":"–ö—Ä–∏–º–∏–Ω–∞–ª—å–Ω—ã–π —É—â–µ","steam_id":76561198034136409,"connected_time":5605000000000,"state":"active","ping":103}]},{"server_id":309,"name":"Uncletopia | Frankfurt | 4 | All Maps","name_short":"frk-4","host":"frk-1.de.uncletopia.com","port":27045,"enabled":true,"region":"eu","cc":"de","latitude":50.110924,"longitude":8.682127,"reserved":0,"last_update":"0001-01-01T00:00:00Z","name_a2s":"Uncletopia | Frankfurt | 4 | All Maps","protocol":17,"map":"pl_upward","folder":"tf","game":"Team Fortress","app_id":440,"player_count":24,"max_players":24,"Bots":0,"server_type":"Dedicated","server_os":"Linux","password":true,"vac":true,"version":"7757534","steam_id":85568392924504275,"keywords":["nocrits","nodmgspread","payload","uncletopia"],"game_id":440,"stv_port":27046,"stv_name":"Uncletopia | Frankfurt | 4 | All Maps | STV","players":[{"user_id":345,"name":"Ridaccio","steam_id":76561198049922977,"connected_time":1600000000000,"state":"active","ping":60},{"user_id":346,"name":"mp1mp2mp3","steam_id":76561198088967665,"connected_time":1519000000000,"state":"active","ping":89},{"user_id":347,"name":"Chambersite","steam_id":76561198197022399,"connected_time":1502000000000,"state":"active","ping":59},{"user_id":362,"name":"Hyperek","steam_id":76561198130797464,"connected_time":235000000000,"state":"active","ping":73},{"user_id":360,"name":"Aeglos","steam_id":76561198248698294,"connected_time":344000000000,"state":"active","ping":58},{"user_id":342,"name":"Kjat","steam_id":76561198839433592,"connected_time":1776000000000,"state":"active","ping":49},{"user_id":301,"name":"s a i","steam_id":76561197970379754,"connected_time":5474000000000,"state":"active","ping":55},{"user_id":314,"name":"shr1mple","steam_id":76561198173537027,"connected_time":4121000000000,"state":"active","ping":33},{"user_id":308,"name":"idc","steam_id":76561198322087870,"connected_time":4358000000000,"state":"active","ping":100},{"user_id":359,"name":"Cheshireycat","steam_id":76561198067204908,"connected_time":370000000000,"state":"active","ping":74},{"user_id":358,"name":"Seb, Comrade","steam_id":76561198040279587,"connected_time":803000000000,"state":"active","ping":102},{"user_id":349,"name":"fiammicchu","steam_id":76561199032469082,"connected_time":1451000000000,"state":"active","ping":85},{"user_id":356,"name":"CHUNKY-","steam_id":76561198093303134,"connected_time":1114000000000,"state":"active","ping":74},{"user_id":351,"name":"Fra‚Ñ¢ (il mignottaro)","steam_id":76561198057347710,"connected_time":1417000000000,"state":"active","ping":64},{"user_id":352,"name":"L4gman","steam_id":76561198048227040,"connected_time":1386000000000,"state":"active","ping":99},{"user_id":340,"name":"Tonne","steam_id":76561197970856766,"connected_time":2032000000000,"state":"active","ping":61},{"user_id":303,"name":"koko","steam_id":76561198953867666,"connected_time":5073000000000,"state":"active","ping":56},{"user_id":363,"name":"Wranje Rovah","steam_id":76561198089003514,"connected_time":149000000000,"state":"active","ping":45},{"user_id":329,"name":"BAPHOMET","steam_id":76561198160069534,"connected_time":2849000000000,"state":"active","ping":101},{"user_id":361,"name":"Dor_atar","steam_id":76561198973980542,"connected_time":325000000000,"state":"active","ping":70},{"user_id":357,"name":"ice eater","steam_id":76561198356368580,"connected_time":838000000000,"state":"active","ping":75},{"user_id":322,"name":"Soyboy","steam_id":76561198053885716,"connected_time":3156000000000,"state":"active","ping":76},{"user_id":336,"name":"Juiceydough","steam_id":76561197997323419,"connected_time":2589000000000,"state":"active","ping":90},{"user_id":364,"name":"kunta kinte","steam_id":76561198033845455,"connected_time":1000000000,"state":"spawning","ping":40}]},{"server_id":310,"name":"Uncletopia | Frankfurt | 5 | All Maps","name_short":"frk-5","host":"frk-1.de.uncletopia.com","port":27055,"enabled":true,"region":"eu","cc":"de","latitude":50.110924,"longitude":8.682127,"reserved":0,"last_update":"0001-01-01T00:00:00Z","name_a2s":"Uncletopia | Frankfurt | 5 | All Maps","protocol":17,"map":"koth_lakeside_final","folder":"tf","game":"Team Fortress","app_id":440,"player_count":0,"max_players":24,"Bots":0,"server_type":"Dedicated","server_os":"Linux","password":true,"vac":true,"version":"7757534","steam_id":85568392924504277,"keywords":["cp","nocrits","nodmgspread","uncletopia"],"game_id":440,"stv_port":27056,"stv_name":"Uncletopia | Frankfurt | 5 | All Maps | STV","players":null},{"server_id":311,"name":"Uncletopia | Frankfurt | 6 | All Maps","name_short":"frk-6","host":"frk-1.de.uncletopia.com","port":27065,"enabled":true,"region":"eu","cc":"de","latitude":50.110924,"longitude":8.682127,"reserved":0,"last_update":"0001-01-01T00:00:00Z","name_a2s":"Uncletopia | Frankfurt | 6 | All Maps","protocol":17,"map":"pl_barnblitz","folder":"tf","game":"Team Fortress","app_id":440,"player_count":0,"max_players":24,"Bots":0,"server_type":"Dedicated","server_os":"Linux","password":true,"vac":true,"version":"7757534","steam_id":85568392924504278,"keywords":["nocrits","nodmgspread","payload","uncletopia"],"game_id":440,"stv_port":27066,"stv_name":"Uncletopia | Frankfurt | 6 | All Maps | STV","players":null},{"server_id":23,"name":"Uncletopia | Frankfurt | 7 | Stopwatch Beta","name_short":"frk-7","host":"frk-1.de.uncletopia.com","port":27075,"enabled":true,"region":"eu","cc":"de","latitude":50.110924,"longitude":8.682127,"reserved":0,"last_update":"0001-01-01T00:00:00Z","name_a2s":"Uncletopia | Frankfurt | 7 | Stopwatch Beta","protocol":17,"map":"workshop/koth_bagel_rc6.ugc2514036946","folder":"tf","game":"Team Fortress","app_id":440,"player_count":0,"max_players":24,"Bots":0,"server_type":"Dedicated","server_os":"Linux","password":true,"vac":true,"version":"7757534","steam_id":85568392924742827,"keywords":["cp","nocrits","nodmgspread","uncletopia"],"game_id":440,"stv_port":27076,"stv_name":"Uncletopia | Frankfurt | 7 | Stopwatch Beta | STV","players":null},{"server_id":24,"name":"Uncletopia | Frankfurt | 8 | Community","name_short":"frk-8","host":"frk-1.de.uncletopia.com","port":27085,"enabled":true,"region":"eu","cc":"de","latitude":50.110924,"longitude":8.682127,"reserved":0,"last_update":"0001-01-01T00:00:00Z","name_a2s":"Uncletopia | Frankfurt | 8 | Community","protocol":17,"map":"workshop/cp_hazyfort_rc6.ugc1365963729","folder":"tf","game":"Team Fortress","app_id":440,"player_count":0,"max_players":24,"Bots":0,"server_type":"Dedicated","server_os":"Linux","password":true,"vac":true,"version":"7757534","steam_id":85568392924742828,"keywords":["cp","nocrits","nodmgspread","uncletopia"],"game_id":440,"stv_port":27086,"stv_name":"Uncletopia | Frankfurt | 8 | Community | STV","players":null},{"server_id":202,"name":"Uncletopia | Hong Kong | 1 | All Maps","name_short":"hgk-1","host":"hgk-1.hk.uncletopia.com","port":27015,"enabled":true,"region":"asia","cc":"hk","latitude":22.302711,"longitude":114.177216,"reserved":0,"last_update":"0001-01-01T00:00:00Z","name_a2s":"Uncletopia | Hong Kong | 1 | All Maps","protocol":17,"map":"pl_borneo","folder":"tf","game":"Team Fortress","app_id":440,"player_count":0,"max_players":24,"Bots":0,"server_type":"Dedicated","server_os":"Linux","password":true,"vac":true,"version":"7757534","steam_id":85568392924494504,"keywords":["nocrits","nodmgspread","payload","uncletopia"],"game_id":440,"stv_port":27016,"stv_name":"Uncletopia | Hong Kong | 1 | All Maps | STV","players":null},{"server_id":1,"name":"Uncletopia | Los Angeles | 1 | All Maps","name_short":"lax-1","host":"lax-1.us.uncletopia.com","port":27015,"enabled":true,"region":"us-west","cc":"us","latitude":33.94279,"longitude":-118.41004,"reserved":0,"last_update":"0001-01-01T00:00:00Z","name_a2s":"Uncletopia | Los Angeles | 1 | All Maps","protocol":17,"map":"pl_barnblitz","folder":"tf","game":"Team Fortress","app_id":440,"player_count":24,"max_players":24,"Bots":0,"server_type":"Dedicated","server_os":"Linux","password":true,"vac":true,"version":"7757534","steam_id":85568392924469991,"keywords":["nocrits","nodmgspread","payload","uncletopia"],"game_id":440,"stv_port":27016,"stv_name":"Uncletopia | Los Angeles | 1 | All Maps | STV","players":[{"user_id":228,"name":"HOG RIDER","steam_id":76561198298589502,"connected_time":665000000000,"state":"active","ping":45},{"user_id":182,"name":"skelly702","steam_id":76561198384117003,"connected_time":3491000000000,"state":"active","ping":41},{"user_id":188,"name":"Quon Grene for Vice Prez","steam_id":76561198127545817,"connected_time":3193000000000,"state":"active","ping":83},{"user_id":229,"name":"Arnelcardis","steam_id":76561198018063858,"connected_time":664000000000,"state":"active","ping":93},{"user_id":167,"name":"TTV/ChadMorningWood","steam_id":76561198139832291,"connected_time":4500000000000,"state":"active","ping":48},{"user_id":215,"name":"4 life","steam_id":76561198175961598,"connected_time":1231000000000,"state":"active","ping":63},{"user_id":174,"name":"Matisguy","steam_id":76561199020903681,"connected_time":4205000000000,"state":"active","ping":87},{"user_id":230,"name":"Slart (bleeding out)","steam_id":76561198873467173,"connected_time":639000000000,"state":"active","ping":47},{"user_id":218,"name":"Dongus","steam_id":76561197979056451,"connected_time":1081000000000,"state":"active","ping":75},{"user_id":152,"name":"peter griffindor","steam_id":76561198007867721,"connected_time":5295000000000,"state":"active","ping":55},{"user_id":221,"name":"murder is OK","steam_id":76561199041466962,"connected_time":996000000000,"state":"active","ping":49},{"user_id":236,"name":"gods drunkest driver","steam_id":76561198293857963,"connected_time":219000000000,"state":"active","ping":61},{"user_id":225,"name":"Î¥áÏπò Îçî ÏïÑÏπ¥Ïù¥Î∏å","steam_id":76561198453203619,"connected_time":746000000000,"state":"active","ping":45},{"user_id":235,"name":"lightning","steam_id":76561198432444690,"connected_time":310000000000,"state":"active","ping":75},{"user_id":234,"name":"Sticky","steam_id":76561198031581547,"connected_time":443000000000,"state":"active","ping":44},{"user_id":226,"name":"remilia","steam_id":76561198069180543,"connected_time":740000000000,"state":"active","ping":46},{"user_id":149,"name":"Superman123389","steam_id":76561198267472539,"connected_time":5384000000000,"state":"active","ping":87},{"user_id":154,"name":"PageBoiSkull","steam_id":76561198237353578,"connected_time":5285000000000,"state":"active","ping":69},{"user_id":224,"name":"CWITS","steam_id":76561199171515178,"connected_time":830000000000,"state":"active","ping":79},{"user_id":223,"name":"wes","steam_id":76561198273536400,"connected_time":906000000000,"state":"active","ping":119},{"user_id":227,"name":"dramboney","steam_id":76561199068500959,"connected_time":724000000000,"state":"active","ping":93},{"user_id":232,"name":"Registeel","steam_id":76561198187662057,"connected_time":616000000000,"state":"active","ping":62},{"user_id":202,"name":"Isn't Water","steam_id":76561199253511650,"connected_time":2250000000000,"state":"active","ping":114},{"user_id":233,"name":"Chocolate Bar","steam_id":76561198168020093,"connected_time":615000000000,"state":"active","ping":60}]},{"server_id":112,"name":"Uncletopia | Los Angeles | 2 | All Maps","name_short":"lax-2","host":"lax-1.us.uncletopia.com","port":27025,"enabled":true,"region":"us-west","cc":"us","latitude":33.94279,"longitude":-118.41004,"reserved":0,"last_update":"0001-01-01T00:00:00Z","name_a2s":"Uncletopia | Los Angeles | 2 | All Maps","protocol":17,"map":"koth_cascade","folder":"tf","game":"Team Fortress","app_id":440,"player_count":0,"max_players":24,"Bots":0,"server_type":"Dedicated","server_os":"Linux","password":true,"vac":true,"version":"7757534","steam_id":85568392924469992,"keywords":["cp","nocrits","nodmgspread","uncletopia"],"game_id":440,"stv_port":27026,"stv_name":"Uncletopia | Los Angeles | 2 | All Maps | STV","players":null},{"server_id":324,"name":"Uncletopia | Los Angeles | 3 | All Maps","name_short":"lax-3","host":"lax-1.us.uncletopia.com","port":27035,"enabled":true,"region":"us-west","cc":"us","latitude":33.94279,"longitude":-118.41004,"reserved":0,"last_update":"0001-01-01T00:00:00Z","name_a2s":"Uncletopia | Los Angeles | 3 | All Maps","protocol":17,"map":"koth_viaduct","folder":"tf","game":"Team Fortress","app_id":440,"player_count":0,"max_players":24,"Bots":0,"server_type":"Dedicated","server_os":"Linux","password":true,"vac":true,"version":"7757534","steam_id":85568392924510198,"keywords":["cp","nocrits","nodmgspread","uncletopia"],"game_id":440,"stv_port":27036,"stv_name":"Uncletopia | Los Angeles | 3 | All Maps | STV","players":null},{"server_id":25,"name":"Uncletopia | Los Angeles | 4 | Stopwatch Beta","name_short":"lax-4","host":"lax-1.us.uncletopia.com","port":27045,"enabled":true,"region":"us-west","cc":"us","latitude":33.94279,"longitude":-118.41004,"reserved":0,"last_update":"0001-01-01T00:00:00Z","name_a2s":"Uncletopia | Los Angeles | 4 | Stopwatch Beta","protocol":17,"map":"pl_swiftwater_final1","folder":"tf","game":"Team Fortress","app_id":440,"player_count":0,"max_players":24,"Bots":0,"server_type":"Dedicated","server_os":"Linux","password":true,"vac":true,"version":"7757534","steam_id":85568392924510199,"keywords":["nocrits","nodmgspread","payload","uncletopia"],"game_id":440,"stv_port":27046,"stv_name":"Uncletopia | Los Angeles | 4 | Stopwatch Beta | STV","players":null},{"server_id":11,"name":"Uncletopia | London | 1 | All Maps","name_short":"lon-1","host":"lon-1.uk.uncletopia.com","port":27015,"enabled":true,"region":"eu","cc":"gb","latitude":51.509865,"longitude":-0.118092,"reserved":0,"last_update":"0001-01-01T00:00:00Z","name_a2s":"Uncletopia | London | 1 | All Maps","protocol":17,"map":"cp_steel","folder":"tf","game":"Team Fortress","app_id":440,"player_count":24,"max_players":24,"Bots":0,"server_type":"Dedicated","server_os":"Linux","password":true,"vac":true,"version":"7757534","steam_id":85568392924367362,"keywords":["cp","nocrits","nodmgspread","uncletopia"],"game_id":440,"stv_port":27016,"stv_name":"Uncletopia | London | 1 | All Maps | STV","players":[{"user_id":748,"name":"‚ô• Emma ‚ô•","steam_id":76561198046796406,"connected_time":1446000000000,"state":"active","ping":48},{"user_id":723,"name":"Baki ‡∂û","steam_id":76561198193615529,"connected_time":3508000000000,"state":"active","ping":62},{"user_id":750,"name":"egirlcatnip","steam_id":76561198276104603,"connected_time":1432000000000,"state":"active","ping":116},{"user_id":756,"name":"Depressed","steam_id":76561198154405093,"connected_time":420000000000,"state":"active","ping":83},{"user_id":760,"name":"Something for the masses","steam_id":76561199383437138,"connected_time":152000000000,"state":"active","ping":118},{"user_id":739,"name":"‚ú™ qua ‚ú™","steam_id":76561198066408333,"connected_time":1759000000000,"state":"active","ping":75},{"user_id":720,"name":"Wedgeridoo","steam_id":76561198082813907,"connected_time":4249000000000,"state":"active","ping":117},{"user_id":758,"name":"noob_STALIN","steam_id":76561198273030727,"connected_time":334000000000,"state":"active","ping":46},{"user_id":679,"name":"‚ô• aura ‚ô•","steam_id":76561198066258544,"connected_time":8444000000000,"state":"active","ping":60},{"user_id":690,"name":"kojitori","steam_id":76561198838072150,"connected_time":7292000000000,"state":"active","ping":44},{"user_id":729,"name":"Hermitcrack","steam_id":76561198149216441,"connected_time":2536000000000,"state":"active","ping":74},{"user_id":744,"name":"Joy","steam_id":76561198155314925,"connected_time":1667000000000,"state":"active","ping":55},{"user_id":761,"name":"Drynx","steam_id":76561199210104813,"connected_time":85000000000,"state":"active","ping":73},{"user_id":745,"name":"Teecho","steam_id":76561197995269610,"connected_time":1627000000000,"state":"active","ping":58},{"user_id":721,"name":"Minimi","steam_id":76561198873850443,"connected_time":4157000000000,"state":"active","ping":40},{"user_id":651,"name":"Dark ^^","steam_id":76561198036241064,"connected_time":9369000000000,"state":"active","ping":66},{"user_id":762,"name":"Bonca","steam_id":76561198137503531,"connected_time":68000000000,"state":"active","ping":74},{"user_id":752,"name":"Making Coffee","steam_id":76561198138281039,"connected_time":805000000000,"state":"active","ping":74},{"user_id":734,"name":"Caerot","steam_id":76561198839000676,"connected_time":1855000000000,"state":"active","ping":67},{"user_id":746,"name":"YBOT554","steam_id":76561198836830645,"connected_time":1588000000000,"state":"active","ping":50},{"user_id":691,"name":"Yuzu","steam_id":76561198121694613,"connected_time":7213000000000,"state":"active","ping":50},{"user_id":724,"name":"FISH MAN (GONNA SLAP)","steam_id":76561198366374718,"connected_time":3500000000000,"state":"active","ping":55},{"user_id":753,"name":"Qpangfire","steam_id":76561198094354139,"connected_time":773000000000,"state":"active","ping":45},{"user_id":755,"name":"Vitamin Weee","steam_id":76561199183937747,"connected_time":448000000000,"state":"active","ping":99}]},{"server_id":114,"name":"Uncletopia | London | 2 | All Maps","name_short":"lon-2","host":"lon-1.uk.uncletopia.com","port":27025,"enabled":true,"region":"eu","cc":"gb","latitude":51.509865,"longitude":-0.118092,"reserved":0,"last_update":"0001-01-01T00:00:00Z","name_a2s":"Uncletopia | London | 2 | All Maps","protocol":17,"map":"pl_borneo","folder":"tf","game":"Team Fortress","app_id":440,"player_count":24,"max_players":24,"Bots":0,"server_type":"Dedicated","server_os":"Linux","password":true,"vac":true,"version":"7757534","steam_id":85568392924470941,"keywords":["nocrits","nodmgspread","payload","uncletopia"],"game_id":440,"stv_port":27026,"stv_name":"Uncletopia | London | 2 | All Maps | STV","players":[{"user_id":443,"name":"ike","steam_id":76561198039845647,"connected_time":4609000000000,"state":"active","ping":57},{"user_id":488,"name":"Creature from the piss drawer","steam_id":76561198055949151,"connected_time":1151000000000,"state":"active","ping":44},{"user_id":494,"name":"sam-","steam_id":76561198013770973,"connected_time":979000000000,"state":"active","ping":69},{"user_id":466,"name":"rummy","steam_id":76561197997573379,"connected_time":2645000000000,"state":"active","ping":51},{"user_id":510,"name":"Gearless","steam_id":76561198362367074,"connected_time":426000000000,"state":"active","ping":90},{"user_id":490,"name":"Sn1perK1ng","steam_id":76561198128065329,"connected_time":1049000000000,"state":"active","ping":56},{"user_id":467,"name":"BonsaiCat_","steam_id":76561198232236020,"connected_time":2638000000000,"state":"active","ping":45},{"user_id":512,"name":"zak","steam_id":76561197998895428,"connected_time":297000000000,"state":"active","ping":62},{"user_id":493,"name":"Reptikality","steam_id":76561199057211698,"connected_time":997000000000,"state":"active","ping":162},{"user_id":484,"name":"Bingus","steam_id":76561198334528186,"connected_time":1332000000000,"state":"active","ping":45},{"user_id":517,"name":"Denzonian","steam_id":76561198445738614,"connected_time":23000000000,"state":"active","ping":228},{"user_id":495,"name":"Clark","steam_id":76561198120498831,"connected_time":953000000000,"state":"active","ping":58},{"user_id":513,"name":"Sparky","steam_id":76561198036754195,"connected_time":281000000000,"state":"active","ping":50},{"user_id":496,"name":"Falling Apples","steam_id":76561198122762346,"connected_time":931000000000,"state":"active","ping":66},{"user_id":508,"name":"flange","steam_id":76561198040182692,"connected_time":717000000000,"state":"active","ping":36},{"user_id":502,"name":"Tails8521","steam_id":76561198051747164,"connected_time":806000000000,"state":"active","ping":58},{"user_id":511,"name":"HurrpNana","steam_id":76561199102156562,"connected_time":414000000000,"state":"active","ping":97},{"user_id":509,"name":"CrusherUK","steam_id":76561198153173185,"connected_time":677000000000,"state":"active","ping":55},{"user_id":500,"name":"AsuX","steam_id":76561197990333289,"connected_time":864000000000,"state":"active","ping":60},{"user_id":489,"name":"God's Goofiest Goober","steam_id":76561198103175187,"connected_time":1101000000000,"state":"active","ping":77},{"user_id":501,"name":"Economic crisis","steam_id":76561198063562843,"connected_time":856000000000,"state":"active","ping":62},{"user_id":503,"name":"78","steam_id":76561198208328357,"connected_time":805000000000,"state":"active","ping":90},{"user_id":514,"name":"Vershal Smershal","steam_id":76561198116223995,"connected_time":266000000000,"state":"active","ping":58},{"user_id":504,"name":"Plain Toast","steam_id":76561198451580251,"connected_time":804000000000,"state":"active","ping":156}]},{"server_id":320,"name":"Uncletopia | London | 3 | All Maps","name_short":"lon-3","host":"lon-1.uk.uncletopia.com","port":27035,"enabled":true,"region":"eu","cc":"gb","latitude":51.509865,"longitude":-0.118092,"reserved":0,"last_update":"0001-01-01T00:00:00Z","name_a2s":"Uncletopia | London | 3 | All Maps","protocol":17,"map":"pl_badwater","folder":"tf","game":"Team Fortress","app_id":440,"player_count":22,"max_players":24,"Bots":0,"server_type":"Dedicated","server_os":"Linux","password":true,"vac":true,"version":"7757534","steam_id":85568392924510192,"keywords":["nocrits","nodmgspread","payload","uncletopia"],"game_id":440,"stv_port":27036,"stv_name":"Uncletopia | London | 3 | All Maps | STV","players":[{"user_id":235,"name":"BenteBent","steam_id":76561198297920637,"connected_time":3347000000000,"state":"active","ping":32},{"user_id":283,"name":"Enforcer02","steam_id":76561197966045944,"connected_time":12000000000,"state":"spawning","ping":93},{"user_id":272,"name":"CarrotFlowers","steam_id":76561198154714698,"connected_time":328000000000,"state":"active","ping":46},{"user_id":247,"name":"Sm0k3","steam_id":76561198046396310,"connected_time":2196000000000,"state":"active","ping":63},{"user_id":273,"name":"jovi_","steam_id":76561198449280552,"connected_time":315000000000,"state":"active","ping":51},{"user_id":242,"name":"It's a me Malario","steam_id":76561198176546013,"connected_time":2427000000000,"state":"active","ping":47},{"user_id":275,"name":"MackerelFD","steam_id":76561198371488571,"connected_time":304000000000,"state":"active","ping":61},{"user_id":274,"name":"Abonament","steam_id":76561198297353551,"connected_time":309000000000,"state":"active","ping":54},{"user_id":270,"name":"The Weakest Brazilian Male","steam_id":76561198273215396,"connected_time":379000000000,"state":"active","ping":42},{"user_id":276,"name":"Grogon","steam_id":76561198203300218,"connected_time":302000000000,"state":"active","ping":70},{"user_id":256,"name":"Toa LightMakuta","steam_id":76561198212178104,"connected_time":1616000000000,"state":"active","ping":46},{"user_id":266,"name":"Silverdarlin","steam_id":76561198118540970,"connected_time":616000000000,"state":"active","ping":46},{"user_id":277,"name":"MR YEET","steam_id":76561199121884374,"connected_time":226000000000,"state":"active","ping":65},{"user_id":278,"name":"sora! (live \u003c3)","steam_id":76561198096547662,"connected_time":213000000000,"state":"active","ping":51},{"user_id":249,"name":"big t","steam_id":76561198067179454,"connected_time":2161000000000,"state":"active","ping":41},{"user_id":250,"name":"gofdrey","steam_id":76561198121941052,"connected_time":2156000000000,"state":"active","ping":67},{"user_id":261,"name":"Alfred Schroom","steam_id":76561198117990411,"connected_time":1006000000000,"state":"active","ping":100},{"user_id":260,"name":"Germanium_Ge","steam_id":76561198130561775,"connected_time":1070000000000,"state":"active","ping":53},{"user_id":259,"name":"Welder","steam_id":76561198355300561,"connected_time":1400000000000,"state":"active","ping":70},{"user_id":280,"name":"‚ù§ÂêåÊÄßÊÑõËÄÖ‚ù§","steam_id":76561198054915391,"connected_time":207000000000,"state":"active","ping":65},{"user_id":281,"name":"let me cook","steam_id":76561198010380786,"connected_time":171000000000,"state":"active","ping":47},{"user_id":282,"name":"ChPerette","steam_id":76561198060004887,"connected_time":162000000000,"state":"active","ping":44}]},{"server_id":321,"name":"Uncletopia | London | 4 | All Maps","name_short":"lon-4","host":"lon-1.uk.uncletopia.com","port":27045,"enabled":true,"region":"eu","cc":"gb","latitude":51.509865,"longitude":-0.118092,"reserved":0,"last_update":"0001-01-01T00:00:00Z","name_a2s":"Uncletopia | London | 4 | All Maps","protocol":17,"map":"koth_cascade","folder":"tf","game":"Team Fortress","app_id":440,"player_count":5,"max_players":24,"Bots":0,"server_type":"Dedicated","server_os":"Linux","password":true,"vac":true,"version":"7757534","steam_id":85568392924510193,"keywords":["cp","nocrits","nodmgspread","uncletopia"],"game_id":440,"stv_port":27046,"stv_name":"Uncletopia | London | 4 | All Maps | STV","players":[{"user_id":309,"name":"Davey","steam_id":76561198256879107,"connected_time":399000000000,"state":"active","ping":75},{"user_id":293,"name":"brotherman","steam_id":76561198255357694,"connected_time":3478000000000,"state":"active","ping":87},{"user_id":300,"name":"bingusfan_360","steam_id":76561199157405121,"connected_time":1459000000000,"state":"active","ping":184},{"user_id":303,"name":"TOP P","steam_id":76561198390824709,"connected_time":804000000000,"state":"active","ping":65},{"user_id":302,"name":"vesicche","steam_id":76561199467780146,"connected_time":868000000000,"state":"active","ping":129}]},{"server_id":21,"name":"Uncletopia | London | 5 | All Maps","name_short":"lon-5","host":"lon-1.uk.uncletopia.com","port":27055,"enabled":true,"region":"eu","cc":"gb","latitude":51.509865,"longitude":-0.118092,"reserved":0,"last_update":"0001-01-01T00:00:00Z","name_a2s":"Uncletopia | London | 5 | All Maps","protocol":17,"map":"pl_badwater","folder":"tf","game":"Team Fortress","app_id":440,"player_count":18,"max_players":24,"Bots":0,"server_type":"Dedicated","server_os":"Linux","password":true,"vac":true,"version":"7757534","steam_id":85568392924742829,"keywords":["nocrits","nodmgspread","payload","uncletopia"],"game_id":440,"stv_port":27056,"stv_name":"Uncletopia | London | 5 | All Maps | STV","players":[{"user_id":262,"name":"Umbro","steam_id":76561198087930438,"connected_time":131000000000,"state":"active","ping":75},{"user_id":260,"name":"noodlehairronaldoprime","steam_id":76561199471954402,"connected_time":894000000000,"state":"active","ping":70},{"user_id":255,"name":"Ziltoid","steam_id":76561198020753675,"connected_time":1257000000000,"state":"active","ping":75},{"user_id":257,"name":"Bobo","steam_id":76561198052308399,"connected_time":1251000000000,"state":"active","ping":69},{"user_id":230,"name":"Sarah Obama Michella","steam_id":76561198078996559,"connected_time":2555000000000,"state":"active","ping":84},{"user_id":237,"name":"tpo","steam_id":76561199081305365,"connected_time":2140000000000,"state":"active","ping":74},{"user_id":245,"name":"JeanCorben","steam_id":76561197965133561,"connected_time":1477000000000,"state":"active","ping":36},{"user_id":221,"name":"vug","steam_id":76561198042227249,"connected_time":2905000000000,"state":"active","ping":45},{"user_id":261,"name":"MAKENTAKEN","steam_id":76561199127359587,"connected_time":142000000000,"state":"active","ping":101},{"user_id":259,"name":"Evil weed wizard","steam_id":76561198076137526,"connected_time":1052000000000,"state":"active","ping":50},{"user_id":247,"name":"Pills","steam_id":76561198163561677,"connected_time":1467000000000,"state":"active","ping":56},{"user_id":249,"name":"RuneShine","steam_id":76561198007098323,"connected_time":1429000000000,"state":"active","ping":57},{"user_id":250,"name":"ÓÅ∂ÓÇ≤ÓÇ≤ÓÅ∂j+‰∏∂","steam_id":76561197972802240,"connected_time":1421000000000,"state":"active","ping":57},{"user_id":256,"name":"Men Fortress 2","steam_id":76561197999459536,"connected_time":1255000000000,"state":"active","ping":57},{"user_id":196,"name":"Munibe","steam_id":76561198107967904,"connected_time":4467000000000,"state":"active","ping":55},{"user_id":258,"name":"H3inz Baked","steam_id":76561197979428073,"connected_time":1215000000000,"state":"active","ping":56},{"user_id":252,"name":"Plus Ultra","steam_id":76561198036341635,"connected_time":1401000000000,"state":"active","ping":45},{"user_id":253,"name":"Homicidal Tendencies","steam_id":76561198828681043,"connected_time":1380000000000,"state":"active","ping":44}]},{"server_id":22,"name":"Uncletopia | London | 6 | All Maps","name_short":"lon-6","host":"lon-1.uk.uncletopia.com","port":27065,"enabled":true,"region":"eu","cc":"gb","latitude":51.509865,"longitude":-0.118092,"reserved":0,"last_update":"0001-01-01T00:00:00Z","name_a2s":"Uncletopia | London | 6 | All Maps","protocol":17,"map":"koth_cascade","folder":"tf","game":"Team Fortress","app_id":440,"player_count":0,"max_players":24,"Bots":0,"server_type":"Dedicated","server_os":"Linux","password":true,"vac":true,"version":"7757534","steam_id":85568392924742830,"keywords":["cp","nocrits","nodmgspread","uncletopia"],"game_id":440,"stv_port":27066,"stv_name":"Uncletopia | London | 6 | All Maps | STV","players":null},{"server_id":40,"name":"Uncletopia | London | 7 | No Payload","name_short":"lon-7","host":"lon-1.uk.uncletopia.com","port":27075,"enabled":true,"region":"eu","cc":"gb","latitude":51.509865,"longitude":-0.118092,"reserved":0,"last_update":"0001-01-01T00:00:00Z","name_a2s":"Uncletopia | London | 7 | No Payload","protocol":17,"map":"koth_lazarus","folder":"tf","game":"Team Fortress","app_id":440,"player_count":0,"max_players":24,"Bots":0,"server_type":"Dedicated","server_os":"Linux","password":true,"vac":true,"version":"7757534","steam_id":85568392924964314,"keywords":["cp","nocrits","nodmgspread","uncletopia"],"game_id":440,"stv_port":27076,"stv_name":"Uncletopia | London | 7 | No Payload | STV","players":null},{"server_id":41,"name":"Uncletopia | London | 8 | Community","name_short":"lon-8","host":"lon-1.uk.uncletopia.com","port":27085,"enabled":true,"region":"eu","cc":"gb","latitude":51.509865,"longitude":-0.118092,"reserved":0,"last_update":"0001-01-01T00:00:00Z","name_a2s":"Uncletopia | London | 8 | Community","protocol":17,"map":"pl_barnblitz","folder":"tf","game":"Team Fortress","app_id":440,"player_count":0,"max_players":24,"Bots":0,"server_type":"Dedicated","server_os":"Linux","password":true,"vac":true,"version":"7757534","steam_id":85568392924964315,"keywords":["nocrits","nodmgspread","payload","uncletopia"],"game_id":440,"stv_port":27086,"stv_name":"Uncletopia | London | 8 | Community | STV","players":null},{"server_id":300,"name":"Uncletopia | Montr√©al | 1 | All Maps","name_short":"mtl-1","host":"mtl-1.ca.uncletopia.com","port":27015,"enabled":true,"region":"us-east","cc":"ca","latitude":45.50889,"longitude":-73.56167,"reserved":0,"last_update":"0001-01-01T00:00:00Z","name_a2s":"Uncletopia | Montr√©al | 1 | All Maps","protocol":17,"map":"pl_barnblitz","folder":"tf","game":"Team Fortress","app_id":440,"player_count":15,"max_players":24,"Bots":0,"server_type":"Dedicated","server_os":"Linux","password":true,"vac":true,"version":"7757534","steam_id":85568392924500087,"keywords":["nocrits","nodmgspread","payload","uncletopia"],"game_id":440,"stv_port":27016,"stv_name":"Uncletopia | Montr√©al | 1 | All Maps | STV","players":[{"user_id":6,"name":"Drewey","steam_id":76561199258609863,"connected_time":719000000000,"state":"active","ping":74},{"user_id":7,"name":"worm","steam_id":76561198409681856,"connected_time":717000000000,"state":"active","ping":72},{"user_id":8,"name":"KartonWaffle","steam_id":76561198278761293,"connected_time":709000000000,"state":"active","ping":79},{"user_id":10,"name":"ok","steam_id":76561198445140249,"connected_time":616000000000,"state":"active","ping":75},{"user_id":21,"name":"Silvercoat's Stargazer","steam_id":76561198399525329,"connected_time":262000000000,"state":"active","ping":69},{"user_id":12,"name":"SeanLooknSus","steam_id":76561198850349893,"connected_time":549000000000,"state":"active","ping":96},{"user_id":13,"name":"Goose of Wisdom","steam_id":76561198233465044,"connected_time":505000000000,"state":"active","ping":62},{"user_id":17,"name":"Just_Bland","steam_id":76561198403482191,"connected_time":437000000000,"state":"active","ping":120},{"user_id":15,"name":"Schizo","steam_id":76561198125095908,"connected_time":471000000000,"state":"active","ping":69},{"user_id":16,"name":"Paul from Marketing","steam_id":76561198156319978,"connected_time":458000000000,"state":"active","ping":67},{"user_id":18,"name":"TheGuyWhoPlays","steam_id":76561198277363002,"connected_time":422000000000,"state":"active","ping":55},{"user_id":19,"name":"Chad","steam_id":76561198222313772,"connected_time":404000000000,"state":"active","ping":85},{"user_id":20,"name":"TheFlyingRaptor","steam_id":76561198961669220,"connected_time":360000000000,"state":"active","ping":105},{"user_id":22,"name":"The Winter Medic","steam_id":76561198197112922,"connected_time":253000000000,"state":"active","ping":68},{"user_id":23,"name":"Ginger Jesus","steam_id":76561198052386458,"connected_time":99000000000,"state":"active","ping":57}]},{"server_id":301,"name":"Uncletopia | Montr√©al | 2 | All Maps","name_short":"mtl-2","host":"mtl-1.ca.uncletopia.com","port":27025,"enabled":true,"region":"us-east","cc":"ca","latitude":45.50889,"longitude":-73.56167,"reserved":0,"last_update":"0001-01-01T00:00:00Z","name_a2s":"Uncletopia | Montr√©al | 2 | All Maps","protocol":17,"map":"pl_snowycoast","folder":"tf","game":"Team Fortress","app_id":440,"player_count":0,"max_players":24,"Bots":0,"server_type":"Dedicated","server_os":"Linux","password":true,"vac":true,"version":"7757534","steam_id":85568392924500088,"keywords":["nocrits","nodmgspread","payload","uncletopia"],"game_id":440,"stv_port":27026,"stv_name":"Uncletopia | Montr√©al | 2 | All Maps | STV","players":null},{"server_id":302,"name":"Uncletopia | Montr√©al | 3 | All Maps","name_short":"mtl-3","host":"mtl-1.ca.uncletopia.com","port":27035,"enabled":true,"region":"us-east","cc":"ca","latitude":45.50889,"longitude":-73.56167,"reserved":0,"last_update":"0001-01-01T00:00:00Z","name_a2s":"Uncletopia | Montr√©al | 3 | All Maps","protocol":17,"map":"pl_upward","folder":"tf","game":"Team Fortress","app_id":440,"player_count":4,"max_players":24,"Bots":0,"server_type":"Dedicated","server_os":"Linux","password":true,"vac":true,"version":"7757534","steam_id":85568392924500089,"keywords":["nocrits","nodmgspread","payload","uncletopia"],"game_id":440,"stv_port":27036,"stv_name":"Uncletopia | Montr√©al | 3 | All Maps | STV","players":[{"user_id":8,"name":"Vakovah","steam_id":76561198451270237,"connected_time":311000000000,"state":"active","ping":128},{"user_id":9,"name":"Turtle","steam_id":76561198278665305,"connected_time":299000000000,"state":"active","ping":122},{"user_id":10,"name":"Kairo","steam_id":76561198391378433,"connected_time":287000000000,"state":"active","ping":70},{"user_id":11,"name":"Hired Goon - Level 2 NPC","steam_id":76561199027981643,"connected_time":259000000000,"state":"active","ping":73}]},{"server_id":303,"name":"Uncletopia | Montr√©al | 4 | No Payload","name_short":"mtl-4","host":"mtl-1.ca.uncletopia.com","port":27045,"enabled":true,"region":"us-east","cc":"ca","latitude":45.50889,"longitude":-73.56167,"reserved":0,"last_update":"0001-01-01T00:00:00Z","name_a2s":"Uncletopia | Montr√©al | 4 | No Payload","protocol":17,"map":"pl_pier","folder":"tf","game":"Team Fortress","app_id":440,"player_count":0,"max_players":24,"Bots":0,"server_type":"Dedicated","server_os":"Linux","password":true,"vac":true,"version":"7757534","steam_id":85568392924500090,"keywords":["nocrits","nodmgspread","payload","uncletopia"],"game_id":440,"stv_port":27046,"stv_name":"Uncletopia | Montr√©al | 4 | No Payload | STV","players":null},{"server_id":13,"name":"Uncletopia | New York City | 1 | All Maps","name_short":"nyc-1","host":"nyc-1.us.uncletopia.com","port":27015,"enabled":true,"region":"us-east","cc":"us","latitude":40.73061,"longitude":-73.93524,"reserved":0,"last_update":"0001-01-01T00:00:00Z","name_a2s":"Uncletopia | New York City | 1 | All Maps","protocol":17,"map":"koth_harvest_final","folder":"tf","game":"Team Fortress","app_id":440,"player_count":23,"max_players":24,"Bots":0,"server_type":"Dedicated","server_os":"Linux","password":true,"vac":true,"version":"7757534","steam_id":85568392924469993,"keywords":["cp","nocrits","nodmgspread","uncletopia"],"game_id":440,"stv_port":27016,"stv_name":"Uncletopia | New York City | 1 | All Maps | STV","players":[{"user_id":363,"name":"REDACTED.AUDIO.STUDIOS","steam_id":76561198975542044,"connected_time":1185000000000,"state":"active","ping":67},{"user_id":362,"name":"nod45","steam_id":76561198114959385,"connected_time":1219000000000,"state":"active","ping":61},{"user_id":344,"name":"Sulquinn","steam_id":76561198375006942,"connected_time":2250000000000,"state":"active","ping":69},{"user_id":345,"name":"FunnyUsernameWow","steam_id":76561198324177635,"connected_time":2236000000000,"state":"active","ping":44},{"user_id":336,"name":"GOLDIE","steam_id":76561199375258674,"connected_time":2800000000000,"state":"active","ping":109},{"user_id":289,"name":"Drake the Pixel","steam_id":76561198131824401,"connected_time":6700000000000,"state":"active","ping":37},{"user_id":372,"name":"MECHANISM MALE","steam_id":76561198855935442,"connected_time":690000000000,"state":"active","ping":101},{"user_id":290,"name":"roman","steam_id":76561198170066797,"connected_time":6647000000000,"state":"active","ping":60},{"user_id":346,"name":"Psycho985","steam_id":76561199093387261,"connected_time":2228000000000,"state":"active","ping":98},{"user_id":375,"name":"iron_jimmy","steam_id":76561198986863375,"connected_time":406000000000,"state":"active","ping":89},{"user_id":379,"name":"viaodeegsm","steam_id":76561198025295263,"connected_time":288000000000,"state":"active","ping":90},{"user_id":377,"name":"$lime K‚úîNG zaddY","steam_id":76561198283687382,"connected_time":385000000000,"state":"active","ping":86},{"user_id":373,"name":"Xx-CostcoShopper-xX","steam_id":76561198066429444,"connected_time":563000000000,"state":"active","ping":47},{"user_id":381,"name":"Bajanga.co","steam_id":76561199122049654,"connected_time":5000000000,"state":"spawning","ping":100},{"user_id":350,"name":"Flerkjerk","steam_id":76561199346074410,"connected_time":2133000000000,"state":"active","ping":76},{"user_id":380,"name":"aer","steam_id":76561198293502053,"connected_time":285000000000,"state":"active","ping":30},{"user_id":374,"name":"Scam Likely","steam_id":76561198084422657,"connected_time":424000000000,"state":"active","ping":105},{"user_id":358,"name":"Spamtaco","steam_id":76561198076523579,"connected_time":1774000000000,"state":"active","ping":68},{"user_id":376,"name":"sourcreamdonuts","steam_id":76561198838102433,"connected_time":399000000000,"state":"active","ping":74},{"user_id":368,"name":"PikaG10","steam_id":76561198179817077,"connected_time":1061000000000,"state":"active","ping":76},{"user_id":357,"name":"Winter the Witchie","steam_id":76561198151971178,"connected_time":1988000000000,"state":"active","ping":74},{"user_id":369,"name":"Baron von Whoopsie","steam_id":76561197996691013,"connected_time":870000000000,"state":"active","ping":60},{"user_id":371,"name":"Ralser","steam_id":76561199038370433,"connected_time":772000000000,"state":"active","ping":158}]},{"server_id":14,"name":"Uncletopia | New York City | 2 | All Maps","name_short":"nyc-2","host":"nyc-1.us.uncletopia.com","port":27025,"enabled":true,"region":"us-east","cc":"us","latitude":40.73061,"longitude":-73.93524,"reserved":0,"last_update":"0001-01-01T00:00:00Z","name_a2s":"Uncletopia | New York City | 2 | All Maps","protocol":17,"map":"koth_harvest_final","folder":"tf","game":"Team Fortress","app_id":440,"player_count":23,"max_players":24,"Bots":0,"server_type":"Dedicated","server_os":"Linux","password":true,"vac":true,"version":"7757534","steam_id":85568392924469994,"keywords":["cp","nocrits","nodmgspread","uncletopia"],"game_id":440,"stv_port":27026,"stv_name":"Uncletopia | New York City | 2 | All Maps | STV","players":[{"user_id":594,"name":"teaf","steam_id":76561198406252824,"connected_time":1842000000000,"state":"active","ping":121},{"user_id":581,"name":"Kraftlos","steam_id":76561198074350350,"connected_time":4069000000000,"state":"active","ping":59},{"user_id":564,"name":"sentience","steam_id":76561198098781227,"connected_time":6165000000000,"state":"active","ping":97},{"user_id":527,"name":"creeeeeee","steam_id":76561198392539722,"connected_time":8827000000000,"state":"active","ping":74},{"user_id":631,"name":"StuartBell511","steam_id":76561198060931721,"connected_time":66000000000,"state":"active","ping":71},{"user_id":596,"name":"Ramen6","steam_id":76561199122825217,"connected_time":1838000000000,"state":"active","ping":86},{"user_id":615,"name":"Sumuler","steam_id":76561199067107105,"connected_time":930000000000,"state":"active","ping":59},{"user_id":597,"name":"Trash Man","steam_id":76561198130036002,"connected_time":1810000000000,"state":"active","ping":65},{"user_id":549,"name":"Furry Fighter Plane","steam_id":76561198085815757,"connected_time":7280000000000,"state":"active","ping":63},{"user_id":613,"name":"BroBuck3","steam_id":76561198119436987,"connected_time":951000000000,"state":"active","ping":81},{"user_id":627,"name":"Icaras","steam_id":76561198416724843,"connected_time":226000000000,"state":"active","ping":109},{"user_id":617,"name":"open.gif","steam_id":76561198046055673,"connected_time":887000000000,"state":"active","ping":61},{"user_id":616,"name":"Nansral26","steam_id":76561198886650496,"connected_time":924000000000,"state":"active","ping":56},{"user_id":630,"name":"Draco6257","steam_id":76561199147322448,"connected_time":144000000000,"state":"active","ping":30},{"user_id":611,"name":"crackË£ÇÁºù","steam_id":76561198185560190,"connected_time":966000000000,"state":"active","ping":64},{"user_id":599,"name":"Heartz","steam_id":76561198108143973,"connected_time":1802000000000,"state":"active","ping":44},{"user_id":625,"name":"drain.pablo.2005","steam_id":76561198303963691,"connected_time":512000000000,"state":"active","ping":73},{"user_id":407,"name":"canid","steam_id":76561198103496593,"connected_time":16305000000000,"state":"active","ping":61},{"user_id":623,"name":"Grifter","steam_id":76561197993001188,"connected_time":602000000000,"state":"active","ping":66},{"user_id":550,"name":"mio","steam_id":76561198239286750,"connected_time":7234000000000,"state":"active","ping":54},{"user_id":626,"name":"marshtomp gaming","steam_id":76561198130689358,"connected_time":357000000000,"state":"active","ping":45},{"user_id":629,"name":"mechiimi ‚òÖ","steam_id":76561198321627268,"connected_time":190000000000,"state":"active","ping":114},{"user_id":620,"name":"Fieldrook","steam_id":76561198799005478,"connected_time":851000000000,"state":"active","ping":93}]},{"server_id":15,"name":"Uncletopia | New York City | 3 | Stopwatch Beta","name_short":"nyc-3","host":"nyc-1.us.uncletopia.com","port":27035,"enabled":true,"region":"us-east","cc":"us","latitude":40.73061,"longitude":-73.93524,"reserved":0,"last_update":"0001-01-01T00:00:00Z","name_a2s":"Uncletopia | New York City | 3 | Stopwatch Beta","protocol":17,"map":"workshop/pl_badwater_pro_v12.ugc2142942074","folder":"tf","game":"Team Fortress","app_id":440,"player_count":0,"max_players":24,"Bots":0,"server_type":"Dedicated","server_os":"Linux","password":true,"vac":true,"version":"7757534","steam_id":85568392924742820,"keywords":["nocrits","nodmgspread","payload","uncletopia"],"game_id":440,"stv_port":27036,"stv_name":"Uncletopia | New York City | 3 | Stopwatch Beta | STV","players":null},{"server_id":16,"name":"Uncletopia | New York City | 4 | Community","name_short":"nyc-4","host":"nyc-1.us.uncletopia.com","port":27045,"enabled":true,"region":"us-east","cc":"us","latitude":40.73061,"longitude":-73.93524,"reserved":0,"last_update":"0001-01-01T00:00:00Z","name_a2s":"Uncletopia | New York City | 4 | Community","protocol":17,"map":"workshop/pl_cashworks_final1.ugc2904065412","folder":"tf","game":"Team Fortress","app_id":440,"player_count":21,"max_players":24,"Bots":0,"server_type":"Dedicated","server_os":"Linux","password":true,"vac":true,"version":"7757534","steam_id":85568392924742821,"keywords":["nocrits","nodmgspread","payload","uncletopia"],"game_id":440,"stv_port":27046,"stv_name":"Uncletopia | New York City | 4 | Community | STV","players":[{"user_id":175,"name":"Super D Duper","steam_id":76561198078203677,"connected_time":1158000000000,"state":"active","ping":54},{"user_id":186,"name":"your local forecast","steam_id":76561198042243083,"connected_time":963000000000,"state":"active","ping":45},{"user_id":177,"name":"Zetelica","steam_id":76561199005527389,"connected_time":1090000000000,"state":"active","ping":137},{"user_id":164,"name":"You Know What You Did","steam_id":76561198218558897,"connected_time":1722000000000,"state":"active","ping":134},{"user_id":199,"name":"ARotisserieChicken","steam_id":76561199390395574,"connected_time":141000000000,"state":"active","ping":69},{"user_id":128,"name":"DrChillin","steam_id":76561198043824865,"connected_time":3728000000000,"state":"active","ping":84},{"user_id":200,"name":"Borat Voice My Wife","steam_id":76561198020474727,"connected_time":117000000000,"state":"active","ping":55},{"user_id":187,"name":"1TON_Of_Sandviches","steam_id":76561199084470847,"connected_time":941000000000,"state":"active","ping":79},{"user_id":161,"name":"Hoob.egfug","steam_id":76561197980557818,"connected_time":1851000000000,"state":"active","ping":59},{"user_id":150,"name":"corncakecoolcat","steam_id":76561198090716968,"connected_time":2466000000000,"state":"active","ping":50},{"user_id":173,"name":"Hook, Line, and Sphincter","steam_id":76561198078207743,"connected_time":1232000000000,"state":"active","ping":48},{"user_id":201,"name":"t.tv/FamilyGuyFunnyMoments277","steam_id":76561198416047580,"connected_time":84000000000,"state":"active","ping":73},{"user_id":202,"name":"Grify","steam_id":76561198012292317,"connected_time":74000000000,"state":"spawning","ping":73},{"user_id":188,"name":"15pounds","steam_id":76561198179606183,"connected_time":909000000000,"state":"active","ping":71},{"user_id":203,"name":"monke","steam_id":76561198308289194,"connected_time":69000000000,"state":"active","ping":151},{"user_id":189,"name":"Vibey","steam_id":76561198342873474,"connected_time":889000000000,"state":"active","ping":71},{"user_id":193,"name":"Javier Long Nuts","steam_id":76561198045770514,"connected_time":817000000000,"state":"active","ping":51},{"user_id":204,"name":"Sgt. Pepper","steam_id":76561198063674627,"connected_time":66000000000,"state":"active","ping":79},{"user_id":106,"name":"Barlon","steam_id":76561198023717515,"connected_time":5212000000000,"state":"active","ping":58},{"user_id":194,"name":"blitzibb (he/they)","steam_id":76561198109469469,"connected_time":716000000000,"state":"active","ping":112},{"user_id":197,"name":"atmsmash","steam_id":76561198055557988,"connected_time":663000000000,"state":"active","ping":81}]},{"server_id":142,"name":"Uncletopia | S√£o Paulo | 1 | All Maps","name_short":"sao-1","host":"sao-1.br.uncletopia.com","port":27015,"enabled":true,"region":"sa","cc":"br","latitude":-23.533773,"longitude":-46.62529,"reserved":0,"last_update":"0001-01-01T00:00:00Z","name_a2s":"Uncletopia | S√£o Paulo | 1 | All Maps","protocol":17,"map":"pl_borneo","folder":"tf","game":"Team Fortress","app_id":440,"player_count":19,"max_players":24,"Bots":0,"server_type":"Dedicated","server_os":"Linux","password":true,"vac":true,"version":"7757534","steam_id":85568392924469996,"keywords":["nocrits","nodmgspread","payload","uncletopia"],"game_id":440,"stv_port":27016,"stv_name":"Uncletopia | S√£o Paulo | 1 | All Maps | STV","players":[{"user_id":35,"name":"Niki","steam_id":76561198298750696,"connected_time":3655000000000,"state":"active","ping":47},{"user_id":74,"name":"AaronBahdo","steam_id":76561198275512097,"connected_time":232000000000,"state":"active","ping":69},{"user_id":63,"name":"Tigas","steam_id":76561198151597169,"connected_time":1147000000000,"state":"active","ping":51},{"user_id":67,"name":":^)","steam_id":76561198276113571,"connected_time":910000000000,"state":"active","ping":44},{"user_id":60,"name":".fnord","steam_id":76561198119754613,"connected_time":1676000000000,"state":"active","ping":45},{"user_id":19,"name":"ailuros","steam_id":76561198171349369,"connected_time":4789000000000,"state":"active","ping":33},{"user_id":61,"name":"admouse","steam_id":76561198251951784,"connected_time":1346000000000,"state":"active","ping":32},{"user_id":76,"name":"SHELDON999ms","steam_id":76561198977549357,"connected_time":182000000000,"state":"active","ping":98},{"user_id":57,"name":"q1b Vortex‚ú®","steam_id":76561197960679316,"connected_time":2040000000000,"state":"active","ping":60},{"user_id":58,"name":"long legs mommy","steam_id":76561198811097127,"connected_time":2010000000000,"state":"active","ping":72},{"user_id":78,"name":"Copa Pist√£o","steam_id":76561199240099576,"connected_time":35000000000,"state":"active","ping":39},{"user_id":59,"name":"kkpro9","steam_id":76561198837922606,"connected_time":1835000000000,"state":"active","ping":76},{"user_id":79,"name":"gub3678","steam_id":76561199110233686,"connected_time":7000000000,"state":"spawning","ping":35},{"user_id":33,"name":"Evanbrs","steam_id":76561198041508327,"connected_time":3802000000000,"state":"active","ping":74},{"user_id":80,"name":"DCN","steam_id":76561198408456772,"connected_time":0,"state":"spawning","ping":29},{"user_id":71,"name":"sate","steam_id":76561198450078943,"connected_time":465000000000,"state":"active","ping":59},{"user_id":73,"name":"Eggie","steam_id":76561199018655610,"connected_time":401000000000,"state":"active","ping":181},{"user_id":42,"name":"kudurista","steam_id":76561198143438576,"connected_time":3364000000000,"state":"active","ping":38},{"user_id":77,"name":"Stoopid","steam_id":76561198126485401,"connected_time":175000000000,"state":"active","ping":46}]},{"server_id":143,"name":"Uncletopia | S√£o Paulo | 2 | All Maps","name_short":"sao-2","host":"sao-2.br.uncletopia.com","port":27015,"enabled":true,"region":"sa","cc":"br","latitude":-23.533773,"longitude":-46.62529,"reserved":0,"last_update":"0001-01-01T00:00:00Z","name_a2s":"Uncletopia | S√£o Paulo | 2 | All Maps","protocol":17,"map":"koth_cascade","folder":"tf","game":"Team Fortress","app_id":440,"player_count":0,"max_players":24,"Bots":0,"server_type":"Dedicated","server_os":"Linux","password":true,"vac":true,"version":"7757534","steam_id":85568392924485349,"keywords":["cp","nocrits","nodmgspread","uncletopia"],"game_id":440,"stv_port":27016,"stv_name":"Uncletopia | S√£o Paulo | 2 | All Maps | STV","players":null},{"server_id":7,"name":"Uncletopia | Seattle | 1 | All Maps","name_short":"sea-1","host":"sea-1.us.uncletopia.com","port":27015,"enabled":true,"region":"us-west","cc":"us","latitude":47.608013,"longitude":-122.33517,"reserved":0,"last_update":"0001-01-01T00:00:00Z","name_a2s":"Uncletopia | Seattle | 1 | All Maps","protocol":17,"map":"pl_upward","folder":"tf","game":"Team Fortress","app_id":440,"player_count":20,"max_players":24,"Bots":0,"server_type":"Dedicated","server_os":"Linux","password":true,"vac":true,"version":"7757534","steam_id":85568392924469997,"keywords":["nocrits","nodmgspread","payload","uncletopia"],"game_id":440,"stv_port":27016,"stv_name":"Uncletopia | Seattle | 1 | All Maps | STV","players":[{"user_id":299,"name":"jayeskae","steam_id":76561198144220801,"connected_time":1862000000000,"state":"active","ping":44},{"user_id":305,"name":"shiadyne","steam_id":76561198271939793,"connected_time":732000000000,"state":"active","ping":46},{"user_id":312,"name":"kym","steam_id":76561198340743816,"connected_time":45000000000,"state":"active","ping":70},{"user_id":255,"name":"Theory-ZaZa","steam_id":76561198116419931,"connected_time":5245000000000,"state":"active","ping":51},{"user_id":314,"name":"patjiaviar","steam_id":76561199465783209,"connected_time":8000000000,"state":"spawning","ping":30},{"user_id":313,"name":"Skabbety","steam_id":76561198168044257,"connected_time":14000000000,"state":"active","ping":53},{"user_id":301,"name":"HaphazardHazel","steam_id":76561198316812693,"connected_time":1847000000000,"state":"active","ping":150},{"user_id":303,"name":"Piggy","steam_id":76561198000399862,"connected_time":809000000000,"state":"active","ping":95},{"user_id":307,"name":"Senna","steam_id":76561198115830949,"connected_time":639000000000,"state":"active","ping":163},{"user_id":272,"name":"Luca","steam_id":76561198125087140,"connected_time":4012000000000,"state":"active","ping":45},{"user_id":298,"name":"james may","steam_id":76561198043857339,"connected_time":1873000000000,"state":"active","ping":79},{"user_id":295,"name":"floom","steam_id":76561198387571809,"connected_time":1906000000000,"state":"active","ping":112},{"user_id":297,"name":"trackpad gaming | f2p","steam_id":76561198840414371,"connected_time":1880000000000,"state":"active","ping":47},{"user_id":265,"name":"Joe ELO From Progressive","steam_id":76561198336597038,"connected_time":4876000000000,"state":"active","ping":76},{"user_id":300,"name":"Gaming","steam_id":76561198327632113,"connected_time":1858000000000,"state":"active","ping":45},{"user_id":294,"name":"Mikmoomamimocki","steam_id":76561199077167536,"connected_time":2243000000000,"state":"active","ping":103},{"user_id":308,"name":"DIZ","steam_id":76561199065119525,"connected_time":631000000000,"state":"active","ping":133},{"user_id":268,"name":"MerkZ","steam_id":76561198047620432,"connected_time":4354000000000,"state":"active","ping":73},{"user_id":273,"name":"lox","steam_id":76561198288531493,"connected_time":3973000000000,"state":"active","ping":43},{"user_id":282,"name":"It's a Doggydog World","steam_id":76561198018232414,"connected_time":3203000000000,"state":"active","ping":84}]},{"server_id":119,"name":"Uncletopia | Seattle | 2 | All Maps","name_short":"sea-2","host":"sea-1.us.uncletopia.com","port":27025,"enabled":true,"region":"us-west","cc":"us","latitude":47.608013,"longitude":-122.33517,"reserved":0,"last_update":"0001-01-01T00:00:00Z","name_a2s":"Uncletopia | Seattle | 2 | All Maps","protocol":17,"map":"koth_viaduct","folder":"tf","game":"Team Fortress","app_id":440,"player_count":24,"max_players":24,"Bots":0,"server_type":"Dedicated","server_os":"Linux","password":true,"vac":true,"version":"7757534","steam_id":85568392924469998,"keywords":["cp","nocrits","nodmgspread","uncletopia"],"game_id":440,"stv_port":27026,"stv_name":"Uncletopia | Seattle | 2 | All Maps | STV","players":[{"user_id":417,"name":"stinker","steam_id":76561198295640486,"connected_time":581000000000,"state":"active","ping":73},{"user_id":387,"name":"Logan601 #savetf2","steam_id":76561198263116731,"connected_time":2722000000000,"state":"active","ping":86},{"user_id":344,"name":"V‚àÜlume The 1rd","steam_id":76561198133260990,"connected_time":6700000000000,"state":"active","ping":58},{"user_id":422,"name":"Lavender System","steam_id":76561198289106015,"connected_time":1000000000,"state":"spawning","ping":34},{"user_id":381,"name":"GayBalls2","steam_id":76561198241184108,"connected_time":3364000000000,"state":"active","ping":59},{"user_id":418,"name":"G‡∂ûMER","steam_id":76561198340389876,"connected_time":396000000000,"state":"active","ping":90},{"user_id":401,"name":"westward","steam_id":76561198805512350,"connected_time":1364000000000,"state":"active","ping":60},{"user_id":391,"name":"Tofu_Ninja_Nerd","steam_id":76561199042488882,"connected_time":2310000000000,"state":"active","ping":83},{"user_id":331,"name":"Fire_box41238","steam_id":76561199185673650,"connected_time":6813000000000,"state":"active","ping":55},{"user_id":400,"name":"captain red","steam_id":76561198191587983,"connected_time":1488000000000,"state":"active","ping":77},{"user_id":413,"name":"BrightOrangeMango","steam_id":76561198023144607,"connected_time":972000000000,"state":"active","ping":94},{"user_id":404,"name":"Omnoman","steam_id":76561198006258213,"connected_time":1264000000000,"state":"active","ping":139},{"user_id":406,"name":"todd","steam_id":76561198096671524,"connected_time":1224000000000,"state":"active","ping":68},{"user_id":398,"name":"Joyous Jenny","steam_id":76561198127998866,"connected_time":1576000000000,"state":"active","ping":117},{"user_id":340,"name":"tconnors1976","steam_id":76561198840033336,"connected_time":6748000000000,"state":"active","ping":78},{"user_id":415,"name":"vandeer","steam_id":76561198120124007,"connected_time":907000000000,"state":"active","ping":158},{"user_id":416,"name":"Pah-Wraith Gul Dukat","steam_id":76561198033918106,"connected_time":857000000000,"state":"active","ping":83},{"user_id":408,"name":"Harry Hotcock","steam_id":76561197999209779,"connected_time":1199000000000,"state":"active","ping":58},{"user_id":414,"name":"Yukon Cornelius","steam_id":76561199373178928,"connected_time":960000000000,"state":"active","ping":139},{"user_id":409,"name":"Sorrow","steam_id":76561198050225563,"connected_time":1194000000000,"state":"active","ping":80},{"user_id":410,"name":"Muralo","steam_id":76561198202160268,"connected_time":1178000000000,"state":"active","ping":84},{"user_id":375,"name":"Big Jon","steam_id":76561198402285099,"connected_time":4177000000000,"state":"active","ping":72},{"user_id":420,"name":"MRC00KIECRUMBLE","steam_id":76561199123384619,"connected_time":61000000000,"state":"active","ping":93},{"user_id":397,"name":"bergly","steam_id":76561198811650078,"connected_time":1609000000000,"state":"active","ping":135}]},{"server_id":406,"name":"Uncletopia | Seattle | 3 | Stopwatch Beta","name_short":"sea-3","host":"sea-1.us.uncletopia.com","port":27035,"enabled":true,"region":"us-west","cc":"us","latitude":47.608013,"longitude":-122.33517,"reserved":0,"last_update":"0001-01-01T00:00:00Z","name_a2s":"Uncletopia | Seattle | 3 | Stopwatch Beta","protocol":17,"map":"workshop/koth_bagel_rc6.ugc2514036946","folder":"tf","game":"Team Fortress","app_id":440,"player_count":0,"max_players":24,"Bots":0,"server_type":"Dedicated","server_os":"Linux","password":true,"vac":true,"version":"7757534","steam_id":85568392924515217,"keywords":["cp","nocrits","nodmgspread","uncletopia"],"game_id":440,"stv_port":27036,"stv_name":"Uncletopia | Seattle | 3 | Stopwatch Beta | STV","players":null},{"server_id":17,"name":"Uncletopia | San Francisco | 1 | All Maps","name_short":"sfo-1","host":"sfo-1.us.uncletopia.com","port":27015,"enabled":true,"region":"us-west","cc":"us","latitude":37.77397,"longitude":-122.4313,"reserved":0,"last_update":"0001-01-01T00:00:00Z","name_a2s":"Uncletopia | San Francisco | 1 | All Maps","protocol":17,"map":"koth_highpass","folder":"tf","game":"Team Fortress","app_id":440,"player_count":0,"max_players":24,"Bots":0,"server_type":"Dedicated","server_os":"Linux","password":true,"vac":true,"version":"7757534","steam_id":85568392924469999,"keywords":["cp","nocrits","nodmgspread","uncletopia"],"game_id":440,"stv_port":27016,"stv_name":"Uncletopia | San Francisco | 1 | All Maps | STV","players":null},{"server_id":18,"name":"Uncletopia | San Francisco | 2 | All Maps","name_short":"sfo-2","host":"sfo-1.us.uncletopia.com","port":27025,"enabled":true,"region":"us-west","cc":"us","latitude":37.77397,"longitude":-122.4313,"reserved":0,"last_update":"0001-01-01T00:00:00Z","name_a2s":"Uncletopia | San Francisco | 2 | All Maps","protocol":17,"map":"pl_borneo","folder":"tf","game":"Team Fortress","app_id":440,"player_count":23,"max_players":24,"Bots":0,"server_type":"Dedicated","server_os":"Linux","password":true,"vac":true,"version":"7757534","steam_id":85568392924470000,"keywords":["nocrits","nodmgspread","payload","uncletopia"],"game_id":440,"stv_port":27026,"stv_name":"Uncletopia | San Francisco | 2 | All Maps | STV","players":[{"user_id":89,"name":"kelphelp911","steam_id":76561199191270005,"connected_time":2239000000000,"state":"active","ping":80},{"user_id":94,"name":"SLiPpeRyJoe.nosound","steam_id":76561197977206359,"connected_time":2112000000000,"state":"active","ping":119},{"user_id":98,"name":"toodles","steam_id":76561198025463883,"connected_time":1668000000000,"state":"active","ping":67},{"user_id":99,"name":"CollDragon","steam_id":76561198067534450,"connected_time":1385000000000,"state":"active","ping":111},{"user_id":86,"name":"Azosion","steam_id":76561198861267703,"connected_time":2671000000000,"state":"active","ping":58},{"user_id":106,"name":"Prof. Leafeon","steam_id":76561198123549027,"connected_time":916000000000,"state":"active","ping":86},{"user_id":100,"name":"bonk schnoffer","steam_id":76561198301598124,"connected_time":1313000000000,"state":"active","ping":75},{"user_id":84,"name":"Bug","steam_id":76561198056928296,"connected_time":2786000000000,"state":"active","ping":109},{"user_id":81,"name":"Eden","steam_id":76561198081284664,"connected_time":3208000000000,"state":"active","ping":57},{"user_id":62,"name":"Wounded","steam_id":76561199440954924,"connected_time":4112000000000,"state":"active","ping":89},{"user_id":108,"name":"connie kins","steam_id":76561198074701151,"connected_time":274000000000,"state":"active","ping":54},{"user_id":102,"name":"Lane","steam_id":76561197965828506,"connected_time":1244000000000,"state":"active","ping":82},{"user_id":33,"name":"BlazeHX","steam_id":76561198827408017,"connected_time":5251000000000,"state":"active","ping":121},{"user_id":83,"name":"Aero","steam_id":76561198125028400,"connected_time":2965000000000,"state":"active","ping":76},{"user_id":101,"name":"A Shiny Meat Bicycle","steam_id":76561198358757709,"connected_time":1260000000000,"state":"active","ping":128},{"user_id":110,"name":"Mecha-lord","steam_id":76561198034811536,"connected_time":204000000000,"state":"active","ping":131},{"user_id":113,"name":"jadesouledout","steam_id":76561198866936507,"connected_time":127000000000,"state":"active","ping":65},{"user_id":112,"name":"Cam","steam_id":76561198139174433,"connected_time":159000000000,"state":"active","ping":60},{"user_id":41,"name":"The Moon","steam_id":76561198082926682,"connected_time":5110000000000,"state":"active","ping":47},{"user_id":77,"name":"Just kill me 3","steam_id":76561198979600491,"connected_time":3332000000000,"state":"active","ping":85},{"user_id":97,"name":"CaptainPikachu","steam_id":76561198075667401,"connected_time":1904000000000,"state":"active","ping":83},{"user_id":91,"name":"Meth Goblin","steam_id":76561198086355221,"connected_time":2200000000000,"state":"active","ping":100},{"user_id":95,"name":"Anthid","steam_id":76561198074493797,"connected_time":2108000000000,"state":"active","ping":68}]},{"server_id":19,"name":"Uncletopia | San Francisco | 3 | Stopwatch Beta","name_short":"sfo-3","host":"sfo-1.us.uncletopia.com","port":27035,"enabled":true,"region":"us-west","cc":"us","latitude":37.77397,"longitude":-122.4313,"reserved":0,"last_update":"0001-01-01T00:00:00Z","name_a2s":"Uncletopia | San Francisco | 3 | Stopwatch Beta","protocol":17,"map":"workshop/cp_process_f12.ugc2302948105","folder":"tf","game":"Team Fortress","app_id":440,"player_count":0,"max_players":24,"Bots":0,"server_type":"Dedicated","server_os":"Linux","password":true,"vac":true,"version":"7757534","steam_id":85568392924742824,"keywords":["cp","nocrits","nodmgspread","uncletopia"],"game_id":440,"stv_port":27036,"stv_name":"Uncletopia | San Francisco | 3 | Stopwatch Beta | STV","players":null},{"server_id":20,"name":"Uncletopia | San Francisco | 4 | Community","name_short":"sfo-4","host":"sfo-1.us.uncletopia.com","port":27045,"enabled":true,"region":"us-west","cc":"us","latitude":37.77397,"longitude":-122.4313,"reserved":0,"last_update":"0001-01-01T00:00:00Z","name_a2s":"Uncletopia | San Francisco | 4 | Community","protocol":17,"map":"workshop/koth_bagel_rc6.ugc2514036946","folder":"tf","game":"Team Fortress","app_id":440,"player_count":0,"max_players":24,"Bots":0,"server_type":"Dedicated","server_os":"Linux","password":true,"vac":true,"version":"7757534","steam_id":85568392924742826,"keywords":["cp","nocrits","nodmgspread","uncletopia"],"game_id":440,"stv_port":27046,"stv_name":"Uncletopia | San Francisco | 4 | Community | STV","players":null},{"server_id":141,"name":"Uncletopia | Sydney | 1 | All Maps","name_short":"syd-1","host":"syd-1.au.uncletopia.com","port":27015,"enabled":true,"region":"au","cc":"au","latitude":-33.865143,"longitude":151.2099,"reserved":0,"last_update":"0001-01-01T00:00:00Z","name_a2s":"Uncletopia | Sydney | 1 | All Maps","protocol":17,"map":"koth_viaduct","folder":"tf","game":"Team Fortress","app_id":440,"player_count":0,"max_players":24,"Bots":0,"server_type":"Dedicated","server_os":"Linux","password":true,"vac":true,"version":"7757534","steam_id":85568392924470001,"keywords":["cp","nocrits","nodmgspread","uncletopia"],"game_id":440,"stv_port":27016,"stv_name":"Uncletopia | Sydney | 1 | All Maps | STV","players":null},{"server_id":123,"name":"Uncletopia | Sydney | 2 | All Maps","name_short":"syd-2","host":"syd-1.au.uncletopia.com","port":27025,"enabled":true,"region":"au","cc":"au","latitude":-33.865143,"longitude":151.2099,"reserved":0,"last_update":"0001-01-01T00:00:00Z","name_a2s":"Uncletopia | Sydney | 2 | All Maps","protocol":17,"map":"cp_altitude","folder":"tf","game":"Team Fortress","app_id":440,"player_count":0,"max_players":24,"Bots":0,"server_type":"Dedicated","server_os":"Linux","password":true,"vac":true,"version":"7757534","steam_id":85568392924470002,"keywords":["cp","nocrits","nodmgspread","uncletopia"],"game_id":440,"stv_port":27026,"stv_name":"Uncletopia | Sydney | 2 | All Maps | STV","players":null},{"server_id":395,"name":"Uncletopia | Sydney | 3 | All Maps","name_short":"syd-3","host":"syd-1.au.uncletopia.com","port":27035,"enabled":true,"region":"au","cc":"au","latitude":-33.865143,"longitude":151.2099,"reserved":0,"last_update":"0001-01-01T00:00:00Z","name_a2s":"Uncletopia | Sydney | 3 | All Maps","protocol":17,"map":"pl_swiftwater_final1","folder":"tf","game":"Team Fortress","app_id":440,"player_count":0,"max_players":24,"Bots":0,"server_type":"Dedicated","server_os":"Linux","password":true,"vac":true,"version":"7757534","steam_id":85568392925194467,"keywords":["nocrits","nodmgspread","payload","uncletopia"],"game_id":440,"stv_port":27036,"stv_name":"Uncletopia | Sydney | 3 | All Maps | STV","players":null},{"server_id":396,"name":"Uncletopia | Sydney | 4 | All Maps","name_short":"syd-4","host":"syd-1.au.uncletopia.com","port":27045,"enabled":true,"region":"au","cc":"au","latitude":-33.865143,"longitude":151.2099,"reserved":0,"last_update":"0001-01-01T00:00:00Z","name_a2s":"Uncletopia | Sydney | 4 | All Maps","protocol":17,"map":"koth_highpass","folder":"tf","game":"Team Fortress","app_id":440,"player_count":0,"max_players":24,"Bots":0,"server_type":"Dedicated","server_os":"Linux","password":true,"vac":true,"version":"7757534","steam_id":85568392925397958,"keywords":["cp","nocrits","nodmgspread","uncletopia"],"game_id":440,"stv_port":27046,"stv_name":"Uncletopia | Sydney | 4 | All Maps | STV","players":null},{"server_id":58,"name":"Uncletopia | Sydney | 5 | Stopwatch Beta","name_short":"syd-5","host":"syd-1.au.uncletopia.com","port":27055,"enabled":true,"region":"au","cc":"au","latitude":-33.865143,"longitude":151.2099,"reserved":0,"last_update":"0001-01-01T00:00:00Z","name_a2s":"Uncletopia | Sydney | 5 | Stopwatch Beta","protocol":17,"map":"koth_cascade","folder":"tf","game":"Team Fortress","app_id":440,"player_count":0,"max_players":24,"Bots":0,"server_type":"Dedicated","server_os":"Linux","password":true,"vac":true,"version":"7757534","steam_id":85568392925397959,"keywords":["cp","nocrits","nodmgspread","uncletopia"],"game_id":440,"stv_port":27056,"stv_name":"Uncletopia | Sydney | 5 | Stopwatch Beta | STV","players":null},{"server_id":59,"name":"Uncletopia | Sydney | 6 | Community","name_short":"syd-6","host":"syd-1.au.uncletopia.com","port":27065,"enabled":true,"region":"au","cc":"au","latitude":-33.865143,"longitude":151.2099,"reserved":0,"last_update":"0001-01-01T00:00:00Z","name_a2s":"Uncletopia | Sydney | 6 | Community","protocol":17,"map":"cp_snakewater_final1","folder":"tf","game":"Team Fortress","app_id":440,"player_count":0,"max_players":24,"Bots":0,"server_type":"Dedicated","server_os":"Linux","password":true,"vac":true,"version":"7757534","steam_id":85568392925397960,"keywords":["cp","nocrits","nodmgspread","uncletopia"],"game_id":440,"stv_port":27066,"stv_name":"Uncletopia | Sydney | 6 | Community | STV","players":null},{"server_id":49,"name":"Uncletopia | Warsaw | 1 | All Maps","name_short":"waw-1","host":"waw-1.pl.uncletopia.com","port":27015,"enabled":true,"region":"eu","cc":"pl","latitude":52.2297,"longitude":21.017532,"reserved":0,"last_update":"0001-01-01T00:00:00Z","name_a2s":"","protocol":0,"map":"","folder":"","game":"","app_id":0,"player_count":0,"max_players":0,"Bots":0,"server_type":"","server_os":"","password":false,"vac":false,"version":"","steam_id":0,"keywords":null,"game_id":0,"stv_port":0,"stv_name":"","players":null},{"server_id":50,"name":"Uncletopia | Warsaw | 2 | All Maps","name_short":"waw-2","host":"waw-1.pl.uncletopia.com","port":27025,"enabled":true,"region":"eu","cc":"pl","latitude":52.2297,"longitude":21.017532,"reserved":0,"last_update":"0001-01-01T00:00:00Z","name_a2s":"Uncletopia | Warsaw | 2 | All Maps","protocol":17,"map":"koth_viaduct","folder":"tf","game":"Team Fortress","app_id":440,"player_count":0,"max_players":24,"Bots":0,"server_type":"Dedicated","server_os":"Linux","password":true,"vac":true,"version":"7757534","steam_id":85568392925397851,"keywords":["cp","nocrits","nodmgspread","uncletopia"],"game_id":440,"stv_port":27026,"stv_name":"Uncletopia | Warsaw | 2 | All Maps | STV","players":null},{"server_id":51,"name":"Uncletopia | Warsaw | 3 | All Maps","name_short":"waw-3","host":"waw-1.pl.uncletopia.com","port":27035,"enabled":true,"region":"eu","cc":"pl","latitude":52.2297,"longitude":21.017532,"reserved":0,"last_update":"0001-01-01T00:00:00Z","name_a2s":"Uncletopia | Warsaw | 3 | All Maps","protocol":17,"map":"pl_barnblitz","folder":"tf","game":"Team Fortress","app_id":440,"player_count":0,"max_players":24,"Bots":0,"server_type":"Dedicated","server_os":"Linux","password":true,"vac":true,"version":"7757534","steam_id":85568392925397852,"keywords":["nocrits","nodmgspread","payload","uncletopia"],"game_id":440,"stv_port":27036,"stv_name":"Uncletopia | Warsaw | 3 | All Maps | STV","players":null},{"server_id":52,"name":"Uncletopia | Warsaw | 4 | All Maps","name_short":"waw-4","host":"waw-1.pl.uncletopia.com","port":27045,"enabled":true,"region":"eu","cc":"pl","latitude":52.2297,"longitude":21.017532,"reserved":0,"last_update":"0001-01-01T00:00:00Z","name_a2s":"Uncletopia | Warsaw | 4 | All Maps","protocol":17,"map":"koth_lakeside_final","folder":"tf","game":"Team Fortress","app_id":440,"player_count":0,"max_players":24,"Bots":0,"server_type":"Dedicated","server_os":"Linux","password":true,"vac":true,"version":"7757534","steam_id":85568392925397853,"keywords":["cp","nocrits","nodmgspread","uncletopia"],"game_id":440,"stv_port":27046,"stv_name":"Uncletopia | Warsaw | 4 | All Maps | STV","players":null},{"server_id":53,"name":"Uncletopia | Warsaw | 5 | Stopwatch Beta","name_short":"waw-5","host":"waw-1.pl.uncletopia.com","port":27055,"enabled":true,"region":"eu","cc":"pl","latitude":52.2297,"longitude":21.017532,"reserved":0,"last_update":"0001-01-01T00:00:00Z","name_a2s":"Uncletopia | Warsaw | 5 | Stopwatch Beta","protocol":17,"map":"pl_borneo","folder":"tf","game":"Team Fortress","app_id":440,"player_count":0,"max_players":24,"Bots":0,"server_type":"Dedicated","server_os":"Linux","password":true,"vac":true,"version":"7757534","steam_id":85568392925397854,"keywords":["nocrits","nodmgspread","payload","uncletopia"],"game_id":440,"stv_port":27056,"stv_name":"Uncletopia | Warsaw | 5 | Stopwatch Beta | STV","players":null},{"server_id":54,"name":"Uncletopia | Warsaw | 6 | Community","name_short":"waw-6","host":"waw-1.pl.uncletopia.com","port":27065,"enabled":true,"region":"eu","cc":"pl","latitude":52.2297,"longitude":21.017532,"reserved":0,"last_update":"0001-01-01T00:00:00Z","name_a2s":"Uncletopia | Warsaw | 6 | Community","protocol":17,"map":"koth_lakeside_final","folder":"tf","game":"Team Fortress","app_id":440,"player_count":0,"max_players":24,"Bots":0,"server_type":"Dedicated","server_os":"Linux","password":true,"vac":true,"version":"7757534","steam_id":85568392925397856,"keywords":["cp","nocrits","nodmgspread","uncletopia"],"game_id":440,"stv_port":27066,"stv_name":"Uncletopia | Warsaw | 6 | Community | STV","players":null}]}