{"status":true,"message":"","result":[{"server_id":9,"name":"Uncletopia | Atlanta | 1 | All Maps","name_short":"atl-1","host":"atl-1.us.uncletopia.com","port":27015,"enabled":true,"region":"us-east","cc":"us","latitude":33.753746,"longitude":-84.38633,"reserved":0,"last_update":"0001-01-01T00:00:00Z","name_a2s":"Uncletopia | Atlanta | 1 | All Maps","protocol":17,"map":"pl_upward","folder":"tf","game":"Team Fortress","app_id":440,"player_count":24,"max_players":24,"Bots":0,"server_type":"Dedicated","server_os":"Linux","password":true,"vac":true,"version":"7757534","steam_id":85568392924469982,"keywords":["nocrits","nodmgspread","payload","uncletopia"],"game_id":440,"stv_port":27016,"stv_name":"Uncletopia | Atlanta | 1 | All Maps | STV","players":[{"user_id":704,"name":"Fargo","steam_id":76561198044703931,"connected_time":1763000000000,"state":"active","ping":78},{"user_id":723,"name":"MakCuMka_AneJlcuHka","steam_id":76561198892412012,"connected_time":1018000000000,"state":"active","ping":198},{"user_id":628,"name":"titaniumsupernova","steam_id":76561198311711930,"connected_time":9513000000000,"state":"active","ping":47},{"user_id":743,"name":"Hleno","steam_id":76561198060442619,"connected_time":402000000000,"state":"active","ping":148},{"user_id":709,"name":"BuncusBeffer","steam_id":76561198285936616,"connected_time":1586000000000,"state":"active","ping":116},{"user_id":740,"name":"DjBallBag","steam_id":76561198118551080,"connected_time":552000000000,"state":"active","ping":78},{"user_id":711,"name":"CertifiedCereal","steam_id":76561198055027895,"connected_time":1535000000000,"state":"active","ping":68},{"user_id":733,"name":"Zoo Keeper Engie","steam_id":76561198064380111,"connected_time":829000000000,"state":"active","ping":81},{"user_id":741,"name":"pip","steam_id":76561198193784201,"connected_time":548000000000,"state":"active","ping":53},{"user_id":717,"name":"you've been deuced on!","steam_id":76561198236028020,"connected_time":1331000000000,"state":"active","ping":95},{"user_id":715,"name":"Peter Muskrat (racist)","steam_id":76561198857749738,"connected_time":1421000000000,"state":"active","ping":52},{"user_id":683,"name":"mu","steam_id":76561197997530228,"connected_time":3417000000000,"state":"active","ping":115},{"user_id":746,"name":"PyroToaster","steam_id":76561198053057346,"connected_time":109000000000,"state":"active","ping":74},{"user_id":747,"name":"Stronk","steam_id":76561198314043450,"connected_time":100000000000,"state":"active","ping":95},{"user_id":725,"name":"McSmitten","steam_id":76561198022358379,"connected_time":1016000000000,"state":"active","ping":65},{"user_id":727,"name":"jumbo","steam_id":76561198024192770,"connected_time":909000000000,"state":"active","ping":93},{"user_id":734,"name":"The Horselords and Animal Gods","steam_id":76561197975094050,"connected_time":829000000000,"state":"active","ping":103},{"user_id":687,"name":"Line","steam_id":76561198086222096,"connected_time":3332000000000,"state":"active","ping":65},{"user_id":744,"name":"Box{Fear is for the weak}","steam_id":76561198259097323,"connected_time":394000000000,"state":"active","ping":56},{"user_id":742,"name":"Saucy Boy","steam_id":76561198178332031,"connected_time":479000000000,"state":"active","ping":95},{"user_id":735,"name":"murder drone","steam_id":76561199149210631,"connected_time":802000000000,"state":"active","ping":60},{"user_id":739,"name":"Nox(She/They)","steam_id":76561198141950842,"connected_time":779000000000,"state":"active","ping":45},{"user_id":737,"name":"Trusty","steam_id":76561198035444237,"connected_time":799000000000,"state":"active","ping":71},{"user_id":695,"name":"Mage","steam_id":76561198285026879,"connected_time":3160000000000,"state":"active","ping":86}]},{"server_id":104,"name":"Uncletopia | Atlanta | 2 | All Maps","name_short":"atl-2","host":"atl-1.us.uncletopia.com","port":27025,"enabled":true,"region":"us-east","cc":"us","latitude":33.753746,"longitude":-84.38633,"reserved":0,"last_update":"0001-01-01T00:00:00Z","name_a2s":"Uncletopia | Atlanta | 2 | All Maps","protocol":17,"map":"koth_viaduct","folder":"tf","game":"Team Fortress","app_id":440,"player_count":0,"max_players":24,"Bots":0,"server_type":"Dedicated","server_os":"Linux","password":true,"vac":true,"version":"7757534","steam_id":85568392924469983,"keywords":["cp","nocrits","nodmgspread","uncletopia"],"game_id":440,"stv_port":27026,"stv_name":"Uncletopia | Atlanta | 2 | All Maps | STV","players":null},{"server_id":400,"name":"Uncletopia | Atlanta | 3 | Community","name_short":"atl-3","host":"atl-1.us.uncletopia.com","port":27035,"enabled":true,"region":"us-east","cc":"us","latitude":33.753746,"longitude":-84.38633,"reserved":0,"last_update":"0001-01-01T00:00:00Z","name_a2s":"Uncletopia | Atlanta | 3 | Community","protocol":17,"map":"workshop/rd_asteroid_redux_b1.ugc2154902912","folder":"tf","game":"Team Fortress","app_id":440,"player_count":0,"max_players":24,"Bots":0,"server_type":"Dedicated","server_os":"Linux","password":true,"vac":true,"version":"7757534","steam_id":85568392924515187,"keywords":["beta","nocrits","nodmgspread","rd","uncletopia"],"game_id":440,"stv_port":27036,"stv_name":"Uncletopia | Atlanta | 3 | Community | STV","players":null},{"server_id":401,"name":"Uncletopia | Atlanta | 4 | No Payload","name_short":"atl-4","host":"atl-1.us.uncletopia.com","port":27045,"enabled":true,"region":"us-east","cc":"us","latitude":33.753746,"longitude":-84.38633,"reserved":0,"last_update":"0001-01-01T00:00:00Z","name_a2s":"","protocol":0,"map":"","folder":"","game":"","app_id":0,"player_count":0,"max_players":0,"Bots":0,"server_type":"","server_os":"","password":false,"vac":false,"version":"","steam_id":0,"keywords":null,"game_id":0,"stv_port":0,"stv_name":"","players":null},{"server_id":2,"name":"Uncletopia | Chicago | 1 | All Maps","name_short":"chi-1","host":"chi-1.us.uncletopia.com","port":27015,"enabled":true,"region":"us-central","cc":"us","latitude":41.881832,"longitude":-87.62318,"reserved":0,"last_update":"0001-01-01T00:00:00Z","name_a2s":"Uncletopia | Chicago | 1 | All Maps","protocol":17,"map":"cp_mountainlab","folder":"tf","game":"Team Fortress","app_id":440,"player_count":2,"max_players":24,"Bots":0,"server_type":"Dedicated","server_os":"Linux","password":true,"vac":true,"version":"7757534","steam_id":85568392924469984,"keywords":["cp","nocrits","nodmgspread","uncletopia"],"game_id":440,"stv_port":27016,"stv_name":"Uncletopia | Chicago | 1 | All Maps | STV","players":[{"user_id":624,"name":"ethanf","steam_id":76561198103930234,"connected_time":11000000000,"state":"spawning","ping":79},{"user_id":623,"name":"EMT-PCaitlin","steam_id":76561199048847533,"connected_time":297000000000,"state":"active","ping":69}]},{"server_id":106,"name":"Uncletopia | Chicago | 2 | All Maps","name_short":"chi-2","host":"chi-1.us.uncletopia.com","port":27025,"enabled":true,"region":"us-central","cc":"us","latitude":41.881832,"longitude":-87.62318,"reserved":0,"last_update":"0001-01-01T00:00:00Z","name_a2s":"Uncletopia | Chicago | 2 | All Maps","protocol":17,"map":"cp_snakewater_final1","folder":"tf","game":"Team Fortress","app_id":440,"player_count":0,"max_players":24,"Bots":0,"server_type":"Dedicated","server_os":"Linux","password":true,"vac":true,"version":"7757534","steam_id":85568392924469985,"keywords":["cp","nocrits","nodmgspread","uncletopia"],"game_id":440,"stv_port":27026,"stv_name":"Uncletopia | Chicago | 2 | All Maps | STV","players":null},{"server_id":402,"name":"Uncletopia | Chicago | 3 | All Maps","name_short":"chi-3","host":"chi-1.us.uncletopia.com","port":27035,"enabled":true,"region":"us-central","cc":"us","latitude":41.881832,"longitude":-87.62318,"reserved":0,"last_update":"0001-01-01T00:00:00Z","name_a2s":"Uncletopia | Chicago | 3 | All Maps","protocol":17,"map":"koth_viaduct","folder":"tf","game":"Team Fortress","app_id":440,"player_count":13,"max_players":24,"Bots":0,"server_type":"Dedicated","server_os":"Linux","password":true,"vac":true,"version":"7757534","steam_id":85568392924515191,"keywords":["cp","nocrits","nodmgspread","uncletopia"],"game_id":440,"stv_port":27036,"stv_name":"Uncletopia | Chicago | 3 | All Maps | STV","players":[{"user_id":773,"name":"MuffinMan","steam_id":76561198272111654,"connected_time":3239000000000,"state":"active","ping":94},{"user_id":774,"name":"lazy","steam_id":76561199191149784,"connected_time":3189000000000,"state":"active","ping":104},{"user_id":778,"name":"ror!","steam_id":76561198021227843,"connected_time":2372000000000,"state":"active","ping":54},{"user_id":788,"name":"weird opponent","steam_id":76561199199843311,"connected_time":1254000000000,"state":"active","ping":65},{"user_id":801,"name":"pigswill","steam_id":76561197999081865,"connected_time":300000000000,"state":"active","ping":62},{"user_id":791,"name":"Shadow Xaenen","steam_id":76561198345321624,"connected_time":1081000000000,"state":"active","ping":63},{"user_id":793,"name":"pudl","steam_id":76561198043726592,"connected_time":1016000000000,"state":"active","ping":61},{"user_id":784,"name":"watchfull","steam_id":76561198433266742,"connected_time":1725000000000,"state":"active","ping":99},{"user_id":802,"name":"Jun Manjoume","steam_id":76561198124040126,"connected_time":121000000000,"state":"spawning","ping":88},{"user_id":792,"name":"҉҈҉ϟTheSuperEngλ","steam_id":76561197964359047,"connected_time":1063000000000,"state":"active","ping":71},{"user_id":794,"name":"The Spice","steam_id":76561197998760607,"connected_time":919000000000,"state":"active","ping":103},{"user_id":796,"name":"MushSplash","steam_id":76561198158101196,"connected_time":798000000000,"state":"active","ping":63},{"user_id":797,"name":"d0ve","steam_id":76561198177110746,"connected_time":764000000000,"state":"active","ping":82}]},{"server_id":403,"name":"Uncletopia | Chicago | 4 | All Maps","name_short":"chi-4","host":"chi-1.us.uncletopia.com","port":27045,"enabled":true,"region":"us-central","cc":"us","latitude":41.881832,"longitude":-87.62318,"reserved":0,"last_update":"0001-01-01T00:00:00Z","name_a2s":"Uncletopia | Chicago | 4 | All Maps","protocol":17,"map":"pl_snowycoast","folder":"tf","game":"Team Fortress","app_id":440,"player_count":24,"max_players":24,"Bots":0,"server_type":"Dedicated","server_os":"Linux","password":true,"vac":true,"version":"7757534","steam_id":85568392924515193,"keywords":["nocrits","nodmgspread","payload","uncletopia"],"game_id":440,"stv_port":27046,"stv_name":"Uncletopia | Chicago | 4 | All Maps | STV","players":[{"user_id":721,"name":"alN","steam_id":76561198329171346,"connected_time":9850000000000,"state":"active","ping":44},{"user_id":825,"name":"Boo! Boo I Say!","steam_id":76561198272427405,"connected_time":778000000000,"state":"active","ping":70},{"user_id":798,"name":"BTS | Bumbler","steam_id":76561198048895038,"connected_time":3267000000000,"state":"active","ping":75},{"user_id":809,"name":"Chancethefapper69","steam_id":76561198173086317,"connected_time":2362000000000,"state":"active","ping":72},{"user_id":814,"name":"BasedOrc","steam_id":76561198141233875,"connected_time":2243000000000,"state":"active","ping":92},{"user_id":831,"name":"♥аниме гнида♥","steam_id":76561199470421237,"connected_time":281000000000,"state":"active","ping":175},{"user_id":829,"name":"sueimimore","steam_id":76561198277979851,"connected_time":302000000000,"state":"active","ping":80},{"user_id":830,"name":"mountain*✩‧₊˚","steam_id":76561198078395002,"connected_time":296000000000,"state":"active","ping":61},{"user_id":810,"name":"THEY LET YOU PUT ANYTHING HERE","steam_id":76561198056214875,"connected_time":2338000000000,"state":"active","ping":57},{"user_id":822,"name":"Ereous (Erin)","steam_id":76561198431446386,"connected_time":1058000000000,"state":"active","ping":70},{"user_id":832,"name":"Pineapple Pizza","steam_id":76561197997233176,"connected_time":254000000000,"state":"active","ping":82},{"user_id":834,"name":"King banana","steam_id":76561198129152645,"connected_time":231000000000,"state":"active","ping":60},{"user_id":835,"name":"BTS | Kalaner","steam_id":76561198041088708,"connected_time":231000000000,"state":"active","ping":47},{"user_id":807,"name":"Jimmy Johns Stupid Sandwich","steam_id":76561198143443816,"connected_time":2761000000000,"state":"active","ping":108},{"user_id":773,"name":"toilethumor","steam_id":76561197962028780,"connected_time":6103000000000,"state":"active","ping":75},{"user_id":836,"name":"The Spinker \"Lord\"","steam_id":76561198968338494,"connected_time":206000000000,"state":"active","ping":91},{"user_id":837,"name":"HaydenIsDead","steam_id":76561198200839410,"connected_time":194000000000,"state":"active","ping":72},{"user_id":828,"name":"Lil' Croissant","steam_id":76561198059494343,"connected_time":333000000000,"state":"active","ping":103},{"user_id":720,"name":"Bryguy","steam_id":76561198092096120,"connected_time":9964000000000,"state":"active","ping":45},{"user_id":838,"name":"Iron","steam_id":76561198247918478,"connected_time":186000000000,"state":"active","ping":62},{"user_id":805,"name":"WhiteRabbit","steam_id":76561198027579538,"connected_time":3077000000000,"state":"active","ping":66},{"user_id":794,"name":"Kng","steam_id":76561198993248203,"connected_time":3812000000000,"state":"active","ping":77},{"user_id":817,"name":"Kazul","steam_id":76561198014925555,"connected_time":2220000000000,"state":"active","ping":52},{"user_id":797,"name":"Anime_Ori","steam_id":76561198082715890,"connected_time":3311000000000,"state":"active","ping":66}]},{"server_id":36,"name":"Uncletopia | Chicago | 5 | All Maps","name_short":"chi-5","host":"chi-2.us.uncletopia.com","port":27015,"enabled":true,"region":"us-central","cc":"us","latitude":41.881832,"longitude":-87.62318,"reserved":0,"last_update":"0001-01-01T00:00:00Z","name_a2s":"Uncletopia | Chicago | 5 | All Maps","protocol":17,"map":"pl_frontier_final","folder":"tf","game":"Team Fortress","app_id":440,"player_count":18,"max_players":24,"Bots":0,"server_type":"Dedicated","server_os":"Linux","password":true,"vac":true,"version":"7757534","steam_id":85568392924866362,"keywords":["nocrits","nodmgspread","payload","uncletopia"],"game_id":440,"stv_port":27016,"stv_name":"Uncletopia | Chicago | 5 | All Maps | STV","players":[{"user_id":549,"name":"frank","steam_id":76561198137777483,"connected_time":1230000000000,"state":"active","ping":63},{"user_id":550,"name":"F_L Nighthawk","steam_id":76561198081945810,"connected_time":1215000000000,"state":"active","ping":83},{"user_id":563,"name":"ToledoMosquito","steam_id":76561197995201996,"connected_time":505000000000,"state":"active","ping":53},{"user_id":564,"name":"Scoober Doob","steam_id":76561198117582706,"connected_time":93000000000,"state":"active","ping":85},{"user_id":565,"name":"Laiterie","steam_id":76561199465756316,"connected_time":75000000000,"state":"active","ping":50},{"user_id":566,"name":"Provocator","steam_id":76561197961830410,"connected_time":43000000000,"state":"active","ping":74},{"user_id":559,"name":"F_L Vision Spire","steam_id":76561198095923905,"connected_time":892000000000,"state":"active","ping":53},{"user_id":551,"name":"thundah!","steam_id":76561199159928133,"connected_time":1158000000000,"state":"active","ping":65},{"user_id":552,"name":"have a nice life fan","steam_id":76561198159684104,"connected_time":1145000000000,"state":"active","ping":70},{"user_id":530,"name":"Jimmy \"Saul Goodman\" Mcgill","steam_id":76561198875469297,"connected_time":3091000000000,"state":"active","ping":66},{"user_id":542,"name":"Deep Fried Pickles","steam_id":76561198048111293,"connected_time":1793000000000,"state":"active","ping":69},{"user_id":475,"name":"Training Arc","steam_id":76561198038832034,"connected_time":8720000000000,"state":"active","ping":99},{"user_id":554,"name":"Paradoxical_Wayfarer","steam_id":76561198043250942,"connected_time":1121000000000,"state":"active","ping":46},{"user_id":555,"name":"Bony","steam_id":76561199001748822,"connected_time":1061000000000,"state":"active","ping":90},{"user_id":529,"name":"10cc","steam_id":76561198052009876,"connected_time":3359000000000,"state":"active","ping":165},{"user_id":556,"name":"hapipi","steam_id":76561198280424107,"connected_time":1041000000000,"state":"active","ping":66},{"user_id":503,"name":"sqgly","steam_id":76561198105508955,"connected_time":5603000000000,"state":"active","ping":51},{"user_id":558,"name":"J21","steam_id":76561198066590783,"connected_time":920000000000,"state":"active","ping":75}]},{"server_id":37,"name":"Uncletopia | Chicago | 6 | All Maps","name_short":"chi-6","host":"chi-2.us.uncletopia.com","port":27025,"enabled":true,"region":"us-central","cc":"us","latitude":41.881832,"longitude":-87.62318,"reserved":0,"last_update":"0001-01-01T00:00:00Z","name_a2s":"Uncletopia | Chicago | 6 | All Maps","protocol":17,"map":"cp_sunshine","folder":"tf","game":"Team Fortress","app_id":440,"player_count":0,"max_players":24,"Bots":0,"server_type":"Dedicated","server_os":"Linux","password":true,"vac":true,"version":"7757534","steam_id":85568392924866363,"keywords":["cp","nocrits","nodmgspread","uncletopia"],"game_id":440,"stv_port":27026,"stv_name":"Uncletopia | Chicago | 6 | All Maps | STV","players":null},{"server_id":38,"name":"Uncletopia | Chicago | 7 | Stopwatch Beta","name_short":"chi-7","host":"chi-2.us.uncletopia.com","port":27035,"enabled":true,"region":"us-central","cc":"us","latitude":41.881832,"longitude":-87.62318,"reserved":0,"last_update":"0001-01-01T00:00:00Z","name_a2s":"Uncletopia | Chicago | 7 | Stopwatch Beta","protocol":17,"map":"workshop/koth_product_final.ugc454272353","folder":"tf","game":"Team Fortress","app_id":440,"player_count":0,"max_players":24,"Bots":0,"server_type":"Dedicated","server_os":"Linux","password":true,"vac":true,"version":"7757534","steam_id":85568392924866364,"keywords":["cp","nocrits","nodmgspread","uncletopia"],"game_id":440,"stv_port":27036,"stv_name":"Uncletopia | Chicago | 7 | Stopwatch Beta | STV","players":null},{"server_id":39,"name":"Uncletopia | Chicago | 8 | Community","name_short":"chi-8","host":"chi-2.us.uncletopia.com","port":27045,"enabled":true,"region":"us-central","cc":"us","latitude":41.881832,"longitude":-87.62318,"reserved":0,"last_update":"0001-01-01T00:00:00Z","name_a2s":"Uncletopia | Chicago | 8 | Community","protocol":17,"map":"workshop/cp_overgrown_rc7b.ugc503939302","folder":"tf","game":"Team Fortress","app_id":440,"player_count":0,"max_players":24,"Bots":0,"server_type":"Dedicated","server_os":"Linux","password":true,"vac":true,"version":"7757534","steam_id":85568392924866365,"keywords":["cp","nocrits","nodmgspread","uncletopia"],"game_id":440,"stv_port":27046,"stv_name":"Uncletopia | Chicago | 8 | Community | STV","players":null},{"server_id":8,"name":"Uncletopia | Dallas | 1 | All Maps","name_short":"dal-1","host":"dal-1.us.uncletopia.com","port":27015,"enabled":true,"region":"us-central","cc":"us","latitude":32.779167,"longitude":-96.80889,"reserved":0,"last_update":"0001-01-01T00:00:00Z","name_a2s":"Uncletopia | Dallas | 1 | All Maps","protocol":17,"map":"cp_dustbowl","folder":"tf","game":"Team Fortress","app_id":440,"player_count":0,"max_players":24,"Bots":0,"server_type":"Dedicated","server_os":"Linux","password":true,"vac":true,"version":"7757534","steam_id":85568392924469986,"keywords":["cp","nocrits","nodmgspread","uncletopia"],"game_id":440,"stv_port":27016,"stv_name":"Uncletopia | Dallas | 1 | All Maps | STV","players":null},{"server_id":108,"name":"Uncletopia | Dallas | 2 | All Maps","name_short":"dal-2","host":"dal-1.us.uncletopia.com","port":27025,"enabled":true,"region":"us-central","cc":"us","latitude":32.779167,"longitude":-96.80889,"reserved":0,"last_update":"0001-01-01T00:00:00Z","name_a2s":"Uncletopia | Dallas | 2 | All Maps","protocol":17,"map":"pl_pier","folder":"tf","game":"Team Fortress","app_id":440,"player_count":0,"max_players":24,"Bots":0,"server_type":"Dedicated","server_os":"Linux","password":true,"vac":true,"version":"7757534","steam_id":85568392924469988,"keywords":["nocrits","nodmgspread","payload","uncletopia"],"game_id":440,"stv_port":27026,"stv_name":"Uncletopia | Dallas | 2 | All Maps | STV","players":null},{"server_id":5,"name":"Uncletopia | Frankfurt | 1 | All Maps","name_short":"frk-1","host":"frk-1.de.uncletopia.com","port":27015,"enabled":true,"region":"eu","cc":"de","latitude":50.110924,"longitude":8.682127,"reserved":0,"last_update":"0001-01-01T00:00:00Z","name_a2s":"Uncletopia | Frankfurt | 1 | All Maps","protocol":17,"map":"pl_borneo","folder":"tf","game":"Team Fortress","app_id":440,"player_count":20,"max_players":24,"Bots":0,"server_type":"Dedicated","server_os":"Linux","password":true,"vac":true,"version":"7757534","steam_id":85568392924469989,"keywords":["nocrits","nodmgspread","payload","uncletopia"],"game_id":440,"stv_port":27016,"stv_name":"Uncletopia | Frankfurt | 1 | All Maps | STV","players":[{"user_id":5,"name":"Frog","steam_id":76561198043981067,"connected_time":2967000000000,"state":"active","ping":70},{"user_id":6,"name":"ja","steam_id":76561199228540618,"connected_time":2780000000000,"state":"active","ping":74},{"user_id":32,"name":"ุ","steam_id":76561198045466919,"connected_time":315000000000,"state":"active","ping":66},{"user_id":20,"name":"Least sadistic healer main","steam_id":76561198114164702,"connected_time":916000000000,"state":"active","ping":60},{"user_id":36,"name":"Thor2008","steam_id":76561197983048776,"connected_time":105000000000,"state":"active","ping":59},{"user_id":12,"name":"2","steam_id":76561199149307190,"connected_time":1119000000000,"state":"active","ping":79},{"user_id":13,"name":"1ggy","steam_id":76561199051285912,"connected_time":1089000000000,"state":"active","ping":78},{"user_id":22,"name":"aGryphoN","steam_id":76561198245175308,"connected_time":635000000000,"state":"active","ping":66},{"user_id":15,"name":"delta man","steam_id":76561198204491245,"connected_time":1042000000000,"state":"active","ping":123},{"user_id":17,"name":"джегеми хэпкингс","steam_id":76561198131531394,"connected_time":1011000000000,"state":"active","ping":86},{"user_id":19,"name":"Schäufele","steam_id":76561198112854583,"connected_time":956000000000,"state":"active","ping":60},{"user_id":35,"name":"Xriasp","steam_id":76561198104721321,"connected_time":145000000000,"state":"active","ping":71},{"user_id":24,"name":"Spoockybro","steam_id":76561198257695061,"connected_time":537000000000,"state":"active","ping":83},{"user_id":25,"name":"я сосал меня ебал","steam_id":76561197971140507,"connected_time":498000000000,"state":"active","ping":68},{"user_id":37,"name":"Kvadrat","steam_id":76561198022834916,"connected_time":104000000000,"state":"active","ping":116},{"user_id":28,"name":".::[SerafeTTiN]::.","steam_id":76561198009471724,"connected_time":458000000000,"state":"active","ping":95},{"user_id":29,"name":"Dodo","steam_id":76561198001877653,"connected_time":456000000000,"state":"active","ping":55},{"user_id":33,"name":"HeloOo_per The Communist","steam_id":76561199099995357,"connected_time":312000000000,"state":"active","ping":80},{"user_id":38,"name":"Doktor Drip","steam_id":76561198843329045,"connected_time":85000000000,"state":"active","ping":98},{"user_id":39,"name":"Volmari","steam_id":76561198054253542,"connected_time":28000000000,"state":"active","ping":81}]},{"server_id":110,"name":"Uncletopia | Frankfurt | 2 | All Maps","name_short":"frk-2","host":"frk-1.de.uncletopia.com","port":27025,"enabled":true,"region":"eu","cc":"de","latitude":50.110924,"longitude":8.682127,"reserved":0,"last_update":"0001-01-01T00:00:00Z","name_a2s":"Uncletopia | Frankfurt | 2 | All Maps","protocol":17,"map":"cp_snakewater_final1","folder":"tf","game":"Team Fortress","app_id":440,"player_count":0,"max_players":24,"Bots":0,"server_type":"Dedicated","server_os":"Linux","password":true,"vac":true,"version":"7757534","steam_id":85568392924469990,"keywords":["cp","nocrits","nodmgspread","uncletopia"],"game_id":440,"stv_port":27026,"stv_name":"Uncletopia | Frankfurt | 2 | All Maps | STV","players":null},{"server_id":308,"name":"Uncletopia | Frankfurt | 3 | All Maps","name_short":"frk-3","host":"frk-1.de.uncletopia.com","port":27035,"enabled":true,"region":"eu","cc":"de","latitude":50.110924,"longitude":8.682127,"reserved":0,"last_update":"0001-01-01T00:00:00Z","name_a2s":"Uncletopia | Frankfurt | 3 | All Maps","protocol":17,"map":"pl_swiftwater_final1","folder":"tf","game":"Team Fortress","app_id":440,"player_count":0,"max_players":24,"Bots":0,"server_type":"Dedicated","server_os":"Linux","password":true,"vac":true,"version":"7757534","steam_id":85568392924504274,"keywords":["nocrits","nodmgspread","payload","uncletopia"],"game_id":440,"stv_port":27036,"stv_name":"Uncletopia | Frankfurt | 3 | All Maps | STV","players":null},{"server_id":309,"name":"Uncletopia | Frankfurt | 4 | All Maps","name_short":"frk-4","host":"frk-1.de.uncletopia.com","port":27045,"enabled":true,"region":"eu","cc":"de","latitude":50.110924,"longitude":8.682127,"reserved":0,"last_update":"0001-01-01T00:00:00Z","name_a2s":"Uncletopia | Frankfurt | 4 | All Maps","protocol":17,"map":"koth_viaduct","folder":"tf","game":"Team Fortress","app_id":440,"player_count":0,"max_players":24,"Bots":0,"server_type":"Dedicated","server_os":"Linux","password":true,"vac":true,"version":"7757534","steam_id":85568392924504275,"keywords":["cp","nocrits","nodmgspread","uncletopia"],"game_id":440,"stv_port":27046,"stv_name":"Uncletopia | Frankfurt | 4 | All Maps | STV","players":null},{"server_id":310,"name":"Uncletopia | Frankfurt | 5 | All Maps","name_short":"frk-5","host":"frk-1.de.uncletopia.com","port":27055,"enabled":true,"region":"eu","cc":"de","latitude":50.110924,"longitude":8.682127,"reserved":0,"last_update":"0001-01-01T00:00:00Z","name_a2s":"Uncletopia | Frankfurt | 5 | All Maps","protocol":17,"map":"koth_lakeside_final","folder":"tf","game":"Team Fortress","app_id":440,"player_count":0,"max_players":24,"Bots":0,"server_type":"Dedicated","server_os":"Linux","password":true,"vac":true,"version":"7757534","steam_id":85568392924504277,"keywords":["cp","nocrits","nodmgspread","uncletopia"],"game_id":440,"stv_port":27056,"stv_name":"Uncletopia | Frankfurt | 5 | All Maps | STV","players":null},{"server_id":311,"name":"Uncletopia | Frankfurt | 6 | All Maps","name_short":"frk-6","host":"frk-1.de.uncletopia.com","port":27065,"enabled":true,"region":"eu","cc":"de","latitude":50.110924,"longitude":8.682127,"reserved":0,"last_update":"0001-01-01T00:00:00Z","name_a2s":"Uncletopia | Frankfurt | 6 | All Maps","protocol":17,"map":"pl_frontier_final","folder":"tf","game":"Team Fortress","app_id":440,"player_count":0,"max_players":24,"Bots":0,"server_type":"Dedicated","server_os":"Linux","password":true,"vac":true,"version":"7757534","steam_id":85568392924504278,"keywords":["nocrits","nodmgspread","payload","uncletopia"],"game_id":440,"stv_port":27066,"stv_name":"Uncletopia | Frankfurt | 6 | All Maps | STV","players":null},{"server_id":23,"name":"Uncletopia | Frankfurt | 7 | Stopwatch Beta","name_short":"frk-7","host":"frk-1.de.uncletopia.com","port":27075,"enabled":true,"region":"eu","cc":"de","latitude":50.110924,"longitude":8.682127,"reserved":0,"last_update":"0001-01-01T00:00:00Z","name_a2s":"Uncletopia | Frankfurt | 7 | Stopwatch Beta","protocol":17,"map":"koth_lakeside_final","folder":"tf","game":"Team Fortress","app_id":440,"player_count":0,"max_players":24,"Bots":0,"server_type":"Dedicated","server_os":"Linux","password":true,"vac":true,"version":"7757534","steam_id":85568392924742827,"keywords":["cp","nocrits","nodmgspread","uncletopia"],"game_id":440,"stv_port":27076,"stv_name":"Uncletopia | Frankfurt | 7 | Stopwatch Beta | STV","players":null},{"server_id":24,"name":"Uncletopia | Frankfurt | 8 | Community","name_short":"frk-8","host":"frk-1.de.uncletopia.com","port":27085,"enabled":true,"region":"eu","cc":"de","latitude":50.110924,"longitude":8.682127,"reserved":0,"last_update":"0001-01-01T00:00:00Z","name_a2s":"Uncletopia | Frankfurt | 8 | Community","protocol":17,"map":"koth_lakeside_final","folder":"tf","game":"Team Fortress","app_id":440,"player_count":0,"max_players":24,"Bots":0,"server_type":"Dedicated","server_os":"Linux","password":true,"vac":true,"version":"7757534","steam_id":85568392924742828,"keywords":["cp","nocrits","nodmgspread","uncletopia"],"game_id":440,"stv_port":27086,"stv_name":"Uncletopia | Frankfurt | 8 | Community | STV","players":null},{"server_id":202,"name":"Uncletopia | Hong Kong | 1 | All Maps","name_short":"hgk-1","host":"hgk-1.hk.uncletopia.com","port":27015,"enabled":true,"region":"asia","cc":"hk","latitude":22.302711,"longitude":114.177216,"reserved":0,"last_update":"0001-01-01T00:00:00Z","name_a2s":"Uncletopia | Hong Kong | 1 | All Maps","protocol":17,"map":"pl_barnblitz","folder":"tf","game":"Team Fortress","app_id":440,"player_count":24,"max_players":24,"Bots":0,"server_type":"Dedicated","server_os":"Linux","password":true,"vac":true,"version":"7757534","steam_id":85568392924494504,"keywords":["nocrits","nodmgspread","payload","uncletopia"],"game_id":440,"stv_port":27016,"stv_name":"Uncletopia | Hong Kong | 1 | All Maps | STV","players":[{"user_id":184,"name":"Sover blw.tf","steam_id":76561198136347837,"connected_time":1425000000000,"state":"active","ping":75},{"user_id":176,"name":"Mahoxen","steam_id":76561199121861959,"connected_time":2058000000000,"state":"active","ping":89},{"user_id":185,"name":"rez","steam_id":76561198971313809,"connected_time":1350000000000,"state":"active","ping":81},{"user_id":186,"name":"quake","steam_id":76561199000482422,"connected_time":1264000000000,"state":"active","ping":114},{"user_id":145,"name":"vintage","steam_id":76561198230213828,"connected_time":4005000000000,"state":"active","ping":122},{"user_id":171,"name":"brainless bozo","steam_id":76561198055553140,"connected_time":2183000000000,"state":"active","ping":74},{"user_id":177,"name":"David Keithson","steam_id":76561199279393636,"connected_time":1865000000000,"state":"active","ping":90},{"user_id":182,"name":"Puddin","steam_id":76561198140052918,"connected_time":1601000000000,"state":"active","ping":99},{"user_id":187,"name":"Dolla","steam_id":76561199401233865,"connected_time":1224000000000,"state":"active","ping":56},{"user_id":191,"name":"dalkom(たるこｍ）","steam_id":76561198162496327,"connected_time":1083000000000,"state":"active","ping":100},{"user_id":181,"name":"bruh","steam_id":76561199068229379,"connected_time":1702000000000,"state":"active","ping":55},{"user_id":172,"name":"17","steam_id":76561198241530712,"connected_time":2159000000000,"state":"active","ping":59},{"user_id":188,"name":"いにんでした","steam_id":76561198033140639,"connected_time":1195000000000,"state":"active","ping":112},{"user_id":196,"name":"9Д6","steam_id":76561198124697322,"connected_time":878000000000,"state":"active","ping":91},{"user_id":104,"name":"silverhouse7","steam_id":76561198349634906,"connected_time":8188000000000,"state":"active","ping":94},{"user_id":160,"name":"쿠키","steam_id":76561197997220367,"connected_time":2943000000000,"state":"active","ping":52},{"user_id":192,"name":"Fluffy","steam_id":76561198316671856,"connected_time":1066000000000,"state":"active","ping":105},{"user_id":112,"name":"帕","steam_id":76561198439343999,"connected_time":7427000000000,"state":"active","ping":144},{"user_id":194,"name":"Aiko Kanata Zhenco","steam_id":76561199262955185,"connected_time":957000000000,"state":"active","ping":122},{"user_id":164,"name":"♱ ルーナ ♱","steam_id":76561199020745258,"connected_time":2484000000000,"state":"active","ping":85},{"user_id":193,"name":"Noire JAS","steam_id":76561198133877274,"connected_time":1060000000000,"state":"active","ping":104},{"user_id":168,"name":"Mega 00F","steam_id":76561198962485791,"connected_time":2360000000000,"state":"active","ping":134},{"user_id":195,"name":"GENZON","steam_id":76561199088673202,"connected_time":945000000000,"state":"active","ping":160},{"user_id":166,"name":"Momoxhien","steam_id":76561198414997429,"connected_time":2434000000000,"state":"active","ping":65}]},{"server_id":1,"name":"Uncletopia | Los Angeles | 1 | All Maps","name_short":"lax-1","host":"lax-1.us.uncletopia.com","port":27015,"enabled":true,"region":"us-west","cc":"us","latitude":33.94279,"longitude":-118.41004,"reserved":0,"last_update":"0001-01-01T00:00:00Z","name_a2s":"Uncletopia | Los Angeles | 1 | All Maps","protocol":17,"map":"pl_frontier_final","folder":"tf","game":"Team Fortress","app_id":440,"player_count":0,"max_players":24,"Bots":0,"server_type":"Dedicated","server_os":"Linux","password":true,"vac":true,"version":"7757534","steam_id":85568392924469991,"keywords":["nocrits","nodmgspread","payload","uncletopia"],"game_id":440,"stv_port":27016,"stv_name":"Uncletopia | Los Angeles | 1 | All Maps | STV","players":null},{"server_id":112,"name":"Uncletopia | Los Angeles | 2 | All Maps","name_short":"lax-2","host":"lax-1.us.uncletopia.com","port":27025,"enabled":true,"region":"us-west","cc":"us","latitude":33.94279,"longitude":-118.41004,"reserved":0,"last_update":"0001-01-01T00:00:00Z","name_a2s":"Uncletopia | Los Angeles | 2 | All Maps","protocol":17,"map":"koth_viaduct","folder":"tf","game":"Team Fortress","app_id":440,"player_count":0,"max_players":24,"Bots":0,"server_type":"Dedicated","server_os":"Linux","password":true,"vac":true,"version":"7757534","steam_id":85568392924469992,"keywords":["cp","nocrits","nodmgspread","uncletopia"],"game_id":440,"stv_port":27026,"stv_name":"Uncletopia | Los Angeles | 2 | All Maps | STV","players":null},{"server_id":324,"name":"Uncletopia | Los Angeles | 3 | All Maps","name_short":"lax-3","host":"lax-1.us.uncletopia.com","port":27035,"enabled":true,"region":"us-west","cc":"us","latitude":33.94279,"longitude":-118.41004,"reserved":0,"last_update":"0001-01-01T00:00:00Z","name_a2s":"Uncletopia | Los Angeles | 3 | All Maps","protocol":17,"map":"pl_pier","folder":"tf","game":"Team Fortress","app_id":440,"player_count":24,"max_players":24,"Bots":0,"server_type":"Dedicated","server_os":"Linux","password":true,"vac":true,"version":"7757534","steam_id":85568392924510198,"keywords":["nocrits","nodmgspread","payload","uncletopia"],"game_id":440,"stv_port":27036,"stv_name":"Uncletopia | Los Angeles | 3 | All Maps | STV","players":[{"user_id":248,"name":"OH JIMMY I'M HOME #SaveTf2","steam_id":76561198396658806,"connected_time":2106000000000,"state":"active","ping":48},{"user_id":258,"name":"Aquacycle","steam_id":76561198119399190,"connected_time":1692000000000,"state":"active","ping":99},{"user_id":197,"name":"noelle","steam_id":76561198842577534,"connected_time":6786000000000,"state":"active","ping":99},{"user_id":261,"name":"SetAnExample","steam_id":76561198881077447,"connected_time":1536000000000,"state":"active","ping":50},{"user_id":281,"name":"resh","steam_id":76561198239598834,"connected_time":618000000000,"state":"active","ping":105},{"user_id":287,"name":"DuckyCC","steam_id":76561198204224427,"connected_time":18000000000,"state":"spawning","ping":75},{"user_id":264,"name":"Donko Dunkus The 3st","steam_id":76561199063885279,"connected_time":1473000000000,"state":"active","ping":81},{"user_id":251,"name":"ordinaryJoe","steam_id":76561198139822390,"connected_time":2007000000000,"state":"active","ping":62},{"user_id":202,"name":"Xi Jinping BodyPillow","steam_id":76561198864599452,"connected_time":6339000000000,"state":"active","ping":114},{"user_id":239,"name":"Handsome Pete","steam_id":76561198003224229,"connected_time":2367000000000,"state":"active","ping":114},{"user_id":203,"name":"Taco+Taco=Burrito","steam_id":76561198063128663,"connected_time":6169000000000,"state":"active","ping":37},{"user_id":249,"name":"big car","steam_id":76561198067082350,"connected_time":2089000000000,"state":"active","ping":57},{"user_id":284,"name":"Mormon Discoball","steam_id":76561198028006216,"connected_time":240000000000,"state":"active","ping":93},{"user_id":271,"name":"paperclips","steam_id":76561198833984001,"connected_time":1293000000000,"state":"active","ping":54},{"user_id":283,"name":"Saggle","steam_id":76561198056075147,"connected_time":330000000000,"state":"active","ping":186},{"user_id":270,"name":"Da Bird","steam_id":76561198215677985,"connected_time":1305000000000,"state":"active","ping":63},{"user_id":272,"name":"DomoSlomo","steam_id":76561198390962199,"connected_time":1267000000000,"state":"active","ping":53},{"user_id":254,"name":"KnightOfGames","steam_id":76561198080460659,"connected_time":1911000000000,"state":"active","ping":90},{"user_id":233,"name":"Patrick \"Sex Offender\" Star","steam_id":76561198056638070,"connected_time":3921000000000,"state":"active","ping":68},{"user_id":276,"name":"LX-24","steam_id":76561198016168993,"connected_time":1115000000000,"state":"active","ping":77},{"user_id":278,"name":"YellowShade","steam_id":76561198200828527,"connected_time":1095000000000,"state":"active","ping":88},{"user_id":227,"name":"sheep gf \u003c3","steam_id":76561198068189558,"connected_time":4343000000000,"state":"active","ping":58},{"user_id":279,"name":"Reposas","steam_id":76561198058803197,"connected_time":1075000000000,"state":"active","ping":86},{"user_id":286,"name":"porksoda","steam_id":76561198021451377,"connected_time":108000000000,"state":"active","ping":82}]},{"server_id":25,"name":"Uncletopia | Los Angeles | 4 | Stopwatch Beta","name_short":"lax-4","host":"lax-1.us.uncletopia.com","port":27045,"enabled":true,"region":"us-west","cc":"us","latitude":33.94279,"longitude":-118.41004,"reserved":0,"last_update":"0001-01-01T00:00:00Z","name_a2s":"Uncletopia | Los Angeles | 4 | Stopwatch Beta","protocol":17,"map":"pl_swiftwater_final1","folder":"tf","game":"Team Fortress","app_id":440,"player_count":0,"max_players":24,"Bots":0,"server_type":"Dedicated","server_os":"Linux","password":true,"vac":true,"version":"7757534","steam_id":85568392924510199,"keywords":["nocrits","nodmgspread","payload","uncletopia"],"game_id":440,"stv_port":27046,"stv_name":"Uncletopia | Los Angeles | 4 | Stopwatch Beta | STV","players":null},{"server_id":11,"name":"Uncletopia | London | 1 | All Maps","name_short":"lon-1","host":"lon-1.uk.uncletopia.com","port":27015,"enabled":true,"region":"eu","cc":"gb","latitude":51.509865,"longitude":-0.118092,"reserved":0,"last_update":"0001-01-01T00:00:00Z","name_a2s":"Uncletopia | London | 1 | All Maps","protocol":17,"map":"pl_badwater","folder":"tf","game":"Team Fortress","app_id":440,"player_count":25,"max_players":24,"Bots":0,"server_type":"Dedicated","server_os":"Linux","password":true,"vac":true,"version":"7757534","steam_id":85568392924367362,"keywords":["nocrits","nodmgspread","payload","uncletopia"],"game_id":440,"stv_port":27016,"stv_name":"Uncletopia | London | 1 | All Maps | STV","players":[{"user_id":152,"name":"Cagnus Marlsen","steam_id":76561198077859721,"connected_time":1753000000000,"state":"active","ping":60},{"user_id":160,"name":"b_a1Ln","steam_id":76561198135213739,"connected_time":769000000000,"state":"active","ping":90},{"user_id":161,"name":"leave it","steam_id":76561198444036574,"connected_time":656000000000,"state":"active","ping":60},{"user_id":165,"name":"Mac Bean","steam_id":76561198133782205,"connected_time":417000000000,"state":"active","ping":145},{"user_id":167,"name":"Sonnakai","steam_id":76561198051688749,"connected_time":256000000000,"state":"active","ping":40},{"user_id":155,"name":"jD_x2r2","steam_id":76561198061001376,"connected_time":1081000000000,"state":"active","ping":75},{"user_id":150,"name":"AnonTron","steam_id":76561199031895493,"connected_time":1918000000000,"state":"active","ping":146},{"user_id":94,"name":"Anlaki Koszmarek","steam_id":76561198074581818,"connected_time":7159000000000,"state":"active","ping":75},{"user_id":54,"name":"Farao Ramses II","steam_id":76561198078722712,"connected_time":10122000000000,"state":"active","ping":44},{"user_id":154,"name":"Jinx my beloved","steam_id":76561198819986745,"connected_time":1346000000000,"state":"active","ping":113},{"user_id":168,"name":"Destinys","steam_id":76561198056132894,"connected_time":196000000000,"state":"active","ping":70},{"user_id":166,"name":"PeTrAk0S","steam_id":76561198109314762,"connected_time":414000000000,"state":"active","ping":71},{"user_id":157,"name":"jimmy bob","steam_id":76561198319583692,"connected_time":828000000000,"state":"active","ping":60},{"user_id":149,"name":"fat cսnt","steam_id":76561198845550388,"connected_time":1937000000000,"state":"active","ping":107},{"user_id":120,"name":"MatarArg","steam_id":76561198280246498,"connected_time":4464000000000,"state":"active","ping":107},{"user_id":158,"name":"Canis[Magnus]Pectus","steam_id":76561198363775072,"connected_time":827000000000,"state":"active","ping":139},{"user_id":151,"name":"Croffsi","steam_id":76561198079985921,"connected_time":1888000000000,"state":"active","ping":67},{"user_id":126,"name":"-Boomer-","steam_id":76561197970798571,"connected_time":4083000000000,"state":"active","ping":72},{"user_id":93,"name":"killbind irl","steam_id":76561198180637374,"connected_time":7185000000000,"state":"active","ping":94},{"user_id":162,"name":"Corpus Christi","steam_id":76561198417999443,"connected_time":599000000000,"state":"active","ping":105},{"user_id":137,"name":"ayadam","steam_id":76561198161515769,"connected_time":3120000000000,"state":"active","ping":115},{"user_id":144,"name":"Ricky Dicky Doo Dah Grimes","steam_id":76561198160832884,"connected_time":2312000000000,"state":"active","ping":59},{"user_id":163,"name":"Dark ^^","steam_id":76561198036241064,"connected_time":498000000000,"state":"active","ping":70},{"user_id":159,"name":"KAZAM | Tervez","steam_id":76561198045459068,"connected_time":825000000000,"state":"active","ping":88},{"user_id":179,"name":"Sylvanas","steam_id":76561198154904165,"connected_time":4000000000,"state":"spawning","ping":103}]},{"server_id":114,"name":"Uncletopia | London | 2 | All Maps","name_short":"lon-2","host":"lon-1.uk.uncletopia.com","port":27025,"enabled":true,"region":"eu","cc":"gb","latitude":51.509865,"longitude":-0.118092,"reserved":0,"last_update":"0001-01-01T00:00:00Z","name_a2s":"Uncletopia | London | 2 | All Maps","protocol":17,"map":"pl_frontier_final","folder":"tf","game":"Team Fortress","app_id":440,"player_count":19,"max_players":24,"Bots":0,"server_type":"Dedicated","server_os":"Linux","password":true,"vac":true,"version":"7757534","steam_id":85568392924470941,"keywords":["nocrits","nodmgspread","payload","uncletopia"],"game_id":440,"stv_port":27026,"stv_name":"Uncletopia | London | 2 | All Maps | STV","players":[{"user_id":10,"name":"Caliban","steam_id":76561197999696839,"connected_time":3337000000000,"state":"active","ping":114},{"user_id":103,"name":"Серафим","steam_id":76561199091783976,"connected_time":255000000000,"state":"active","ping":72},{"user_id":8,"name":"senior pomidor","steam_id":76561198123659806,"connected_time":3583000000000,"state":"active","ping":95},{"user_id":11,"name":"Pes Patron","steam_id":76561199004923871,"connected_time":2988000000000,"state":"active","ping":103},{"user_id":104,"name":"on1on (fried)","steam_id":76561197995304137,"connected_time":182000000000,"state":"active","ping":70},{"user_id":13,"name":"Heavy","steam_id":76561198419169297,"connected_time":2937000000000,"state":"active","ping":74},{"user_id":105,"name":"anna","steam_id":76561197994492154,"connected_time":141000000000,"state":"active","ping":75},{"user_id":106,"name":"scumbag","steam_id":76561199051731273,"connected_time":75000000000,"state":"active","ping":89},{"user_id":107,"name":"Kirvis","steam_id":76561198027831643,"connected_time":35000000000,"state":"spawning","ping":104},{"user_id":19,"name":"Neimon","steam_id":76561198343485710,"connected_time":2439000000000,"state":"active","ping":116},{"user_id":108,"name":"murderwow","steam_id":76561198024566944,"connected_time":13000000000,"state":"active","ping":114},{"user_id":23,"name":"Uncle Terry","steam_id":76561198396415736,"connected_time":2309000000000,"state":"active","ping":51},{"user_id":99,"name":"Wyxling","steam_id":76561198879766175,"connected_time":420000000000,"state":"active","ping":44},{"user_id":34,"name":"oriano","steam_id":76561198099916327,"connected_time":1986000000000,"state":"active","ping":62},{"user_id":35,"name":"Gait Wink","steam_id":76561198262910410,"connected_time":1982000000000,"state":"active","ping":90},{"user_id":36,"name":"Lyzz","steam_id":76561198103622650,"connected_time":1979000000000,"state":"active","ping":75},{"user_id":37,"name":"Dragon","steam_id":76561198163255365,"connected_time":1950000000000,"state":"active","ping":105},{"user_id":51,"name":"WiiSportKing","steam_id":76561198114139081,"connected_time":1349000000000,"state":"active","ping":52},{"user_id":75,"name":"Crazy Bath Salt Sniffer","steam_id":76561199147501514,"connected_time":1041000000000,"state":"active","ping":72}]},{"server_id":320,"name":"Uncletopia | London | 3 | All Maps","name_short":"lon-3","host":"lon-1.uk.uncletopia.com","port":27035,"enabled":true,"region":"eu","cc":"gb","latitude":51.509865,"longitude":-0.118092,"reserved":0,"last_update":"0001-01-01T00:00:00Z","name_a2s":"Uncletopia | London | 3 | All Maps","protocol":17,"map":"cp_dustbowl","folder":"tf","game":"Team Fortress","app_id":440,"player_count":0,"max_players":24,"Bots":0,"server_type":"Dedicated","server_os":"Linux","password":true,"vac":true,"version":"7757534","steam_id":85568392924510192,"keywords":["cp","nocrits","nodmgspread","uncletopia"],"game_id":440,"stv_port":27036,"stv_name":"Uncletopia | London | 3 | All Maps | STV","players":null},{"server_id":321,"name":"Uncletopia | London | 4 | All Maps","name_short":"lon-4","host":"lon-1.uk.uncletopia.com","port":27045,"enabled":true,"region":"eu","cc":"gb","latitude":51.509865,"longitude":-0.118092,"reserved":0,"last_update":"0001-01-01T00:00:00Z","name_a2s":"Uncletopia | London | 4 | All Maps","protocol":17,"map":"cp_dustbowl","folder":"tf","game":"Team Fortress","app_id":440,"player_count":0,"max_players":24,"Bots":0,"server_type":"Dedicated","server_os":"Linux","password":true,"vac":true,"version":"7757534","steam_id":85568392924510193,"keywords":["cp","nocrits","nodmgspread","uncletopia"],"game_id":440,"stv_port":27046,"stv_name":"Uncletopia | London | 4 | All Maps | STV","players":null},{"server_id":21,"name":"Uncletopia | London | 5 | All Maps","name_short":"lon-5","host":"lon-1.uk.uncletopia.com","port":27055,"enabled":true,"region":"eu","cc":"gb","latitude":51.509865,"longitude":-0.118092,"reserved":0,"last_update":"0001-01-01T00:00:00Z","name_a2s":"Uncletopia | London | 5 | All Maps","protocol":17,"map":"cp_altitude","folder":"tf","game":"Team Fortress","app_id":440,"player_count":0,"max_players":24,"Bots":0,"server_type":"Dedicated","server_os":"Linux","password":true,"vac":true,"version":"7757534","steam_id":85568392924742829,"keywords":["cp","nocrits","nodmgspread","uncletopia"],"game_id":440,"stv_port":27056,"stv_name":"Uncletopia | London | 5 | All Maps | STV","players":null},{"server_id":22,"name":"Uncletopia | London | 6 | All Maps","name_short":"lon-6","host":"lon-1.uk.uncletopia.com","port":27065,"enabled":true,"region":"eu","cc":"gb","latitude":51.509865,"longitude":-0.118092,"reserved":0,"last_update":"0001-01-01T00:00:00Z","name_a2s":"Uncletopia | London | 6 | All Maps","protocol":17,"map":"cp_mountainlab","folder":"tf","game":"Team Fortress","app_id":440,"player_count":0,"max_players":24,"Bots":0,"server_type":"Dedicated","server_os":"Linux","password":true,"vac":true,"version":"7757534","steam_id":85568392924742830,"keywords":["cp","nocrits","nodmgspread","uncletopia"],"game_id":440,"stv_port":27066,"stv_name":"Uncletopia | London | 6 | All Maps | STV","players":null},{"server_id":40,"name":"Uncletopia | London | 7 | No Payload","name_short":"lon-7","host":"lon-1.uk.uncletopia.com","port":27075,"enabled":true,"region":"eu","cc":"gb","latitude":51.509865,"longitude":-0.118092,"reserved":0,"last_update":"0001-01-01T00:00:00Z","name_a2s":"Uncletopia | London | 7 | No Payload","protocol":17,"map":"cp_junction_final","folder":"tf","game":"Team Fortress","app_id":440,"player_count":0,"max_players":24,"Bots":0,"server_type":"Dedicated","server_os":"Linux","password":true,"vac":true,"version":"7757534","steam_id":85568392924964314,"keywords":["cp","nocrits","nodmgspread","uncletopia"],"game_id":440,"stv_port":27076,"stv_name":"Uncletopia | London | 7 | No Payload | STV","players":null},{"server_id":41,"name":"Uncletopia | London | 8 | Community","name_short":"lon-8","host":"lon-1.uk.uncletopia.com","port":27085,"enabled":true,"region":"eu","cc":"gb","latitude":51.509865,"longitude":-0.118092,"reserved":0,"last_update":"0001-01-01T00:00:00Z","name_a2s":"Uncletopia | London | 8 | Community","protocol":17,"map":"pl_barnblitz","folder":"tf","game":"Team Fortress","app_id":440,"player_count":0,"max_players":24,"Bots":0,"server_type":"Dedicated","server_os":"Linux","password":true,"vac":true,"version":"7757534","steam_id":85568392924964315,"keywords":["nocrits","nodmgspread","payload","uncletopia"],"game_id":440,"stv_port":27086,"stv_name":"Uncletopia | London | 8 | Community | STV","players":null},{"server_id":300,"name":"Uncletopia | Montréal | 1 | All Maps","name_short":"mtl-1","host":"mtl-1.ca.uncletopia.com","port":27015,"enabled":true,"region":"us-east","cc":"ca","latitude":45.50889,"longitude":-73.56167,"reserved":0,"last_update":"0001-01-01T00:00:00Z","name_a2s":"Uncletopia | Montréal | 1 | All Maps","protocol":17,"map":"koth_cascade","folder":"tf","game":"Team Fortress","app_id":440,"player_count":0,"max_players":24,"Bots":0,"server_type":"Dedicated","server_os":"Linux","password":true,"vac":true,"version":"7757534","steam_id":85568392924500087,"keywords":["cp","nocrits","nodmgspread","uncletopia"],"game_id":440,"stv_port":27016,"stv_name":"Uncletopia | Montréal | 1 | All Maps | STV","players":null},{"server_id":301,"name":"Uncletopia | Montréal | 2 | All Maps","name_short":"mtl-2","host":"mtl-1.ca.uncletopia.com","port":27025,"enabled":true,"region":"us-east","cc":"ca","latitude":45.50889,"longitude":-73.56167,"reserved":0,"last_update":"0001-01-01T00:00:00Z","name_a2s":"Uncletopia | Montréal | 2 | All Maps","protocol":17,"map":"cp_egypt_final","folder":"tf","game":"Team Fortress","app_id":440,"player_count":0,"max_players":24,"Bots":0,"server_type":"Dedicated","server_os":"Linux","password":true,"vac":true,"version":"7757534","steam_id":85568392924500088,"keywords":["cp","nocrits","nodmgspread","uncletopia"],"game_id":440,"stv_port":27026,"stv_name":"Uncletopia | Montréal | 2 | All Maps | STV","players":null},{"server_id":302,"name":"Uncletopia | Montréal | 3 | All Maps","name_short":"mtl-3","host":"mtl-1.ca.uncletopia.com","port":27035,"enabled":true,"region":"us-east","cc":"ca","latitude":45.50889,"longitude":-73.56167,"reserved":0,"last_update":"0001-01-01T00:00:00Z","name_a2s":"Uncletopia | Montréal | 3 | All Maps","protocol":17,"map":"cp_snakewater_final1","folder":"tf","game":"Team Fortress","app_id":440,"player_count":0,"max_players":24,"Bots":0,"server_type":"Dedicated","server_os":"Linux","password":true,"vac":true,"version":"7757534","steam_id":85568392924500089,"keywords":["cp","nocrits","nodmgspread","uncletopia"],"game_id":440,"stv_port":27036,"stv_name":"Uncletopia | Montréal | 3 | All Maps | STV","players":null},{"server_id":303,"name":"Uncletopia | Montréal | 4 | No Payload","name_short":"mtl-4","host":"mtl-1.ca.uncletopia.com","port":27045,"enabled":true,"region":"us-east","cc":"ca","latitude":45.50889,"longitude":-73.56167,"reserved":0,"last_update":"0001-01-01T00:00:00Z","name_a2s":"Uncletopia | Montréal | 4 | No Payload","protocol":17,"map":"cp_snakewater_final1","folder":"tf","game":"Team Fortress","app_id":440,"player_count":0,"max_players":24,"Bots":0,"server_type":"Dedicated","server_os":"Linux","password":true,"vac":true,"version":"7757534","steam_id":85568392924500090,"keywords":["cp","nocrits","nodmgspread","uncletopia"],"game_id":440,"stv_port":27046,"stv_name":"Uncletopia | Montréal | 4 | No Payload | STV","players":null},{"server_id":13,"name":"Uncletopia | New York City | 1 | All Maps","name_short":"nyc-1","host":"nyc-1.us.uncletopia.com","port":27015,"enabled":true,"region":"us-east","cc":"us","latitude":40.73061,"longitude":-73.93524,"reserved":0,"last_update":"0001-01-01T00:00:00Z","name_a2s":"Uncletopia | New York City | 1 | All Maps","protocol":17,"map":"koth_cascade","folder":"tf","game":"Team Fortress","app_id":440,"player_count":0,"max_players":24,"Bots":0,"server_type":"Dedicated","server_os":"Linux","password":true,"vac":true,"version":"7757534","steam_id":85568392924469993,"keywords":["cp","nocrits","nodmgspread","uncletopia"],"game_id":440,"stv_port":27016,"stv_name":"Uncletopia | New York City | 1 | All Maps | STV","players":null},{"server_id":14,"name":"Uncletopia | New York City | 2 | All Maps","name_short":"nyc-2","host":"nyc-1.us.uncletopia.com","port":27025,"enabled":true,"region":"us-east","cc":"us","latitude":40.73061,"longitude":-73.93524,"reserved":0,"last_update":"0001-01-01T00:00:00Z","name_a2s":"Uncletopia | New York City | 2 | All Maps","protocol":17,"map":"koth_viaduct","folder":"tf","game":"Team Fortress","app_id":440,"player_count":0,"max_players":24,"Bots":0,"server_type":"Dedicated","server_os":"Linux","password":true,"vac":true,"version":"7757534","steam_id":85568392924469994,"keywords":["cp","nocrits","nodmgspread","uncletopia"],"game_id":440,"stv_port":27026,"stv_name":"Uncletopia | New York City | 2 | All Maps | STV","players":null},{"server_id":15,"name":"Uncletopia | New York City | 3 | Stopwatch Beta","name_short":"nyc-3","host":"nyc-1.us.uncletopia.com","port":27035,"enabled":true,"region":"us-east","cc":"us","latitude":40.73061,"longitude":-73.93524,"reserved":0,"last_update":"0001-01-01T00:00:00Z","name_a2s":"Uncletopia | New York City | 3 | Stopwatch Beta","protocol":17,"map":"pl_upward","folder":"tf","game":"Team Fortress","app_id":440,"player_count":0,"max_players":24,"Bots":0,"server_type":"Dedicated","server_os":"Linux","password":true,"vac":true,"version":"7757534","steam_id":85568392924742820,"keywords":["nocrits","nodmgspread","payload","uncletopia"],"game_id":440,"stv_port":27036,"stv_name":"Uncletopia | New York City | 3 | Stopwatch Beta | STV","players":null},{"server_id":16,"name":"Uncletopia | New York City | 4 | Community","name_short":"nyc-4","host":"nyc-1.us.uncletopia.com","port":27045,"enabled":true,"region":"us-east","cc":"us","latitude":40.73061,"longitude":-73.93524,"reserved":0,"last_update":"0001-01-01T00:00:00Z","name_a2s":"Uncletopia | New York City | 4 | Community","protocol":17,"map":"workshop/koth_slaughter_rc1.ugc1712845210","folder":"tf","game":"Team Fortress","app_id":440,"player_count":0,"max_players":24,"Bots":0,"server_type":"Dedicated","server_os":"Linux","password":true,"vac":true,"version":"7757534","steam_id":85568392924742821,"keywords":["cp","nocrits","nodmgspread","uncletopia"],"game_id":440,"stv_port":27046,"stv_name":"Uncletopia | New York City | 4 | Community | STV","players":null},{"server_id":142,"name":"Uncletopia | São Paulo | 1 | All Maps","name_short":"sao-1","host":"sao-1.br.uncletopia.com","port":27015,"enabled":true,"region":"sa","cc":"br","latitude":-23.533773,"longitude":-46.62529,"reserved":0,"last_update":"0001-01-01T00:00:00Z","name_a2s":"Uncletopia | São Paulo | 1 | All Maps","protocol":17,"map":"koth_lakeside_final","folder":"tf","game":"Team Fortress","app_id":440,"player_count":0,"max_players":24,"Bots":0,"server_type":"Dedicated","server_os":"Linux","password":true,"vac":true,"version":"7757534","steam_id":85568392924469996,"keywords":["cp","nocrits","nodmgspread","uncletopia"],"game_id":440,"stv_port":27016,"stv_name":"Uncletopia | São Paulo | 1 | All Maps | STV","players":null},{"server_id":143,"name":"Uncletopia | São Paulo | 2 | All Maps","name_short":"sao-2","host":"sao-2.br.uncletopia.com","port":27015,"enabled":true,"region":"sa","cc":"br","latitude":-23.533773,"longitude":-46.62529,"reserved":0,"last_update":"0001-01-01T00:00:00Z","name_a2s":"Uncletopia | São Paulo | 2 | All Maps","protocol":17,"map":"pl_borneo","folder":"tf","game":"Team Fortress","app_id":440,"player_count":0,"max_players":24,"Bots":0,"server_type":"Dedicated","server_os":"Linux","password":true,"vac":true,"version":"7757534","steam_id":85568392924485349,"keywords":["nocrits","nodmgspread","payload","uncletopia"],"game_id":440,"stv_port":27016,"stv_name":"Uncletopia | São Paulo | 2 | All Maps | STV","players":null},{"server_id":7,"name":"Uncletopia | Seattle | 1 | All Maps","name_short":"sea-1","host":"sea-1.us.uncletopia.com","port":27015,"enabled":true,"region":"us-west","cc":"us","latitude":47.608013,"longitude":-122.33517,"reserved":0,"last_update":"0001-01-01T00:00:00Z","name_a2s":"Uncletopia | Seattle | 1 | All Maps","protocol":17,"map":"pl_badwater","folder":"tf","game":"Team Fortress","app_id":440,"player_count":24,"max_players":24,"Bots":0,"server_type":"Dedicated","server_os":"Linux","password":true,"vac":true,"version":"7757534","steam_id":85568392924469997,"keywords":["nocrits","nodmgspread","payload","uncletopia"],"game_id":440,"stv_port":27016,"stv_name":"Uncletopia | Seattle | 1 | All Maps | STV","players":[{"user_id":1013,"name":"ʀ.ʚɞ.","steam_id":76561198029580420,"connected_time":833000000000,"state":"active","ping":169},{"user_id":909,"name":"[TrC] Dackstrus","steam_id":76561197973518509,"connected_time":5306000000000,"state":"active","ping":56},{"user_id":1016,"name":"goldhed","steam_id":76561198051751133,"connected_time":718000000000,"state":"active","ping":58},{"user_id":979,"name":"killette","steam_id":76561198002521217,"connected_time":1735000000000,"state":"active","ping":71},{"user_id":988,"name":"Littlepsycho","steam_id":76561198004625903,"connected_time":1261000000000,"state":"active","ping":96},{"user_id":910,"name":"[TrC] Nosy","steam_id":76561197978859310,"connected_time":5258000000000,"state":"active","ping":59},{"user_id":1028,"name":"SpecialForce19","steam_id":76561198120974644,"connected_time":136000000000,"state":"active","ping":121},{"user_id":963,"name":"beep beep","steam_id":76561198149443710,"connected_time":2525000000000,"state":"active","ping":85},{"user_id":1017,"name":"Glue","steam_id":76561198047931749,"connected_time":712000000000,"state":"active","ping":78},{"user_id":977,"name":"self sufficient kitten","steam_id":76561197960592612,"connected_time":1748000000000,"state":"active","ping":51},{"user_id":1010,"name":"abcd","steam_id":76561198086331856,"connected_time":872000000000,"state":"active","ping":84},{"user_id":1026,"name":"CasemanTheBlondeBear","steam_id":76561198144862404,"connected_time":230000000000,"state":"active","ping":60},{"user_id":1027,"name":"tr","steam_id":76561198046944222,"connected_time":208000000000,"state":"active","ping":45},{"user_id":1023,"name":"Kite","steam_id":76561199060915563,"connected_time":486000000000,"state":"active","ping":125},{"user_id":1024,"name":"DMAFGreatoverlordSchikonmaster","steam_id":76561198123510618,"connected_time":346000000000,"state":"active","ping":59},{"user_id":990,"name":"checking out that gaming","steam_id":76561198211677460,"connected_time":1142000000000,"state":"active","ping":108},{"user_id":991,"name":"muffinman12126","steam_id":76561199471924109,"connected_time":1132000000000,"state":"active","ping":71},{"user_id":968,"name":"Rinka","steam_id":76561198973856312,"connected_time":2042000000000,"state":"active","ping":75},{"user_id":1006,"name":"bootyzillaᴸᴮᴴ","steam_id":76561198322206140,"connected_time":887000000000,"state":"active","ping":64},{"user_id":1001,"name":"iphone 7 plus","steam_id":76561198335836405,"connected_time":982000000000,"state":"active","ping":74},{"user_id":1007,"name":"Bubblegum Tip","steam_id":76561198048131308,"connected_time":885000000000,"state":"active","ping":71},{"user_id":929,"name":"pinglefingle","steam_id":76561198216580197,"connected_time":4079000000000,"state":"active","ping":117},{"user_id":960,"name":"domino","steam_id":76561198066114874,"connected_time":2953000000000,"state":"active","ping":53},{"user_id":995,"name":"Puma4realthistime","steam_id":76561198845576798,"connected_time":1088000000000,"state":"active","ping":98}]},{"server_id":119,"name":"Uncletopia | Seattle | 2 | All Maps","name_short":"sea-2","host":"sea-1.us.uncletopia.com","port":27025,"enabled":true,"region":"us-west","cc":"us","latitude":47.608013,"longitude":-122.33517,"reserved":0,"last_update":"0001-01-01T00:00:00Z","name_a2s":"Uncletopia | Seattle | 2 | All Maps","protocol":17,"map":"koth_viaduct","folder":"tf","game":"Team Fortress","app_id":440,"player_count":0,"max_players":24,"Bots":0,"server_type":"Dedicated","server_os":"Linux","password":true,"vac":true,"version":"7757534","steam_id":85568392924469998,"keywords":["cp","nocrits","nodmgspread","uncletopia"],"game_id":440,"stv_port":27026,"stv_name":"Uncletopia | Seattle | 2 | All Maps | STV","players":null},{"server_id":406,"name":"Uncletopia | Seattle | 3 | Stopwatch Beta","name_short":"sea-3","host":"sea-1.us.uncletopia.com","port":27035,"enabled":true,"region":"us-west","cc":"us","latitude":47.608013,"longitude":-122.33517,"reserved":0,"last_update":"0001-01-01T00:00:00Z","name_a2s":"Uncletopia | Seattle | 3 | Stopwatch Beta","protocol":17,"map":"workshop/koth_ashville_final.ugc2130459942","folder":"tf","game":"Team Fortress","app_id":440,"player_count":0,"max_players":24,"Bots":0,"server_type":"Dedicated","server_os":"Linux","password":true,"vac":true,"version":"7757534","steam_id":85568392924515217,"keywords":["cp","nocrits","nodmgspread","uncletopia"],"game_id":440,"stv_port":27036,"stv_name":"Uncletopia | Seattle | 3 | Stopwatch Beta | STV","players":null},{"server_id":17,"name":"Uncletopia | San Francisco | 1 | All Maps","name_short":"sfo-1","host":"sfo-1.us.uncletopia.com","port":27015,"enabled":true,"region":"us-west","cc":"us","latitude":37.77397,"longitude":-122.4313,"reserved":0,"last_update":"0001-01-01T00:00:00Z","name_a2s":"Uncletopia | San Francisco | 1 | All Maps","protocol":17,"map":"cp_sunshine","folder":"tf","game":"Team Fortress","app_id":440,"player_count":24,"max_players":24,"Bots":0,"server_type":"Dedicated","server_os":"Linux","password":true,"vac":true,"version":"7757534","steam_id":85568392924469999,"keywords":["cp","nocrits","nodmgspread","uncletopia"],"game_id":440,"stv_port":27016,"stv_name":"Uncletopia | San Francisco | 1 | All Maps | STV","players":[{"user_id":916,"name":"going beastmode","steam_id":76561198105374054,"connected_time":2771000000000,"state":"active","ping":75},{"user_id":911,"name":"veldt","steam_id":76561198056135308,"connected_time":2852000000000,"state":"active","ping":98},{"user_id":931,"name":"Louie","steam_id":76561198195963114,"connected_time":1889000000000,"state":"active","ping":77},{"user_id":923,"name":"BurryFalls","steam_id":76561199122289629,"connected_time":2270000000000,"state":"active","ping":90},{"user_id":924,"name":"Galalendon","steam_id":76561198055771198,"connected_time":2239000000000,"state":"active","ping":80},{"user_id":938,"name":"reverie","steam_id":76561198168158637,"connected_time":1053000000000,"state":"active","ping":69},{"user_id":919,"name":"Karen","steam_id":76561198309442440,"connected_time":2717000000000,"state":"active","ping":84},{"user_id":860,"name":"Mub","steam_id":76561198356426602,"connected_time":8203000000000,"state":"active","ping":45},{"user_id":905,"name":"Gay Cake","steam_id":76561198004388831,"connected_time":3625000000000,"state":"active","ping":104},{"user_id":909,"name":"façade","steam_id":76561199157009256,"connected_time":3319000000000,"state":"active","ping":43},{"user_id":947,"name":"Blue Eyes Ace Dragon.","steam_id":76561198048214237,"connected_time":267000000000,"state":"active","ping":106},{"user_id":930,"name":"help me","steam_id":76561198844273999,"connected_time":1972000000000,"state":"active","ping":63},{"user_id":945,"name":"yawn","steam_id":76561198067753179,"connected_time":697000000000,"state":"active","ping":82},{"user_id":939,"name":"NETRO","steam_id":76561198238207170,"connected_time":1045000000000,"state":"active","ping":121},{"user_id":948,"name":"oil","steam_id":76561198099980149,"connected_time":81000000000,"state":"active","ping":60},{"user_id":886,"name":"Yosh","steam_id":76561198027078899,"connected_time":5448000000000,"state":"active","ping":101},{"user_id":941,"name":"zig","steam_id":76561199020345303,"connected_time":958000000000,"state":"active","ping":71},{"user_id":900,"name":"Yume","steam_id":76561198018060136,"connected_time":4047000000000,"state":"active","ping":96},{"user_id":942,"name":"brian","steam_id":76561198879205905,"connected_time":950000000000,"state":"active","ping":67},{"user_id":891,"name":"SanitysEdge","steam_id":76561198130732813,"connected_time":5113000000000,"state":"active","ping":55},{"user_id":918,"name":"-ThiccMarcos","steam_id":76561198277151165,"connected_time":2760000000000,"state":"active","ping":86},{"user_id":937,"name":"Antzen","steam_id":76561198041343470,"connected_time":1611000000000,"state":"active","ping":57},{"user_id":943,"name":"Road 2 Flare Jesus","steam_id":76561198851536991,"connected_time":949000000000,"state":"active","ping":62},{"user_id":944,"name":"Zeubiess","steam_id":76561198074392917,"connected_time":937000000000,"state":"active","ping":71}]},{"server_id":18,"name":"Uncletopia | San Francisco | 2 | All Maps","name_short":"sfo-2","host":"sfo-1.us.uncletopia.com","port":27025,"enabled":true,"region":"us-west","cc":"us","latitude":37.77397,"longitude":-122.4313,"reserved":0,"last_update":"0001-01-01T00:00:00Z","name_a2s":"Uncletopia | San Francisco | 2 | All Maps","protocol":17,"map":"pl_snowycoast","folder":"tf","game":"Team Fortress","app_id":440,"player_count":0,"max_players":24,"Bots":0,"server_type":"Dedicated","server_os":"Linux","password":true,"vac":true,"version":"7757534","steam_id":85568392924470000,"keywords":["nocrits","nodmgspread","payload","uncletopia"],"game_id":440,"stv_port":27026,"stv_name":"Uncletopia | San Francisco | 2 | All Maps | STV","players":null},{"server_id":19,"name":"Uncletopia | San Francisco | 3 | Stopwatch Beta","name_short":"sfo-3","host":"sfo-1.us.uncletopia.com","port":27035,"enabled":true,"region":"us-west","cc":"us","latitude":37.77397,"longitude":-122.4313,"reserved":0,"last_update":"0001-01-01T00:00:00Z","name_a2s":"Uncletopia | San Francisco | 3 | Stopwatch Beta","protocol":17,"map":"workshop/koth_clearcut_b15.ugc2107050255","folder":"tf","game":"Team Fortress","app_id":440,"player_count":0,"max_players":24,"Bots":0,"server_type":"Dedicated","server_os":"Linux","password":true,"vac":true,"version":"7757534","steam_id":85568392924742824,"keywords":["cp","nocrits","nodmgspread","uncletopia"],"game_id":440,"stv_port":27036,"stv_name":"Uncletopia | San Francisco | 3 | Stopwatch Beta | STV","players":null},{"server_id":20,"name":"Uncletopia | San Francisco | 4 | Community","name_short":"sfo-4","host":"sfo-1.us.uncletopia.com","port":27045,"enabled":true,"region":"us-west","cc":"us","latitude":37.77397,"longitude":-122.4313,"reserved":0,"last_update":"0001-01-01T00:00:00Z","name_a2s":"Uncletopia | San Francisco | 4 | Community","protocol":17,"map":"workshop/koth_product_final.ugc454272353","folder":"tf","game":"Team Fortress","app_id":440,"player_count":0,"max_players":24,"Bots":0,"server_type":"Dedicated","server_os":"Linux","password":true,"vac":true,"version":"7757534","steam_id":85568392924742826,"keywords":["cp","nocrits","nodmgspread","uncletopia"],"game_id":440,"stv_port":27046,"stv_name":"Uncletopia | San Francisco | 4 | Community | STV","players":null},{"server_id":141,"name":"Uncletopia | Sydney | 1 | All Maps","name_short":"syd-1","host":"syd-1.au.uncletopia.com","port":27015,"enabled":true,"region":"au","cc":"au","latitude":-33.865143,"longitude":151.2099,"reserved":0,"last_update":"0001-01-01T00:00:00Z","name_a2s":"Uncletopia | Sydney | 1 | All Maps","protocol":17,"map":"pl_barnblitz","folder":"tf","game":"Team Fortress","app_id":440,"player_count":17,"max_players":24,"Bots":0,"server_type":"Dedicated","server_os":"Linux","password":true,"vac":true,"version":"7757534","steam_id":85568392924470001,"keywords":["nocrits","nodmgspread","payload","uncletopia"],"game_id":440,"stv_port":27016,"stv_name":"Uncletopia | Sydney | 1 | All Maps | STV","players":[{"user_id":378,"name":"Del Davis","steam_id":76561199365669004,"connected_time":2934000000000,"state":"active","ping":54},{"user_id":404,"name":"TheChainsaw","steam_id":76561198312001455,"connected_time":1194000000000,"state":"active","ping":281},{"user_id":375,"name":"itsjustmarvin77","steam_id":76561199375656301,"connected_time":3753000000000,"state":"active","ping":75},{"user_id":403,"name":"Marsguard","steam_id":76561198113775091,"connected_time":1460000000000,"state":"active","ping":59},{"user_id":415,"name":"Worst Sniper","steam_id":76561198025733081,"connected_time":219000000000,"state":"active","ping":84},{"user_id":406,"name":"Mr Doctor","steam_id":76561198081415999,"connected_time":779000000000,"state":"active","ping":75},{"user_id":416,"name":"bathtub","steam_id":76561198967804087,"connected_time":176000000000,"state":"active","ping":165},{"user_id":392,"name":"Twelvie","steam_id":76561198164240795,"connected_time":2192000000000,"state":"active","ping":50},{"user_id":414,"name":"das conk creet baybee","steam_id":76561198256416570,"connected_time":332000000000,"state":"active","ping":60},{"user_id":410,"name":"sf/k","steam_id":76561198047758776,"connected_time":595000000000,"state":"active","ping":38},{"user_id":399,"name":"Editor_Billy","steam_id":76561199165608946,"connected_time":1681000000000,"state":"active","ping":60},{"user_id":400,"name":"doctor sex","steam_id":76561199076015267,"connected_time":1666000000000,"state":"active","ping":55},{"user_id":393,"name":"Buggy","steam_id":76561198428251111,"connected_time":2170000000000,"state":"active","ping":69},{"user_id":419,"name":"pos1tve","steam_id":76561199087124672,"connected_time":81000000000,"state":"active","ping":46},{"user_id":412,"name":"biff","steam_id":76561198069603865,"connected_time":458000000000,"state":"active","ping":58},{"user_id":413,"name":"dad","steam_id":76561198063032696,"connected_time":440000000000,"state":"active","ping":59},{"user_id":420,"name":"Fresh Produce Gaming","steam_id":76561198358483352,"connected_time":34000000000,"state":"active","ping":65}]},{"server_id":123,"name":"Uncletopia | Sydney | 2 | All Maps","name_short":"syd-2","host":"syd-1.au.uncletopia.com","port":27025,"enabled":true,"region":"au","cc":"au","latitude":-33.865143,"longitude":151.2099,"reserved":0,"last_update":"0001-01-01T00:00:00Z","name_a2s":"Uncletopia | Sydney | 2 | All Maps","protocol":17,"map":"pl_pier","folder":"tf","game":"Team Fortress","app_id":440,"player_count":24,"max_players":24,"Bots":0,"server_type":"Dedicated","server_os":"Linux","password":true,"vac":true,"version":"7757534","steam_id":85568392924470002,"keywords":["nocrits","nodmgspread","payload","uncletopia"],"game_id":440,"stv_port":27026,"stv_name":"Uncletopia | Sydney | 2 | All Maps | STV","players":[{"user_id":156,"name":"juusha","steam_id":76561198911542330,"connected_time":3822000000000,"state":"active","ping":76},{"user_id":194,"name":"Jetfire","steam_id":76561198047370036,"connected_time":868000000000,"state":"active","ping":67},{"user_id":187,"name":"Cogzy","steam_id":76561198012463402,"connected_time":1411000000000,"state":"active","ping":68},{"user_id":195,"name":"Era","steam_id":76561198862382538,"connected_time":858000000000,"state":"active","ping":49},{"user_id":168,"name":"4-Star Yelp Review","steam_id":76561197995258180,"connected_time":2769000000000,"state":"active","ping":49},{"user_id":91,"name":"Jodelkönig Franzl Lang","steam_id":76561198007667830,"connected_time":6902000000000,"state":"active","ping":55},{"user_id":171,"name":"nojnosbod11","steam_id":76561199176012151,"connected_time":2441000000000,"state":"active","ping":65},{"user_id":188,"name":"Trins","steam_id":76561198040922808,"connected_time":1397000000000,"state":"active","ping":55},{"user_id":199,"name":"HeyHeyItsGreyGrey","steam_id":76561198047955263,"connected_time":124000000000,"state":"active","ping":67},{"user_id":152,"name":"Atner","steam_id":76561198442934454,"connected_time":3948000000000,"state":"active","ping":84},{"user_id":191,"name":"ThirtyTwelve","steam_id":76561199192513554,"connected_time":1003000000000,"state":"active","ping":60},{"user_id":196,"name":"SUCC MY DUCC","steam_id":76561198127068703,"connected_time":216000000000,"state":"active","ping":66},{"user_id":198,"name":"michael","steam_id":76561198052848358,"connected_time":141000000000,"state":"active","ping":55},{"user_id":182,"name":"Sakamata Enthusiast","steam_id":76561199024484350,"connected_time":1625000000000,"state":"active","ping":61},{"user_id":146,"name":"Sentry Gun (EpicGuy4227)","steam_id":76561198094132328,"connected_time":4977000000000,"state":"active","ping":57},{"user_id":174,"name":"Rocky","steam_id":76561199195385481,"connected_time":2093000000000,"state":"active","ping":75},{"user_id":190,"name":"Tнûи∂уяѕ∂.","steam_id":76561197992346511,"connected_time":1242000000000,"state":"active","ping":52},{"user_id":193,"name":"BamBoozled","steam_id":76561199065491364,"connected_time":911000000000,"state":"active","ping":69},{"user_id":192,"name":"cream mated","steam_id":76561198037965602,"connected_time":943000000000,"state":"active","ping":31},{"user_id":200,"name":"the normoaner","steam_id":76561198082423230,"connected_time":118000000000,"state":"active","ping":85},{"user_id":184,"name":"Zoey","steam_id":76561198126153554,"connected_time":1571000000000,"state":"active","ping":70},{"user_id":202,"name":"LET THE INTRUSIVE THOUGHTS WIN","steam_id":76561199174449723,"connected_time":90000000000,"state":"active","ping":155},{"user_id":164,"name":"soupy","steam_id":76561198073734936,"connected_time":3495000000000,"state":"active","ping":89},{"user_id":201,"name":"krandlez` (Any/All)","steam_id":76561198044839726,"connected_time":118000000000,"state":"active","ping":44}]},{"server_id":395,"name":"Uncletopia | Sydney | 3 | All Maps","name_short":"syd-3","host":"syd-1.au.uncletopia.com","port":27035,"enabled":true,"region":"au","cc":"au","latitude":-33.865143,"longitude":151.2099,"reserved":0,"last_update":"0001-01-01T00:00:00Z","name_a2s":"Uncletopia | Sydney | 3 | All Maps","protocol":17,"map":"pl_snowycoast","folder":"tf","game":"Team Fortress","app_id":440,"player_count":0,"max_players":24,"Bots":0,"server_type":"Dedicated","server_os":"Linux","password":true,"vac":true,"version":"7757534","steam_id":85568392925194467,"keywords":["nocrits","nodmgspread","payload","uncletopia"],"game_id":440,"stv_port":27036,"stv_name":"Uncletopia | Sydney | 3 | All Maps | STV","players":null},{"server_id":396,"name":"Uncletopia | Sydney | 4 | All Maps","name_short":"syd-4","host":"syd-1.au.uncletopia.com","port":27045,"enabled":true,"region":"au","cc":"au","latitude":-33.865143,"longitude":151.2099,"reserved":0,"last_update":"0001-01-01T00:00:00Z","name_a2s":"Uncletopia | Sydney | 4 | All Maps","protocol":17,"map":"koth_highpass","folder":"tf","game":"Team Fortress","app_id":440,"player_count":0,"max_players":24,"Bots":0,"server_type":"Dedicated","server_os":"Linux","password":true,"vac":true,"version":"7757534","steam_id":85568392925397958,"keywords":["cp","nocrits","nodmgspread","uncletopia"],"game_id":440,"stv_port":27046,"stv_name":"Uncletopia | Sydney | 4 | All Maps | STV","players":null},{"server_id":58,"name":"Uncletopia | Sydney | 5 | Stopwatch Beta","name_short":"syd-5","host":"syd-1.au.uncletopia.com","port":27055,"enabled":true,"region":"au","cc":"au","latitude":-33.865143,"longitude":151.2099,"reserved":0,"last_update":"0001-01-01T00:00:00Z","name_a2s":"Uncletopia | Sydney | 5 | Stopwatch Beta","protocol":17,"map":"workshop/pl_badwater_pro_v12.ugc2142942074","folder":"tf","game":"Team Fortress","app_id":440,"player_count":0,"max_players":24,"Bots":0,"server_type":"Dedicated","server_os":"Linux","password":true,"vac":true,"version":"7757534","steam_id":85568392925397959,"keywords":["nocrits","nodmgspread","payload","uncletopia"],"game_id":440,"stv_port":27056,"stv_name":"Uncletopia | Sydney | 5 | Stopwatch Beta | STV","players":null},{"server_id":59,"name":"Uncletopia | Sydney | 6 | Community","name_short":"syd-6","host":"syd-1.au.uncletopia.com","port":27065,"enabled":true,"region":"au","cc":"au","latitude":-33.865143,"longitude":151.2099,"reserved":0,"last_update":"0001-01-01T00:00:00Z","name_a2s":"Uncletopia | Sydney | 6 | Community","protocol":17,"map":"cp_snakewater_final1","folder":"tf","game":"Team Fortress","app_id":440,"player_count":0,"max_players":24,"Bots":0,"server_type":"Dedicated","server_os":"Linux","password":true,"vac":true,"version":"7757534","steam_id":85568392925397960,"keywords":["cp","nocrits","nodmgspread","uncletopia"],"game_id":440,"stv_port":27066,"stv_name":"Uncletopia | Sydney | 6 | Community | STV","players":null},{"server_id":49,"name":"Uncletopia | Warsaw | 1 | All Maps","name_short":"waw-1","host":"waw-1.pl.uncletopia.com","port":27015,"enabled":true,"region":"eu","cc":"pl","latitude":52.2297,"longitude":21.017532,"reserved":0,"last_update":"0001-01-01T00:00:00Z","name_a2s":"","protocol":0,"map":"","folder":"","game":"","app_id":0,"player_count":0,"max_players":0,"Bots":0,"server_type":"","server_os":"","password":false,"vac":false,"version":"","steam_id":0,"keywords":null,"game_id":0,"stv_port":0,"stv_name":"","players":null},{"server_id":50,"name":"Uncletopia | Warsaw | 2 | All Maps","name_short":"waw-2","host":"waw-1.pl.uncletopia.com","port":27025,"enabled":true,"region":"eu","cc":"pl","latitude":52.2297,"longitude":21.017532,"reserved":0,"last_update":"0001-01-01T00:00:00Z","name_a2s":"Uncletopia | Warsaw | 2 | All Maps","protocol":17,"map":"koth_viaduct","folder":"tf","game":"Team Fortress","app_id":440,"player_count":0,"max_players":24,"Bots":0,"server_type":"Dedicated","server_os":"Linux","password":true,"vac":true,"version":"7757534","steam_id":85568392925397851,"keywords":["cp","nocrits","nodmgspread","uncletopia"],"game_id":440,"stv_port":27026,"stv_name":"Uncletopia | Warsaw | 2 | All Maps | STV","players":null},{"server_id":51,"name":"Uncletopia | Warsaw | 3 | All Maps","name_short":"waw-3","host":"waw-1.pl.uncletopia.com","port":27035,"enabled":true,"region":"eu","cc":"pl","latitude":52.2297,"longitude":21.017532,"reserved":0,"last_update":"0001-01-01T00:00:00Z","name_a2s":"Uncletopia | Warsaw | 3 | All Maps","protocol":17,"map":"pl_badwater","folder":"tf","game":"Team Fortress","app_id":440,"player_count":0,"max_players":24,"Bots":0,"server_type":"Dedicated","server_os":"Linux","password":true,"vac":true,"version":"7757534","steam_id":85568392925397852,"keywords":["nocrits","nodmgspread","payload","uncletopia"],"game_id":440,"stv_port":27036,"stv_name":"Uncletopia | Warsaw | 3 | All Maps | STV","players":null},{"server_id":52,"name":"Uncletopia | Warsaw | 4 | All Maps","name_short":"waw-4","host":"waw-1.pl.uncletopia.com","port":27045,"enabled":true,"region":"eu","cc":"pl","latitude":52.2297,"longitude":21.017532,"reserved":0,"last_update":"0001-01-01T00:00:00Z","name_a2s":"Uncletopia | Warsaw | 4 | All Maps","protocol":17,"map":"koth_lakeside_final","folder":"tf","game":"Team Fortress","app_id":440,"player_count":0,"max_players":24,"Bots":0,"server_type":"Dedicated","server_os":"Linux","password":true,"vac":true,"version":"7757534","steam_id":85568392925397853,"keywords":["cp","nocrits","nodmgspread","uncletopia"],"game_id":440,"stv_port":27046,"stv_name":"Uncletopia | Warsaw | 4 | All Maps | STV","players":null},{"server_id":53,"name":"Uncletopia | Warsaw | 5 | Stopwatch Beta","name_short":"waw-5","host":"waw-1.pl.uncletopia.com","port":27055,"enabled":true,"region":"eu","cc":"pl","latitude":52.2297,"longitude":21.017532,"reserved":0,"last_update":"0001-01-01T00:00:00Z","name_a2s":"Uncletopia | Warsaw | 5 | Stopwatch Beta","protocol":17,"map":"pl_borneo","folder":"tf","game":"Team Fortress","app_id":440,"player_count":0,"max_players":24,"Bots":0,"server_type":"Dedicated","server_os":"Linux","password":true,"vac":true,"version":"7757534","steam_id":85568392925397854,"keywords":["nocrits","nodmgspread","payload","uncletopia"],"game_id":440,"stv_port":27056,"stv_name":"Uncletopia | Warsaw | 5 | Stopwatch Beta | STV","players":null},{"server_id":54,"name":"Uncletopia | Warsaw | 6 | Community","name_short":"waw-6","host":"waw-1.pl.uncletopia.com","port":27065,"enabled":true,"region":"eu","cc":"pl","latitude":52.2297,"longitude":21.017532,"reserved":0,"last_update":"0001-01-01T00:00:00Z","name_a2s":"Uncletopia | Warsaw | 6 | Community","protocol":17,"map":"koth_lakeside_final","folder":"tf","game":"Team Fortress","app_id":440,"player_count":0,"max_players":24,"Bots":0,"server_type":"Dedicated","server_os":"Linux","password":true,"vac":true,"version":"7757534","steam_id":85568392925397856,"keywords":["cp","nocrits","nodmgspread","uncletopia"],"game_id":440,"stv_port":27066,"stv_name":"Uncletopia | Warsaw | 6 | Community | STV","players":null}]}