{"status":true,"message":"","result":[{"server_id":9,"name":"Uncletopia | Atlanta | 1 | All Maps","name_short":"atl-1","host":"atl-1.us.uncletopia.com","port":27015,"enabled":true,"region":"us-east","cc":"us","latitude":33.753746,"longitude":-84.38633,"reserved":0,"last_update":"0001-01-01T00:00:00Z","name_a2s":"Uncletopia | Atlanta | 1 | All Maps","protocol":17,"map":"cp_dustbowl","folder":"tf","game":"Team Fortress","app_id":440,"player_count":24,"max_players":24,"Bots":0,"server_type":"Dedicated","server_os":"Linux","password":true,"vac":true,"version":"7882260","steam_id":85568392924469982,"keywords":["cp","nocrits","nodmgspread","uncletopia"],"game_id":440,"stv_port":27016,"stv_name":"Uncletopia | Atlanta | 1 | All Maps | STV","players":[{"user_id":515,"name":"DFR DeezNoodlez","steam_id":76561198246700372,"connected_time":687000000000,"state":"active","ping":55},{"user_id":516,"name":"DragonFalcon™","steam_id":76561198044559930,"connected_time":672000000000,"state":"active","ping":65},{"user_id":512,"name":"Brown_Dream","steam_id":76561198975766145,"connected_time":1860000000000,"state":"active","ping":76},{"user_id":517,"name":"sunny","steam_id":76561198069380992,"connected_time":672000000000,"state":"active","ping":68},{"user_id":470,"name":"bogginwater","steam_id":76561198155547142,"connected_time":7706000000000,"state":"active","ping":65},{"user_id":503,"name":"BIG HOG","steam_id":76561198079923652,"connected_time":2842000000000,"state":"active","ping":74},{"user_id":518,"name":"bkiller","steam_id":76561198029265697,"connected_time":648000000000,"state":"active","ping":62},{"user_id":440,"name":"Albino Jellyfish","steam_id":76561198208561097,"connected_time":10664000000000,"state":"active","ping":66},{"user_id":475,"name":"vordhosbn","steam_id":76561198148132163,"connected_time":6976000000000,"state":"active","ping":86},{"user_id":430,"name":"eish","steam_id":76561198089463603,"connected_time":11450000000000,"state":"active","ping":116},{"user_id":490,"name":"joe","steam_id":76561198045781320,"connected_time":5275000000000,"state":"active","ping":63},{"user_id":476,"name":"Sophie","steam_id":76561198170408057,"connected_time":6976000000000,"state":"active","ping":56},{"user_id":500,"name":"boylover54","steam_id":76561199030726701,"connected_time":3260000000000,"state":"active","ping":98},{"user_id":508,"name":"2006 toyota corolla","steam_id":76561198143132686,"connected_time":2662000000000,"state":"active","ping":102},{"user_id":514,"name":"ElZeto","steam_id":76561198252322622,"connected_time":1195000000000,"state":"active","ping":102},{"user_id":491,"name":"Intro Bonito","steam_id":76561198119478838,"connected_time":5264000000000,"state":"active","ping":59},{"user_id":455,"name":"Ġ1 ♦ Synth","steam_id":76561198058660228,"connected_time":9745000000000,"state":"active","ping":45},{"user_id":496,"name":"morphine","steam_id":76561198072124799,"connected_time":4113000000000,"state":"active","ping":93},{"user_id":497,"name":"rose","steam_id":76561198048882285,"connected_time":4083000000000,"state":"active","ping":60},{"user_id":493,"name":"lil hog","steam_id":76561199230929836,"connected_time":5215000000000,"state":"active","ping":76},{"user_id":511,"name":"nomad","steam_id":76561197998740399,"connected_time":2024000000000,"state":"active","ping":71},{"user_id":510,"name":"David De Bergerac","steam_id":76561198010306294,"connected_time":2390000000000,"state":"active","ping":87},{"user_id":513,"name":"kite","steam_id":76561198346516392,"connected_time":1618000000000,"state":"active","ping":80},{"user_id":443,"name":"hi","steam_id":76561198809577048,"connected_time":10287000000000,"state":"active","ping":94}]},{"server_id":104,"name":"Uncletopia | Atlanta | 2 | All Maps","name_short":"atl-2","host":"atl-1.us.uncletopia.com","port":27025,"enabled":true,"region":"us-east","cc":"us","latitude":33.753746,"longitude":-84.38633,"reserved":0,"last_update":"0001-01-01T00:00:00Z","name_a2s":"Uncletopia | Atlanta | 2 | All Maps","protocol":17,"map":"cp_process_final","folder":"tf","game":"Team Fortress","app_id":440,"player_count":24,"max_players":24,"Bots":0,"server_type":"Dedicated","server_os":"Linux","password":true,"vac":true,"version":"7882260","steam_id":85568392924469983,"keywords":["cp","nocrits","nodmgspread","uncletopia"],"game_id":440,"stv_port":27026,"stv_name":"Uncletopia | Atlanta | 2 | All Maps | STV","players":[{"user_id":479,"name":"CFGU || RAWRWAFL","steam_id":76561198032118386,"connected_time":1627000000000,"state":"active","ping":81},{"user_id":484,"name":"Raydn","steam_id":76561198418414338,"connected_time":1107000000000,"state":"active","ping":68},{"user_id":450,"name":"Decadence","steam_id":76561198089630547,"connected_time":4423000000000,"state":"active","ping":68},{"user_id":496,"name":"Wookiee","steam_id":76561198139642742,"connected_time":214000000000,"state":"active","ping":78},{"user_id":483,"name":"Ion","steam_id":76561198066211080,"connected_time":1213000000000,"state":"active","ping":99},{"user_id":404,"name":"Horseless Headless Scotsman","steam_id":76561198128494897,"connected_time":7925000000000,"state":"active","ping":87},{"user_id":473,"name":"aidenaidenaiden","steam_id":76561198170381402,"connected_time":2316000000000,"state":"active","ping":59},{"user_id":436,"name":"lurker","steam_id":76561198044856349,"connected_time":5664000000000,"state":"active","ping":69},{"user_id":485,"name":"Nightlygalad","steam_id":76561198170693990,"connected_time":1052000000000,"state":"active","ping":110},{"user_id":481,"name":"\u003c blank \u003e","steam_id":76561198012566503,"connected_time":1428000000000,"state":"active","ping":106},{"user_id":486,"name":"Feistypanda34","steam_id":76561198260910134,"connected_time":1025000000000,"state":"active","ping":86},{"user_id":469,"name":"Master Of Whales","steam_id":76561198349104889,"connected_time":2553000000000,"state":"active","ping":113},{"user_id":389,"name":"Just Monika","steam_id":76561198802356746,"connected_time":9446000000000,"state":"active","ping":105},{"user_id":487,"name":"Aristotle Voulton","steam_id":76561198100174923,"connected_time":883000000000,"state":"active","ping":104},{"user_id":465,"name":"Robo Boss","steam_id":76561199067098696,"connected_time":2815000000000,"state":"active","ping":73},{"user_id":494,"name":"Whos Mans Is Dis","steam_id":76561198370978056,"connected_time":349000000000,"state":"active","ping":86},{"user_id":478,"name":"i did it","steam_id":76561198277163301,"connected_time":1704000000000,"state":"active","ping":90},{"user_id":495,"name":"defect player","steam_id":76561198055855534,"connected_time":341000000000,"state":"active","ping":76},{"user_id":490,"name":"garfield","steam_id":76561198114119308,"connected_time":774000000000,"state":"active","ping":45},{"user_id":498,"name":"☹","steam_id":76561198804763186,"connected_time":149000000000,"state":"active","ping":65},{"user_id":492,"name":"milo","steam_id":76561199061380038,"connected_time":693000000000,"state":"active","ping":45},{"user_id":499,"name":"Salad Days","steam_id":76561198110323694,"connected_time":52000000000,"state":"active","ping":63},{"user_id":439,"name":"Architect","steam_id":76561198015242016,"connected_time":5644000000000,"state":"active","ping":63},{"user_id":417,"name":"slurdydurdy","steam_id":76561198101494591,"connected_time":7089000000000,"state":"active","ping":71}]},{"server_id":400,"name":"Uncletopia | Atlanta | 3 | Community","name_short":"atl-3","host":"atl-1.us.uncletopia.com","port":27035,"enabled":true,"region":"us-east","cc":"us","latitude":33.753746,"longitude":-84.38633,"reserved":0,"last_update":"0001-01-01T00:00:00Z","name_a2s":"Uncletopia | Atlanta | 3 | Community","protocol":17,"map":"workshop/rd_asteroid_redux_b1.ugc2154902912","folder":"tf","game":"Team Fortress","app_id":440,"player_count":0,"max_players":24,"Bots":0,"server_type":"Dedicated","server_os":"Linux","password":true,"vac":true,"version":"7882260","steam_id":85568392924515187,"keywords":["beta","nocrits","nodmgspread","rd","uncletopia"],"game_id":440,"stv_port":27036,"stv_name":"Uncletopia | Atlanta | 3 | Community | STV","players":null},{"server_id":401,"name":"Uncletopia | Atlanta | 4 | No Payload","name_short":"atl-4","host":"atl-1.us.uncletopia.com","port":27045,"enabled":true,"region":"us-east","cc":"us","latitude":33.753746,"longitude":-84.38633,"reserved":0,"last_update":"0001-01-01T00:00:00Z","name_a2s":"","protocol":0,"map":"","folder":"","game":"","app_id":0,"player_count":0,"max_players":0,"Bots":0,"server_type":"","server_os":"","password":false,"vac":false,"version":"","steam_id":0,"keywords":null,"game_id":0,"stv_port":0,"stv_name":"","players":null},{"server_id":2,"name":"Uncletopia | Chicago | 1 | All Maps","name_short":"chi-1","host":"chi-1.us.uncletopia.com","port":27015,"enabled":true,"region":"us-central","cc":"us","latitude":41.881832,"longitude":-87.62318,"reserved":0,"last_update":"0001-01-01T00:00:00Z","name_a2s":"Uncletopia | Chicago | 1 | All Maps","protocol":17,"map":"pl_badwater","folder":"tf","game":"Team Fortress","app_id":440,"player_count":24,"max_players":24,"Bots":0,"server_type":"Dedicated","server_os":"Linux","password":true,"vac":true,"version":"7882260","steam_id":85568392924469984,"keywords":["alltalk","nocrits","nodmgspread","payload","uncletopia"],"game_id":440,"stv_port":27016,"stv_name":"Uncletopia | Chicago | 1 | All Maps | STV","players":[{"user_id":597,"name":"eat Pant","steam_id":76561197974965536,"connected_time":8532000000000,"state":"active","ping":63},{"user_id":691,"name":"FART SMELLA!","steam_id":76561198340417623,"connected_time":224000000000,"state":"active","ping":120},{"user_id":674,"name":"BatJet","steam_id":76561198147738441,"connected_time":1702000000000,"state":"active","ping":114},{"user_id":664,"name":"Drewp","steam_id":76561198856700517,"connected_time":2189000000000,"state":"active","ping":77},{"user_id":660,"name":"KingCrawful","steam_id":76561198104291657,"connected_time":2389000000000,"state":"active","ping":54},{"user_id":683,"name":"Metbol","steam_id":76561198001362410,"connected_time":503000000000,"state":"active","ping":74},{"user_id":681,"name":"Mixomin","steam_id":76561198295061570,"connected_time":517000000000,"state":"active","ping":45},{"user_id":626,"name":"Morgster","steam_id":76561198131697761,"connected_time":6911000000000,"state":"active","ping":75},{"user_id":671,"name":"viagra addict","steam_id":76561198017705248,"connected_time":1967000000000,"state":"active","ping":45},{"user_id":679,"name":"mashallah","steam_id":76561198075111427,"connected_time":1087000000000,"state":"active","ping":61},{"user_id":680,"name":"Medic gaming","steam_id":76561199053687718,"connected_time":1008000000000,"state":"active","ping":120},{"user_id":684,"name":"Grease Monkey","steam_id":76561199073112578,"connected_time":485000000000,"state":"active","ping":78},{"user_id":669,"name":"Gilly.G.","steam_id":76561197979658845,"connected_time":2031000000000,"state":"active","ping":66},{"user_id":576,"name":"Thundermonkey (SMOKE)","steam_id":76561198017631728,"connected_time":10254000000000,"state":"active","ping":64},{"user_id":686,"name":"CPT. Giga Chad","steam_id":76561198059785363,"connected_time":374000000000,"state":"active","ping":81},{"user_id":687,"name":"Sarbanes-Oxley","steam_id":76561197975898479,"connected_time":370000000000,"state":"active","ping":76},{"user_id":692,"name":"Kiilys","steam_id":76561198326068377,"connected_time":215000000000,"state":"active","ping":128},{"user_id":689,"name":"STIIIZY GAMING","steam_id":76561198166324070,"connected_time":344000000000,"state":"active","ping":90},{"user_id":613,"name":"Lia_Rein","steam_id":76561198151569597,"connected_time":7823000000000,"state":"active","ping":139},{"user_id":658,"name":"Captain S. Forrest","steam_id":76561198062463029,"connected_time":2746000000000,"state":"active","ping":85},{"user_id":652,"name":"Silico","steam_id":76561197993814144,"connected_time":4017000000000,"state":"active","ping":59},{"user_id":593,"name":"Drew P. Sack","steam_id":76561198036201738,"connected_time":9166000000000,"state":"active","ping":57},{"user_id":677,"name":"KBoneski ♡","steam_id":76561198307409065,"connected_time":1502000000000,"state":"active","ping":81},{"user_id":690,"name":"ElKabong","steam_id":76561198091068270,"connected_time":336000000000,"state":"active","ping":102}]},{"server_id":106,"name":"Uncletopia | Chicago | 2 | All Maps","name_short":"chi-2","host":"chi-1.us.uncletopia.com","port":27025,"enabled":true,"region":"us-central","cc":"us","latitude":41.881832,"longitude":-87.62318,"reserved":0,"last_update":"0001-01-01T00:00:00Z","name_a2s":"Uncletopia | Chicago | 2 | All Maps","protocol":17,"map":"cp_mercenarypark","folder":"tf","game":"Team Fortress","app_id":440,"player_count":23,"max_players":24,"Bots":0,"server_type":"Dedicated","server_os":"Linux","password":true,"vac":true,"version":"7882260","steam_id":85568392924469985,"keywords":["cp","nocrits","nodmgspread","uncletopia"],"game_id":440,"stv_port":27026,"stv_name":"Uncletopia | Chicago | 2 | All Maps | STV","players":[{"user_id":706,"name":"Chuck Finley","steam_id":76561198027411284,"connected_time":1944000000000,"state":"active","ping":75},{"user_id":697,"name":"sammie.tebo","steam_id":76561199212495985,"connected_time":2705000000000,"state":"active","ping":81},{"user_id":733,"name":"Mehman","steam_id":76561199020244051,"connected_time":460000000000,"state":"active","ping":100},{"user_id":700,"name":"MooseGoose82","steam_id":76561199123118241,"connected_time":2506000000000,"state":"active","ping":99},{"user_id":708,"name":"CreativeUsername","steam_id":76561198186045503,"connected_time":1393000000000,"state":"active","ping":51},{"user_id":712,"name":"JohnnyGitGud","steam_id":76561198401455467,"connected_time":1290000000000,"state":"active","ping":113},{"user_id":713,"name":"♡_Grey_♡","steam_id":76561199084277545,"connected_time":1200000000000,"state":"active","ping":70},{"user_id":737,"name":"Honeybunch","steam_id":76561198014850580,"connected_time":127000000000,"state":"active","ping":83},{"user_id":735,"name":"Sgt. Satire","steam_id":76561198104193483,"connected_time":330000000000,"state":"active","ping":116},{"user_id":711,"name":"GatorAIDS","steam_id":76561198043220092,"connected_time":1329000000000,"state":"active","ping":81},{"user_id":715,"name":"Ratimedes","steam_id":76561199083035892,"connected_time":1087000000000,"state":"active","ping":91},{"user_id":716,"name":"Lecstatic","steam_id":76561198124536956,"connected_time":1067000000000,"state":"active","ping":62},{"user_id":732,"name":"iwi","steam_id":76561198104936110,"connected_time":561000000000,"state":"active","ping":75},{"user_id":736,"name":"Glanderson booper","steam_id":76561198021223747,"connected_time":314000000000,"state":"active","ping":102},{"user_id":717,"name":"So Hygienic! Washed gamer","steam_id":76561198321627268,"connected_time":1062000000000,"state":"active","ping":120},{"user_id":729,"name":"Lore","steam_id":76561198098407538,"connected_time":702000000000,"state":"active","ping":45},{"user_id":740,"name":"totally not a pile of beans","steam_id":76561198119851931,"connected_time":2000000000,"state":"spawning","ping":68},{"user_id":738,"name":"gabaghoulio","steam_id":76561198013650292,"connected_time":55000000000,"state":"spawning","ping":285},{"user_id":703,"name":"ʕ•ᴥ•ʔ the bear","steam_id":76561197989591976,"connected_time":2258000000000,"state":"active","ping":77},{"user_id":550,"name":"xiii","steam_id":76561198079416036,"connected_time":10919000000000,"state":"active","ping":45},{"user_id":734,"name":"munch","steam_id":76561198820480684,"connected_time":446000000000,"state":"active","ping":70},{"user_id":739,"name":"Mops","steam_id":76561198058213741,"connected_time":38000000000,"state":"active","ping":64},{"user_id":564,"name":"freyja","steam_id":76561198249206656,"connected_time":10770000000000,"state":"active","ping":61}]},{"server_id":402,"name":"Uncletopia | Chicago | 3 | All Maps","name_short":"chi-3","host":"chi-1.us.uncletopia.com","port":27035,"enabled":true,"region":"us-central","cc":"us","latitude":41.881832,"longitude":-87.62318,"reserved":0,"last_update":"0001-01-01T00:00:00Z","name_a2s":"Uncletopia | Chicago | 3 | All Maps","protocol":17,"map":"pl_goldrush","folder":"tf","game":"Team Fortress","app_id":440,"player_count":23,"max_players":24,"Bots":0,"server_type":"Dedicated","server_os":"Linux","password":true,"vac":true,"version":"7882260","steam_id":85568392924515191,"keywords":["nocrits","nodmgspread","payload","uncletopia"],"game_id":440,"stv_port":27036,"stv_name":"Uncletopia | Chicago | 3 | All Maps | STV","players":[{"user_id":636,"name":"nelly modelo","steam_id":76561198044875206,"connected_time":608000000000,"state":"active","ping":82},{"user_id":580,"name":"SoundByte_","steam_id":76561198173284173,"connected_time":3319000000000,"state":"active","ping":94},{"user_id":637,"name":"souljaboytellem.com","steam_id":76561198111975583,"connected_time":564000000000,"state":"active","ping":75},{"user_id":646,"name":"Steve (from Minecraft)","steam_id":76561198232026076,"connected_time":483000000000,"state":"active","ping":52},{"user_id":639,"name":"Monster","steam_id":76561198189429665,"connected_time":552000000000,"state":"active","ping":72},{"user_id":622,"name":"Saucy Boy","steam_id":76561198178332031,"connected_time":1642000000000,"state":"active","ping":72},{"user_id":640,"name":"Spinch","steam_id":76561198296224166,"connected_time":538000000000,"state":"active","ping":97},{"user_id":579,"name":"teleportless husk","steam_id":76561198882404753,"connected_time":3343000000000,"state":"active","ping":71},{"user_id":629,"name":"caption cool","steam_id":76561197990612056,"connected_time":1248000000000,"state":"active","ping":45},{"user_id":537,"name":"Zero","steam_id":76561199383267408,"connected_time":6650000000000,"state":"active","ping":79},{"user_id":651,"name":"acceleяator","steam_id":76561198046842513,"connected_time":88000000000,"state":"active","ping":101},{"user_id":650,"name":"vioametgsme","steam_id":76561198025295263,"connected_time":178000000000,"state":"active","ping":74},{"user_id":652,"name":"Poppet","steam_id":76561198012301951,"connected_time":18000000000,"state":"active","ping":51},{"user_id":642,"name":"Wizard Raccoon","steam_id":76561198072562591,"connected_time":515000000000,"state":"active","ping":77},{"user_id":610,"name":"Righteou5Dude","steam_id":76561198136291931,"connected_time":2319000000000,"state":"active","ping":87},{"user_id":643,"name":"Sudiak","steam_id":76561198119246214,"connected_time":512000000000,"state":"active","ping":65},{"user_id":604,"name":"croissantcrusader","steam_id":76561198813533235,"connected_time":2444000000000,"state":"active","ping":88},{"user_id":644,"name":"Newt226","steam_id":76561198265096773,"connected_time":498000000000,"state":"active","ping":97},{"user_id":647,"name":"OmniMoto","steam_id":76561198091298557,"connected_time":408000000000,"state":"active","ping":76},{"user_id":648,"name":"bobus","steam_id":76561198024959624,"connected_time":352000000000,"state":"active","ping":85},{"user_id":563,"name":"Mythical Lag","steam_id":76561198347031281,"connected_time":4347000000000,"state":"active","ping":76},{"user_id":649,"name":"supcupman","steam_id":76561198051513866,"connected_time":272000000000,"state":"active","ping":109},{"user_id":653,"name":"Nickel","steam_id":76561199037745941,"connected_time":18000000000,"state":"active","ping":215}]},{"server_id":403,"name":"Uncletopia | Chicago | 4 | All Maps","name_short":"chi-4","host":"chi-1.us.uncletopia.com","port":27045,"enabled":true,"region":"us-central","cc":"us","latitude":41.881832,"longitude":-87.62318,"reserved":0,"last_update":"0001-01-01T00:00:00Z","name_a2s":"Uncletopia | Chicago | 4 | All Maps","protocol":17,"map":"pl_borneo","folder":"tf","game":"Team Fortress","app_id":440,"player_count":14,"max_players":24,"Bots":0,"server_type":"Dedicated","server_os":"Linux","password":true,"vac":true,"version":"7882260","steam_id":85568392924515193,"keywords":["nocrits","nodmgspread","payload","uncletopia"],"game_id":440,"stv_port":27046,"stv_name":"Uncletopia | Chicago | 4 | All Maps | STV","players":[{"user_id":557,"name":"Aedaxe","steam_id":76561198036555143,"connected_time":609000000000,"state":"active","ping":71},{"user_id":550,"name":"☆boundless☆","steam_id":76561198212758759,"connected_time":838000000000,"state":"active","ping":44},{"user_id":558,"name":"Jel1440","steam_id":76561198179045366,"connected_time":525000000000,"state":"active","ping":45},{"user_id":561,"name":"haxxorman","steam_id":76561199155156400,"connected_time":288000000000,"state":"active","ping":79},{"user_id":559,"name":"Birb","steam_id":76561198107362455,"connected_time":516000000000,"state":"active","ping":62},{"user_id":547,"name":"Steel_Raven4234","steam_id":76561198150214718,"connected_time":917000000000,"state":"active","ping":79},{"user_id":562,"name":"keiichi peakbara","steam_id":76561198074554154,"connected_time":243000000000,"state":"active","ping":103},{"user_id":563,"name":"Draven","steam_id":76561198074776388,"connected_time":196000000000,"state":"active","ping":71},{"user_id":548,"name":"Nub","steam_id":76561198079768872,"connected_time":884000000000,"state":"active","ping":91},{"user_id":564,"name":"Mail Mom","steam_id":76561198156979732,"connected_time":167000000000,"state":"active","ping":99},{"user_id":565,"name":"M4 Sherman","steam_id":76561198011096132,"connected_time":130000000000,"state":"active","ping":90},{"user_id":542,"name":"Bl1tz","steam_id":76561199085181726,"connected_time":1080000000000,"state":"active","ping":170},{"user_id":549,"name":"Smooky","steam_id":76561198191435451,"connected_time":882000000000,"state":"active","ping":69},{"user_id":522,"name":"abseloutegamer","steam_id":76561199072717574,"connected_time":1810000000000,"state":"active","ping":103}]},{"server_id":36,"name":"Uncletopia | Chicago | 5 | All Maps","name_short":"chi-5","host":"chi-2.us.uncletopia.com","port":27015,"enabled":true,"region":"us-central","cc":"us","latitude":41.881832,"longitude":-87.62318,"reserved":0,"last_update":"0001-01-01T00:00:00Z","name_a2s":"Uncletopia | Chicago | 5 | All Maps","protocol":17,"map":"pl_upward","folder":"tf","game":"Team Fortress","app_id":440,"player_count":24,"max_players":24,"Bots":0,"server_type":"Dedicated","server_os":"Linux","password":true,"vac":true,"version":"7882260","steam_id":85568392924866362,"keywords":["nocrits","nodmgspread","payload","uncletopia"],"game_id":440,"stv_port":27016,"stv_name":"Uncletopia | Chicago | 5 | All Maps | STV","players":[{"user_id":421,"name":"Jasmine Rice","steam_id":76561198163163590,"connected_time":1032000000000,"state":"active","ping":63},{"user_id":424,"name":"gyozaking","steam_id":76561197972312696,"connected_time":870000000000,"state":"active","ping":42},{"user_id":427,"name":"DistantJragon","steam_id":76561198117563641,"connected_time":734000000000,"state":"active","ping":53},{"user_id":387,"name":"roast pig with apple in mouth","steam_id":76561198051353647,"connected_time":3299000000000,"state":"active","ping":61},{"user_id":425,"name":"lip locked and loaded","steam_id":76561198140116087,"connected_time":758000000000,"state":"active","ping":74},{"user_id":368,"name":"Lohskyl","steam_id":76561199193237621,"connected_time":5000000000000,"state":"active","ping":61},{"user_id":370,"name":"Chad","steam_id":76561198222313772,"connected_time":4982000000000,"state":"active","ping":72},{"user_id":396,"name":"my money washed like george","steam_id":76561198115458307,"connected_time":2354000000000,"state":"active","ping":105},{"user_id":413,"name":"MrNarwhale","steam_id":76561198222364020,"connected_time":1680000000000,"state":"active","ping":72},{"user_id":437,"name":"LerN","steam_id":76561198083463877,"connected_time":272000000000,"state":"active","ping":62},{"user_id":397,"name":"ottoman","steam_id":76561198407056645,"connected_time":2340000000000,"state":"active","ping":72},{"user_id":401,"name":"Camero","steam_id":76561198119070238,"connected_time":2116000000000,"state":"active","ping":54},{"user_id":420,"name":"Slimer","steam_id":76561198094913841,"connected_time":1106000000000,"state":"active","ping":86},{"user_id":419,"name":"oak","steam_id":76561198092135570,"connected_time":1132000000000,"state":"active","ping":60},{"user_id":402,"name":"too funky ᗜˬᗜ","steam_id":76561199120399776,"connected_time":2102000000000,"state":"active","ping":92},{"user_id":429,"name":"Scrux","steam_id":76561198129763115,"connected_time":708000000000,"state":"active","ping":110},{"user_id":441,"name":"Straight White Male","steam_id":76561199234350287,"connected_time":88000000000,"state":"active","ping":56},{"user_id":430,"name":"gromit","steam_id":76561198037746805,"connected_time":707000000000,"state":"active","ping":73},{"user_id":388,"name":"Shochu Fiend","steam_id":76561198055193376,"connected_time":3296000000000,"state":"active","ping":138},{"user_id":439,"name":"Priest006","steam_id":76561198835730115,"connected_time":216000000000,"state":"active","ping":124},{"user_id":372,"name":"Praphu","steam_id":76561198799298570,"connected_time":4972000000000,"state":"active","ping":74},{"user_id":410,"name":"Capybara Gaming","steam_id":76561198075643827,"connected_time":1862000000000,"state":"active","ping":68},{"user_id":417,"name":"kite","steam_id":76561198109783729,"connected_time":1520000000000,"state":"active","ping":46},{"user_id":436,"name":"MoonMan","steam_id":76561198196754081,"connected_time":354000000000,"state":"active","ping":69}]},{"server_id":37,"name":"Uncletopia | Chicago | 6 | All Maps","name_short":"chi-6","host":"chi-2.us.uncletopia.com","port":27025,"enabled":true,"region":"us-central","cc":"us","latitude":41.881832,"longitude":-87.62318,"reserved":0,"last_update":"0001-01-01T00:00:00Z","name_a2s":"Uncletopia | Chicago | 6 | All Maps","protocol":17,"map":"pl_barnblitz","folder":"tf","game":"Team Fortress","app_id":440,"player_count":25,"max_players":24,"Bots":0,"server_type":"Dedicated","server_os":"Linux","password":true,"vac":true,"version":"7882260","steam_id":85568392924866363,"keywords":["nocrits","nodmgspread","payload","uncletopia"],"game_id":440,"stv_port":27026,"stv_name":"Uncletopia | Chicago | 6 | All Maps | STV","players":[{"user_id":277,"name":"Snake Handler","steam_id":76561198027198306,"connected_time":1611000000000,"state":"active","ping":55},{"user_id":257,"name":"Nilantive","steam_id":76561198177565082,"connected_time":4088000000000,"state":"active","ping":61},{"user_id":274,"name":"Peter Muskrat (racist)","steam_id":76561198857749738,"connected_time":1898000000000,"state":"active","ping":76},{"user_id":280,"name":"Sunglass Steve","steam_id":76561198107047306,"connected_time":1579000000000,"state":"active","ping":67},{"user_id":275,"name":"tokemaster69","steam_id":76561198083996924,"connected_time":1790000000000,"state":"active","ping":72},{"user_id":269,"name":"lucil3 on Bandcamp","steam_id":76561198149063013,"connected_time":2345000000000,"state":"active","ping":63},{"user_id":276,"name":"Big Bird","steam_id":76561198084244163,"connected_time":1621000000000,"state":"active","ping":116},{"user_id":301,"name":"Neighborhood_Fiend","steam_id":76561198014832479,"connected_time":771000000000,"state":"active","ping":47},{"user_id":278,"name":"Tskuno","steam_id":76561198129291597,"connected_time":1609000000000,"state":"active","ping":50},{"user_id":296,"name":"WhiteRushinBear","steam_id":76561198037953834,"connected_time":1066000000000,"state":"active","ping":64},{"user_id":282,"name":"Elmo","steam_id":76561198253719148,"connected_time":1538000000000,"state":"active","ping":72},{"user_id":283,"name":"Teed's Snood and Food","steam_id":76561198079048965,"connected_time":1439000000000,"state":"active","ping":63},{"user_id":304,"name":"Chilidestroy","steam_id":76561199101551797,"connected_time":158000000000,"state":"active","ping":72},{"user_id":302,"name":"mcjuice","steam_id":76561198087730829,"connected_time":548000000000,"state":"active","ping":70},{"user_id":263,"name":"Frank","steam_id":76561198428759980,"connected_time":2787000000000,"state":"active","ping":90},{"user_id":286,"name":"A Cranky Cassowary","steam_id":76561198037372342,"connected_time":1343000000000,"state":"active","ping":59},{"user_id":300,"name":"footoftheday","steam_id":76561198052712449,"connected_time":859000000000,"state":"active","ping":112},{"user_id":288,"name":"Quality Gundam","steam_id":76561198029853893,"connected_time":1333000000000,"state":"active","ping":62},{"user_id":295,"name":"ttv/Everfrost Samoyed","steam_id":76561198072580699,"connected_time":1186000000000,"state":"active","ping":71},{"user_id":261,"name":"THGAwesome","steam_id":76561198162847218,"connected_time":3561000000000,"state":"active","ping":91},{"user_id":299,"name":"Cosmic","steam_id":76561198162811282,"connected_time":899000000000,"state":"active","ping":104},{"user_id":220,"name":"Thequirka (bad player)","steam_id":76561198968058652,"connected_time":5878000000000,"state":"active","ping":99},{"user_id":297,"name":"chilis baby back ribs","steam_id":76561198813516435,"connected_time":1023000000000,"state":"active","ping":98},{"user_id":294,"name":"Q47","steam_id":76561198087128341,"connected_time":1207000000000,"state":"active","ping":131},{"user_id":305,"name":"sebasnerd12","steam_id":76561199437010123,"connected_time":131000000000,"state":"spawning","ping":380}]},{"server_id":38,"name":"Uncletopia | Chicago | 7 | Stopwatch Beta","name_short":"chi-7","host":"chi-2.us.uncletopia.com","port":27035,"enabled":true,"region":"us-central","cc":"us","latitude":41.881832,"longitude":-87.62318,"reserved":0,"last_update":"0001-01-01T00:00:00Z","name_a2s":"Uncletopia | Chicago | 7 | Stopwatch Beta","protocol":17,"map":"cp_snakewater_final1","folder":"tf","game":"Team Fortress","app_id":440,"player_count":2,"max_players":24,"Bots":0,"server_type":"Dedicated","server_os":"Linux","password":true,"vac":true,"version":"7882260","steam_id":85568392924866364,"keywords":["cp","nocrits","nodmgspread","uncletopia"],"game_id":440,"stv_port":27036,"stv_name":"Uncletopia | Chicago | 7 | Stopwatch Beta | STV","players":[{"user_id":151,"name":"LucasIsNeverHere","steam_id":76561198995748555,"connected_time":6054000000000,"state":"active","ping":33},{"user_id":165,"name":"MegaMan","steam_id":76561198010729621,"connected_time":1808000000000,"state":"active","ping":61}]},{"server_id":39,"name":"Uncletopia | Chicago | 8 | Community","name_short":"chi-8","host":"chi-2.us.uncletopia.com","port":27045,"enabled":true,"region":"us-central","cc":"us","latitude":41.881832,"longitude":-87.62318,"reserved":0,"last_update":"0001-01-01T00:00:00Z","name_a2s":"Uncletopia | Chicago | 8 | Community","protocol":17,"map":"workshop/pl_badwater_pro_v12.ugc2142942074","folder":"tf","game":"Team Fortress","app_id":440,"player_count":21,"max_players":24,"Bots":0,"server_type":"Dedicated","server_os":"Linux","password":true,"vac":true,"version":"7882260","steam_id":85568392924866365,"keywords":["nocrits","nodmgspread","payload","uncletopia"],"game_id":440,"stv_port":27046,"stv_name":"Uncletopia | Chicago | 8 | Community | STV","players":[{"user_id":154,"name":"spillproff","steam_id":76561198082337619,"connected_time":246000000000,"state":"active","ping":69},{"user_id":140,"name":"BoneHeadTRex","steam_id":76561199438411250,"connected_time":1279000000000,"state":"active","ping":100},{"user_id":127,"name":"TomBoi","steam_id":76561198087732357,"connected_time":2645000000000,"state":"active","ping":50},{"user_id":129,"name":"Moshi Man","steam_id":76561198038249762,"connected_time":1922000000000,"state":"active","ping":46},{"user_id":92,"name":"riSygneD","steam_id":76561198331618687,"connected_time":5465000000000,"state":"active","ping":97},{"user_id":141,"name":"OneLess","steam_id":76561198150870338,"connected_time":1065000000000,"state":"active","ping":82},{"user_id":137,"name":"insufficient rizz","steam_id":76561198043766401,"connected_time":1443000000000,"state":"active","ping":80},{"user_id":152,"name":"VOICES IN MY HEAD","steam_id":76561198357238486,"connected_time":489000000000,"state":"active","ping":60},{"user_id":134,"name":"slim goodbody","steam_id":76561197997100185,"connected_time":1490000000000,"state":"active","ping":91},{"user_id":142,"name":"drift.ag21","steam_id":76561198093781093,"connected_time":1055000000000,"state":"active","ping":57},{"user_id":143,"name":"Bloodborne \u0026 rgs Lover","steam_id":76561198085981571,"connected_time":1044000000000,"state":"active","ping":119},{"user_id":135,"name":"ATA3","steam_id":76561198099640423,"connected_time":1486000000000,"state":"active","ping":105},{"user_id":148,"name":"Voyager","steam_id":76561199128786637,"connected_time":843000000000,"state":"active","ping":104},{"user_id":128,"name":"[TSG] Turner's Chocolate Milk","steam_id":76561198058963288,"connected_time":2337000000000,"state":"active","ping":67},{"user_id":102,"name":"Kick Down Door 6:00AM TUCK☃RO","steam_id":76561197976146738,"connected_time":5073000000000,"state":"active","ping":88},{"user_id":139,"name":"Tick","steam_id":76561198184161214,"connected_time":1402000000000,"state":"active","ping":34},{"user_id":84,"name":"Zelith","steam_id":76561198234980480,"connected_time":6409000000000,"state":"active","ping":47},{"user_id":153,"name":"Phillip Jeffries","steam_id":76561198064052174,"connected_time":411000000000,"state":"active","ping":63},{"user_id":144,"name":"Commander Buzzo","steam_id":76561198123704342,"connected_time":1036000000000,"state":"active","ping":83},{"user_id":124,"name":"Surinferior","steam_id":76561198008953177,"connected_time":3060000000000,"state":"active","ping":75},{"user_id":151,"name":"PlanktonTheWayICumBuckets","steam_id":76561198074678273,"connected_time":670000000000,"state":"active","ping":60}]},{"server_id":8,"name":"Uncletopia | Dallas | 1 | All Maps","name_short":"dal-1","host":"dal-1.us.uncletopia.com","port":27015,"enabled":true,"region":"us-central","cc":"us","latitude":32.779167,"longitude":-96.80889,"reserved":0,"last_update":"0001-01-01T00:00:00Z","name_a2s":"Uncletopia | Dallas | 1 | All Maps","protocol":17,"map":"pl_barnblitz","folder":"tf","game":"Team Fortress","app_id":440,"player_count":17,"max_players":24,"Bots":0,"server_type":"Dedicated","server_os":"Linux","password":true,"vac":true,"version":"7882260","steam_id":85568392924469986,"keywords":["nocrits","nodmgspread","payload","uncletopia"],"game_id":440,"stv_port":27016,"stv_name":"Uncletopia | Dallas | 1 | All Maps | STV","players":[{"user_id":734,"name":"EvilPigglet","steam_id":76561197987243470,"connected_time":3613000000000,"state":"spawning","ping":79},{"user_id":759,"name":"Ribbon","steam_id":76561198149101805,"connected_time":1454000000000,"state":"spawning","ping":84},{"user_id":777,"name":"scripy","steam_id":76561199267237541,"connected_time":10000000000,"state":"spawning","ping":95},{"user_id":768,"name":"Dallas","steam_id":76561198106184089,"connected_time":784000000000,"state":"spawning","ping":335},{"user_id":772,"name":"fart shitson","steam_id":76561198986534519,"connected_time":407000000000,"state":"active","ping":100},{"user_id":767,"name":"Muddie_BeaR","steam_id":76561198089401824,"connected_time":893000000000,"state":"active","ping":200},{"user_id":747,"name":"Grimm","steam_id":76561199242664677,"connected_time":2257000000000,"state":"active","ping":51},{"user_id":775,"name":"Nugakku","steam_id":76561198082346219,"connected_time":266000000000,"state":"spawning","ping":81},{"user_id":731,"name":"AzuriousAlex","steam_id":76561198158026405,"connected_time":4151000000000,"state":"active","ping":100},{"user_id":776,"name":"SliceO'Fish","steam_id":76561198290695237,"connected_time":118000000000,"state":"spawning","ping":60},{"user_id":755,"name":"TheFryingDutchman","steam_id":76561199193784099,"connected_time":1535000000000,"state":"active","ping":165},{"user_id":761,"name":"MeMyBongusAndTheGreatOutdoors","steam_id":76561198097708978,"connected_time":1380000000000,"state":"spawning","ping":53},{"user_id":712,"name":"Bullwinkle J. Moose","steam_id":76561198075977196,"connected_time":5207000000000,"state":"spawning","ping":78},{"user_id":741,"name":"PlugFromBehind","steam_id":76561198143283800,"connected_time":2838000000000,"state":"spawning","ping":60},{"user_id":757,"name":"mac_cheese","steam_id":76561198071334162,"connected_time":1500000000000,"state":"active","ping":109},{"user_id":763,"name":"noellehound","steam_id":76561198108844158,"connected_time":1212000000000,"state":"spawning","ping":303},{"user_id":766,"name":"AttackCommander","steam_id":76561198111522679,"connected_time":931000000000,"state":"spawning","ping":40}]},{"server_id":108,"name":"Uncletopia | Dallas | 2 | All Maps","name_short":"dal-2","host":"dal-1.us.uncletopia.com","port":27025,"enabled":true,"region":"us-central","cc":"us","latitude":32.779167,"longitude":-96.80889,"reserved":0,"last_update":"0001-01-01T00:00:00Z","name_a2s":"Uncletopia | Dallas | 2 | All Maps","protocol":17,"map":"pl_borneo","folder":"tf","game":"Team Fortress","app_id":440,"player_count":24,"max_players":24,"Bots":0,"server_type":"Dedicated","server_os":"Linux","password":true,"vac":true,"version":"7882260","steam_id":85568392924469988,"keywords":["nocrits","nodmgspread","payload","uncletopia"],"game_id":440,"stv_port":27026,"stv_name":"Uncletopia | Dallas | 2 | All Maps | STV","players":[{"user_id":601,"name":"Agent Q","steam_id":76561198830829003,"connected_time":3020000000000,"state":"active","ping":100},{"user_id":607,"name":"xXx_1337_VVeed_VVizard_xXx","steam_id":76561198067436825,"connected_time":2306000000000,"state":"active","ping":70},{"user_id":618,"name":"Astro","steam_id":76561198035676106,"connected_time":824000000000,"state":"active","ping":61},{"user_id":623,"name":"Wacky-Mo","steam_id":76561198022265991,"connected_time":305000000000,"state":"active","ping":64},{"user_id":620,"name":"UnkownGamerLOL","steam_id":76561198225902368,"connected_time":756000000000,"state":"active","ping":78},{"user_id":588,"name":"Cofi","steam_id":76561199026721822,"connected_time":3591000000000,"state":"active","ping":82},{"user_id":625,"name":"Poison Duck","steam_id":76561198103155890,"connected_time":221000000000,"state":"active","ping":81},{"user_id":586,"name":"ChottoAMinute","steam_id":76561198873157775,"connected_time":4090000000000,"state":"active","ping":34},{"user_id":624,"name":"Little Green Man, Clayton","steam_id":76561198038945235,"connected_time":296000000000,"state":"active","ping":107},{"user_id":617,"name":"Beantama","steam_id":76561198986811476,"connected_time":1109000000000,"state":"active","ping":60},{"user_id":536,"name":"счизяѳ","steam_id":76561199182960322,"connected_time":9378000000000,"state":"active","ping":59},{"user_id":628,"name":"girl smell","steam_id":76561198118962168,"connected_time":30000000000,"state":"active","ping":70},{"user_id":591,"name":"xZackAttack27x","steam_id":76561198035446639,"connected_time":3579000000000,"state":"active","ping":41},{"user_id":615,"name":"Turtle","steam_id":76561198821905297,"connected_time":1129000000000,"state":"active","ping":95},{"user_id":610,"name":"kazooie","steam_id":76561198062763756,"connected_time":2238000000000,"state":"active","ping":74},{"user_id":576,"name":"wm1","steam_id":76561198265522923,"connected_time":5227000000000,"state":"active","ping":45},{"user_id":594,"name":"MoePlaysGames","steam_id":76561198316877833,"connected_time":3548000000000,"state":"active","ping":86},{"user_id":611,"name":"Avem","steam_id":76561198058763710,"connected_time":2135000000000,"state":"active","ping":81},{"user_id":543,"name":"Glaceon","steam_id":76561198177715869,"connected_time":8881000000000,"state":"active","ping":65},{"user_id":587,"name":"rat","steam_id":76561198078484417,"connected_time":3900000000000,"state":"active","ping":64},{"user_id":614,"name":"Mister Rattlebones","steam_id":76561198065560157,"connected_time":1231000000000,"state":"active","ping":68},{"user_id":612,"name":"Psychosis","steam_id":76561198078659070,"connected_time":2127000000000,"state":"active","ping":70},{"user_id":626,"name":"Lil' Croissant","steam_id":76561198059494343,"connected_time":84000000000,"state":"active","ping":113},{"user_id":629,"name":"Drapph","steam_id":76561199384213314,"connected_time":20000000000,"state":"spawning","ping":63}]},{"server_id":5,"name":"Uncletopia | Frankfurt | 1 | All Maps","name_short":"frk-1","host":"frk-1.de.uncletopia.com","port":27015,"enabled":true,"region":"eu","cc":"de","latitude":50.110924,"longitude":8.682127,"reserved":0,"last_update":"0001-01-01T00:00:00Z","name_a2s":"Uncletopia | Frankfurt | 1 | All Maps","protocol":17,"map":"koth_cascade","folder":"tf","game":"Team Fortress","app_id":440,"player_count":0,"max_players":24,"Bots":0,"server_type":"Dedicated","server_os":"Linux","password":true,"vac":true,"version":"7882260","steam_id":85568392924469989,"keywords":["cp","nocrits","nodmgspread","uncletopia"],"game_id":440,"stv_port":27016,"stv_name":"Uncletopia | Frankfurt | 1 | All Maps | STV","players":null},{"server_id":110,"name":"Uncletopia | Frankfurt | 2 | All Maps","name_short":"frk-2","host":"frk-1.de.uncletopia.com","port":27025,"enabled":true,"region":"eu","cc":"de","latitude":50.110924,"longitude":8.682127,"reserved":0,"last_update":"0001-01-01T00:00:00Z","name_a2s":"Uncletopia | Frankfurt | 2 | All Maps","protocol":17,"map":"koth_lakeside_final","folder":"tf","game":"Team Fortress","app_id":440,"player_count":0,"max_players":24,"Bots":0,"server_type":"Dedicated","server_os":"Linux","password":true,"vac":true,"version":"7882260","steam_id":85568392924469990,"keywords":["cp","nocrits","nodmgspread","uncletopia"],"game_id":440,"stv_port":27026,"stv_name":"Uncletopia | Frankfurt | 2 | All Maps | STV","players":null},{"server_id":308,"name":"Uncletopia | Frankfurt | 3 | All Maps","name_short":"frk-3","host":"frk-1.de.uncletopia.com","port":27035,"enabled":true,"region":"eu","cc":"de","latitude":50.110924,"longitude":8.682127,"reserved":0,"last_update":"0001-01-01T00:00:00Z","name_a2s":"Uncletopia | Frankfurt | 3 | All Maps","protocol":17,"map":"pl_snowycoast","folder":"tf","game":"Team Fortress","app_id":440,"player_count":0,"max_players":24,"Bots":0,"server_type":"Dedicated","server_os":"Linux","password":true,"vac":true,"version":"7882260","steam_id":85568392924504274,"keywords":["nocrits","nodmgspread","payload","uncletopia"],"game_id":440,"stv_port":27036,"stv_name":"Uncletopia | Frankfurt | 3 | All Maps | STV","players":null},{"server_id":309,"name":"Uncletopia | Frankfurt | 4 | All Maps","name_short":"frk-4","host":"frk-1.de.uncletopia.com","port":27045,"enabled":true,"region":"eu","cc":"de","latitude":50.110924,"longitude":8.682127,"reserved":0,"last_update":"0001-01-01T00:00:00Z","name_a2s":"Uncletopia | Frankfurt | 4 | All Maps","protocol":17,"map":"pl_swiftwater_final1","folder":"tf","game":"Team Fortress","app_id":440,"player_count":0,"max_players":24,"Bots":0,"server_type":"Dedicated","server_os":"Linux","password":true,"vac":true,"version":"7882260","steam_id":85568392924504275,"keywords":["nocrits","nodmgspread","payload","uncletopia"],"game_id":440,"stv_port":27046,"stv_name":"Uncletopia | Frankfurt | 4 | All Maps | STV","players":null},{"server_id":310,"name":"Uncletopia | Frankfurt | 5 | All Maps","name_short":"frk-5","host":"frk-1.de.uncletopia.com","port":27055,"enabled":true,"region":"eu","cc":"de","latitude":50.110924,"longitude":8.682127,"reserved":0,"last_update":"0001-01-01T00:00:00Z","name_a2s":"Uncletopia | Frankfurt | 5 | All Maps","protocol":17,"map":"cp_sunshine","folder":"tf","game":"Team Fortress","app_id":440,"player_count":0,"max_players":24,"Bots":0,"server_type":"Dedicated","server_os":"Linux","password":true,"vac":true,"version":"7882260","steam_id":85568392924504277,"keywords":["cp","nocrits","nodmgspread","uncletopia"],"game_id":440,"stv_port":27056,"stv_name":"Uncletopia | Frankfurt | 5 | All Maps | STV","players":null},{"server_id":311,"name":"Uncletopia | Frankfurt | 6 | All Maps","name_short":"frk-6","host":"frk-1.de.uncletopia.com","port":27065,"enabled":true,"region":"eu","cc":"de","latitude":50.110924,"longitude":8.682127,"reserved":0,"last_update":"0001-01-01T00:00:00Z","name_a2s":"Uncletopia | Frankfurt | 6 | All Maps","protocol":17,"map":"cp_sunshine","folder":"tf","game":"Team Fortress","app_id":440,"player_count":0,"max_players":24,"Bots":0,"server_type":"Dedicated","server_os":"Linux","password":true,"vac":true,"version":"7882260","steam_id":85568392924504278,"keywords":["cp","nocrits","nodmgspread","uncletopia"],"game_id":440,"stv_port":27066,"stv_name":"Uncletopia | Frankfurt | 6 | All Maps | STV","players":null},{"server_id":23,"name":"Uncletopia | Frankfurt | 7 | Stopwatch Beta","name_short":"frk-7","host":"frk-1.de.uncletopia.com","port":27075,"enabled":true,"region":"eu","cc":"de","latitude":50.110924,"longitude":8.682127,"reserved":0,"last_update":"0001-01-01T00:00:00Z","name_a2s":"Uncletopia | Frankfurt | 7 | Stopwatch Beta","protocol":17,"map":"workshop/koth_ashville_final.ugc2130459942","folder":"tf","game":"Team Fortress","app_id":440,"player_count":0,"max_players":24,"Bots":0,"server_type":"Dedicated","server_os":"Linux","password":true,"vac":true,"version":"7882260","steam_id":85568392924742827,"keywords":["cp","nocrits","nodmgspread","uncletopia"],"game_id":440,"stv_port":27076,"stv_name":"Uncletopia | Frankfurt | 7 | Stopwatch Beta | STV","players":null},{"server_id":24,"name":"Uncletopia | Frankfurt | 8 | Community","name_short":"frk-8","host":"frk-1.de.uncletopia.com","port":27085,"enabled":true,"region":"eu","cc":"de","latitude":50.110924,"longitude":8.682127,"reserved":0,"last_update":"0001-01-01T00:00:00Z","name_a2s":"Uncletopia | Frankfurt | 8 | Community","protocol":17,"map":"koth_cascade","folder":"tf","game":"Team Fortress","app_id":440,"player_count":0,"max_players":24,"Bots":0,"server_type":"Dedicated","server_os":"Linux","password":true,"vac":true,"version":"7882260","steam_id":85568392924742828,"keywords":["cp","nocrits","nodmgspread","uncletopia"],"game_id":440,"stv_port":27086,"stv_name":"Uncletopia | Frankfurt | 8 | Community | STV","players":null},{"server_id":202,"name":"Uncletopia | Hong Kong | 1 | All Maps","name_short":"hgk-1","host":"hgk-1.hk.uncletopia.com","port":27015,"enabled":true,"region":"asia","cc":"hk","latitude":22.302711,"longitude":114.177216,"reserved":0,"last_update":"0001-01-01T00:00:00Z","name_a2s":"Uncletopia | Hong Kong | 1 | All Maps","protocol":17,"map":"pl_pier","folder":"tf","game":"Team Fortress","app_id":440,"player_count":0,"max_players":24,"Bots":0,"server_type":"Dedicated","server_os":"Linux","password":true,"vac":true,"version":"7882260","steam_id":85568392924494504,"keywords":["nocrits","nodmgspread","payload","uncletopia"],"game_id":440,"stv_port":27016,"stv_name":"Uncletopia | Hong Kong | 1 | All Maps | STV","players":null},{"server_id":1,"name":"Uncletopia | Los Angeles | 1 | All Maps","name_short":"lax-1","host":"lax-1.us.uncletopia.com","port":27015,"enabled":true,"region":"us-west","cc":"us","latitude":33.94279,"longitude":-118.41004,"reserved":0,"last_update":"0001-01-01T00:00:00Z","name_a2s":"Uncletopia | Los Angeles | 1 | All Maps","protocol":17,"map":"pl_upward","folder":"tf","game":"Team Fortress","app_id":440,"player_count":24,"max_players":24,"Bots":0,"server_type":"Dedicated","server_os":"Linux","password":true,"vac":true,"version":"7882260","steam_id":85568392924469991,"keywords":["nocrits","nodmgspread","payload","uncletopia"],"game_id":440,"stv_port":27016,"stv_name":"Uncletopia | Los Angeles | 1 | All Maps | STV","players":[{"user_id":294,"name":"Grungus","steam_id":76561198047700230,"connected_time":790000000000,"state":"active","ping":55},{"user_id":278,"name":"momus","steam_id":76561198966979196,"connected_time":1493000000000,"state":"active","ping":45},{"user_id":296,"name":"Player Zero","steam_id":76561198208312849,"connected_time":625000000000,"state":"active","ping":71},{"user_id":276,"name":"Landlord","steam_id":76561198987913057,"connected_time":1588000000000,"state":"active","ping":62},{"user_id":280,"name":"Thunder","steam_id":76561198097721532,"connected_time":1431000000000,"state":"active","ping":46},{"user_id":297,"name":"DOPEam1ne","steam_id":76561198112204774,"connected_time":533000000000,"state":"active","ping":57},{"user_id":303,"name":"Painkiller","steam_id":76561198049787400,"connected_time":122000000000,"state":"active","ping":47},{"user_id":304,"name":"dodecadron","steam_id":76561198027397222,"connected_time":116000000000,"state":"active","ping":90},{"user_id":298,"name":"-The_Under_Miner-","steam_id":76561199195735972,"connected_time":481000000000,"state":"active","ping":65},{"user_id":282,"name":"Sammy!","steam_id":76561198184171743,"connected_time":1345000000000,"state":"active","ping":66},{"user_id":291,"name":"DonJamón","steam_id":76561198319090131,"connected_time":971000000000,"state":"active","ping":79},{"user_id":283,"name":"Dongus","steam_id":76561197979056451,"connected_time":1320000000000,"state":"active","ping":75},{"user_id":301,"name":"pushistov","steam_id":76561198068672882,"connected_time":396000000000,"state":"active","ping":58},{"user_id":266,"name":"Djlumo18","steam_id":76561199191221872,"connected_time":2854000000000,"state":"active","ping":59},{"user_id":288,"name":"TheXenoKing","steam_id":76561198127424141,"connected_time":1127000000000,"state":"active","ping":138},{"user_id":305,"name":"bengineer","steam_id":76561198171912174,"connected_time":92000000000,"state":"active","ping":75},{"user_id":267,"name":"updog","steam_id":76561198869221421,"connected_time":2824000000000,"state":"active","ping":75},{"user_id":290,"name":"Cuno Doesn't Care!","steam_id":76561198007372782,"connected_time":1057000000000,"state":"active","ping":68},{"user_id":295,"name":"xbox record that","steam_id":76561198150117455,"connected_time":707000000000,"state":"active","ping":57},{"user_id":306,"name":"huiei","steam_id":76561198073763735,"connected_time":81000000000,"state":"active","ping":68},{"user_id":302,"name":"Emm","steam_id":76561198114140235,"connected_time":151000000000,"state":"active","ping":88},{"user_id":299,"name":"Mr. Luggy","steam_id":76561198072723392,"connected_time":463000000000,"state":"active","ping":51},{"user_id":251,"name":"THE BIG MAN","steam_id":76561198072179960,"connected_time":4194000000000,"state":"active","ping":98},{"user_id":272,"name":"Maid 'n' China","steam_id":76561198423392976,"connected_time":2265000000000,"state":"active","ping":56}]},{"server_id":112,"name":"Uncletopia | Los Angeles | 2 | All Maps","name_short":"lax-2","host":"lax-1.us.uncletopia.com","port":27025,"enabled":true,"region":"us-west","cc":"us","latitude":33.94279,"longitude":-118.41004,"reserved":0,"last_update":"0001-01-01T00:00:00Z","name_a2s":"Uncletopia | Los Angeles | 2 | All Maps","protocol":17,"map":"cp_altitude","folder":"tf","game":"Team Fortress","app_id":440,"player_count":23,"max_players":24,"Bots":0,"server_type":"Dedicated","server_os":"Linux","password":true,"vac":true,"version":"7882260","steam_id":85568392924469992,"keywords":["cp","nocrits","nodmgspread","uncletopia"],"game_id":440,"stv_port":27026,"stv_name":"Uncletopia | Los Angeles | 2 | All Maps | STV","players":[{"user_id":165,"name":"..flop","steam_id":76561197989058876,"connected_time":2661000000000,"state":"active","ping":75},{"user_id":188,"name":"PeesTi2","steam_id":76561199016865192,"connected_time":902000000000,"state":"active","ping":105},{"user_id":86,"name":"Power Jake","steam_id":76561198051510260,"connected_time":8171000000000,"state":"active","ping":60},{"user_id":149,"name":"...","steam_id":76561198121508845,"connected_time":4182000000000,"state":"active","ping":59},{"user_id":194,"name":"JON","steam_id":76561198057971005,"connected_time":168000000000,"state":"active","ping":66},{"user_id":180,"name":"M4 Sherman","steam_id":76561198126990820,"connected_time":1530000000000,"state":"active","ping":95},{"user_id":170,"name":"porksoda","steam_id":76561198021451377,"connected_time":2494000000000,"state":"active","ping":73},{"user_id":172,"name":"Andrelovski","steam_id":76561198079514288,"connected_time":2413000000000,"state":"active","ping":95},{"user_id":181,"name":"Seriously Bruh","steam_id":76561198070408485,"connected_time":1454000000000,"state":"active","ping":79},{"user_id":189,"name":"SnakeyK","steam_id":76561198038414152,"connected_time":902000000000,"state":"active","ping":55},{"user_id":162,"name":"hemper710","steam_id":76561198159477619,"connected_time":2913000000000,"state":"active","ping":58},{"user_id":182,"name":"elephant thumb","steam_id":76561198118859752,"connected_time":1449000000000,"state":"active","ping":51},{"user_id":183,"name":"SmallErection","steam_id":76561198071770147,"connected_time":1366000000000,"state":"active","ping":84},{"user_id":195,"name":"boopeanuts2012","steam_id":76561198453203619,"connected_time":61000000000,"state":"active","ping":42},{"user_id":198,"name":"Windfall","steam_id":76561198046500859,"connected_time":17000000000,"state":"spawning","ping":45},{"user_id":196,"name":"Wingman","steam_id":76561198066270405,"connected_time":25000000000,"state":"active","ping":55},{"user_id":197,"name":"Baldcoin","steam_id":76561198079193722,"connected_time":21000000000,"state":"active","ping":44},{"user_id":161,"name":"Heinz-Harald Hopeless","steam_id":76561199002203593,"connected_time":3047000000000,"state":"active","ping":96},{"user_id":199,"name":"dsmagic","steam_id":76561198038601542,"connected_time":10000000000,"state":"spawning","ping":45},{"user_id":192,"name":"Theodore John Kaczynski","steam_id":76561199127590316,"connected_time":678000000000,"state":"active","ping":57},{"user_id":171,"name":"Harold","steam_id":76561198057317770,"connected_time":2425000000000,"state":"active","ping":54},{"user_id":186,"name":"Jovi Boy","steam_id":76561198046605691,"connected_time":1249000000000,"state":"active","ping":68},{"user_id":191,"name":"Jack from Jack in The Box","steam_id":76561199083594971,"connected_time":841000000000,"state":"active","ping":58}]},{"server_id":324,"name":"Uncletopia | Los Angeles | 3 | All Maps","name_short":"lax-3","host":"lax-1.us.uncletopia.com","port":27035,"enabled":true,"region":"us-west","cc":"us","latitude":33.94279,"longitude":-118.41004,"reserved":0,"last_update":"0001-01-01T00:00:00Z","name_a2s":"Uncletopia | Los Angeles | 3 | All Maps","protocol":17,"map":"pl_pier","folder":"tf","game":"Team Fortress","app_id":440,"player_count":23,"max_players":24,"Bots":0,"server_type":"Dedicated","server_os":"Linux","password":true,"vac":true,"version":"7882260","steam_id":85568392924510198,"keywords":["nocrits","nodmgspread","payload","uncletopia"],"game_id":440,"stv_port":27036,"stv_name":"Uncletopia | Los Angeles | 3 | All Maps | STV","players":[{"user_id":379,"name":"Sanic","steam_id":76561198083124962,"connected_time":2542000000000,"state":"active","ping":77},{"user_id":409,"name":"船尾","steam_id":76561198128764422,"connected_time":606000000000,"state":"active","ping":67},{"user_id":376,"name":"Risky","steam_id":76561198231029328,"connected_time":2768000000000,"state":"active","ping":45},{"user_id":366,"name":"Gr8butnotreally","steam_id":76561198133924450,"connected_time":4340000000000,"state":"active","ping":61},{"user_id":403,"name":"Hindmost","steam_id":76561199081837220,"connected_time":1213000000000,"state":"active","ping":99},{"user_id":413,"name":"Walrus","steam_id":76561198001799905,"connected_time":409000000000,"state":"active","ping":46},{"user_id":411,"name":"His buddy Eric","steam_id":76561198275362375,"connected_time":551000000000,"state":"active","ping":53},{"user_id":378,"name":"ROGUE-PLANET","steam_id":76561198116023052,"connected_time":2622000000000,"state":"active","ping":87},{"user_id":402,"name":"Kintsugi","steam_id":76561198301867054,"connected_time":1468000000000,"state":"active","ping":46},{"user_id":396,"name":"Antis","steam_id":76561198055790522,"connected_time":1688000000000,"state":"active","ping":47},{"user_id":410,"name":"monsterkill4567","steam_id":76561198272986367,"connected_time":602000000000,"state":"active","ping":58},{"user_id":374,"name":"Hakurei Reimu","steam_id":76561198045388290,"connected_time":2857000000000,"state":"active","ping":68},{"user_id":412,"name":"Hatfam","steam_id":76561199192629036,"connected_time":466000000000,"state":"active","ping":69},{"user_id":416,"name":"LatinRhythms -2 ref","steam_id":76561198025110751,"connected_time":348000000000,"state":"active","ping":118},{"user_id":407,"name":"Neil \"the grass\" tyson","steam_id":76561198872345538,"connected_time":678000000000,"state":"active","ping":90},{"user_id":406,"name":"A man with no plan","steam_id":76561198031075099,"connected_time":737000000000,"state":"active","ping":99},{"user_id":417,"name":"Laxoloni","steam_id":76561199197045700,"connected_time":74000000000,"state":"active","ping":73},{"user_id":415,"name":"The HobGoblin","steam_id":76561198427768714,"connected_time":367000000000,"state":"active","ping":121},{"user_id":399,"name":"ghostglitch","steam_id":76561197991608573,"connected_time":1639000000000,"state":"active","ping":60},{"user_id":400,"name":"Branz","steam_id":76561198076632143,"connected_time":1616000000000,"state":"active","ping":90},{"user_id":387,"name":"ice dweller","steam_id":76561198329367716,"connected_time":2338000000000,"state":"active","ping":57},{"user_id":353,"name":"SHADOW (he/him)","steam_id":76561198207768148,"connected_time":5254000000000,"state":"active","ping":67},{"user_id":408,"name":"FROYO b4nny","steam_id":76561197970669109,"connected_time":649000000000,"state":"active","ping":49}]},{"server_id":25,"name":"Uncletopia | Los Angeles | 4 | Stopwatch Beta","name_short":"lax-4","host":"lax-1.us.uncletopia.com","port":27045,"enabled":true,"region":"us-west","cc":"us","latitude":33.94279,"longitude":-118.41004,"reserved":0,"last_update":"0001-01-01T00:00:00Z","name_a2s":"Uncletopia | Los Angeles | 4 | Stopwatch Beta","protocol":17,"map":"workshop/koth_ashville_final.ugc2130459942","folder":"tf","game":"Team Fortress","app_id":440,"player_count":0,"max_players":24,"Bots":0,"server_type":"Dedicated","server_os":"Linux","password":true,"vac":true,"version":"7882260","steam_id":85568392924510199,"keywords":["cp","nocrits","nodmgspread","uncletopia"],"game_id":440,"stv_port":27046,"stv_name":"Uncletopia | Los Angeles | 4 | Stopwatch Beta | STV","players":null},{"server_id":11,"name":"Uncletopia | London | 1 | All Maps","name_short":"lon-1","host":"lon-1.uk.uncletopia.com","port":27015,"enabled":true,"region":"eu","cc":"gb","latitude":51.509865,"longitude":-0.118092,"reserved":0,"last_update":"0001-01-01T00:00:00Z","name_a2s":"Uncletopia | London | 1 | All Maps","protocol":17,"map":"koth_cascade","folder":"tf","game":"Team Fortress","app_id":440,"player_count":7,"max_players":24,"Bots":0,"server_type":"Dedicated","server_os":"Linux","password":true,"vac":true,"version":"7882260","steam_id":85568392924367362,"keywords":["cp","nocrits","nodmgspread","uncletopia"],"game_id":440,"stv_port":27016,"stv_name":"Uncletopia | London | 1 | All Maps | STV","players":[{"user_id":931,"name":"pootis sentry","steam_id":76561199225363633,"connected_time":1272000000000,"state":"active","ping":103},{"user_id":925,"name":"quantumexistenc3","steam_id":76561199379634118,"connected_time":2592000000000,"state":"active","ping":68},{"user_id":912,"name":"pangxiong147","steam_id":76561199333740508,"connected_time":7473000000000,"state":"active","ping":161},{"user_id":929,"name":"wide appreciator","steam_id":76561198083286511,"connected_time":1829000000000,"state":"active","ping":32},{"user_id":932,"name":"putos","steam_id":76561199481784187,"connected_time":818000000000,"state":"active","ping":254},{"user_id":933,"name":"Scout (F2P)","steam_id":76561199205643061,"connected_time":806000000000,"state":"active","ping":228},{"user_id":935,"name":"Alen","steam_id":76561199036330383,"connected_time":222000000000,"state":"active","ping":162}]},{"server_id":114,"name":"Uncletopia | London | 2 | All Maps","name_short":"lon-2","host":"lon-1.uk.uncletopia.com","port":27025,"enabled":true,"region":"eu","cc":"gb","latitude":51.509865,"longitude":-0.118092,"reserved":0,"last_update":"0001-01-01T00:00:00Z","name_a2s":"Uncletopia | London | 2 | All Maps","protocol":17,"map":"koth_cascade","folder":"tf","game":"Team Fortress","app_id":440,"player_count":0,"max_players":24,"Bots":0,"server_type":"Dedicated","server_os":"Linux","password":true,"vac":true,"version":"7882260","steam_id":85568392924470941,"keywords":["cp","nocrits","nodmgspread","uncletopia"],"game_id":440,"stv_port":27026,"stv_name":"Uncletopia | London | 2 | All Maps | STV","players":null},{"server_id":320,"name":"Uncletopia | London | 3 | All Maps","name_short":"lon-3","host":"lon-1.uk.uncletopia.com","port":27035,"enabled":true,"region":"eu","cc":"gb","latitude":51.509865,"longitude":-0.118092,"reserved":0,"last_update":"0001-01-01T00:00:00Z","name_a2s":"Uncletopia | London | 3 | All Maps","protocol":17,"map":"pl_upward","folder":"tf","game":"Team Fortress","app_id":440,"player_count":20,"max_players":24,"Bots":0,"server_type":"Dedicated","server_os":"Linux","password":true,"vac":true,"version":"7882260","steam_id":85568392924510192,"keywords":["nocrits","nodmgspread","payload","uncletopia"],"game_id":440,"stv_port":27036,"stv_name":"Uncletopia | London | 3 | All Maps | STV","players":[{"user_id":1039,"name":"Danube501","steam_id":76561198143222686,"connected_time":4751000000000,"state":"active","ping":104},{"user_id":1085,"name":"phantASSm","steam_id":76561199480942903,"connected_time":826000000000,"state":"active","ping":75},{"user_id":1086,"name":"bachusa1657","steam_id":76561198202175911,"connected_time":775000000000,"state":"active","ping":75},{"user_id":1090,"name":"Majima Gaming HD","steam_id":76561198365750503,"connected_time":175000000000,"state":"active","ping":30},{"user_id":1024,"name":"øpossum","steam_id":76561198056152479,"connected_time":6224000000000,"state":"active","ping":45},{"user_id":1071,"name":"Neimon","steam_id":76561198343485710,"connected_time":2519000000000,"state":"active","ping":129},{"user_id":1077,"name":"goofster","steam_id":76561199052275857,"connected_time":1835000000000,"state":"active","ping":109},{"user_id":1073,"name":"I'm not gonna sugarcoat it","steam_id":76561198144597089,"connected_time":2389000000000,"state":"active","ping":60},{"user_id":1075,"name":"Luxotrics","steam_id":76561198053455161,"connected_time":2055000000000,"state":"active","ping":94},{"user_id":1081,"name":"idarmed","steam_id":76561198420064361,"connected_time":1520000000000,"state":"active","ping":158},{"user_id":1041,"name":"_no_flake","steam_id":76561198011786656,"connected_time":4671000000000,"state":"active","ping":124},{"user_id":1089,"name":"Final_MarioXD","steam_id":76561199184862419,"connected_time":222000000000,"state":"active","ping":174},{"user_id":1078,"name":"Peat","steam_id":76561197992168067,"connected_time":1781000000000,"state":"active","ping":73},{"user_id":1079,"name":"Cassaronpa","steam_id":76561198112985518,"connected_time":1618000000000,"state":"active","ping":43},{"user_id":1093,"name":"Stigurna","steam_id":76561198063906822,"connected_time":2000000000,"state":"spawning","ping":85},{"user_id":1048,"name":"M2rtRa","steam_id":76561198111036466,"connected_time":4496000000000,"state":"active","ping":75},{"user_id":1092,"name":"gus","steam_id":76561198876303958,"connected_time":124000000000,"state":"active","ping":103},{"user_id":1080,"name":"JamyJames","steam_id":76561198027925752,"connected_time":1607000000000,"state":"active","ping":45},{"user_id":1084,"name":"sex observer","steam_id":76561198341317252,"connected_time":954000000000,"state":"active","ping":180},{"user_id":994,"name":"RCST","steam_id":76561198174955254,"connected_time":8562000000000,"state":"active","ping":96}]},{"server_id":321,"name":"Uncletopia | London | 4 | All Maps","name_short":"lon-4","host":"lon-1.uk.uncletopia.com","port":27045,"enabled":true,"region":"eu","cc":"gb","latitude":51.509865,"longitude":-0.118092,"reserved":0,"last_update":"0001-01-01T00:00:00Z","name_a2s":"Uncletopia | London | 4 | All Maps","protocol":17,"map":"cp_process_final","folder":"tf","game":"Team Fortress","app_id":440,"player_count":0,"max_players":24,"Bots":0,"server_type":"Dedicated","server_os":"Linux","password":true,"vac":true,"version":"7882260","steam_id":85568392924510193,"keywords":["cp","nocrits","nodmgspread","uncletopia"],"game_id":440,"stv_port":27046,"stv_name":"Uncletopia | London | 4 | All Maps | STV","players":null},{"server_id":21,"name":"Uncletopia | London | 5 | All Maps","name_short":"lon-5","host":"lon-1.uk.uncletopia.com","port":27055,"enabled":true,"region":"eu","cc":"gb","latitude":51.509865,"longitude":-0.118092,"reserved":0,"last_update":"0001-01-01T00:00:00Z","name_a2s":"Uncletopia | London | 5 | All Maps","protocol":17,"map":"cp_process_final","folder":"tf","game":"Team Fortress","app_id":440,"player_count":0,"max_players":24,"Bots":0,"server_type":"Dedicated","server_os":"Linux","password":true,"vac":true,"version":"7882260","steam_id":85568392924742829,"keywords":["cp","nocrits","nodmgspread","uncletopia"],"game_id":440,"stv_port":27056,"stv_name":"Uncletopia | London | 5 | All Maps | STV","players":null},{"server_id":22,"name":"Uncletopia | London | 6 | All Maps","name_short":"lon-6","host":"lon-1.uk.uncletopia.com","port":27065,"enabled":true,"region":"eu","cc":"gb","latitude":51.509865,"longitude":-0.118092,"reserved":0,"last_update":"0001-01-01T00:00:00Z","name_a2s":"Uncletopia | London | 6 | All Maps","protocol":17,"map":"koth_highpass","folder":"tf","game":"Team Fortress","app_id":440,"player_count":0,"max_players":24,"Bots":0,"server_type":"Dedicated","server_os":"Linux","password":true,"vac":true,"version":"7882260","steam_id":85568392924742830,"keywords":["cp","nocrits","nodmgspread","uncletopia"],"game_id":440,"stv_port":27066,"stv_name":"Uncletopia | London | 6 | All Maps | STV","players":null},{"server_id":40,"name":"Uncletopia | London | 7 | No Payload","name_short":"lon-7","host":"lon-1.uk.uncletopia.com","port":27075,"enabled":true,"region":"eu","cc":"gb","latitude":51.509865,"longitude":-0.118092,"reserved":0,"last_update":"0001-01-01T00:00:00Z","name_a2s":"Uncletopia | London | 7 | No Payload","protocol":17,"map":"koth_highpass","folder":"tf","game":"Team Fortress","app_id":440,"player_count":0,"max_players":24,"Bots":0,"server_type":"Dedicated","server_os":"Linux","password":true,"vac":true,"version":"7882260","steam_id":85568392924964314,"keywords":["cp","nocrits","nodmgspread","uncletopia"],"game_id":440,"stv_port":27076,"stv_name":"Uncletopia | London | 7 | No Payload | STV","players":null},{"server_id":41,"name":"Uncletopia | London | 8 | Community","name_short":"lon-8","host":"lon-1.uk.uncletopia.com","port":27085,"enabled":true,"region":"eu","cc":"gb","latitude":51.509865,"longitude":-0.118092,"reserved":0,"last_update":"0001-01-01T00:00:00Z","name_a2s":"Uncletopia | London | 8 | Community","protocol":17,"map":"workshop/cp_snowbase_b18.ugc2081770490","folder":"tf","game":"Team Fortress","app_id":440,"player_count":0,"max_players":24,"Bots":0,"server_type":"Dedicated","server_os":"Linux","password":true,"vac":true,"version":"7882260","steam_id":85568392924964315,"keywords":["cp","nocrits","nodmgspread","uncletopia"],"game_id":440,"stv_port":27086,"stv_name":"Uncletopia | London | 8 | Community | STV","players":null},{"server_id":300,"name":"Uncletopia | Montréal | 1 | All Maps","name_short":"mtl-1","host":"mtl-1.ca.uncletopia.com","port":27015,"enabled":true,"region":"us-east","cc":"ca","latitude":45.50889,"longitude":-73.56167,"reserved":0,"last_update":"0001-01-01T00:00:00Z","name_a2s":"Uncletopia | Montréal | 1 | All Maps","protocol":17,"map":"koth_highpass","folder":"tf","game":"Team Fortress","app_id":440,"player_count":0,"max_players":24,"Bots":0,"server_type":"Dedicated","server_os":"Linux","password":true,"vac":true,"version":"7882260","steam_id":85568392924500087,"keywords":["cp","nocrits","nodmgspread","uncletopia"],"game_id":440,"stv_port":27016,"stv_name":"Uncletopia | Montréal | 1 | All Maps | STV","players":null},{"server_id":301,"name":"Uncletopia | Montréal | 2 | All Maps","name_short":"mtl-2","host":"mtl-1.ca.uncletopia.com","port":27025,"enabled":true,"region":"us-east","cc":"ca","latitude":45.50889,"longitude":-73.56167,"reserved":0,"last_update":"0001-01-01T00:00:00Z","name_a2s":"Uncletopia | Montréal | 2 | All Maps","protocol":17,"map":"pl_pier","folder":"tf","game":"Team Fortress","app_id":440,"player_count":24,"max_players":24,"Bots":0,"server_type":"Dedicated","server_os":"Linux","password":true,"vac":true,"version":"7882260","steam_id":85568392924500088,"keywords":["nocrits","nodmgspread","payload","uncletopia"],"game_id":440,"stv_port":27026,"stv_name":"Uncletopia | Montréal | 2 | All Maps | STV","players":[{"user_id":151,"name":"NastyStarchy","steam_id":76561198291849732,"connected_time":5742000000000,"state":"active","ping":43},{"user_id":190,"name":"hellen keller's dog","steam_id":76561198045356198,"connected_time":1546000000000,"state":"active","ping":57},{"user_id":196,"name":"boolian","steam_id":76561198172187922,"connected_time":1257000000000,"state":"active","ping":103},{"user_id":192,"name":"Big Manny","steam_id":76561198999284997,"connected_time":1478000000000,"state":"active","ping":177},{"user_id":193,"name":"Scotty","steam_id":76561198268006443,"connected_time":1468000000000,"state":"active","ping":98},{"user_id":194,"name":"Harvest Moon","steam_id":76561198952544658,"connected_time":1348000000000,"state":"active","ping":40},{"user_id":197,"name":"2L84U","steam_id":76561198079176017,"connected_time":1103000000000,"state":"active","ping":89},{"user_id":145,"name":"bug o1","steam_id":76561198126386686,"connected_time":5978000000000,"state":"active","ping":70},{"user_id":168,"name":"emseaeye","steam_id":76561198161499803,"connected_time":3877000000000,"state":"active","ping":52},{"user_id":183,"name":"MAXIMUS","steam_id":76561198085809453,"connected_time":3022000000000,"state":"active","ping":85},{"user_id":203,"name":"Dylan Pulido","steam_id":76561198272681544,"connected_time":750000000000,"state":"active","ping":106},{"user_id":204,"name":"faxxy","steam_id":76561198079621240,"connected_time":647000000000,"state":"active","ping":61},{"user_id":126,"name":"NexFrost","steam_id":76561197985774837,"connected_time":7248000000000,"state":"active","ping":75},{"user_id":187,"name":"OminousNoises","steam_id":76561198263320321,"connected_time":2639000000000,"state":"active","ping":116},{"user_id":172,"name":"Nut Bustray","steam_id":76561198092403883,"connected_time":3790000000000,"state":"active","ping":143},{"user_id":205,"name":"vi","steam_id":76561198388123421,"connected_time":605000000000,"state":"active","ping":120},{"user_id":198,"name":"FazeCumShot69","steam_id":76561199248475270,"connected_time":1079000000000,"state":"active","ping":71},{"user_id":131,"name":"hashmap","steam_id":76561198043794014,"connected_time":7117000000000,"state":"active","ping":46},{"user_id":199,"name":"HOTA","steam_id":76561199002778841,"connected_time":1044000000000,"state":"active","ping":87},{"user_id":210,"name":"Ripley","steam_id":76561198080766916,"connected_time":302000000000,"state":"active","ping":55},{"user_id":208,"name":"Idiot Princess","steam_id":76561198048205270,"connected_time":560000000000,"state":"active","ping":77},{"user_id":201,"name":"Bob's your Uncle","steam_id":76561197995230744,"connected_time":889000000000,"state":"active","ping":72},{"user_id":134,"name":"elastigo gomez","steam_id":76561198056834532,"connected_time":7021000000000,"state":"active","ping":71},{"user_id":202,"name":"Bottom Ramen","steam_id":76561197970450546,"connected_time":854000000000,"state":"active","ping":130}]},{"server_id":302,"name":"Uncletopia | Montréal | 3 | All Maps","name_short":"mtl-3","host":"mtl-1.ca.uncletopia.com","port":27035,"enabled":true,"region":"us-east","cc":"ca","latitude":45.50889,"longitude":-73.56167,"reserved":0,"last_update":"0001-01-01T00:00:00Z","name_a2s":"Uncletopia | Montréal | 3 | All Maps","protocol":17,"map":"pl_frontier_final","folder":"tf","game":"Team Fortress","app_id":440,"player_count":3,"max_players":24,"Bots":0,"server_type":"Dedicated","server_os":"Linux","password":true,"vac":true,"version":"7882260","steam_id":85568392924500089,"keywords":["nocrits","nodmgspread","payload","uncletopia"],"game_id":440,"stv_port":27036,"stv_name":"Uncletopia | Montréal | 3 | All Maps | STV","players":[{"user_id":18,"name":"Bip","steam_id":76561199022962204,"connected_time":7514000000000,"state":"active","ping":75},{"user_id":19,"name":"averagesoldiermain","steam_id":76561198158447466,"connected_time":7322000000000,"state":"active","ping":87},{"user_id":21,"name":"CivilWarMike","steam_id":76561198141188839,"connected_time":7247000000000,"state":"active","ping":71}]},{"server_id":303,"name":"Uncletopia | Montréal | 4 | No Payload","name_short":"mtl-4","host":"mtl-1.ca.uncletopia.com","port":27045,"enabled":true,"region":"us-east","cc":"ca","latitude":45.50889,"longitude":-73.56167,"reserved":0,"last_update":"0001-01-01T00:00:00Z","name_a2s":"Uncletopia | Montréal | 4 | No Payload","protocol":17,"map":"cp_mossrock","folder":"tf","game":"Team Fortress","app_id":440,"player_count":0,"max_players":24,"Bots":0,"server_type":"Dedicated","server_os":"Linux","password":true,"vac":true,"version":"7882260","steam_id":85568392924500090,"keywords":["cp","nocrits","nodmgspread","uncletopia"],"game_id":440,"stv_port":27046,"stv_name":"Uncletopia | Montréal | 4 | No Payload | STV","players":null},{"server_id":13,"name":"Uncletopia | New York City | 1 | All Maps","name_short":"nyc-1","host":"nyc-1.us.uncletopia.com","port":27015,"enabled":true,"region":"us-east","cc":"us","latitude":40.73061,"longitude":-73.93524,"reserved":0,"last_update":"0001-01-01T00:00:00Z","name_a2s":"Uncletopia | New York City | 1 | All Maps","protocol":17,"map":"ctf_doublecross","folder":"tf","game":"Team Fortress","app_id":440,"player_count":16,"max_players":24,"Bots":0,"server_type":"Dedicated","server_os":"Linux","password":true,"vac":true,"version":"7882260","steam_id":85568392924469993,"keywords":["ctf","nocrits","nodmgspread","uncletopia"],"game_id":440,"stv_port":27016,"stv_name":"Uncletopia | New York City | 1 | All Maps | STV","players":[{"user_id":558,"name":"Piccadilly Willy","steam_id":76561198000312126,"connected_time":191000000000,"state":"active","ping":72},{"user_id":560,"name":"Aviyarn","steam_id":76561199074194652,"connected_time":155000000000,"state":"active","ping":70},{"user_id":511,"name":"Samrizo el Chorizo","steam_id":76561198009838162,"connected_time":3963000000000,"state":"active","ping":47},{"user_id":561,"name":"Creeperlad 33","steam_id":76561199027120873,"connected_time":95000000000,"state":"active","ping":77},{"user_id":553,"name":"//MPinkStahli //_^","steam_id":76561198014421477,"connected_time":545000000000,"state":"active","ping":30},{"user_id":562,"name":"BingusScum","steam_id":76561198077095106,"connected_time":34000000000,"state":"active","ping":75},{"user_id":559,"name":"aiming with drawing tablet","steam_id":76561198397662124,"connected_time":174000000000,"state":"active","ping":99},{"user_id":556,"name":"starvin like marvin","steam_id":76561198347286009,"connected_time":404000000000,"state":"active","ping":65},{"user_id":563,"name":"Firecrotch Fredo","steam_id":76561198099658220,"connected_time":20000000000,"state":"active","ping":74},{"user_id":397,"name":"WePickBanjos","steam_id":76561198124311404,"connected_time":13211000000000,"state":"active","ping":64},{"user_id":549,"name":"nekoknight tf2","steam_id":76561198400058665,"connected_time":1118000000000,"state":"active","ping":60},{"user_id":494,"name":"(1)nekoknight tf2","steam_id":76561198297428761,"connected_time":5807000000000,"state":"active","ping":74},{"user_id":401,"name":"WALL-E","steam_id":76561198154701370,"connected_time":12990000000000,"state":"active","ping":76},{"user_id":521,"name":"Scrumpy_06","steam_id":76561199225798705,"connected_time":3034000000000,"state":"active","ping":101},{"user_id":501,"name":"WibbyOne","steam_id":76561198052843846,"connected_time":5315000000000,"state":"active","ping":33},{"user_id":452,"name":"Shady Shopkeep","steam_id":76561198025307628,"connected_time":8838000000000,"state":"active","ping":90}]},{"server_id":14,"name":"Uncletopia | New York City | 2 | All Maps","name_short":"nyc-2","host":"nyc-1.us.uncletopia.com","port":27025,"enabled":true,"region":"us-east","cc":"us","latitude":40.73061,"longitude":-73.93524,"reserved":0,"last_update":"0001-01-01T00:00:00Z","name_a2s":"Uncletopia | New York City | 2 | All Maps","protocol":17,"map":"pl_swiftwater_final1","folder":"tf","game":"Team Fortress","app_id":440,"player_count":24,"max_players":24,"Bots":0,"server_type":"Dedicated","server_os":"Linux","password":true,"vac":true,"version":"7882260","steam_id":85568392924469994,"keywords":["nocrits","nodmgspread","payload","uncletopia"],"game_id":440,"stv_port":27026,"stv_name":"Uncletopia | New York City | 2 | All Maps | STV","players":[{"user_id":586,"name":"Jester","steam_id":76561199203898660,"connected_time":808000000000,"state":"active","ping":94},{"user_id":589,"name":"Tiananmen Cube","steam_id":76561198030414506,"connected_time":241000000000,"state":"active","ping":76},{"user_id":584,"name":"Terror-Billy #SaveTF2","steam_id":76561198328141870,"connected_time":1094000000000,"state":"active","ping":66},{"user_id":576,"name":"Ziath","steam_id":76561198094009164,"connected_time":1483000000000,"state":"active","ping":45},{"user_id":585,"name":"Lumi","steam_id":76561198089978036,"connected_time":1065000000000,"state":"active","ping":53},{"user_id":571,"name":"Bocchi the Cock","steam_id":76561198152455316,"connected_time":1734000000000,"state":"active","ping":136},{"user_id":572,"name":"go touch keyboard","steam_id":76561198197388678,"connected_time":1730000000000,"state":"active","ping":79},{"user_id":518,"name":"bongos","steam_id":76561198025555734,"connected_time":4561000000000,"state":"active","ping":52},{"user_id":591,"name":"Oh, it's Zach","steam_id":76561198103309672,"connected_time":205000000000,"state":"active","ping":65},{"user_id":579,"name":"Snoogs","steam_id":76561198444880931,"connected_time":1259000000000,"state":"active","ping":61},{"user_id":511,"name":"Ugzugzug The Bucket Mann","steam_id":76561198836624330,"connected_time":5553000000000,"state":"active","ping":93},{"user_id":590,"name":"burger_hero","steam_id":76561198232617936,"connected_time":240000000000,"state":"active","ping":71},{"user_id":573,"name":"reis","steam_id":76561199232952016,"connected_time":1709000000000,"state":"active","ping":176},{"user_id":587,"name":"tinkerbell","steam_id":76561197978351201,"connected_time":747000000000,"state":"active","ping":153},{"user_id":547,"name":"Skysillade","steam_id":76561198175485754,"connected_time":2742000000000,"state":"active","ping":88},{"user_id":550,"name":"Eugen","steam_id":76561198189680905,"connected_time":2672000000000,"state":"active","ping":57},{"user_id":577,"name":"Resident Catboy","steam_id":76561198386404089,"connected_time":1405000000000,"state":"active","ping":74},{"user_id":499,"name":"Ferguson","steam_id":76561198121349387,"connected_time":6743000000000,"state":"active","ping":85},{"user_id":558,"name":"Bush.exe","steam_id":76561198124385307,"connected_time":2508000000000,"state":"active","ping":70},{"user_id":592,"name":"@pauljac3_","steam_id":76561198099591549,"connected_time":181000000000,"state":"active","ping":61},{"user_id":527,"name":"The Cannoneer","steam_id":76561198071368120,"connected_time":4361000000000,"state":"active","ping":70},{"user_id":593,"name":"euphoricfilth (it/her)","steam_id":76561198100160865,"connected_time":131000000000,"state":"active","ping":45},{"user_id":552,"name":"Blue Eyes Ace Dragon.","steam_id":76561198048214237,"connected_time":2630000000000,"state":"active","ping":43},{"user_id":594,"name":"Neophyte","steam_id":76561198027183394,"connected_time":55000000000,"state":"active","ping":110}]},{"server_id":15,"name":"Uncletopia | New York City | 3 | Stopwatch Beta","name_short":"nyc-3","host":"nyc-1.us.uncletopia.com","port":27035,"enabled":true,"region":"us-east","cc":"us","latitude":40.73061,"longitude":-73.93524,"reserved":0,"last_update":"0001-01-01T00:00:00Z","name_a2s":"Uncletopia | New York City | 3 | Stopwatch Beta","protocol":17,"map":"workshop/koth_bagel_rc6.ugc2514036946","folder":"tf","game":"Team Fortress","app_id":440,"player_count":0,"max_players":24,"Bots":0,"server_type":"Dedicated","server_os":"Linux","password":true,"vac":true,"version":"7882260","steam_id":85568392924742820,"keywords":["cp","nocrits","nodmgspread","uncletopia"],"game_id":440,"stv_port":27036,"stv_name":"Uncletopia | New York City | 3 | Stopwatch Beta | STV","players":null},{"server_id":16,"name":"Uncletopia | New York City | 4 | Community","name_short":"nyc-4","host":"nyc-1.us.uncletopia.com","port":27045,"enabled":true,"region":"us-east","cc":"us","latitude":40.73061,"longitude":-73.93524,"reserved":0,"last_update":"0001-01-01T00:00:00Z","name_a2s":"Uncletopia | New York City | 4 | Community","protocol":17,"map":"workshop/cp_villa_b19.ugc2113052569","folder":"tf","game":"Team Fortress","app_id":440,"player_count":15,"max_players":24,"Bots":0,"server_type":"Dedicated","server_os":"Linux","password":true,"vac":true,"version":"7882260","steam_id":85568392924742821,"keywords":["cp","nocrits","nodmgspread","uncletopia"],"game_id":440,"stv_port":27046,"stv_name":"Uncletopia | New York City | 4 | Community | STV","players":[{"user_id":301,"name":"Lost CS player","steam_id":76561198892387723,"connected_time":3125000000000,"state":"active","ping":73},{"user_id":319,"name":"Musica Universalis","steam_id":76561198184794174,"connected_time":1331000000000,"state":"active","ping":67},{"user_id":332,"name":"alan","steam_id":76561198281442409,"connected_time":124000000000,"state":"active","ping":54},{"user_id":283,"name":"Lavender","steam_id":76561198142770666,"connected_time":4239000000000,"state":"active","ping":86},{"user_id":302,"name":"Your Femboy Bf","steam_id":76561198810879322,"connected_time":3063000000000,"state":"active","ping":102},{"user_id":324,"name":"Tom Crúaich","steam_id":76561197999439911,"connected_time":904000000000,"state":"active","ping":90},{"user_id":325,"name":"Super D Duper","steam_id":76561198078203677,"connected_time":804000000000,"state":"active","ping":52},{"user_id":310,"name":"wunkem","steam_id":76561198055948497,"connected_time":2775000000000,"state":"active","ping":84},{"user_id":312,"name":"artichoke","steam_id":76561198980994364,"connected_time":2698000000000,"state":"active","ping":79},{"user_id":309,"name":"gorf?","steam_id":76561198142286417,"connected_time":2832000000000,"state":"active","ping":67},{"user_id":326,"name":"raduski","steam_id":76561198795699119,"connected_time":638000000000,"state":"active","ping":105},{"user_id":314,"name":"PonPanTon","steam_id":76561198871103633,"connected_time":2234000000000,"state":"active","ping":67},{"user_id":315,"name":"Razz","steam_id":76561198158027533,"connected_time":2112000000000,"state":"active","ping":74},{"user_id":330,"name":"❤ M E L O D Y ❤","steam_id":76561199259928187,"connected_time":526000000000,"state":"active","ping":119},{"user_id":329,"name":"vulcanic09","steam_id":76561199466903667,"connected_time":563000000000,"state":"active","ping":81}]},{"server_id":142,"name":"Uncletopia | São Paulo | 1 | All Maps","name_short":"sao-1","host":"sao-1.br.uncletopia.com","port":27015,"enabled":true,"region":"sa","cc":"br","latitude":-23.533773,"longitude":-46.62529,"reserved":0,"last_update":"0001-01-01T00:00:00Z","name_a2s":"Uncletopia | São Paulo | 1 | All Maps","protocol":17,"map":"koth_lakeside_final","folder":"tf","game":"Team Fortress","app_id":440,"player_count":0,"max_players":24,"Bots":0,"server_type":"Dedicated","server_os":"Linux","password":true,"vac":true,"version":"7882260","steam_id":85568392924469996,"keywords":["cp","nocrits","nodmgspread","uncletopia"],"game_id":440,"stv_port":27016,"stv_name":"Uncletopia | São Paulo | 1 | All Maps | STV","players":null},{"server_id":143,"name":"Uncletopia | São Paulo | 2 | All Maps","name_short":"sao-2","host":"sao-2.br.uncletopia.com","port":27015,"enabled":true,"region":"sa","cc":"br","latitude":-23.533773,"longitude":-46.62529,"reserved":0,"last_update":"0001-01-01T00:00:00Z","name_a2s":"Uncletopia | São Paulo | 2 | All Maps","protocol":17,"map":"koth_lakeside_final","folder":"tf","game":"Team Fortress","app_id":440,"player_count":2,"max_players":24,"Bots":0,"server_type":"Dedicated","server_os":"Linux","password":true,"vac":true,"version":"7882260","steam_id":85568392924485349,"keywords":["cp","nocrits","nodmgspread","uncletopia"],"game_id":440,"stv_port":27016,"stv_name":"Uncletopia | São Paulo | 2 | All Maps | STV","players":[{"user_id":321,"name":"Tusk ⭐⭐⭐","steam_id":76561198109725714,"connected_time":1159000000000,"state":"active","ping":87},{"user_id":322,"name":"Jack  ❤","steam_id":76561198318281303,"connected_time":1142000000000,"state":"active","ping":97}]},{"server_id":7,"name":"Uncletopia | Seattle | 1 | All Maps","name_short":"sea-1","host":"sea-1.us.uncletopia.com","port":27015,"enabled":true,"region":"us-west","cc":"us","latitude":47.608013,"longitude":-122.33517,"reserved":0,"last_update":"0001-01-01T00:00:00Z","name_a2s":"Uncletopia | Seattle | 1 | All Maps","protocol":17,"map":"koth_viaduct","folder":"tf","game":"Team Fortress","app_id":440,"player_count":24,"max_players":24,"Bots":0,"server_type":"Dedicated","server_os":"Linux","password":true,"vac":true,"version":"7882260","steam_id":85568392924469997,"keywords":["cp","nocrits","nodmgspread","uncletopia"],"game_id":440,"stv_port":27016,"stv_name":"Uncletopia | Seattle | 1 | All Maps | STV","players":[{"user_id":667,"name":"fartstreaks active","steam_id":76561198046073848,"connected_time":518000000000,"state":"active","ping":47},{"user_id":644,"name":"Finkly","steam_id":76561198049828110,"connected_time":1679000000000,"state":"active","ping":36},{"user_id":651,"name":"Mignyanne :3","steam_id":76561198048754056,"connected_time":1228000000000,"state":"active","ping":64},{"user_id":673,"name":"VerminKing","steam_id":76561198060887391,"connected_time":123000000000,"state":"active","ping":54},{"user_id":664,"name":"gorlab","steam_id":76561198025089694,"connected_time":663000000000,"state":"active","ping":66},{"user_id":601,"name":"soup","steam_id":76561198043209046,"connected_time":5203000000000,"state":"active","ping":81},{"user_id":668,"name":"Casual Lady Enjoyer","steam_id":76561198130038345,"connected_time":192000000000,"state":"active","ping":62},{"user_id":670,"name":"TurquoiseLeaf","steam_id":76561198846735210,"connected_time":138000000000,"state":"active","ping":254},{"user_id":655,"name":"makeshift_burrito","steam_id":76561198042510825,"connected_time":1162000000000,"state":"active","ping":71},{"user_id":631,"name":"Cheezbeargur","steam_id":76561198164702899,"connected_time":3117000000000,"state":"active","ping":67},{"user_id":657,"name":"ඞ","steam_id":76561198256701755,"connected_time":1111000000000,"state":"active","ping":60},{"user_id":653,"name":"Tom","steam_id":76561198070630154,"connected_time":1196000000000,"state":"active","ping":85},{"user_id":636,"name":"dust | she/it","steam_id":76561198045218909,"connected_time":2854000000000,"state":"active","ping":44},{"user_id":648,"name":"Coowil","steam_id":76561198070985437,"connected_time":1500000000000,"state":"active","ping":44},{"user_id":652,"name":"rorywashere /ᐠ - ˕ -マ Ⳋ","steam_id":76561198065825165,"connected_time":1227000000000,"state":"active","ping":99},{"user_id":671,"name":"4logan","steam_id":76561198835163155,"connected_time":138000000000,"state":"active","ping":44},{"user_id":599,"name":"Username","steam_id":76561198855586261,"connected_time":5260000000000,"state":"active","ping":88},{"user_id":658,"name":"Chocc","steam_id":76561198068070211,"connected_time":1110000000000,"state":"active","ping":88},{"user_id":396,"name":"Fallen","steam_id":76561198206490352,"connected_time":22916000000000,"state":"active","ping":78},{"user_id":665,"name":"mub","steam_id":76561197961943948,"connected_time":663000000000,"state":"active","ping":49},{"user_id":672,"name":"Banzailizard","steam_id":76561197986785469,"connected_time":137000000000,"state":"active","ping":65},{"user_id":622,"name":"oil","steam_id":76561198099980149,"connected_time":4190000000000,"state":"active","ping":82},{"user_id":663,"name":"Willy Wonker","steam_id":76561198082944789,"connected_time":669000000000,"state":"active","ping":82},{"user_id":633,"name":"jorts","steam_id":76561199041179985,"connected_time":2951000000000,"state":"active","ping":70}]},{"server_id":119,"name":"Uncletopia | Seattle | 2 | All Maps","name_short":"sea-2","host":"sea-1.us.uncletopia.com","port":27025,"enabled":true,"region":"us-west","cc":"us","latitude":47.608013,"longitude":-122.33517,"reserved":0,"last_update":"0001-01-01T00:00:00Z","name_a2s":"Uncletopia | Seattle | 2 | All Maps","protocol":17,"map":"pl_upward","folder":"tf","game":"Team Fortress","app_id":440,"player_count":24,"max_players":24,"Bots":0,"server_type":"Dedicated","server_os":"Linux","password":true,"vac":true,"version":"7882260","steam_id":85568392924469998,"keywords":["nocrits","nodmgspread","payload","uncletopia"],"game_id":440,"stv_port":27026,"stv_name":"Uncletopia | Seattle | 2 | All Maps | STV","players":[{"user_id":448,"name":"PigThing","steam_id":76561198404374251,"connected_time":286000000000,"state":"active","ping":58},{"user_id":439,"name":"General Fisticuffs","steam_id":76561198255721392,"connected_time":478000000000,"state":"active","ping":104},{"user_id":445,"name":"gnoblin","steam_id":76561198314221897,"connected_time":315000000000,"state":"active","ping":48},{"user_id":434,"name":"cupnoodles","steam_id":76561198076137957,"connected_time":602000000000,"state":"active","ping":75},{"user_id":372,"name":"Thanks Ants","steam_id":76561197966221018,"connected_time":2120000000000,"state":"active","ping":48},{"user_id":375,"name":"benji","steam_id":76561198084417967,"connected_time":2044000000000,"state":"active","ping":69},{"user_id":369,"name":"man","steam_id":76561198119873061,"connected_time":2138000000000,"state":"active","ping":87},{"user_id":351,"name":"blorbule","steam_id":76561198872316133,"connected_time":5222000000000,"state":"active","ping":65},{"user_id":441,"name":"CozzyEh","steam_id":76561199137063042,"connected_time":369000000000,"state":"active","ping":49},{"user_id":417,"name":"communism's weakest engineer","steam_id":76561198011331991,"connected_time":982000000000,"state":"active","ping":49},{"user_id":446,"name":"AtomSQRRL","steam_id":76561199151951364,"connected_time":302000000000,"state":"active","ping":60},{"user_id":362,"name":"SolarusD","steam_id":76561198029279861,"connected_time":3138000000000,"state":"active","ping":64},{"user_id":447,"name":"Major_Pippy","steam_id":76561198004482878,"connected_time":293000000000,"state":"active","ping":53},{"user_id":367,"name":"Person","steam_id":76561198073885832,"connected_time":2943000000000,"state":"active","ping":85},{"user_id":443,"name":"mmmBoyo","steam_id":76561198821360261,"connected_time":333000000000,"state":"active","ping":71},{"user_id":435,"name":"aisu","steam_id":76561198043768507,"connected_time":601000000000,"state":"active","ping":91},{"user_id":366,"name":"Real (real)","steam_id":76561199059653595,"connected_time":3079000000000,"state":"active","ping":51},{"user_id":436,"name":"Mapachito Lindo","steam_id":76561198031359995,"connected_time":585000000000,"state":"active","ping":43},{"user_id":318,"name":"Dr. Cgad","steam_id":76561198203411640,"connected_time":8334000000000,"state":"active","ping":116},{"user_id":450,"name":"b0urbaki7","steam_id":76561198141342345,"connected_time":0,"state":"spawning","ping":0},{"user_id":442,"name":"Roni1213","steam_id":76561198408533295,"connected_time":345000000000,"state":"active","ping":52},{"user_id":395,"name":"worker","steam_id":76561198039608940,"connected_time":1493000000000,"state":"active","ping":56},{"user_id":444,"name":"sTAPler","steam_id":76561198394008714,"connected_time":332000000000,"state":"active","ping":85},{"user_id":391,"name":"Keamy","steam_id":76561199471434875,"connected_time":1613000000000,"state":"active","ping":45}]},{"server_id":406,"name":"Uncletopia | Seattle | 3 | Stopwatch Beta","name_short":"sea-3","host":"sea-1.us.uncletopia.com","port":27035,"enabled":true,"region":"us-west","cc":"us","latitude":47.608013,"longitude":-122.33517,"reserved":0,"last_update":"0001-01-01T00:00:00Z","name_a2s":"Uncletopia | Seattle | 3 | Stopwatch Beta","protocol":17,"map":"workshop/koth_product_final.ugc454272353","folder":"tf","game":"Team Fortress","app_id":440,"player_count":12,"max_players":24,"Bots":0,"server_type":"Dedicated","server_os":"Linux","password":true,"vac":true,"version":"7882260","steam_id":85568392924515217,"keywords":["cp","nocrits","nodmgspread","uncletopia"],"game_id":440,"stv_port":27036,"stv_name":"Uncletopia | Seattle | 3 | Stopwatch Beta | STV","players":[{"user_id":213,"name":"chimplicity","steam_id":76561198012097062,"connected_time":1539000000000,"state":"active","ping":100},{"user_id":94,"name":"TurkeyBaconEggz","steam_id":76561198881942791,"connected_time":9149000000000,"state":"active","ping":52},{"user_id":231,"name":"Elfy","steam_id":76561199166448617,"connected_time":126000000000,"state":"active","ping":56},{"user_id":216,"name":"Lonestar827","steam_id":76561198035533639,"connected_time":1371000000000,"state":"active","ping":47},{"user_id":212,"name":"Grassman (Cc)","steam_id":76561198026488532,"connected_time":1628000000000,"state":"active","ping":60},{"user_id":209,"name":"Sleempreem","steam_id":76561198131987251,"connected_time":1727000000000,"state":"active","ping":66},{"user_id":221,"name":"DarkMewMew","steam_id":76561199471715552,"connected_time":1083000000000,"state":"active","ping":92},{"user_id":223,"name":"Funky 3GG","steam_id":76561199181214507,"connected_time":926000000000,"state":"active","ping":70},{"user_id":229,"name":"Odyssey","steam_id":76561198399729282,"connected_time":335000000000,"state":"active","ping":56},{"user_id":226,"name":"SAP","steam_id":76561198005186905,"connected_time":560000000000,"state":"active","ping":56},{"user_id":230,"name":"Claaws","steam_id":76561198159589471,"connected_time":290000000000,"state":"active","ping":55},{"user_id":232,"name":"ShredMaan","steam_id":76561198429982138,"connected_time":110000000000,"state":"active","ping":78}]},{"server_id":17,"name":"Uncletopia | San Francisco | 1 | All Maps","name_short":"sfo-1","host":"sfo-1.us.uncletopia.com","port":27015,"enabled":true,"region":"us-west","cc":"us","latitude":37.77397,"longitude":-122.4313,"reserved":0,"last_update":"0001-01-01T00:00:00Z","name_a2s":"Uncletopia | San Francisco | 1 | All Maps","protocol":17,"map":"cp_process_final","folder":"tf","game":"Team Fortress","app_id":440,"player_count":0,"max_players":24,"Bots":0,"server_type":"Dedicated","server_os":"Linux","password":true,"vac":true,"version":"7757534","steam_id":85568392924469999,"keywords":["cp","nocrits","nodmgspread","uncletopia"],"game_id":440,"stv_port":27016,"stv_name":"Uncletopia | San Francisco | 1 | All Maps | STV","players":null},{"server_id":18,"name":"Uncletopia | San Francisco | 2 | All Maps","name_short":"sfo-2","host":"sfo-1.us.uncletopia.com","port":27025,"enabled":true,"region":"us-west","cc":"us","latitude":37.77397,"longitude":-122.4313,"reserved":0,"last_update":"0001-01-01T00:00:00Z","name_a2s":"Uncletopia | San Francisco | 2 | All Maps","protocol":17,"map":"koth_highpass","folder":"tf","game":"Team Fortress","app_id":440,"player_count":0,"max_players":24,"Bots":0,"server_type":"Dedicated","server_os":"Linux","password":true,"vac":true,"version":"7757534","steam_id":85568392924470000,"keywords":["cp","nocrits","nodmgspread","uncletopia"],"game_id":440,"stv_port":27026,"stv_name":"Uncletopia | San Francisco | 2 | All Maps | STV","players":null},{"server_id":19,"name":"Uncletopia | San Francisco | 3 | Stopwatch Beta","name_short":"sfo-3","host":"sfo-1.us.uncletopia.com","port":27035,"enabled":true,"region":"us-west","cc":"us","latitude":37.77397,"longitude":-122.4313,"reserved":0,"last_update":"0001-01-01T00:00:00Z","name_a2s":"Uncletopia | San Francisco | 3 | Stopwatch Beta","protocol":17,"map":"koth_lakeside_final","folder":"tf","game":"Team Fortress","app_id":440,"player_count":0,"max_players":24,"Bots":0,"server_type":"Dedicated","server_os":"Linux","password":true,"vac":true,"version":"7757534","steam_id":85568392924742824,"keywords":["cp","nocrits","nodmgspread","uncletopia"],"game_id":440,"stv_port":27036,"stv_name":"Uncletopia | San Francisco | 3 | Stopwatch Beta | STV","players":null},{"server_id":20,"name":"Uncletopia | San Francisco | 4 | Community","name_short":"sfo-4","host":"sfo-1.us.uncletopia.com","port":27045,"enabled":true,"region":"us-west","cc":"us","latitude":37.77397,"longitude":-122.4313,"reserved":0,"last_update":"0001-01-01T00:00:00Z","name_a2s":"Uncletopia | San Francisco | 4 | Community","protocol":17,"map":"cp_altitude","folder":"tf","game":"Team Fortress","app_id":440,"player_count":0,"max_players":24,"Bots":0,"server_type":"Dedicated","server_os":"Linux","password":true,"vac":true,"version":"7757534","steam_id":85568392924742826,"keywords":["cp","nocrits","nodmgspread","uncletopia"],"game_id":440,"stv_port":27046,"stv_name":"Uncletopia | San Francisco | 4 | Community | STV","players":null},{"server_id":141,"name":"Uncletopia | Sydney | 1 | All Maps","name_short":"syd-1","host":"syd-1.au.uncletopia.com","port":27015,"enabled":true,"region":"au","cc":"au","latitude":-33.865143,"longitude":151.2099,"reserved":0,"last_update":"0001-01-01T00:00:00Z","name_a2s":"Uncletopia | Sydney | 1 | All Maps","protocol":17,"map":"koth_lakeside_final","folder":"tf","game":"Team Fortress","app_id":440,"player_count":0,"max_players":24,"Bots":0,"server_type":"Dedicated","server_os":"Linux","password":true,"vac":true,"version":"7882260","steam_id":85568392924470001,"keywords":["cp","nocrits","nodmgspread","uncletopia"],"game_id":440,"stv_port":27016,"stv_name":"Uncletopia | Sydney | 1 | All Maps | STV","players":null},{"server_id":123,"name":"Uncletopia | Sydney | 2 | All Maps","name_short":"syd-2","host":"syd-1.au.uncletopia.com","port":27025,"enabled":true,"region":"au","cc":"au","latitude":-33.865143,"longitude":151.2099,"reserved":0,"last_update":"0001-01-01T00:00:00Z","name_a2s":"Uncletopia | Sydney | 2 | All Maps","protocol":17,"map":"koth_viaduct","folder":"tf","game":"Team Fortress","app_id":440,"player_count":0,"max_players":24,"Bots":0,"server_type":"Dedicated","server_os":"Linux","password":true,"vac":true,"version":"7882260","steam_id":85568392924470002,"keywords":["cp","nocrits","nodmgspread","uncletopia"],"game_id":440,"stv_port":27026,"stv_name":"Uncletopia | Sydney | 2 | All Maps | STV","players":null},{"server_id":395,"name":"Uncletopia | Sydney | 3 | All Maps","name_short":"syd-3","host":"syd-1.au.uncletopia.com","port":27035,"enabled":true,"region":"au","cc":"au","latitude":-33.865143,"longitude":151.2099,"reserved":0,"last_update":"0001-01-01T00:00:00Z","name_a2s":"Uncletopia | Sydney | 3 | All Maps","protocol":17,"map":"koth_highpass","folder":"tf","game":"Team Fortress","app_id":440,"player_count":0,"max_players":24,"Bots":0,"server_type":"Dedicated","server_os":"Linux","password":true,"vac":true,"version":"7882260","steam_id":85568392925194467,"keywords":["cp","nocrits","nodmgspread","uncletopia"],"game_id":440,"stv_port":27036,"stv_name":"Uncletopia | Sydney | 3 | All Maps | STV","players":null},{"server_id":396,"name":"Uncletopia | Sydney | 4 | All Maps","name_short":"syd-4","host":"syd-1.au.uncletopia.com","port":27045,"enabled":true,"region":"au","cc":"au","latitude":-33.865143,"longitude":151.2099,"reserved":0,"last_update":"0001-01-01T00:00:00Z","name_a2s":"Uncletopia | Sydney | 4 | All Maps","protocol":17,"map":"pl_snowycoast","folder":"tf","game":"Team Fortress","app_id":440,"player_count":0,"max_players":24,"Bots":0,"server_type":"Dedicated","server_os":"Linux","password":true,"vac":true,"version":"7882260","steam_id":85568392925397958,"keywords":["nocrits","nodmgspread","payload","uncletopia"],"game_id":440,"stv_port":27046,"stv_name":"Uncletopia | Sydney | 4 | All Maps | STV","players":null},{"server_id":58,"name":"Uncletopia | Sydney | 5 | Stopwatch Beta","name_short":"syd-5","host":"syd-1.au.uncletopia.com","port":27055,"enabled":true,"region":"au","cc":"au","latitude":-33.865143,"longitude":151.2099,"reserved":0,"last_update":"0001-01-01T00:00:00Z","name_a2s":"Uncletopia | Sydney | 5 | Stopwatch Beta","protocol":17,"map":"koth_lakeside_final","folder":"tf","game":"Team Fortress","app_id":440,"player_count":0,"max_players":24,"Bots":0,"server_type":"Dedicated","server_os":"Linux","password":true,"vac":true,"version":"7882260","steam_id":85568392925397959,"keywords":["cp","nocrits","nodmgspread","uncletopia"],"game_id":440,"stv_port":27056,"stv_name":"Uncletopia | Sydney | 5 | Stopwatch Beta | STV","players":null},{"server_id":59,"name":"Uncletopia | Sydney | 6 | Community","name_short":"syd-6","host":"syd-1.au.uncletopia.com","port":27065,"enabled":true,"region":"au","cc":"au","latitude":-33.865143,"longitude":151.2099,"reserved":0,"last_update":"0001-01-01T00:00:00Z","name_a2s":"Uncletopia | Sydney | 6 | Community","protocol":17,"map":"pl_snowycoast","folder":"tf","game":"Team Fortress","app_id":440,"player_count":0,"max_players":24,"Bots":0,"server_type":"Dedicated","server_os":"Linux","password":true,"vac":true,"version":"7882260","steam_id":85568392925397960,"keywords":["nocrits","nodmgspread","payload","uncletopia"],"game_id":440,"stv_port":27066,"stv_name":"Uncletopia | Sydney | 6 | Community | STV","players":null},{"server_id":49,"name":"Uncletopia | Warsaw | 1 | All Maps","name_short":"waw-1","host":"waw-1.pl.uncletopia.com","port":27015,"enabled":true,"region":"eu","cc":"pl","latitude":52.2297,"longitude":21.017532,"reserved":0,"last_update":"0001-01-01T00:00:00Z","name_a2s":"","protocol":0,"map":"","folder":"","game":"","app_id":0,"player_count":0,"max_players":0,"Bots":0,"server_type":"","server_os":"","password":false,"vac":false,"version":"","steam_id":0,"keywords":null,"game_id":0,"stv_port":0,"stv_name":"","players":null},{"server_id":50,"name":"Uncletopia | Warsaw | 2 | All Maps","name_short":"waw-2","host":"waw-1.pl.uncletopia.com","port":27025,"enabled":true,"region":"eu","cc":"pl","latitude":52.2297,"longitude":21.017532,"reserved":0,"last_update":"0001-01-01T00:00:00Z","name_a2s":"Uncletopia | Warsaw | 2 | All Maps","protocol":17,"map":"koth_highpass","folder":"tf","game":"Team Fortress","app_id":440,"player_count":0,"max_players":24,"Bots":0,"server_type":"Dedicated","server_os":"Linux","password":true,"vac":true,"version":"7882260","steam_id":85568392925397851,"keywords":["cp","nocrits","nodmgspread","uncletopia"],"game_id":440,"stv_port":27026,"stv_name":"Uncletopia | Warsaw | 2 | All Maps | STV","players":null},{"server_id":51,"name":"Uncletopia | Warsaw | 3 | All Maps","name_short":"waw-3","host":"waw-1.pl.uncletopia.com","port":27035,"enabled":true,"region":"eu","cc":"pl","latitude":52.2297,"longitude":21.017532,"reserved":0,"last_update":"0001-01-01T00:00:00Z","name_a2s":"Uncletopia | Warsaw | 3 | All Maps","protocol":17,"map":"cp_altitude","folder":"tf","game":"Team Fortress","app_id":440,"player_count":0,"max_players":24,"Bots":0,"server_type":"Dedicated","server_os":"Linux","password":true,"vac":true,"version":"7882260","steam_id":85568392925397852,"keywords":["cp","nocrits","nodmgspread","uncletopia"],"game_id":440,"stv_port":27036,"stv_name":"Uncletopia | Warsaw | 3 | All Maps | STV","players":null},{"server_id":52,"name":"Uncletopia | Warsaw | 4 | All Maps","name_short":"waw-4","host":"waw-1.pl.uncletopia.com","port":27045,"enabled":true,"region":"eu","cc":"pl","latitude":52.2297,"longitude":21.017532,"reserved":0,"last_update":"0001-01-01T00:00:00Z","name_a2s":"Uncletopia | Warsaw | 4 | All Maps","protocol":17,"map":"pl_frontier_final","folder":"tf","game":"Team Fortress","app_id":440,"player_count":0,"max_players":24,"Bots":0,"server_type":"Dedicated","server_os":"Linux","password":true,"vac":true,"version":"7882260","steam_id":85568392925397853,"keywords":["nocrits","nodmgspread","payload","uncletopia"],"game_id":440,"stv_port":27046,"stv_name":"Uncletopia | Warsaw | 4 | All Maps | STV","players":null},{"server_id":53,"name":"Uncletopia | Warsaw | 5 | Stopwatch Beta","name_short":"waw-5","host":"waw-1.pl.uncletopia.com","port":27055,"enabled":true,"region":"eu","cc":"pl","latitude":52.2297,"longitude":21.017532,"reserved":0,"last_update":"0001-01-01T00:00:00Z","name_a2s":"Uncletopia | Warsaw | 5 | Stopwatch Beta","protocol":17,"map":"workshop/koth_ramjam_rc1.ugc459778887","folder":"tf","game":"Team Fortress","app_id":440,"player_count":0,"max_players":24,"Bots":0,"server_type":"Dedicated","server_os":"Linux","password":true,"vac":true,"version":"7882260","steam_id":85568392925397854,"keywords":["cp","nocrits","nodmgspread","uncletopia"],"game_id":440,"stv_port":27056,"stv_name":"Uncletopia | Warsaw | 5 | Stopwatch Beta | STV","players":null},{"server_id":54,"name":"Uncletopia | Warsaw | 6 | Community","name_short":"waw-6","host":"waw-1.pl.uncletopia.com","port":27065,"enabled":true,"region":"eu","cc":"pl","latitude":52.2297,"longitude":21.017532,"reserved":0,"last_update":"0001-01-01T00:00:00Z","name_a2s":"Uncletopia | Warsaw | 6 | Community","protocol":17,"map":"koth_viaduct","folder":"tf","game":"Team Fortress","app_id":440,"player_count":0,"max_players":24,"Bots":0,"server_type":"Dedicated","server_os":"Linux","password":true,"vac":true,"version":"7882260","steam_id":85568392925397856,"keywords":["cp","nocrits","nodmgspread","uncletopia"],"game_id":440,"stv_port":27066,"stv_name":"Uncletopia | Warsaw | 6 | Community | STV","players":null}]}