{"status":true,"message":"","result":[{"server_id":9,"name":"Uncletopia | Atlanta | 1 | All Maps","name_short":"atl-1","host":"atl-1.us.uncletopia.com","port":27015,"enabled":true,"region":"us-east","cc":"us","latitude":33.753746,"longitude":-84.38633,"reserved":0,"last_update":"0001-01-01T00:00:00Z","name_a2s":"Uncletopia | Atlanta | 1 | All Maps","protocol":17,"map":"koth_viaduct","folder":"tf","game":"Team Fortress","app_id":440,"player_count":0,"max_players":24,"Bots":0,"server_type":"Dedicated","server_os":"Linux","password":true,"vac":true,"version":"7932396","steam_id":85568392924469982,"keywords":["cp","nocrits","nodmgspread","uncletopia"],"game_id":440,"stv_port":27016,"stv_name":"Uncletopia | Atlanta | 1 | All Maps | STV","players":null},{"server_id":104,"name":"Uncletopia | Atlanta | 2 | All Maps","name_short":"atl-2","host":"atl-1.us.uncletopia.com","port":27025,"enabled":true,"region":"us-east","cc":"us","latitude":33.753746,"longitude":-84.38633,"reserved":0,"last_update":"0001-01-01T00:00:00Z","name_a2s":"Uncletopia | Atlanta | 2 | All Maps","protocol":17,"map":"pl_pier","folder":"tf","game":"Team Fortress","app_id":440,"player_count":0,"max_players":24,"Bots":0,"server_type":"Dedicated","server_os":"Linux","password":true,"vac":true,"version":"7932396","steam_id":85568392924469983,"keywords":["nocrits","nodmgspread","payload","uncletopia"],"game_id":440,"stv_port":27026,"stv_name":"Uncletopia | Atlanta | 2 | All Maps | STV","players":null},{"server_id":400,"name":"Uncletopia | Atlanta | 3 | Community","name_short":"atl-3","host":"atl-1.us.uncletopia.com","port":27035,"enabled":true,"region":"us-east","cc":"us","latitude":33.753746,"longitude":-84.38633,"reserved":0,"last_update":"0001-01-01T00:00:00Z","name_a2s":"Uncletopia | Atlanta | 3 | Community","protocol":17,"map":"workshop/koth_trenchfoot_b1a.ugc731436616","folder":"tf","game":"Team Fortress","app_id":440,"player_count":0,"max_players":24,"Bots":0,"server_type":"Dedicated","server_os":"Linux","password":true,"vac":true,"version":"7932396","steam_id":85568392924515187,"keywords":["cp","nocrits","nodmgspread","uncletopia"],"game_id":440,"stv_port":27036,"stv_name":"Uncletopia | Atlanta | 3 | Community | STV","players":null},{"server_id":401,"name":"Uncletopia | Atlanta | 4 | No Payload","name_short":"atl-4","host":"atl-1.us.uncletopia.com","port":27045,"enabled":true,"region":"us-east","cc":"us","latitude":33.753746,"longitude":-84.38633,"reserved":0,"last_update":"0001-01-01T00:00:00Z","name_a2s":"","protocol":0,"map":"","folder":"","game":"","app_id":0,"player_count":0,"max_players":0,"Bots":0,"server_type":"","server_os":"","password":false,"vac":false,"version":"","steam_id":0,"keywords":null,"game_id":0,"stv_port":0,"stv_name":"","players":null},{"server_id":2,"name":"Uncletopia | Chicago | 1 | All Maps","name_short":"chi-1","host":"chi-1.us.uncletopia.com","port":27015,"enabled":true,"region":"us-central","cc":"us","latitude":41.881832,"longitude":-87.62318,"reserved":0,"last_update":"0001-01-01T00:00:00Z","name_a2s":"Uncletopia | Chicago | 1 | All Maps","protocol":17,"map":"pl_borneo","folder":"tf","game":"Team Fortress","app_id":440,"player_count":0,"max_players":24,"Bots":0,"server_type":"Dedicated","server_os":"Linux","password":true,"vac":true,"version":"7932396","steam_id":85568392924469984,"keywords":["nocrits","nodmgspread","payload","uncletopia"],"game_id":440,"stv_port":27016,"stv_name":"Uncletopia | Chicago | 1 | All Maps | STV","players":null},{"server_id":106,"name":"Uncletopia | Chicago | 2 | All Maps","name_short":"chi-2","host":"chi-1.us.uncletopia.com","port":27025,"enabled":true,"region":"us-central","cc":"us","latitude":41.881832,"longitude":-87.62318,"reserved":0,"last_update":"0001-01-01T00:00:00Z","name_a2s":"Uncletopia | Chicago | 2 | All Maps","protocol":17,"map":"pl_borneo","folder":"tf","game":"Team Fortress","app_id":440,"player_count":22,"max_players":24,"Bots":0,"server_type":"Dedicated","server_os":"Linux","password":true,"vac":true,"version":"7932396","steam_id":85568392924469985,"keywords":["nocrits","nodmgspread","payload","uncletopia"],"game_id":440,"stv_port":27026,"stv_name":"Uncletopia | Chicago | 2 | All Maps | STV","players":[{"user_id":993,"name":"5unny PHD IN HATEOLOGY","steam_id":76561198133111058,"connected_time":4877000000000,"state":"active","ping":71},{"user_id":1041,"name":"goliath birdeater","steam_id":76561198089852954,"connected_time":1872000000000,"state":"active","ping":87},{"user_id":1042,"name":"Missing Minus","steam_id":76561198120822928,"connected_time":1864000000000,"state":"active","ping":57},{"user_id":1013,"name":"eric","steam_id":76561198237292756,"connected_time":3358000000000,"state":"active","ping":59},{"user_id":1055,"name":"rontu","steam_id":76561199072955534,"connected_time":225000000000,"state":"active","ping":46},{"user_id":1011,"name":"\u003c3","steam_id":76561198286113033,"connected_time":3450000000000,"state":"active","ping":141},{"user_id":1043,"name":"Beino","steam_id":76561198107120351,"connected_time":1758000000000,"state":"active","ping":109},{"user_id":1024,"name":"WONDER.","steam_id":76561198092527854,"connected_time":2779000000000,"state":"active","ping":102},{"user_id":1038,"name":"Dot.","steam_id":76561198149463984,"connected_time":2216000000000,"state":"active","ping":58},{"user_id":1052,"name":"DinoGoof","steam_id":76561198998427283,"connected_time":789000000000,"state":"active","ping":72},{"user_id":1028,"name":"Galactamarx","steam_id":76561198028065755,"connected_time":2696000000000,"state":"active","ping":91},{"user_id":1029,"name":"YoZiggy","steam_id":76561198192485274,"connected_time":2665000000000,"state":"active","ping":83},{"user_id":987,"name":"I eated it :3","steam_id":76561198059575962,"connected_time":5088000000000,"state":"active","ping":54},{"user_id":1044,"name":"Aryze #SaveTF2","steam_id":76561198119561581,"connected_time":1757000000000,"state":"active","ping":80},{"user_id":998,"name":"weeb_whacker","steam_id":76561198187098041,"connected_time":4497000000000,"state":"active","ping":55},{"user_id":1030,"name":"Yummy Kabobz","steam_id":76561198067661705,"connected_time":2649000000000,"state":"active","ping":62},{"user_id":1053,"name":"Mank","steam_id":76561198189421005,"connected_time":611000000000,"state":"active","ping":46},{"user_id":1039,"name":"Nobody","steam_id":76561198085808754,"connected_time":2196000000000,"state":"active","ping":87},{"user_id":1051,"name":"Raxor #letsEatedit #savetf2","steam_id":76561198290269128,"connected_time":810000000000,"state":"active","ping":96},{"user_id":1033,"name":"Marv_L","steam_id":76561198035709541,"connected_time":2627000000000,"state":"active","ping":105},{"user_id":1034,"name":"Saucy Boy","steam_id":76561198178332031,"connected_time":2622000000000,"state":"active","ping":73},{"user_id":1050,"name":"Satan-2","steam_id":76561199231742764,"connected_time":1123000000000,"state":"active","ping":70}]},{"server_id":402,"name":"Uncletopia | Chicago | 3 | All Maps","name_short":"chi-3","host":"chi-1.us.uncletopia.com","port":27035,"enabled":true,"region":"us-central","cc":"us","latitude":41.881832,"longitude":-87.62318,"reserved":0,"last_update":"0001-01-01T00:00:00Z","name_a2s":"Uncletopia | Chicago | 3 | All Maps","protocol":17,"map":"pl_badwater","folder":"tf","game":"Team Fortress","app_id":440,"player_count":0,"max_players":24,"Bots":0,"server_type":"Dedicated","server_os":"Linux","password":true,"vac":true,"version":"7932396","steam_id":85568392924515191,"keywords":["nocrits","nodmgspread","payload","uncletopia"],"game_id":440,"stv_port":27036,"stv_name":"Uncletopia | Chicago | 3 | All Maps | STV","players":null},{"server_id":403,"name":"Uncletopia | Chicago | 4 | All Maps","name_short":"chi-4","host":"chi-1.us.uncletopia.com","port":27045,"enabled":true,"region":"us-central","cc":"us","latitude":41.881832,"longitude":-87.62318,"reserved":0,"last_update":"0001-01-01T00:00:00Z","name_a2s":"Uncletopia | Chicago | 4 | All Maps","protocol":17,"map":"pl_borneo","folder":"tf","game":"Team Fortress","app_id":440,"player_count":24,"max_players":24,"Bots":0,"server_type":"Dedicated","server_os":"Linux","password":true,"vac":true,"version":"7932396","steam_id":85568392924515193,"keywords":["nocrits","nodmgspread","payload","uncletopia"],"game_id":440,"stv_port":27046,"stv_name":"Uncletopia | Chicago | 4 | All Maps | STV","players":[{"user_id":629,"name":"Joey Diaz","steam_id":76561198194796010,"connected_time":1437000000000,"state":"active","ping":74},{"user_id":653,"name":"sweaterfan","steam_id":76561199389567214,"connected_time":116000000000,"state":"active","ping":66},{"user_id":647,"name":"IMM0RTAL","steam_id":76561198013747901,"connected_time":230000000000,"state":"active","ping":74},{"user_id":571,"name":"Sychke","steam_id":76561198067144055,"connected_time":3934000000000,"state":"active","ping":44},{"user_id":588,"name":"TheDerpingNoob","steam_id":76561198109783729,"connected_time":3259000000000,"state":"active","ping":53},{"user_id":646,"name":"daemon","steam_id":76561198001541433,"connected_time":432000000000,"state":"active","ping":59},{"user_id":562,"name":"Stranger in a Strange Land","steam_id":76561198049843671,"connected_time":4367000000000,"state":"active","ping":64},{"user_id":579,"name":":Closed.","steam_id":76561198212598967,"connected_time":3565000000000,"state":"active","ping":113},{"user_id":648,"name":"zod","steam_id":76561198071374501,"connected_time":222000000000,"state":"active","ping":59},{"user_id":649,"name":"little shrew","steam_id":76561198040633646,"connected_time":207000000000,"state":"active","ping":104},{"user_id":637,"name":"Ringtail","steam_id":76561198112961308,"connected_time":1020000000000,"state":"active","ping":65},{"user_id":634,"name":"goopgrabber","steam_id":76561199029951083,"connected_time":1156000000000,"state":"active","ping":96},{"user_id":650,"name":"professional bodyshooter","steam_id":76561199200442395,"connected_time":200000000000,"state":"active","ping":174},{"user_id":651,"name":"Mr. Bojanglesworth","steam_id":76561197980793051,"connected_time":192000000000,"state":"active","ping":64},{"user_id":656,"name":"the private","steam_id":76561198232500756,"connected_time":32000000000,"state":"active","ping":79},{"user_id":636,"name":"ZackPlayz","steam_id":76561198393823932,"connected_time":1103000000000,"state":"active","ping":89},{"user_id":654,"name":"burgergirl45","steam_id":76561198099843841,"connected_time":95000000000,"state":"active","ping":89},{"user_id":593,"name":"DarkHero","steam_id":76561198197125710,"connected_time":2882000000000,"state":"active","ping":59},{"user_id":655,"name":"ILLVZN","steam_id":76561199065961083,"connected_time":91000000000,"state":"active","ping":95},{"user_id":641,"name":"John \"Lincoln\" Xina","steam_id":76561198114939272,"connected_time":890000000000,"state":"active","ping":90},{"user_id":642,"name":"Jotunn","steam_id":76561199112655950,"connected_time":836000000000,"state":"active","ping":105},{"user_id":643,"name":"A mischievous Femboy","steam_id":76561198248239796,"connected_time":791000000000,"state":"active","ping":141},{"user_id":645,"name":"Spider","steam_id":76561198051430727,"connected_time":650000000000,"state":"active","ping":83},{"user_id":614,"name":"Freddie Mercury's Ghost","steam_id":76561198140320704,"connected_time":2127000000000,"state":"active","ping":68}]},{"server_id":36,"name":"Uncletopia | Chicago | 5 | All Maps","name_short":"chi-5","host":"chi-2.us.uncletopia.com","port":27015,"enabled":true,"region":"us-central","cc":"us","latitude":41.881832,"longitude":-87.62318,"reserved":0,"last_update":"0001-01-01T00:00:00Z","name_a2s":"Uncletopia | Chicago | 5 | All Maps","protocol":17,"map":"cp_sunshine","folder":"tf","game":"Team Fortress","app_id":440,"player_count":0,"max_players":24,"Bots":0,"server_type":"Dedicated","server_os":"Linux","password":true,"vac":true,"version":"7932396","steam_id":85568392924866362,"keywords":["cp","nocrits","nodmgspread","uncletopia"],"game_id":440,"stv_port":27016,"stv_name":"Uncletopia | Chicago | 5 | All Maps | STV","players":null},{"server_id":37,"name":"Uncletopia | Chicago | 6 | All Maps","name_short":"chi-6","host":"chi-2.us.uncletopia.com","port":27025,"enabled":true,"region":"us-central","cc":"us","latitude":41.881832,"longitude":-87.62318,"reserved":0,"last_update":"0001-01-01T00:00:00Z","name_a2s":"Uncletopia | Chicago | 6 | All Maps","protocol":17,"map":"koth_highpass","folder":"tf","game":"Team Fortress","app_id":440,"player_count":0,"max_players":24,"Bots":0,"server_type":"Dedicated","server_os":"Linux","password":true,"vac":true,"version":"7932396","steam_id":85568392924866363,"keywords":["cp","nocrits","nodmgspread","uncletopia"],"game_id":440,"stv_port":27026,"stv_name":"Uncletopia | Chicago | 6 | All Maps | STV","players":null},{"server_id":38,"name":"Uncletopia | Chicago | 7 | Stopwatch Beta","name_short":"chi-7","host":"chi-2.us.uncletopia.com","port":27035,"enabled":true,"region":"us-central","cc":"us","latitude":41.881832,"longitude":-87.62318,"reserved":0,"last_update":"0001-01-01T00:00:00Z","name_a2s":"Uncletopia | Chicago | 7 | Stopwatch Beta","protocol":17,"map":"pl_borneo","folder":"tf","game":"Team Fortress","app_id":440,"player_count":0,"max_players":24,"Bots":0,"server_type":"Dedicated","server_os":"Linux","password":true,"vac":true,"version":"7932396","steam_id":85568392924866364,"keywords":["nocrits","nodmgspread","payload","uncletopia"],"game_id":440,"stv_port":27036,"stv_name":"Uncletopia | Chicago | 7 | Stopwatch Beta | STV","players":null},{"server_id":39,"name":"Uncletopia | Chicago | 8 | Community","name_short":"chi-8","host":"chi-2.us.uncletopia.com","port":27045,"enabled":true,"region":"us-central","cc":"us","latitude":41.881832,"longitude":-87.62318,"reserved":0,"last_update":"0001-01-01T00:00:00Z","name_a2s":"Uncletopia | Chicago | 8 | Community","protocol":17,"map":"workshop/pl_emerge_rc2.ugc888027758","folder":"tf","game":"Team Fortress","app_id":440,"player_count":0,"max_players":24,"Bots":0,"server_type":"Dedicated","server_os":"Linux","password":true,"vac":true,"version":"7932396","steam_id":85568392924866365,"keywords":["nocrits","nodmgspread","payload","uncletopia"],"game_id":440,"stv_port":27046,"stv_name":"Uncletopia | Chicago | 8 | Community | STV","players":null},{"server_id":8,"name":"Uncletopia | Dallas | 1 | All Maps","name_short":"dal-1","host":"dal-1.us.uncletopia.com","port":27015,"enabled":true,"region":"us-central","cc":"us","latitude":32.779167,"longitude":-96.80889,"reserved":0,"last_update":"0001-01-01T00:00:00Z","name_a2s":"Uncletopia | Dallas | 1 | All Maps","protocol":17,"map":"pl_barnblitz","folder":"tf","game":"Team Fortress","app_id":440,"player_count":0,"max_players":24,"Bots":0,"server_type":"Dedicated","server_os":"Linux","password":true,"vac":true,"version":"7932396","steam_id":85568392924469986,"keywords":["nocrits","nodmgspread","payload","uncletopia"],"game_id":440,"stv_port":27016,"stv_name":"Uncletopia | Dallas | 1 | All Maps | STV","players":null},{"server_id":108,"name":"Uncletopia | Dallas | 2 | All Maps","name_short":"dal-2","host":"dal-1.us.uncletopia.com","port":27025,"enabled":true,"region":"us-central","cc":"us","latitude":32.779167,"longitude":-96.80889,"reserved":0,"last_update":"0001-01-01T00:00:00Z","name_a2s":"Uncletopia | Dallas | 2 | All Maps","protocol":17,"map":"pl_borneo","folder":"tf","game":"Team Fortress","app_id":440,"player_count":23,"max_players":24,"Bots":0,"server_type":"Dedicated","server_os":"Linux","password":true,"vac":true,"version":"7932396","steam_id":85568392924469988,"keywords":["nocrits","nodmgspread","payload","uncletopia"],"game_id":440,"stv_port":27026,"stv_name":"Uncletopia | Dallas | 2 | All Maps | STV","players":[{"user_id":445,"name":"Clubs","steam_id":76561198271133942,"connected_time":606000000000,"state":"active","ping":53},{"user_id":446,"name":"0akmask","steam_id":76561198239584280,"connected_time":269000000000,"state":"active","ping":98},{"user_id":427,"name":"Luna","steam_id":76561198023352750,"connected_time":2142000000000,"state":"active","ping":84},{"user_id":396,"name":"Raid Shadow Sections","steam_id":76561198050456248,"connected_time":4551000000000,"state":"active","ping":76},{"user_id":385,"name":"Rilshrink","steam_id":76561198202586792,"connected_time":6834000000000,"state":"active","ping":52},{"user_id":447,"name":"rose","steam_id":76561198048882285,"connected_time":28000000000,"state":"active","ping":75},{"user_id":443,"name":"Batman","steam_id":76561199085516726,"connected_time":693000000000,"state":"active","ping":59},{"user_id":410,"name":"richarven","steam_id":76561198189429665,"connected_time":3264000000000,"state":"active","ping":61},{"user_id":444,"name":"Contrasted Red","steam_id":76561198305271450,"connected_time":689000000000,"state":"active","ping":59},{"user_id":392,"name":"Korporal_Kapuzen","steam_id":76561198281447704,"connected_time":5658000000000,"state":"active","ping":72},{"user_id":437,"name":"Walrusto","steam_id":76561198829644616,"connected_time":1349000000000,"state":"active","ping":70},{"user_id":430,"name":"MONKE","steam_id":76561199211345801,"connected_time":2107000000000,"state":"active","ping":71},{"user_id":440,"name":"r0biN","steam_id":76561198097861434,"connected_time":878000000000,"state":"active","ping":87},{"user_id":411,"name":"bocaJ","steam_id":76561198374535092,"connected_time":3256000000000,"state":"active","ping":61},{"user_id":441,"name":"THE FLUMPSTER","steam_id":76561198060911025,"connected_time":814000000000,"state":"active","ping":66},{"user_id":433,"name":"JimPlatinum","steam_id":76561198950714198,"connected_time":1807000000000,"state":"active","ping":67},{"user_id":439,"name":"KrylonHeretic","steam_id":76561198139811459,"connected_time":1052000000000,"state":"active","ping":96},{"user_id":434,"name":"Captain Eagle Gun","steam_id":76561198049948219,"connected_time":1733000000000,"state":"active","ping":91},{"user_id":416,"name":"mn","steam_id":76561198042357436,"connected_time":2966000000000,"state":"active","ping":91},{"user_id":423,"name":"God","steam_id":76561198131089513,"connected_time":2165000000000,"state":"active","ping":66},{"user_id":424,"name":"Celestia","steam_id":76561198046661611,"connected_time":2164000000000,"state":"active","ping":78},{"user_id":426,"name":"Khaicchi","steam_id":76561198104454754,"connected_time":2148000000000,"state":"active","ping":177},{"user_id":388,"name":"Pitch is a Stick","steam_id":76561198800287853,"connected_time":6748000000000,"state":"active","ping":129}]},{"server_id":5,"name":"Uncletopia | Frankfurt | 1 | All Maps","name_short":"frk-1","host":"frk-1.de.uncletopia.com","port":27015,"enabled":true,"region":"eu","cc":"de","latitude":50.110924,"longitude":8.682127,"reserved":0,"last_update":"0001-01-01T00:00:00Z","name_a2s":"Uncletopia | Frankfurt | 1 | All Maps","protocol":17,"map":"pl_borneo","folder":"tf","game":"Team Fortress","app_id":440,"player_count":0,"max_players":24,"Bots":0,"server_type":"Dedicated","server_os":"Linux","password":true,"vac":true,"version":"7932396","steam_id":85568392924469989,"keywords":["nocrits","nodmgspread","payload","uncletopia"],"game_id":440,"stv_port":27016,"stv_name":"Uncletopia | Frankfurt | 1 | All Maps | STV","players":null},{"server_id":110,"name":"Uncletopia | Frankfurt | 2 | All Maps","name_short":"frk-2","host":"frk-1.de.uncletopia.com","port":27025,"enabled":true,"region":"eu","cc":"de","latitude":50.110924,"longitude":8.682127,"reserved":0,"last_update":"0001-01-01T00:00:00Z","name_a2s":"Uncletopia | Frankfurt | 2 | All Maps","protocol":17,"map":"pl_swiftwater_final1","folder":"tf","game":"Team Fortress","app_id":440,"player_count":0,"max_players":24,"Bots":0,"server_type":"Dedicated","server_os":"Linux","password":true,"vac":true,"version":"7932396","steam_id":85568392924469990,"keywords":["nocrits","nodmgspread","payload","uncletopia"],"game_id":440,"stv_port":27026,"stv_name":"Uncletopia | Frankfurt | 2 | All Maps | STV","players":null},{"server_id":308,"name":"Uncletopia | Frankfurt | 3 | All Maps","name_short":"frk-3","host":"frk-1.de.uncletopia.com","port":27035,"enabled":true,"region":"eu","cc":"de","latitude":50.110924,"longitude":8.682127,"reserved":0,"last_update":"0001-01-01T00:00:00Z","name_a2s":"Uncletopia | Frankfurt | 3 | All Maps","protocol":17,"map":"pl_swiftwater_final1","folder":"tf","game":"Team Fortress","app_id":440,"player_count":0,"max_players":24,"Bots":0,"server_type":"Dedicated","server_os":"Linux","password":true,"vac":true,"version":"7932396","steam_id":85568392924504274,"keywords":["nocrits","nodmgspread","payload","uncletopia"],"game_id":440,"stv_port":27036,"stv_name":"Uncletopia | Frankfurt | 3 | All Maps | STV","players":null},{"server_id":309,"name":"Uncletopia | Frankfurt | 4 | All Maps","name_short":"frk-4","host":"frk-1.de.uncletopia.com","port":27045,"enabled":true,"region":"eu","cc":"de","latitude":50.110924,"longitude":8.682127,"reserved":0,"last_update":"0001-01-01T00:00:00Z","name_a2s":"Uncletopia | Frankfurt | 4 | All Maps","protocol":17,"map":"cp_altitude","folder":"tf","game":"Team Fortress","app_id":440,"player_count":19,"max_players":24,"Bots":0,"server_type":"Dedicated","server_os":"Linux","password":true,"vac":true,"version":"7932396","steam_id":85568392924504275,"keywords":["cp","nocrits","nodmgspread","uncletopia"],"game_id":440,"stv_port":27046,"stv_name":"Uncletopia | Frankfurt | 4 | All Maps | STV","players":[{"user_id":53,"name":"Fish","steam_id":76561198811811405,"connected_time":170000000000,"state":"active","ping":80},{"user_id":8,"name":"DeterminedXD[HUN]","steam_id":76561199469006453,"connected_time":2383000000000,"state":"active","ping":85},{"user_id":9,"name":"laza's boy","steam_id":76561199074095198,"connected_time":2357000000000,"state":"active","ping":110},{"user_id":50,"name":"DarkMelody","steam_id":76561198063225937,"connected_time":357000000000,"state":"active","ping":120},{"user_id":49,"name":"tete","steam_id":76561198045222850,"connected_time":455000000000,"state":"active","ping":68},{"user_id":35,"name":"HotBolt","steam_id":76561198176042134,"connected_time":1392000000000,"state":"active","ping":61},{"user_id":47,"name":"One-Face","steam_id":76561197999384826,"connected_time":490000000000,"state":"active","ping":51},{"user_id":46,"name":"SynthBox3","steam_id":76561199094075745,"connected_time":655000000000,"state":"active","ping":86},{"user_id":54,"name":"canoksun","steam_id":76561198165664707,"connected_time":157000000000,"state":"active","ping":99},{"user_id":48,"name":"Itai","steam_id":76561198804555329,"connected_time":480000000000,"state":"active","ping":109},{"user_id":34,"name":"XPullaHiiri","steam_id":76561198031652375,"connected_time":1477000000000,"state":"active","ping":89},{"user_id":36,"name":"I.AM.THE.BOOP.WHICH.IS.APROACHI","steam_id":76561198049342507,"connected_time":1339000000000,"state":"active","ping":91},{"user_id":52,"name":"Skelli","steam_id":76561198066933519,"connected_time":323000000000,"state":"active","ping":121},{"user_id":25,"name":"kornetov.vitalya","steam_id":76561199286034833,"connected_time":1659000000000,"state":"active","ping":96},{"user_id":26,"name":"Therapissed","steam_id":76561198966634987,"connected_time":1645000000000,"state":"active","ping":112},{"user_id":55,"name":"hot guy","steam_id":76561198083063005,"connected_time":39000000000,"state":"active","ping":50},{"user_id":44,"name":"dogs_drink_water","steam_id":76561198296630670,"connected_time":1116000000000,"state":"active","ping":79},{"user_id":40,"name":"Punk","steam_id":76561198268369013,"connected_time":1262000000000,"state":"active","ping":75},{"user_id":41,"name":"WATANG!","steam_id":76561198040478926,"connected_time":1262000000000,"state":"active","ping":66}]},{"server_id":310,"name":"Uncletopia | Frankfurt | 5 | All Maps","name_short":"frk-5","host":"frk-1.de.uncletopia.com","port":27055,"enabled":true,"region":"eu","cc":"de","latitude":50.110924,"longitude":8.682127,"reserved":0,"last_update":"0001-01-01T00:00:00Z","name_a2s":"Uncletopia | Frankfurt | 5 | All Maps","protocol":17,"map":"pl_swiftwater_final1","folder":"tf","game":"Team Fortress","app_id":440,"player_count":24,"max_players":24,"Bots":0,"server_type":"Dedicated","server_os":"Linux","password":true,"vac":true,"version":"7932396","steam_id":85568392924504277,"keywords":["nocrits","nodmgspread","payload","uncletopia"],"game_id":440,"stv_port":27056,"stv_name":"Uncletopia | Frankfurt | 5 | All Maps | STV","players":[{"user_id":107,"name":"kreeekz","steam_id":76561198014431602,"connected_time":100000000000,"state":"active","ping":60},{"user_id":5,"name":"Micha≈Ç","steam_id":76561198320346362,"connected_time":6571000000000,"state":"active","ping":58},{"user_id":86,"name":"kolbaster","steam_id":76561198235325176,"connected_time":1697000000000,"state":"active","ping":141},{"user_id":105,"name":"Luky \u003c3","steam_id":76561198124411084,"connected_time":285000000000,"state":"active","ping":61},{"user_id":88,"name":"Spinya","steam_id":76561198086653667,"connected_time":1488000000000,"state":"active","ping":65},{"user_id":100,"name":"Deacon Dracul","steam_id":76561198046880663,"connected_time":633000000000,"state":"active","ping":99},{"user_id":74,"name":"on1on (scrambled)","steam_id":76561197995304137,"connected_time":2241000000000,"state":"active","ping":62},{"user_id":101,"name":"„Äå‚óÜRaku‚Ä¢ „Äç","steam_id":76561198059283183,"connected_time":618000000000,"state":"active","ping":77},{"user_id":98,"name":"Light601","steam_id":76561198134998492,"connected_time":749000000000,"state":"active","ping":88},{"user_id":108,"name":"KUMI","steam_id":76561198089207719,"connected_time":18000000000,"state":"spawning","ping":60},{"user_id":68,"name":"Eivind","steam_id":76561198159927980,"connected_time":2812000000000,"state":"active","ping":71},{"user_id":94,"name":"Snailiad","steam_id":76561198123389475,"connected_time":1198000000000,"state":"active","ping":69},{"user_id":30,"name":"Batman","steam_id":76561199041636597,"connected_time":5231000000000,"state":"active","ping":66},{"user_id":47,"name":"Wujek Cacek","steam_id":76561198010267943,"connected_time":4261000000000,"state":"active","ping":74},{"user_id":106,"name":"generic alias","steam_id":76561198271607226,"connected_time":219000000000,"state":"active","ping":102},{"user_id":90,"name":"Droy","steam_id":76561198065854668,"connected_time":1422000000000,"state":"active","ping":58},{"user_id":103,"name":"–•–∞—Ä–¥–∫–æ—Ä –ë–õ#–¢—å!!!!","steam_id":76561198091839181,"connected_time":536000000000,"state":"active","ping":145},{"user_id":84,"name":"JohnTraveltime","steam_id":76561199244281754,"connected_time":1753000000000,"state":"active","ping":81},{"user_id":96,"name":"night.s","steam_id":76561198326287823,"connected_time":1018000000000,"state":"active","ping":71},{"user_id":99,"name":"Jobless and Angry","steam_id":76561198160523608,"connected_time":687000000000,"state":"active","ping":74},{"user_id":87,"name":"Trevis","steam_id":76561198114516101,"connected_time":1670000000000,"state":"active","ping":62},{"user_id":37,"name":"bleh","steam_id":76561198257158275,"connected_time":4976000000000,"state":"active","ping":134},{"user_id":104,"name":"No | S | uS","steam_id":76561199195727551,"connected_time":419000000000,"state":"active","ping":60},{"user_id":97,"name":"KAZAM | Tervez","steam_id":76561198045459068,"connected_time":856000000000,"state":"active","ping":88}]},{"server_id":311,"name":"Uncletopia | Frankfurt | 6 | All Maps","name_short":"frk-6","host":"frk-1.de.uncletopia.com","port":27065,"enabled":true,"region":"eu","cc":"de","latitude":50.110924,"longitude":8.682127,"reserved":0,"last_update":"0001-01-01T00:00:00Z","name_a2s":"Uncletopia | Frankfurt | 6 | All Maps","protocol":17,"map":"koth_viaduct","folder":"tf","game":"Team Fortress","app_id":440,"player_count":0,"max_players":24,"Bots":0,"server_type":"Dedicated","server_os":"Linux","password":true,"vac":true,"version":"7932396","steam_id":85568392924504278,"keywords":["cp","nocrits","nodmgspread","uncletopia"],"game_id":440,"stv_port":27066,"stv_name":"Uncletopia | Frankfurt | 6 | All Maps | STV","players":null},{"server_id":23,"name":"Uncletopia | Frankfurt | 7 | Stopwatch Beta","name_short":"frk-7","host":"frk-1.de.uncletopia.com","port":27075,"enabled":true,"region":"eu","cc":"de","latitude":50.110924,"longitude":8.682127,"reserved":0,"last_update":"0001-01-01T00:00:00Z","name_a2s":"Uncletopia | Frankfurt | 7 | Stopwatch Beta","protocol":17,"map":"pl_snowycoast","folder":"tf","game":"Team Fortress","app_id":440,"player_count":0,"max_players":24,"Bots":0,"server_type":"Dedicated","server_os":"Linux","password":true,"vac":true,"version":"7932396","steam_id":85568392924742827,"keywords":["nocrits","nodmgspread","payload","uncletopia"],"game_id":440,"stv_port":27076,"stv_name":"Uncletopia | Frankfurt | 7 | Stopwatch Beta | STV","players":null},{"server_id":24,"name":"Uncletopia | Frankfurt | 8 | Community","name_short":"frk-8","host":"frk-1.de.uncletopia.com","port":27085,"enabled":true,"region":"eu","cc":"de","latitude":50.110924,"longitude":8.682127,"reserved":0,"last_update":"0001-01-01T00:00:00Z","name_a2s":"Uncletopia | Frankfurt | 8 | Community","protocol":17,"map":"workshop/koth_trenchfoot_b1a.ugc731436616","folder":"tf","game":"Team Fortress","app_id":440,"player_count":0,"max_players":24,"Bots":0,"server_type":"Dedicated","server_os":"Linux","password":true,"vac":true,"version":"7932396","steam_id":85568392924742828,"keywords":["cp","nocrits","nodmgspread","uncletopia"],"game_id":440,"stv_port":27086,"stv_name":"Uncletopia | Frankfurt | 8 | Community | STV","players":null},{"server_id":202,"name":"Uncletopia | Hong Kong | 1 | All Maps","name_short":"hgk-1","host":"hgk-1.hk.uncletopia.com","port":27015,"enabled":true,"region":"asia","cc":"hk","latitude":22.302711,"longitude":114.177216,"reserved":0,"last_update":"0001-01-01T00:00:00Z","name_a2s":"Uncletopia | Hong Kong | 1 | All Maps","protocol":17,"map":"pl_snowycoast","folder":"tf","game":"Team Fortress","app_id":440,"player_count":24,"max_players":24,"Bots":0,"server_type":"Dedicated","server_os":"Linux","password":true,"vac":true,"version":"7932396","steam_id":85568392924494504,"keywords":["nocrits","nodmgspread","payload","uncletopia"],"game_id":440,"stv_port":27016,"stv_name":"Uncletopia | Hong Kong | 1 | All Maps | STV","players":[{"user_id":267,"name":"Milf (The fan O'Milk)","steam_id":76561198213031155,"connected_time":692000000000,"state":"active","ping":95},{"user_id":225,"name":"7853","steam_id":76561199390507975,"connected_time":5307000000000,"state":"active","ping":54},{"user_id":275,"name":"lsf","steam_id":76561198095278714,"connected_time":45000000000,"state":"active","ping":45},{"user_id":260,"name":"sauceyert","steam_id":76561199085409122,"connected_time":2093000000000,"state":"active","ping":76},{"user_id":255,"name":"seti","steam_id":76561198116505355,"connected_time":2806000000000,"state":"active","ping":85},{"user_id":26,"name":"KUZCO","steam_id":76561198115298835,"connected_time":17031000000000,"state":"active","ping":73},{"user_id":241,"name":"Kurtie","steam_id":76561198144737876,"connected_time":4032000000000,"state":"active","ping":70},{"user_id":269,"name":".HareYarko","steam_id":76561197972617632,"connected_time":636000000000,"state":"active","ping":101},{"user_id":270,"name":"Sai","steam_id":76561199069225036,"connected_time":636000000000,"state":"active","ping":51},{"user_id":264,"name":"someone from Yakuza","steam_id":76561199480939609,"connected_time":1322000000000,"state":"active","ping":75},{"user_id":272,"name":"Samoyed","steam_id":76561198299150410,"connected_time":569000000000,"state":"active","ping":107},{"user_id":218,"name":"im_0ff","steam_id":76561198339346695,"connected_time":6400000000000,"state":"active","ping":128},{"user_id":271,"name":"Hay","steam_id":76561199438952901,"connected_time":575000000000,"state":"active","ping":56},{"user_id":227,"name":"Streety","steam_id":76561199098969003,"connected_time":5256000000000,"state":"active","ping":64},{"user_id":251,"name":"Drutzhfer","steam_id":76561198299948446,"connected_time":2951000000000,"state":"active","ping":104},{"user_id":206,"name":"Green","steam_id":76561198391718463,"connected_time":8156000000000,"state":"active","ping":59},{"user_id":273,"name":"Ïø†ÌÇ§","steam_id":76561197997220367,"connected_time":392000000000,"state":"active","ping":49},{"user_id":276,"name":"TomCat","steam_id":76561198133744053,"connected_time":45000000000,"state":"active","ping":107},{"user_id":261,"name":"nanau","steam_id":76561199166938276,"connected_time":1929000000000,"state":"active","ping":61},{"user_id":224,"name":"Stupid B","steam_id":76561198131423270,"connected_time":5677000000000,"state":"active","ping":119},{"user_id":232,"name":"Mystery cheese üßÄ","steam_id":76561198304002409,"connected_time":4283000000000,"state":"active","ping":84},{"user_id":85,"name":"H·∫±ng Ra ƒë∆°","steam_id":76561199373637717,"connected_time":12772000000000,"state":"active","ping":71},{"user_id":254,"name":"Wx","steam_id":76561199217780897,"connected_time":2839000000000,"state":"active","ping":130},{"user_id":262,"name":"TomProPlayer","steam_id":76561199223292521,"connected_time":1697000000000,"state":"active","ping":71}]},{"server_id":1,"name":"Uncletopia | Los Angeles | 1 | All Maps","name_short":"lax-1","host":"lax-1.us.uncletopia.com","port":27015,"enabled":true,"region":"us-west","cc":"us","latitude":33.94279,"longitude":-118.41004,"reserved":0,"last_update":"0001-01-01T00:00:00Z","name_a2s":"Uncletopia | Los Angeles | 1 | All Maps","protocol":17,"map":"cp_sunshine","folder":"tf","game":"Team Fortress","app_id":440,"player_count":24,"max_players":24,"Bots":0,"server_type":"Dedicated","server_os":"Linux","password":true,"vac":true,"version":"7932396","steam_id":85568392924469991,"keywords":["cp","nocrits","nodmgspread","uncletopia"],"game_id":440,"stv_port":27016,"stv_name":"Uncletopia | Los Angeles | 1 | All Maps | STV","players":[{"user_id":466,"name":"Big Boy Beni","steam_id":76561197995469460,"connected_time":3420000000000,"state":"active","ping":39},{"user_id":484,"name":"naturia","steam_id":76561198092317849,"connected_time":2703000000000,"state":"active","ping":45},{"user_id":442,"name":"dannydobbs","steam_id":76561198062379343,"connected_time":5203000000000,"state":"active","ping":116},{"user_id":507,"name":"[√òWQJ√ò]chubacaalatake","steam_id":76561198136201697,"connected_time":788000000000,"state":"active","ping":90},{"user_id":492,"name":"LU BU","steam_id":76561198058044061,"connected_time":2055000000000,"state":"active","ping":65},{"user_id":494,"name":"Fernando","steam_id":76561198443038047,"connected_time":1803000000000,"state":"active","ping":47},{"user_id":509,"name":"Peri","steam_id":76561198255311543,"connected_time":650000000000,"state":"active","ping":120},{"user_id":489,"name":"Wizard02","steam_id":76561198178293623,"connected_time":2389000000000,"state":"active","ping":108},{"user_id":488,"name":"Fred","steam_id":76561197983870604,"connected_time":2490000000000,"state":"active","ping":56},{"user_id":508,"name":"TwErC","steam_id":76561198141482152,"connected_time":742000000000,"state":"active","ping":46},{"user_id":514,"name":"June","steam_id":76561198141803658,"connected_time":418000000000,"state":"active","ping":46},{"user_id":500,"name":"zoiboi","steam_id":76561198069598590,"connected_time":1471000000000,"state":"active","ping":58},{"user_id":470,"name":"Oh No! It's Twister!","steam_id":76561198016791916,"connected_time":3339000000000,"state":"active","ping":99},{"user_id":487,"name":"-_-","steam_id":76561198048754646,"connected_time":2612000000000,"state":"active","ping":47},{"user_id":480,"name":"Talulah","steam_id":76561198348354629,"connected_time":2813000000000,"state":"active","ping":49},{"user_id":515,"name":"nakear","steam_id":76561198215437797,"connected_time":357000000000,"state":"active","ping":64},{"user_id":518,"name":"you of the dark","steam_id":76561198798667624,"connected_time":222000000000,"state":"active","ping":84},{"user_id":495,"name":"Funny Comedian","steam_id":76561198082918778,"connected_time":1719000000000,"state":"active","ping":60},{"user_id":504,"name":"FI LO","steam_id":76561198976530881,"connected_time":1211000000000,"state":"active","ping":43},{"user_id":459,"name":"kevlarorc","steam_id":76561197996133603,"connected_time":3831000000000,"state":"active","ping":89},{"user_id":505,"name":"Deluxe_Taco34","steam_id":76561199037653437,"connected_time":850000000000,"state":"active","ping":142},{"user_id":460,"name":"Irony is pretty cringy","steam_id":76561198120391460,"connected_time":3751000000000,"state":"active","ping":44},{"user_id":483,"name":"..flop","steam_id":76561197989058876,"connected_time":2765000000000,"state":"active","ping":75},{"user_id":422,"name":"Born_In_Xixax","steam_id":76561197960464479,"connected_time":7255000000000,"state":"active","ping":90}]},{"server_id":112,"name":"Uncletopia | Los Angeles | 2 | All Maps","name_short":"lax-2","host":"lax-1.us.uncletopia.com","port":27025,"enabled":true,"region":"us-west","cc":"us","latitude":33.94279,"longitude":-118.41004,"reserved":0,"last_update":"0001-01-01T00:00:00Z","name_a2s":"Uncletopia | Los Angeles | 2 | All Maps","protocol":17,"map":"pl_snowycoast","folder":"tf","game":"Team Fortress","app_id":440,"player_count":0,"max_players":24,"Bots":0,"server_type":"Dedicated","server_os":"Linux","password":true,"vac":true,"version":"7932396","steam_id":85568392924469992,"keywords":["nocrits","nodmgspread","payload","uncletopia"],"game_id":440,"stv_port":27026,"stv_name":"Uncletopia | Los Angeles | 2 | All Maps | STV","players":null},{"server_id":324,"name":"Uncletopia | Los Angeles | 3 | All Maps","name_short":"lax-3","host":"lax-1.us.uncletopia.com","port":27035,"enabled":true,"region":"us-west","cc":"us","latitude":33.94279,"longitude":-118.41004,"reserved":0,"last_update":"0001-01-01T00:00:00Z","name_a2s":"Uncletopia | Los Angeles | 3 | All Maps","protocol":17,"map":"koth_viaduct","folder":"tf","game":"Team Fortress","app_id":440,"player_count":1,"max_players":24,"Bots":0,"server_type":"Dedicated","server_os":"Linux","password":true,"vac":true,"version":"7932396","steam_id":85568392924510198,"keywords":["cp","nocrits","nodmgspread","uncletopia"],"game_id":440,"stv_port":27036,"stv_name":"Uncletopia | Los Angeles | 3 | All Maps | STV","players":[{"user_id":590,"name":"StatingKnot","steam_id":76561199190634968,"connected_time":2375000000000,"state":"active","ping":101}]},{"server_id":25,"name":"Uncletopia | Los Angeles | 4 | Stopwatch Beta","name_short":"lax-4","host":"lax-1.us.uncletopia.com","port":27045,"enabled":true,"region":"us-west","cc":"us","latitude":33.94279,"longitude":-118.41004,"reserved":0,"last_update":"0001-01-01T00:00:00Z","name_a2s":"Uncletopia | Los Angeles | 4 | Stopwatch Beta","protocol":17,"map":"workshop/koth_product_final.ugc454272353","folder":"tf","game":"Team Fortress","app_id":440,"player_count":0,"max_players":24,"Bots":0,"server_type":"Dedicated","server_os":"Linux","password":true,"vac":true,"version":"7932396","steam_id":85568392924510199,"keywords":["cp","nocrits","nodmgspread","uncletopia"],"game_id":440,"stv_port":27046,"stv_name":"Uncletopia | Los Angeles | 4 | Stopwatch Beta | STV","players":null},{"server_id":11,"name":"Uncletopia | London | 1 | All Maps","name_short":"lon-1","host":"lon-1.uk.uncletopia.com","port":27015,"enabled":true,"region":"eu","cc":"gb","latitude":51.509865,"longitude":-0.118092,"reserved":0,"last_update":"0001-01-01T00:00:00Z","name_a2s":"Uncletopia | London | 1 | All Maps","protocol":17,"map":"pl_pier","folder":"tf","game":"Team Fortress","app_id":440,"player_count":24,"max_players":24,"Bots":0,"server_type":"Dedicated","server_os":"Linux","password":true,"vac":true,"version":"7932396","steam_id":85568392924367362,"keywords":["nocrits","nodmgspread","payload","uncletopia"],"game_id":440,"stv_port":27016,"stv_name":"Uncletopia | London | 1 | All Maps | STV","players":[{"user_id":161,"name":"peruna","steam_id":76561198000721196,"connected_time":417000000000,"state":"active","ping":72},{"user_id":163,"name":"Zidane","steam_id":76561198145421612,"connected_time":175000000000,"state":"active","ping":75},{"user_id":144,"name":"NANI?!?!?!","steam_id":76561198172078559,"connected_time":1839000000000,"state":"active","ping":77},{"user_id":72,"name":"Snaky","steam_id":76561199000954430,"connected_time":8231000000000,"state":"active","ping":114},{"user_id":146,"name":"MeBandae","steam_id":76561198910770432,"connected_time":1516000000000,"state":"active","ping":68},{"user_id":148,"name":"Darfsterman #rustclash","steam_id":76561199004139305,"connected_time":1387000000000,"state":"active","ping":64},{"user_id":84,"name":"GASH, RAT KING","steam_id":76561198986549968,"connected_time":6367000000000,"state":"active","ping":61},{"user_id":110,"name":"[O\u0026O]YaboiDucki","steam_id":76561198195976589,"connected_time":3957000000000,"state":"active","ping":106},{"user_id":157,"name":"cat","steam_id":76561198832231975,"connected_time":838000000000,"state":"active","ping":93},{"user_id":132,"name":"shr1mple","steam_id":76561198173537027,"connected_time":2651000000000,"state":"active","ping":46},{"user_id":135,"name":"IDon'tNeedACoolName","steam_id":76561198013547503,"connected_time":2319000000000,"state":"active","ping":63},{"user_id":154,"name":"Tort","steam_id":76561198329646769,"connected_time":863000000000,"state":"active","ping":58},{"user_id":158,"name":"axl#pizdaaim","steam_id":76561198991661832,"connected_time":653000000000,"state":"active","ping":74},{"user_id":142,"name":"simon","steam_id":76561198880361394,"connected_time":2099000000000,"state":"active","ping":62},{"user_id":155,"name":"LeP0tato","steam_id":76561198077615937,"connected_time":855000000000,"state":"active","ping":71},{"user_id":140,"name":"pitagora","steam_id":76561198402335041,"connected_time":2187000000000,"state":"active","ping":65},{"user_id":128,"name":"okutanse","steam_id":76561198360957536,"connected_time":2699000000000,"state":"active","ping":113},{"user_id":119,"name":"Aight","steam_id":76561198300453404,"connected_time":3601000000000,"state":"active","ping":85},{"user_id":122,"name":"Niko","steam_id":76561199006295285,"connected_time":3463000000000,"state":"active","ping":85},{"user_id":160,"name":"zebulon","steam_id":76561198384683504,"connected_time":573000000000,"state":"active","ping":58},{"user_id":138,"name":"Ates164","steam_id":76561199123074978,"connected_time":2243000000000,"state":"active","ping":60},{"user_id":145,"name":"FiskerJohn","steam_id":76561198056249002,"connected_time":1590000000000,"state":"active","ping":66},{"user_id":151,"name":"Terminally Offline","steam_id":76561198146194820,"connected_time":1316000000000,"state":"active","ping":51},{"user_id":130,"name":"Remi","steam_id":76561198860304357,"connected_time":2682000000000,"state":"active","ping":116}]},{"server_id":114,"name":"Uncletopia | London | 2 | All Maps","name_short":"lon-2","host":"lon-1.uk.uncletopia.com","port":27025,"enabled":true,"region":"eu","cc":"gb","latitude":51.509865,"longitude":-0.118092,"reserved":0,"last_update":"0001-01-01T00:00:00Z","name_a2s":"Uncletopia | London | 2 | All Maps","protocol":17,"map":"koth_highpass","folder":"tf","game":"Team Fortress","app_id":440,"player_count":18,"max_players":24,"Bots":0,"server_type":"Dedicated","server_os":"Linux","password":true,"vac":true,"version":"7932396","steam_id":85568392924470941,"keywords":["cp","nocrits","nodmgspread","uncletopia"],"game_id":440,"stv_port":27026,"stv_name":"Uncletopia | London | 2 | All Maps | STV","players":[{"user_id":31,"name":"Day 10","steam_id":76561198024438352,"connected_time":195000000000,"state":"active","ping":44},{"user_id":35,"name":"Edusuh","steam_id":76561198877948244,"connected_time":131000000000,"state":"active","ping":74},{"user_id":39,"name":"-gunripp0r^be / Obelix^","steam_id":76561197999306879,"connected_time":10000000000,"state":"spawning","ping":61},{"user_id":10,"name":"Sex Man TF2","steam_id":76561198798657045,"connected_time":1012000000000,"state":"active","ping":73},{"user_id":34,"name":"Fus in Boots","steam_id":76561198053897722,"connected_time":151000000000,"state":"active","ping":47},{"user_id":29,"name":"Camele0pard","steam_id":76561198145191589,"connected_time":272000000000,"state":"active","ping":84},{"user_id":17,"name":"Na'vi Misato (by popular demand","steam_id":76561198130860698,"connected_time":752000000000,"state":"active","ping":58},{"user_id":12,"name":"Worm","steam_id":76561198296497176,"connected_time":973000000000,"state":"active","ping":53},{"user_id":13,"name":"One Hop Dis Time *BWRAB*","steam_id":76561198146081601,"connected_time":881000000000,"state":"active","ping":58},{"user_id":14,"name":"hunte","steam_id":76561198063483484,"connected_time":876000000000,"state":"active","ping":79},{"user_id":15,"name":"stomping weebs","steam_id":76561198054521701,"connected_time":841000000000,"state":"active","ping":71},{"user_id":18,"name":"Amoru","steam_id":76561198798161817,"connected_time":744000000000,"state":"active","ping":88},{"user_id":19,"name":"silicon based life form","steam_id":76561199127121346,"connected_time":718000000000,"state":"active","ping":55},{"user_id":24,"name":"Dogfighter","steam_id":76561198798793898,"connected_time":405000000000,"state":"active","ping":67},{"user_id":33,"name":"Bayoyo","steam_id":76561199069591774,"connected_time":169000000000,"state":"spawning","ping":71},{"user_id":36,"name":"Koalified","steam_id":76561198095350290,"connected_time":130000000000,"state":"active","ping":178},{"user_id":32,"name":"Hedge Knight","steam_id":76561198989449047,"connected_time":182000000000,"state":"active","ping":113},{"user_id":38,"name":"GodandTitans","steam_id":76561198070070155,"connected_time":65000000000,"state":"active","ping":146}]},{"server_id":320,"name":"Uncletopia | London | 3 | All Maps","name_short":"lon-3","host":"lon-1.uk.uncletopia.com","port":27035,"enabled":true,"region":"eu","cc":"gb","latitude":51.509865,"longitude":-0.118092,"reserved":0,"last_update":"0001-01-01T00:00:00Z","name_a2s":"Uncletopia | London | 3 | All Maps","protocol":17,"map":"cp_altitude","folder":"tf","game":"Team Fortress","app_id":440,"player_count":0,"max_players":24,"Bots":0,"server_type":"Dedicated","server_os":"Linux","password":true,"vac":true,"version":"7932396","steam_id":85568392924510192,"keywords":["cp","nocrits","nodmgspread","uncletopia"],"game_id":440,"stv_port":27036,"stv_name":"Uncletopia | London | 3 | All Maps | STV","players":null},{"server_id":321,"name":"Uncletopia | London | 4 | All Maps","name_short":"lon-4","host":"lon-1.uk.uncletopia.com","port":27045,"enabled":true,"region":"eu","cc":"gb","latitude":51.509865,"longitude":-0.118092,"reserved":0,"last_update":"0001-01-01T00:00:00Z","name_a2s":"Uncletopia | London | 4 | All Maps","protocol":17,"map":"cp_snakewater_final1","folder":"tf","game":"Team Fortress","app_id":440,"player_count":0,"max_players":24,"Bots":0,"server_type":"Dedicated","server_os":"Linux","password":true,"vac":true,"version":"7932396","steam_id":85568392924510193,"keywords":["cp","nocrits","nodmgspread","uncletopia"],"game_id":440,"stv_port":27046,"stv_name":"Uncletopia | London | 4 | All Maps | STV","players":null},{"server_id":21,"name":"Uncletopia | London | 5 | All Maps","name_short":"lon-5","host":"lon-1.uk.uncletopia.com","port":27055,"enabled":true,"region":"eu","cc":"gb","latitude":51.509865,"longitude":-0.118092,"reserved":0,"last_update":"0001-01-01T00:00:00Z","name_a2s":"Uncletopia | London | 5 | All Maps","protocol":17,"map":"koth_cascade","folder":"tf","game":"Team Fortress","app_id":440,"player_count":4,"max_players":24,"Bots":0,"server_type":"Dedicated","server_os":"Linux","password":true,"vac":true,"version":"7932396","steam_id":85568392924742829,"keywords":["cp","nocrits","nodmgspread","uncletopia"],"game_id":440,"stv_port":27056,"stv_name":"Uncletopia | London | 5 | All Maps | STV","players":[{"user_id":3,"name":"markotrichko4238","steam_id":76561199125036759,"connected_time":2403000000000,"state":"active","ping":94},{"user_id":4,"name":"darjan69713","steam_id":76561199428131909,"connected_time":2401000000000,"state":"active","ping":102},{"user_id":10,"name":"The Funny Cat-Heaby","steam_id":76561198439978112,"connected_time":508000000000,"state":"active","ping":113},{"user_id":7,"name":"ja","steam_id":76561199228540618,"connected_time":835000000000,"state":"active","ping":82}]},{"server_id":22,"name":"Uncletopia | London | 6 | All Maps","name_short":"lon-6","host":"lon-1.uk.uncletopia.com","port":27065,"enabled":true,"region":"eu","cc":"gb","latitude":51.509865,"longitude":-0.118092,"reserved":0,"last_update":"0001-01-01T00:00:00Z","name_a2s":"Uncletopia | London | 6 | All Maps","protocol":17,"map":"pl_badwater","folder":"tf","game":"Team Fortress","app_id":440,"player_count":0,"max_players":24,"Bots":0,"server_type":"Dedicated","server_os":"Linux","password":true,"vac":true,"version":"7932396","steam_id":85568392924742830,"keywords":["nocrits","nodmgspread","payload","uncletopia"],"game_id":440,"stv_port":27066,"stv_name":"Uncletopia | London | 6 | All Maps | STV","players":null},{"server_id":40,"name":"Uncletopia | London | 7 | No Payload","name_short":"lon-7","host":"lon-1.uk.uncletopia.com","port":27075,"enabled":true,"region":"eu","cc":"gb","latitude":51.509865,"longitude":-0.118092,"reserved":0,"last_update":"0001-01-01T00:00:00Z","name_a2s":"Uncletopia | London | 7 | No Payload","protocol":17,"map":"pl_snowycoast","folder":"tf","game":"Team Fortress","app_id":440,"player_count":0,"max_players":24,"Bots":0,"server_type":"Dedicated","server_os":"Linux","password":true,"vac":true,"version":"7932396","steam_id":85568392924964314,"keywords":["nocrits","nodmgspread","payload","uncletopia"],"game_id":440,"stv_port":27076,"stv_name":"Uncletopia | London | 7 | No Payload | STV","players":null},{"server_id":41,"name":"Uncletopia | London | 8 | Community","name_short":"lon-8","host":"lon-1.uk.uncletopia.com","port":27085,"enabled":true,"region":"eu","cc":"gb","latitude":51.509865,"longitude":-0.118092,"reserved":0,"last_update":"0001-01-01T00:00:00Z","name_a2s":"Uncletopia | London | 8 | Community","protocol":17,"map":"workshop/koth_slaughter_rc1.ugc1712845210","folder":"tf","game":"Team Fortress","app_id":440,"player_count":0,"max_players":24,"Bots":0,"server_type":"Dedicated","server_os":"Linux","password":true,"vac":true,"version":"7932396","steam_id":85568392924964315,"keywords":["cp","nocrits","nodmgspread","uncletopia"],"game_id":440,"stv_port":27086,"stv_name":"Uncletopia | London | 8 | Community | STV","players":null},{"server_id":300,"name":"Uncletopia | Montr√©al | 1 | All Maps","name_short":"mtl-1","host":"mtl-1.ca.uncletopia.com","port":27015,"enabled":true,"region":"us-east","cc":"ca","latitude":45.50889,"longitude":-73.56167,"reserved":0,"last_update":"0001-01-01T00:00:00Z","name_a2s":"Uncletopia | Montr√©al | 1 | All Maps","protocol":17,"map":"koth_cascade","folder":"tf","game":"Team Fortress","app_id":440,"player_count":0,"max_players":24,"Bots":0,"server_type":"Dedicated","server_os":"Linux","password":true,"vac":true,"version":"7932396","steam_id":85568392924500087,"keywords":["cp","nocrits","nodmgspread","uncletopia"],"game_id":440,"stv_port":27016,"stv_name":"Uncletopia | Montr√©al | 1 | All Maps | STV","players":null},{"server_id":301,"name":"Uncletopia | Montr√©al | 2 | All Maps","name_short":"mtl-2","host":"mtl-1.ca.uncletopia.com","port":27025,"enabled":true,"region":"us-east","cc":"ca","latitude":45.50889,"longitude":-73.56167,"reserved":0,"last_update":"0001-01-01T00:00:00Z","name_a2s":"Uncletopia | Montr√©al | 2 | All Maps","protocol":17,"map":"koth_lakeside_final","folder":"tf","game":"Team Fortress","app_id":440,"player_count":0,"max_players":24,"Bots":0,"server_type":"Dedicated","server_os":"Linux","password":true,"vac":true,"version":"7932396","steam_id":85568392924500088,"keywords":["cp","nocrits","nodmgspread","uncletopia"],"game_id":440,"stv_port":27026,"stv_name":"Uncletopia | Montr√©al | 2 | All Maps | STV","players":null},{"server_id":302,"name":"Uncletopia | Montr√©al | 3 | All Maps","name_short":"mtl-3","host":"mtl-1.ca.uncletopia.com","port":27035,"enabled":true,"region":"us-east","cc":"ca","latitude":45.50889,"longitude":-73.56167,"reserved":0,"last_update":"0001-01-01T00:00:00Z","name_a2s":"Uncletopia | Montr√©al | 3 | All Maps","protocol":17,"map":"koth_cascade","folder":"tf","game":"Team Fortress","app_id":440,"player_count":0,"max_players":24,"Bots":0,"server_type":"Dedicated","server_os":"Linux","password":true,"vac":true,"version":"7932396","steam_id":85568392924500089,"keywords":["cp","nocrits","nodmgspread","uncletopia"],"game_id":440,"stv_port":27036,"stv_name":"Uncletopia | Montr√©al | 3 | All Maps | STV","players":null},{"server_id":303,"name":"Uncletopia | Montr√©al | 4 | No Payload","name_short":"mtl-4","host":"mtl-1.ca.uncletopia.com","port":27045,"enabled":true,"region":"us-east","cc":"ca","latitude":45.50889,"longitude":-73.56167,"reserved":0,"last_update":"0001-01-01T00:00:00Z","name_a2s":"Uncletopia | Montr√©al | 4 | No Payload","protocol":17,"map":"cp_dustbowl","folder":"tf","game":"Team Fortress","app_id":440,"player_count":0,"max_players":24,"Bots":0,"server_type":"Dedicated","server_os":"Linux","password":true,"vac":true,"version":"7932396","steam_id":85568392924500090,"keywords":["cp","nocrits","nodmgspread","uncletopia"],"game_id":440,"stv_port":27046,"stv_name":"Uncletopia | Montr√©al | 4 | No Payload | STV","players":null},{"server_id":13,"name":"Uncletopia | New York City | 1 | All Maps","name_short":"nyc-1","host":"nyc-1.us.uncletopia.com","port":27015,"enabled":true,"region":"us-east","cc":"us","latitude":40.73061,"longitude":-73.93524,"reserved":0,"last_update":"0001-01-01T00:00:00Z","name_a2s":"Uncletopia | New York City | 1 | All Maps","protocol":17,"map":"pl_frontier_final","folder":"tf","game":"Team Fortress","app_id":440,"player_count":0,"max_players":24,"Bots":0,"server_type":"Dedicated","server_os":"Linux","password":true,"vac":true,"version":"7932396","steam_id":85568392924469993,"keywords":["nocrits","nodmgspread","payload","uncletopia"],"game_id":440,"stv_port":27016,"stv_name":"Uncletopia | New York City | 1 | All Maps | STV","players":null},{"server_id":14,"name":"Uncletopia | New York City | 2 | All Maps","name_short":"nyc-2","host":"nyc-1.us.uncletopia.com","port":27025,"enabled":true,"region":"us-east","cc":"us","latitude":40.73061,"longitude":-73.93524,"reserved":0,"last_update":"0001-01-01T00:00:00Z","name_a2s":"Uncletopia | New York City | 2 | All Maps","protocol":17,"map":"cp_mountainlab","folder":"tf","game":"Team Fortress","app_id":440,"player_count":0,"max_players":24,"Bots":0,"server_type":"Dedicated","server_os":"Linux","password":true,"vac":true,"version":"7932396","steam_id":85568392924469994,"keywords":["cp","nocrits","nodmgspread","uncletopia"],"game_id":440,"stv_port":27026,"stv_name":"Uncletopia | New York City | 2 | All Maps | STV","players":null},{"server_id":15,"name":"Uncletopia | New York City | 3 | Stopwatch Beta","name_short":"nyc-3","host":"nyc-1.us.uncletopia.com","port":27035,"enabled":true,"region":"us-east","cc":"us","latitude":40.73061,"longitude":-73.93524,"reserved":0,"last_update":"0001-01-01T00:00:00Z","name_a2s":"Uncletopia | New York City | 3 | Stopwatch Beta","protocol":17,"map":"workshop/koth_clearcut_b15.ugc2107050255","folder":"tf","game":"Team Fortress","app_id":440,"player_count":0,"max_players":24,"Bots":0,"server_type":"Dedicated","server_os":"Linux","password":true,"vac":true,"version":"7932396","steam_id":85568392924742820,"keywords":["cp","nocrits","nodmgspread","uncletopia"],"game_id":440,"stv_port":27036,"stv_name":"Uncletopia | New York City | 3 | Stopwatch Beta | STV","players":null},{"server_id":16,"name":"Uncletopia | New York City | 4 | Community","name_short":"nyc-4","host":"nyc-1.us.uncletopia.com","port":27045,"enabled":true,"region":"us-east","cc":"us","latitude":40.73061,"longitude":-73.93524,"reserved":0,"last_update":"0001-01-01T00:00:00Z","name_a2s":"Uncletopia | New York City | 4 | Community","protocol":17,"map":"workshop/koth_ramjam_rc1.ugc459778887","folder":"tf","game":"Team Fortress","app_id":440,"player_count":0,"max_players":24,"Bots":0,"server_type":"Dedicated","server_os":"Linux","password":true,"vac":true,"version":"7932396","steam_id":85568392924742821,"keywords":["cp","nocrits","nodmgspread","uncletopia"],"game_id":440,"stv_port":27046,"stv_name":"Uncletopia | New York City | 4 | Community | STV","players":null},{"server_id":142,"name":"Uncletopia | S√£o Paulo | 1 | All Maps","name_short":"sao-1","host":"sao-1.br.uncletopia.com","port":27015,"enabled":true,"region":"sa","cc":"br","latitude":-23.533773,"longitude":-46.62529,"reserved":0,"last_update":"0001-01-01T00:00:00Z","name_a2s":"Uncletopia | S√£o Paulo | 1 | All Maps","protocol":17,"map":"cp_mountainlab","folder":"tf","game":"Team Fortress","app_id":440,"player_count":0,"max_players":24,"Bots":0,"server_type":"Dedicated","server_os":"Linux","password":true,"vac":true,"version":"7932396","steam_id":85568392924469996,"keywords":["cp","nocrits","nodmgspread","uncletopia"],"game_id":440,"stv_port":27016,"stv_name":"Uncletopia | S√£o Paulo | 1 | All Maps | STV","players":null},{"server_id":143,"name":"Uncletopia | S√£o Paulo | 2 | All Maps","name_short":"sao-2","host":"sao-2.br.uncletopia.com","port":27015,"enabled":true,"region":"sa","cc":"br","latitude":-23.533773,"longitude":-46.62529,"reserved":0,"last_update":"0001-01-01T00:00:00Z","name_a2s":"Uncletopia | S√£o Paulo | 2 | All Maps","protocol":17,"map":"pl_swiftwater_final1","folder":"tf","game":"Team Fortress","app_id":440,"player_count":0,"max_players":24,"Bots":0,"server_type":"Dedicated","server_os":"Linux","password":true,"vac":true,"version":"7932396","steam_id":85568392924485349,"keywords":["nocrits","nodmgspread","payload","uncletopia"],"game_id":440,"stv_port":27016,"stv_name":"Uncletopia | S√£o Paulo | 2 | All Maps | STV","players":null},{"server_id":7,"name":"Uncletopia | Seattle | 1 | All Maps","name_short":"sea-1","host":"sea-1.us.uncletopia.com","port":27015,"enabled":true,"region":"us-west","cc":"us","latitude":47.608013,"longitude":-122.33517,"reserved":0,"last_update":"0001-01-01T00:00:00Z","name_a2s":"Uncletopia | Seattle | 1 | All Maps","protocol":17,"map":"pl_badwater","folder":"tf","game":"Team Fortress","app_id":440,"player_count":24,"max_players":24,"Bots":0,"server_type":"Dedicated","server_os":"Linux","password":true,"vac":true,"version":"7932396","steam_id":85568392924469997,"keywords":["nocrits","nodmgspread","payload","uncletopia"],"game_id":440,"stv_port":27016,"stv_name":"Uncletopia | Seattle | 1 | All Maps | STV","players":[{"user_id":652,"name":"saber","steam_id":76561198059041027,"connected_time":558000000000,"state":"active","ping":55},{"user_id":614,"name":"Ôº£Ôº®Ôº°Ôº≠Ôº∞Ôº©ÔºØÔºÆ","steam_id":76561198883157736,"connected_time":3699000000000,"state":"active","ping":60},{"user_id":615,"name":"CatThulhu","steam_id":76561198211620004,"connected_time":3634000000000,"state":"active","ping":67},{"user_id":640,"name":"cofferhead","steam_id":76561199191108449,"connected_time":2116000000000,"state":"active","ping":83},{"user_id":610,"name":"Lilith","steam_id":76561198120362654,"connected_time":5066000000000,"state":"active","ping":43},{"user_id":628,"name":"rad killl raccoon","steam_id":76561198980975595,"connected_time":2466000000000,"state":"active","ping":63},{"user_id":651,"name":"Tea","steam_id":76561198004133638,"connected_time":1264000000000,"state":"active","ping":82},{"user_id":648,"name":"Drapph","steam_id":76561199384213314,"connected_time":1768000000000,"state":"active","ping":104},{"user_id":603,"name":"Mossed Ball","steam_id":76561199031256509,"connected_time":5544000000000,"state":"active","ping":168},{"user_id":641,"name":"kingbowser1034","steam_id":76561198446039736,"connected_time":2092000000000,"state":"active","ping":98},{"user_id":623,"name":"Yankee Doodle Ass MF","steam_id":76561198450013572,"connected_time":2694000000000,"state":"active","ping":79},{"user_id":631,"name":"Donny Q","steam_id":76561198020901703,"connected_time":2379000000000,"state":"active","ping":56},{"user_id":632,"name":"unrealapex","steam_id":76561199024467448,"connected_time":2324000000000,"state":"active","ping":57},{"user_id":633,"name":"Officer Earl","steam_id":76561199019675078,"connected_time":2320000000000,"state":"active","ping":101},{"user_id":634,"name":"John Gabbana","steam_id":76561199474663033,"connected_time":2241000000000,"state":"active","ping":97},{"user_id":635,"name":"sissy fuckdoll $","steam_id":76561199064932372,"connected_time":2230000000000,"state":"active","ping":74},{"user_id":636,"name":"TheCrimeSkeleton","steam_id":76561198339067349,"connected_time":2213000000000,"state":"active","ping":71},{"user_id":653,"name":"Cyniro","steam_id":76561199018930826,"connected_time":485000000000,"state":"active","ping":121},{"user_id":644,"name":"Rabblerouser","steam_id":76561198127930963,"connected_time":2047000000000,"state":"active","ping":72},{"user_id":642,"name":"KELPER","steam_id":76561197997966653,"connected_time":2066000000000,"state":"active","ping":116},{"user_id":643,"name":"Duqqy-_-","steam_id":76561199122042883,"connected_time":2066000000000,"state":"active","ping":114},{"user_id":649,"name":"tanneright","steam_id":76561198327867899,"connected_time":1275000000000,"state":"active","ping":101},{"user_id":647,"name":"Faefanger","steam_id":76561198201871002,"connected_time":1929000000000,"state":"active","ping":61},{"user_id":650,"name":"Otael","steam_id":76561198040685975,"connected_time":1275000000000,"state":"active","ping":112}]},{"server_id":119,"name":"Uncletopia | Seattle | 2 | All Maps","name_short":"sea-2","host":"sea-1.us.uncletopia.com","port":27025,"enabled":true,"region":"us-west","cc":"us","latitude":47.608013,"longitude":-122.33517,"reserved":0,"last_update":"0001-01-01T00:00:00Z","name_a2s":"Uncletopia | Seattle | 2 | All Maps","protocol":17,"map":"cp_powerhouse","folder":"tf","game":"Team Fortress","app_id":440,"player_count":23,"max_players":24,"Bots":0,"server_type":"Dedicated","server_os":"Linux","password":true,"vac":true,"version":"7932396","steam_id":85568392924469998,"keywords":["cp","nocrits","nodmgspread","uncletopia"],"game_id":440,"stv_port":27026,"stv_name":"Uncletopia | Seattle | 2 | All Maps | STV","players":[{"user_id":972,"name":"you think you know me","steam_id":76561198131166135,"connected_time":1446000000000,"state":"active","ping":44},{"user_id":947,"name":"NEBULA","steam_id":76561198086878595,"connected_time":3909000000000,"state":"active","ping":69},{"user_id":964,"name":"s420","steam_id":76561198065339248,"connected_time":2276000000000,"state":"active","ping":59},{"user_id":969,"name":"JJ_80 TTV","steam_id":76561198195114443,"connected_time":1515000000000,"state":"active","ping":114},{"user_id":931,"name":"Zorlovo","steam_id":76561198006443283,"connected_time":5183000000000,"state":"active","ping":117},{"user_id":960,"name":"styles","steam_id":76561198149443710,"connected_time":2573000000000,"state":"active","ping":68},{"user_id":912,"name":"Rise for the National Spamton","steam_id":76561198138468982,"connected_time":7316000000000,"state":"active","ping":45},{"user_id":970,"name":"kyepka yobane","steam_id":76561198078626283,"connected_time":1514000000000,"state":"active","ping":121},{"user_id":932,"name":"drunk juice -rng","steam_id":76561198093829623,"connected_time":5013000000000,"state":"active","ping":53},{"user_id":973,"name":"marvxpensiv3","steam_id":76561199020502894,"connected_time":1414000000000,"state":"active","ping":91},{"user_id":950,"name":"hotguy6pack","steam_id":76561198881665250,"connected_time":3652000000000,"state":"active","ping":45},{"user_id":967,"name":"ShapedSky0","steam_id":76561199486555735,"connected_time":2155000000000,"state":"active","ping":103},{"user_id":861,"name":"Ayayayayayahuasca","steam_id":76561199002906056,"connected_time":14187000000000,"state":"active","ping":33},{"user_id":953,"name":"Zee‚úû","steam_id":76561198274550638,"connected_time":3332000000000,"state":"active","ping":104},{"user_id":966,"name":"resh","steam_id":76561198239598834,"connected_time":2233000000000,"state":"active","ping":131},{"user_id":974,"name":"Optimore","steam_id":76561198047662990,"connected_time":1386000000000,"state":"active","ping":71},{"user_id":965,"name":"Smeagolhoss","steam_id":76561198361514063,"connected_time":2260000000000,"state":"active","ping":101},{"user_id":977,"name":"flouride","steam_id":76561198103189993,"connected_time":1219000000000,"state":"active","ping":75},{"user_id":963,"name":":3 beelthazus","steam_id":76561198127783432,"connected_time":2348000000000,"state":"active","ping":106},{"user_id":968,"name":"rorywashere /·ê† - Àï -„Éû ‚≥ä","steam_id":76561198065825165,"connected_time":2016000000000,"state":"active","ping":106},{"user_id":896,"name":"jorts","steam_id":76561199041179985,"connected_time":9755000000000,"state":"active","ping":55},{"user_id":885,"name":"squash","steam_id":76561198150281353,"connected_time":10649000000000,"state":"active","ping":53},{"user_id":976,"name":"Femboy Gaming","steam_id":76561198330940939,"connected_time":1372000000000,"state":"active","ping":152}]},{"server_id":406,"name":"Uncletopia | Seattle | 3 | Stopwatch Beta","name_short":"sea-3","host":"sea-1.us.uncletopia.com","port":27035,"enabled":true,"region":"us-west","cc":"us","latitude":47.608013,"longitude":-122.33517,"reserved":0,"last_update":"0001-01-01T00:00:00Z","name_a2s":"Uncletopia | Seattle | 3 | Stopwatch Beta","protocol":17,"map":"workshop/koth_bagel_rc6.ugc2514036946","folder":"tf","game":"Team Fortress","app_id":440,"player_count":0,"max_players":24,"Bots":0,"server_type":"Dedicated","server_os":"Linux","password":true,"vac":true,"version":"7932396","steam_id":85568392924515217,"keywords":["cp","nocrits","nodmgspread","uncletopia"],"game_id":440,"stv_port":27036,"stv_name":"Uncletopia | Seattle | 3 | Stopwatch Beta | STV","players":null},{"server_id":17,"name":"Uncletopia | San Francisco | 1 | All Maps","name_short":"sfo-1","host":"sfo-1.us.uncletopia.com","port":27015,"enabled":true,"region":"us-west","cc":"us","latitude":37.77397,"longitude":-122.4313,"reserved":0,"last_update":"0001-01-01T00:00:00Z","name_a2s":"Uncletopia | San Francisco | 1 | All Maps","protocol":17,"map":"pl_borneo","folder":"tf","game":"Team Fortress","app_id":440,"player_count":0,"max_players":24,"Bots":0,"server_type":"Dedicated","server_os":"Linux","password":true,"vac":true,"version":"7932396","steam_id":85568392924469999,"keywords":["nocrits","nodmgspread","payload","uncletopia"],"game_id":440,"stv_port":27016,"stv_name":"Uncletopia | San Francisco | 1 | All Maps | STV","players":null},{"server_id":18,"name":"Uncletopia | San Francisco | 2 | All Maps","name_short":"sfo-2","host":"sfo-1.us.uncletopia.com","port":27025,"enabled":true,"region":"us-west","cc":"us","latitude":37.77397,"longitude":-122.4313,"reserved":0,"last_update":"0001-01-01T00:00:00Z","name_a2s":"Uncletopia | San Francisco | 2 | All Maps","protocol":17,"map":"koth_highpass","folder":"tf","game":"Team Fortress","app_id":440,"player_count":0,"max_players":24,"Bots":0,"server_type":"Dedicated","server_os":"Linux","password":true,"vac":true,"version":"7932396","steam_id":85568392924470000,"keywords":["cp","nocrits","nodmgspread","uncletopia"],"game_id":440,"stv_port":27026,"stv_name":"Uncletopia | San Francisco | 2 | All Maps | STV","players":null},{"server_id":19,"name":"Uncletopia | San Francisco | 3 | Stopwatch Beta","name_short":"sfo-3","host":"sfo-1.us.uncletopia.com","port":27035,"enabled":true,"region":"us-west","cc":"us","latitude":37.77397,"longitude":-122.4313,"reserved":0,"last_update":"0001-01-01T00:00:00Z","name_a2s":"Uncletopia | San Francisco | 3 | Stopwatch Beta","protocol":17,"map":"workshop/pl_vigil_rc9.ugc1266210012","folder":"tf","game":"Team Fortress","app_id":440,"player_count":0,"max_players":24,"Bots":0,"server_type":"Dedicated","server_os":"Linux","password":true,"vac":true,"version":"7932396","steam_id":85568392924742824,"keywords":["nocrits","nodmgspread","payload","uncletopia"],"game_id":440,"stv_port":27036,"stv_name":"Uncletopia | San Francisco | 3 | Stopwatch Beta | STV","players":null},{"server_id":20,"name":"Uncletopia | San Francisco | 4 | Community","name_short":"sfo-4","host":"sfo-1.us.uncletopia.com","port":27045,"enabled":true,"region":"us-west","cc":"us","latitude":37.77397,"longitude":-122.4313,"reserved":0,"last_update":"0001-01-01T00:00:00Z","name_a2s":"Uncletopia | San Francisco | 4 | Community","protocol":17,"map":"workshop/koth_kemptown_rc1.ugc767410655","folder":"tf","game":"Team Fortress","app_id":440,"player_count":0,"max_players":24,"Bots":0,"server_type":"Dedicated","server_os":"Linux","password":true,"vac":true,"version":"7932396","steam_id":85568392924742826,"keywords":["cp","nocrits","nodmgspread","uncletopia"],"game_id":440,"stv_port":27046,"stv_name":"Uncletopia | San Francisco | 4 | Community | STV","players":null},{"server_id":141,"name":"Uncletopia | Sydney | 1 | All Maps","name_short":"syd-1","host":"syd-1.au.uncletopia.com","port":27015,"enabled":true,"region":"au","cc":"au","latitude":-33.865143,"longitude":151.2099,"reserved":0,"last_update":"0001-01-01T00:00:00Z","name_a2s":"Uncletopia | Sydney | 1 | All Maps","protocol":17,"map":"koth_cascade","folder":"tf","game":"Team Fortress","app_id":440,"player_count":7,"max_players":24,"Bots":0,"server_type":"Dedicated","server_os":"Linux","password":true,"vac":true,"version":"7932396","steam_id":85568392924470001,"keywords":["cp","nocrits","nodmgspread","uncletopia"],"game_id":440,"stv_port":27016,"stv_name":"Uncletopia | Sydney | 1 | All Maps | STV","players":[{"user_id":49,"name":"Crumpet","steam_id":76561199096381193,"connected_time":1136000000000,"state":"active","ping":53},{"user_id":48,"name":"Little Red all grown up","steam_id":76561198054040718,"connected_time":1360000000000,"state":"active","ping":60},{"user_id":53,"name":"Mups","steam_id":76561198344833209,"connected_time":442000000000,"state":"active","ping":59},{"user_id":57,"name":"Benskii","steam_id":76561198070130470,"connected_time":78000000000,"state":"active","ping":54},{"user_id":54,"name":"yilli_","steam_id":76561198210960700,"connected_time":436000000000,"state":"active","ping":51},{"user_id":56,"name":"doctor morbin' (real)","steam_id":76561199365241695,"connected_time":103000000000,"state":"active","ping":121},{"user_id":58,"name":"Okie Dokie","steam_id":76561198125237921,"connected_time":21000000000,"state":"spawning","ping":42}]},{"server_id":123,"name":"Uncletopia | Sydney | 2 | All Maps","name_short":"syd-2","host":"syd-1.au.uncletopia.com","port":27025,"enabled":true,"region":"au","cc":"au","latitude":-33.865143,"longitude":151.2099,"reserved":0,"last_update":"0001-01-01T00:00:00Z","name_a2s":"Uncletopia | Sydney | 2 | All Maps","protocol":17,"map":"pl_pier","folder":"tf","game":"Team Fortress","app_id":440,"player_count":24,"max_players":24,"Bots":0,"server_type":"Dedicated","server_os":"Linux","password":true,"vac":true,"version":"7932396","steam_id":85568392924470002,"keywords":["nocrits","nodmgspread","payload","uncletopia"],"game_id":440,"stv_port":27026,"stv_name":"Uncletopia | Sydney | 2 | All Maps | STV","players":[{"user_id":466,"name":"Killing","steam_id":76561198107392931,"connected_time":7645000000000,"state":"active","ping":64},{"user_id":504,"name":"Tees","steam_id":76561199174602317,"connected_time":5810000000000,"state":"active","ping":49},{"user_id":548,"name":"RickDog","steam_id":76561198160382607,"connected_time":3196000000000,"state":"active","ping":62},{"user_id":565,"name":"Apteryx","steam_id":76561197976460834,"connected_time":1060000000000,"state":"active","ping":61},{"user_id":550,"name":"weezer","steam_id":76561199439508788,"connected_time":2943000000000,"state":"active","ping":63},{"user_id":558,"name":"Maestro[FmJ]","steam_id":76561197996842734,"connected_time":1892000000000,"state":"active","ping":70},{"user_id":553,"name":"Curie","steam_id":76561198132928417,"connected_time":2357000000000,"state":"active","ping":56},{"user_id":573,"name":"miyamoto is daddy","steam_id":76561199483818230,"connected_time":611000000000,"state":"active","ping":79},{"user_id":545,"name":"lavanderpumpernickle","steam_id":76561199093611800,"connected_time":3302000000000,"state":"active","ping":69},{"user_id":537,"name":"Trotter","steam_id":76561198343965263,"connected_time":3833000000000,"state":"active","ping":64},{"user_id":549,"name":"Greggorah","steam_id":76561198115925330,"connected_time":3013000000000,"state":"active","ping":70},{"user_id":541,"name":"Hike munt","steam_id":76561198063690508,"connected_time":3722000000000,"state":"active","ping":53},{"user_id":571,"name":"Ishanu","steam_id":76561198009397092,"connected_time":875000000000,"state":"active","ping":70},{"user_id":513,"name":"Pot Plant Mentality","steam_id":76561198385737243,"connected_time":5427000000000,"state":"active","ping":52},{"user_id":535,"name":"Lumalee ‚ù§","steam_id":76561198157613299,"connected_time":3953000000000,"state":"active","ping":64},{"user_id":554,"name":"whiteshaq","steam_id":76561198131988811,"connected_time":2323000000000,"state":"active","ping":65},{"user_id":566,"name":"Sinister80s","steam_id":76561198343540472,"connected_time":907000000000,"state":"active","ping":66},{"user_id":574,"name":"Pile of Sneed","steam_id":76561198143537391,"connected_time":587000000000,"state":"active","ping":58},{"user_id":560,"name":"FortniteXgamerz_ üïä","steam_id":76561198325503336,"connected_time":1843000000000,"state":"active","ping":51},{"user_id":567,"name":"demoKe","steam_id":76561199081848498,"connected_time":903000000000,"state":"active","ping":60},{"user_id":569,"name":"the weed alien (Del Davis)","steam_id":76561199205171109,"connected_time":901000000000,"state":"active","ping":65},{"user_id":544,"name":"Kumbya","steam_id":76561198117979249,"connected_time":3353000000000,"state":"active","ping":74},{"user_id":526,"name":"Marzell","steam_id":76561198151276153,"connected_time":4659000000000,"state":"active","ping":89},{"user_id":556,"name":"shugoki rule 34","steam_id":76561199479078274,"connected_time":1908000000000,"state":"active","ping":63}]},{"server_id":395,"name":"Uncletopia | Sydney | 3 | All Maps","name_short":"syd-3","host":"syd-1.au.uncletopia.com","port":27035,"enabled":true,"region":"au","cc":"au","latitude":-33.865143,"longitude":151.2099,"reserved":0,"last_update":"0001-01-01T00:00:00Z","name_a2s":"Uncletopia | Sydney | 3 | All Maps","protocol":17,"map":"ctf_2fort","folder":"tf","game":"Team Fortress","app_id":440,"player_count":0,"max_players":24,"Bots":0,"server_type":"Dedicated","server_os":"Linux","password":true,"vac":true,"version":"7932396","steam_id":85568392925194467,"keywords":["ctf","nocrits","nodmgspread","uncletopia"],"game_id":440,"stv_port":27036,"stv_name":"Uncletopia | Sydney | 3 | All Maps | STV","players":null},{"server_id":396,"name":"Uncletopia | Sydney | 4 | All Maps","name_short":"syd-4","host":"syd-1.au.uncletopia.com","port":27045,"enabled":true,"region":"au","cc":"au","latitude":-33.865143,"longitude":151.2099,"reserved":0,"last_update":"0001-01-01T00:00:00Z","name_a2s":"Uncletopia | Sydney | 4 | All Maps","protocol":17,"map":"pl_frontier_final","folder":"tf","game":"Team Fortress","app_id":440,"player_count":0,"max_players":24,"Bots":0,"server_type":"Dedicated","server_os":"Linux","password":true,"vac":true,"version":"7932396","steam_id":85568392925397958,"keywords":["nocrits","nodmgspread","payload","uncletopia"],"game_id":440,"stv_port":27046,"stv_name":"Uncletopia | Sydney | 4 | All Maps | STV","players":null},{"server_id":58,"name":"Uncletopia | Sydney | 5 | Stopwatch Beta","name_short":"syd-5","host":"syd-1.au.uncletopia.com","port":27055,"enabled":true,"region":"au","cc":"au","latitude":-33.865143,"longitude":151.2099,"reserved":0,"last_update":"0001-01-01T00:00:00Z","name_a2s":"Uncletopia | Sydney | 5 | Stopwatch Beta","protocol":17,"map":"pl_borneo","folder":"tf","game":"Team Fortress","app_id":440,"player_count":0,"max_players":24,"Bots":0,"server_type":"Dedicated","server_os":"Linux","password":true,"vac":true,"version":"7932396","steam_id":85568392925397959,"keywords":["nocrits","nodmgspread","payload","uncletopia"],"game_id":440,"stv_port":27056,"stv_name":"Uncletopia | Sydney | 5 | Stopwatch Beta | STV","players":null},{"server_id":59,"name":"Uncletopia | Sydney | 6 | Community","name_short":"syd-6","host":"syd-1.au.uncletopia.com","port":27065,"enabled":true,"region":"au","cc":"au","latitude":-33.865143,"longitude":151.2099,"reserved":0,"last_update":"0001-01-01T00:00:00Z","name_a2s":"Uncletopia | Sydney | 6 | Community","protocol":17,"map":"workshop/koth_product_final.ugc454272353","folder":"tf","game":"Team Fortress","app_id":440,"player_count":0,"max_players":24,"Bots":0,"server_type":"Dedicated","server_os":"Linux","password":true,"vac":true,"version":"7932396","steam_id":85568392925397960,"keywords":["cp","nocrits","nodmgspread","uncletopia"],"game_id":440,"stv_port":27066,"stv_name":"Uncletopia | Sydney | 6 | Community | STV","players":null},{"server_id":49,"name":"Uncletopia | Warsaw | 1 | All Maps","name_short":"waw-1","host":"waw-1.pl.uncletopia.com","port":27015,"enabled":true,"region":"eu","cc":"pl","latitude":52.2297,"longitude":21.017532,"reserved":0,"last_update":"0001-01-01T00:00:00Z","name_a2s":"","protocol":0,"map":"","folder":"","game":"","app_id":0,"player_count":0,"max_players":0,"Bots":0,"server_type":"","server_os":"","password":false,"vac":false,"version":"","steam_id":0,"keywords":null,"game_id":0,"stv_port":0,"stv_name":"","players":null},{"server_id":50,"name":"Uncletopia | Warsaw | 2 | All Maps","name_short":"waw-2","host":"waw-1.pl.uncletopia.com","port":27025,"enabled":true,"region":"eu","cc":"pl","latitude":52.2297,"longitude":21.017532,"reserved":0,"last_update":"0001-01-01T00:00:00Z","name_a2s":"Uncletopia | Warsaw | 2 | All Maps","protocol":17,"map":"pl_badwater","folder":"tf","game":"Team Fortress","app_id":440,"player_count":0,"max_players":24,"Bots":0,"server_type":"Dedicated","server_os":"Linux","password":true,"vac":true,"version":"7932396","steam_id":85568392925397851,"keywords":["nocrits","nodmgspread","payload","uncletopia"],"game_id":440,"stv_port":27026,"stv_name":"Uncletopia | Warsaw | 2 | All Maps | STV","players":null},{"server_id":51,"name":"Uncletopia | Warsaw | 3 | All Maps","name_short":"waw-3","host":"waw-1.pl.uncletopia.com","port":27035,"enabled":true,"region":"eu","cc":"pl","latitude":52.2297,"longitude":21.017532,"reserved":0,"last_update":"0001-01-01T00:00:00Z","name_a2s":"Uncletopia | Warsaw | 3 | All Maps","protocol":17,"map":"koth_lakeside_final","folder":"tf","game":"Team Fortress","app_id":440,"player_count":0,"max_players":24,"Bots":0,"server_type":"Dedicated","server_os":"Linux","password":true,"vac":true,"version":"7932396","steam_id":85568392925397852,"keywords":["cp","nocrits","nodmgspread","uncletopia"],"game_id":440,"stv_port":27036,"stv_name":"Uncletopia | Warsaw | 3 | All Maps | STV","players":null},{"server_id":52,"name":"Uncletopia | Warsaw | 4 | All Maps","name_short":"waw-4","host":"waw-1.pl.uncletopia.com","port":27045,"enabled":true,"region":"eu","cc":"pl","latitude":52.2297,"longitude":21.017532,"reserved":0,"last_update":"0001-01-01T00:00:00Z","name_a2s":"Uncletopia | Warsaw | 4 | All Maps","protocol":17,"map":"pl_swiftwater_final1","folder":"tf","game":"Team Fortress","app_id":440,"player_count":0,"max_players":24,"Bots":0,"server_type":"Dedicated","server_os":"Linux","password":true,"vac":true,"version":"7932396","steam_id":85568392925397853,"keywords":["nocrits","nodmgspread","payload","uncletopia"],"game_id":440,"stv_port":27046,"stv_name":"Uncletopia | Warsaw | 4 | All Maps | STV","players":null},{"server_id":53,"name":"Uncletopia | Warsaw | 5 | Stopwatch Beta","name_short":"waw-5","host":"waw-1.pl.uncletopia.com","port":27055,"enabled":true,"region":"eu","cc":"pl","latitude":52.2297,"longitude":21.017532,"reserved":0,"last_update":"0001-01-01T00:00:00Z","name_a2s":"Uncletopia | Warsaw | 5 | Stopwatch Beta","protocol":17,"map":"koth_highpass","folder":"tf","game":"Team Fortress","app_id":440,"player_count":0,"max_players":24,"Bots":0,"server_type":"Dedicated","server_os":"Linux","password":true,"vac":true,"version":"7932396","steam_id":85568392925397854,"keywords":["cp","nocrits","nodmgspread","uncletopia"],"game_id":440,"stv_port":27056,"stv_name":"Uncletopia | Warsaw | 5 | Stopwatch Beta | STV","players":null},{"server_id":54,"name":"Uncletopia | Warsaw | 6 | Community","name_short":"waw-6","host":"waw-1.pl.uncletopia.com","port":27065,"enabled":true,"region":"eu","cc":"pl","latitude":52.2297,"longitude":21.017532,"reserved":0,"last_update":"0001-01-01T00:00:00Z","name_a2s":"Uncletopia | Warsaw | 6 | Community","protocol":17,"map":"pl_upward","folder":"tf","game":"Team Fortress","app_id":440,"player_count":0,"max_players":24,"Bots":0,"server_type":"Dedicated","server_os":"Linux","password":true,"vac":true,"version":"7932396","steam_id":85568392925397856,"keywords":["nocrits","nodmgspread","payload","uncletopia"],"game_id":440,"stv_port":27066,"stv_name":"Uncletopia | Warsaw | 6 | Community | STV","players":null}]}