{"status":true,"message":"","result":[{"server_id":9,"name":"Uncletopia | Atlanta | 1 | All Maps","name_short":"atl-1","host":"atl-1.us.uncletopia.com","port":27015,"enabled":true,"region":"us-east","cc":"us","latitude":33.753746,"longitude":-84.38633,"reserved":0,"last_update":"0001-01-01T00:00:00Z","name_a2s":"Uncletopia | Atlanta | 1 | All Maps","protocol":17,"map":"cp_process_final","folder":"tf","game":"Team Fortress","app_id":440,"player_count":0,"max_players":24,"Bots":0,"server_type":"Dedicated","server_os":"Linux","password":true,"vac":true,"version":"7757534","steam_id":85568392924469982,"keywords":["cp","nocrits","nodmgspread","uncletopia"],"game_id":440,"stv_port":27016,"stv_name":"Uncletopia | Atlanta | 1 | All Maps | STV","players":null},{"server_id":104,"name":"Uncletopia | Atlanta | 2 | All Maps","name_short":"atl-2","host":"atl-1.us.uncletopia.com","port":27025,"enabled":true,"region":"us-east","cc":"us","latitude":33.753746,"longitude":-84.38633,"reserved":0,"last_update":"0001-01-01T00:00:00Z","name_a2s":"Uncletopia | Atlanta | 2 | All Maps","protocol":17,"map":"pl_barnblitz","folder":"tf","game":"Team Fortress","app_id":440,"player_count":0,"max_players":24,"Bots":0,"server_type":"Dedicated","server_os":"Linux","password":true,"vac":true,"version":"7757534","steam_id":85568392924469983,"keywords":["nocrits","nodmgspread","payload","uncletopia"],"game_id":440,"stv_port":27026,"stv_name":"Uncletopia | Atlanta | 2 | All Maps | STV","players":null},{"server_id":400,"name":"Uncletopia | Atlanta | 3 | Community","name_short":"atl-3","host":"atl-1.us.uncletopia.com","port":27035,"enabled":true,"region":"us-east","cc":"us","latitude":33.753746,"longitude":-84.38633,"reserved":0,"last_update":"0001-01-01T00:00:00Z","name_a2s":"Uncletopia | Atlanta | 3 | Community","protocol":17,"map":"cp_snakewater_final1","folder":"tf","game":"Team Fortress","app_id":440,"player_count":0,"max_players":24,"Bots":0,"server_type":"Dedicated","server_os":"Linux","password":true,"vac":true,"version":"7757534","steam_id":85568392924515187,"keywords":["cp","nocrits","nodmgspread","uncletopia"],"game_id":440,"stv_port":27036,"stv_name":"Uncletopia | Atlanta | 3 | Community | STV","players":null},{"server_id":401,"name":"Uncletopia | Atlanta | 4 | No Payload","name_short":"atl-4","host":"atl-1.us.uncletopia.com","port":27045,"enabled":true,"region":"us-east","cc":"us","latitude":33.753746,"longitude":-84.38633,"reserved":0,"last_update":"0001-01-01T00:00:00Z","name_a2s":"","protocol":0,"map":"","folder":"","game":"","app_id":0,"player_count":0,"max_players":0,"Bots":0,"server_type":"","server_os":"","password":false,"vac":false,"version":"","steam_id":0,"keywords":null,"game_id":0,"stv_port":0,"stv_name":"","players":null},{"server_id":2,"name":"Uncletopia | Chicago | 1 | All Maps","name_short":"chi-1","host":"chi-1.us.uncletopia.com","port":27015,"enabled":true,"region":"us-central","cc":"us","latitude":41.881832,"longitude":-87.62318,"reserved":0,"last_update":"0001-01-01T00:00:00Z","name_a2s":"Uncletopia | Chicago | 1 | All Maps","protocol":17,"map":"pl_swiftwater_final1","folder":"tf","game":"Team Fortress","app_id":440,"player_count":0,"max_players":24,"Bots":0,"server_type":"Dedicated","server_os":"Linux","password":true,"vac":true,"version":"7757534","steam_id":85568392924469984,"keywords":["nocrits","nodmgspread","payload","uncletopia"],"game_id":440,"stv_port":27016,"stv_name":"Uncletopia | Chicago | 1 | All Maps | STV","players":null},{"server_id":106,"name":"Uncletopia | Chicago | 2 | All Maps","name_short":"chi-2","host":"chi-1.us.uncletopia.com","port":27025,"enabled":true,"region":"us-central","cc":"us","latitude":41.881832,"longitude":-87.62318,"reserved":0,"last_update":"0001-01-01T00:00:00Z","name_a2s":"Uncletopia | Chicago | 2 | All Maps","protocol":17,"map":"pl_pier","folder":"tf","game":"Team Fortress","app_id":440,"player_count":23,"max_players":24,"Bots":0,"server_type":"Dedicated","server_os":"Linux","password":true,"vac":true,"version":"7757534","steam_id":85568392924469985,"keywords":["nocrits","nodmgspread","payload","uncletopia"],"game_id":440,"stv_port":27026,"stv_name":"Uncletopia | Chicago | 2 | All Maps | STV","players":[{"user_id":1006,"name":".jpegged","steam_id":76561198120078454,"connected_time":2520000000000,"state":"active","ping":74},{"user_id":1012,"name":"Cosmic","steam_id":76561198103201211,"connected_time":2194000000000,"state":"active","ping":86},{"user_id":1026,"name":"Commie","steam_id":76561198149370115,"connected_time":1353000000000,"state":"active","ping":45},{"user_id":1010,"name":"ZombieRaichu","steam_id":76561198173250571,"connected_time":2290000000000,"state":"active","ping":70},{"user_id":1039,"name":"Someone","steam_id":76561199030195879,"connected_time":218000000000,"state":"active","ping":145},{"user_id":1041,"name":"The Drunk Rat Bastard","steam_id":76561198994667208,"connected_time":72000000000,"state":"active","ping":76},{"user_id":1014,"name":"Trauma Dog","steam_id":76561198354424446,"connected_time":2181000000000,"state":"active","ping":75},{"user_id":997,"name":"TomsM","steam_id":76561198295153503,"connected_time":2871000000000,"state":"active","ping":169},{"user_id":1033,"name":"for4ever","steam_id":76561198047852423,"connected_time":704000000000,"state":"active","ping":71},{"user_id":998,"name":"RapidXenophage","steam_id":76561198175149973,"connected_time":2819000000000,"state":"active","ping":104},{"user_id":999,"name":"Federal Bureau of Control","steam_id":76561199187783723,"connected_time":2764000000000,"state":"active","ping":180},{"user_id":1034,"name":"AlmondMilk","steam_id":76561198151229725,"connected_time":681000000000,"state":"active","ping":50},{"user_id":1029,"name":"Satan-2","steam_id":76561199231742764,"connected_time":1260000000000,"state":"active","ping":70},{"user_id":1030,"name":"Bingus is WAM","steam_id":76561199131547722,"connected_time":1241000000000,"state":"active","ping":167},{"user_id":1037,"name":"Clark","steam_id":76561198012675381,"connected_time":596000000000,"state":"active","ping":75},{"user_id":1025,"name":"Stan","steam_id":76561199057962816,"connected_time":1545000000000,"state":"active","ping":58},{"user_id":1032,"name":"pigswill","steam_id":76561197999081865,"connected_time":1221000000000,"state":"active","ping":86},{"user_id":1035,"name":"badboy6996","steam_id":76561197969386201,"connected_time":679000000000,"state":"active","ping":47},{"user_id":1022,"name":"Judy Hopps‚Ñ¢ Simp","steam_id":76561198029322539,"connected_time":1721000000000,"state":"active","ping":99},{"user_id":1038,"name":"travel","steam_id":76561198892437666,"connected_time":533000000000,"state":"active","ping":91},{"user_id":1042,"name":"Griffin","steam_id":76561198159339442,"connected_time":26000000000,"state":"active","ping":74},{"user_id":1023,"name":"kiracaroso","steam_id":76561198165859543,"connected_time":1720000000000,"state":"active","ping":95},{"user_id":1036,"name":"GOT DA STRAP ON ME #NOLESBO","steam_id":76561198144766439,"connected_time":673000000000,"state":"active","ping":45}]},{"server_id":402,"name":"Uncletopia | Chicago | 3 | All Maps","name_short":"chi-3","host":"chi-1.us.uncletopia.com","port":27035,"enabled":true,"region":"us-central","cc":"us","latitude":41.881832,"longitude":-87.62318,"reserved":0,"last_update":"0001-01-01T00:00:00Z","name_a2s":"Uncletopia | Chicago | 3 | All Maps","protocol":17,"map":"koth_lakeside_final","folder":"tf","game":"Team Fortress","app_id":440,"player_count":0,"max_players":24,"Bots":0,"server_type":"Dedicated","server_os":"Linux","password":true,"vac":true,"version":"7757534","steam_id":85568392924515191,"keywords":["cp","nocrits","nodmgspread","uncletopia"],"game_id":440,"stv_port":27036,"stv_name":"Uncletopia | Chicago | 3 | All Maps | STV","players":null},{"server_id":403,"name":"Uncletopia | Chicago | 4 | All Maps","name_short":"chi-4","host":"chi-1.us.uncletopia.com","port":27045,"enabled":true,"region":"us-central","cc":"us","latitude":41.881832,"longitude":-87.62318,"reserved":0,"last_update":"0001-01-01T00:00:00Z","name_a2s":"Uncletopia | Chicago | 4 | All Maps","protocol":17,"map":"pl_frontier_final","folder":"tf","game":"Team Fortress","app_id":440,"player_count":0,"max_players":24,"Bots":0,"server_type":"Dedicated","server_os":"Linux","password":true,"vac":true,"version":"7757534","steam_id":85568392924515193,"keywords":["nocrits","nodmgspread","payload","uncletopia"],"game_id":440,"stv_port":27046,"stv_name":"Uncletopia | Chicago | 4 | All Maps | STV","players":null},{"server_id":36,"name":"Uncletopia | Chicago | 5 | All Maps","name_short":"chi-5","host":"chi-2.us.uncletopia.com","port":27015,"enabled":true,"region":"us-central","cc":"us","latitude":41.881832,"longitude":-87.62318,"reserved":0,"last_update":"0001-01-01T00:00:00Z","name_a2s":"Uncletopia | Chicago | 5 | All Maps","protocol":17,"map":"koth_lakeside_final","folder":"tf","game":"Team Fortress","app_id":440,"player_count":0,"max_players":24,"Bots":0,"server_type":"Dedicated","server_os":"Linux","password":true,"vac":true,"version":"7757534","steam_id":85568392924866362,"keywords":["cp","nocrits","nodmgspread","uncletopia"],"game_id":440,"stv_port":27016,"stv_name":"Uncletopia | Chicago | 5 | All Maps | STV","players":null},{"server_id":37,"name":"Uncletopia | Chicago | 6 | All Maps","name_short":"chi-6","host":"chi-2.us.uncletopia.com","port":27025,"enabled":true,"region":"us-central","cc":"us","latitude":41.881832,"longitude":-87.62318,"reserved":0,"last_update":"0001-01-01T00:00:00Z","name_a2s":"Uncletopia | Chicago | 6 | All Maps","protocol":17,"map":"koth_highpass","folder":"tf","game":"Team Fortress","app_id":440,"player_count":0,"max_players":24,"Bots":0,"server_type":"Dedicated","server_os":"Linux","password":true,"vac":true,"version":"7757534","steam_id":85568392924866363,"keywords":["cp","nocrits","nodmgspread","uncletopia"],"game_id":440,"stv_port":27026,"stv_name":"Uncletopia | Chicago | 6 | All Maps | STV","players":null},{"server_id":38,"name":"Uncletopia | Chicago | 7 | Stopwatch Beta","name_short":"chi-7","host":"chi-2.us.uncletopia.com","port":27035,"enabled":true,"region":"us-central","cc":"us","latitude":41.881832,"longitude":-87.62318,"reserved":0,"last_update":"0001-01-01T00:00:00Z","name_a2s":"Uncletopia | Chicago | 7 | Stopwatch Beta","protocol":17,"map":"workshop/koth_ashville_final.ugc2130459942","folder":"tf","game":"Team Fortress","app_id":440,"player_count":0,"max_players":24,"Bots":0,"server_type":"Dedicated","server_os":"Linux","password":true,"vac":true,"version":"7757534","steam_id":85568392924866364,"keywords":["cp","nocrits","nodmgspread","uncletopia"],"game_id":440,"stv_port":27036,"stv_name":"Uncletopia | Chicago | 7 | Stopwatch Beta | STV","players":null},{"server_id":39,"name":"Uncletopia | Chicago | 8 | Community","name_short":"chi-8","host":"chi-2.us.uncletopia.com","port":27045,"enabled":true,"region":"us-central","cc":"us","latitude":41.881832,"longitude":-87.62318,"reserved":0,"last_update":"0001-01-01T00:00:00Z","name_a2s":"Uncletopia | Chicago | 8 | Community","protocol":17,"map":"workshop/koth_ramjam_rc1.ugc459778887","folder":"tf","game":"Team Fortress","app_id":440,"player_count":0,"max_players":24,"Bots":0,"server_type":"Dedicated","server_os":"Linux","password":true,"vac":true,"version":"7757534","steam_id":85568392924866365,"keywords":["cp","nocrits","nodmgspread","uncletopia"],"game_id":440,"stv_port":27046,"stv_name":"Uncletopia | Chicago | 8 | Community | STV","players":null},{"server_id":8,"name":"Uncletopia | Dallas | 1 | All Maps","name_short":"dal-1","host":"dal-1.us.uncletopia.com","port":27015,"enabled":true,"region":"us-central","cc":"us","latitude":32.779167,"longitude":-96.80889,"reserved":0,"last_update":"0001-01-01T00:00:00Z","name_a2s":"Uncletopia | Dallas | 1 | All Maps","protocol":17,"map":"plr_pipeline","folder":"tf","game":"Team Fortress","app_id":440,"player_count":21,"max_players":24,"Bots":0,"server_type":"Dedicated","server_os":"Linux","password":true,"vac":true,"version":"7757534","steam_id":85568392924469986,"keywords":["nocrits","nodmgspread","payload","uncletopia"],"game_id":440,"stv_port":27016,"stv_name":"Uncletopia | Dallas | 1 | All Maps | STV","players":[{"user_id":967,"name":"larguu","steam_id":76561197994336210,"connected_time":111000000000,"state":"active","ping":75},{"user_id":958,"name":"Mengle","steam_id":76561198001953684,"connected_time":1003000000000,"state":"active","ping":77},{"user_id":919,"name":"Yongle","steam_id":76561198068591156,"connected_time":4902000000000,"state":"active","ping":75},{"user_id":968,"name":"Gibbs","steam_id":76561198043685710,"connected_time":87000000000,"state":"active","ping":173},{"user_id":964,"name":"Cheese Miller","steam_id":76561199451933673,"connected_time":450000000000,"state":"active","ping":96},{"user_id":959,"name":"jrocBABY","steam_id":76561198094800773,"connected_time":706000000000,"state":"active","ping":79},{"user_id":905,"name":"Soozy420","steam_id":76561198809074422,"connected_time":5754000000000,"state":"active","ping":70},{"user_id":929,"name":"Gravy","steam_id":76561198087726095,"connected_time":4006000000000,"state":"active","ping":83},{"user_id":961,"name":"Faraday","steam_id":76561198089928357,"connected_time":583000000000,"state":"active","ping":54},{"user_id":962,"name":"Zackariah","steam_id":76561198269224342,"connected_time":520000000000,"state":"active","ping":122},{"user_id":899,"name":"Project_Counter","steam_id":76561198152786076,"connected_time":6222000000000,"state":"active","ping":51},{"user_id":966,"name":"MoeKitsune","steam_id":76561198170147849,"connected_time":279000000000,"state":"active","ping":76},{"user_id":969,"name":"mu","steam_id":76561197997530228,"connected_time":67000000000,"state":"active","ping":105},{"user_id":970,"name":"meathead","steam_id":76561197970977889,"connected_time":49000000000,"state":"active","ping":73},{"user_id":971,"name":"Rebi","steam_id":76561199030110402,"connected_time":41000000000,"state":"active","ping":176},{"user_id":953,"name":"timestew 1","steam_id":76561198367583372,"connected_time":2138000000000,"state":"active","ping":86},{"user_id":945,"name":"Lesbillionaire","steam_id":76561198060118132,"connected_time":3325000000000,"state":"active","ping":75},{"user_id":848,"name":"brockonline","steam_id":76561199015537819,"connected_time":9577000000000,"state":"active","ping":76},{"user_id":946,"name":"Amigo de Videojuegos","steam_id":76561198125965363,"connected_time":3234000000000,"state":"active","ping":42},{"user_id":924,"name":"quiteabizarreone","steam_id":76561198407122862,"connected_time":4448000000000,"state":"active","ping":97},{"user_id":948,"name":"Cindereye","steam_id":76561198097959534,"connected_time":3137000000000,"state":"active","ping":72}]},{"server_id":108,"name":"Uncletopia | Dallas | 2 | All Maps","name_short":"dal-2","host":"dal-1.us.uncletopia.com","port":27025,"enabled":true,"region":"us-central","cc":"us","latitude":32.779167,"longitude":-96.80889,"reserved":0,"last_update":"0001-01-01T00:00:00Z","name_a2s":"Uncletopia | Dallas | 2 | All Maps","protocol":17,"map":"pl_snowycoast","folder":"tf","game":"Team Fortress","app_id":440,"player_count":4,"max_players":24,"Bots":0,"server_type":"Dedicated","server_os":"Linux","password":true,"vac":true,"version":"7757534","steam_id":85568392924469988,"keywords":["nocrits","nodmgspread","payload","uncletopia"],"game_id":440,"stv_port":27026,"stv_name":"Uncletopia | Dallas | 2 | All Maps | STV","players":[{"user_id":712,"name":"Magic Crayola Marker","steam_id":76561199226950836,"connected_time":981000000000,"state":"active","ping":89},{"user_id":708,"name":"gardener","steam_id":76561199032446839,"connected_time":1530000000000,"state":"active","ping":100},{"user_id":694,"name":"gb","steam_id":76561198115960063,"connected_time":3238000000000,"state":"active","ping":75},{"user_id":692,"name":"TheFriendlyGamer","steam_id":76561198117941009,"connected_time":3288000000000,"state":"active","ping":54}]},{"server_id":5,"name":"Uncletopia | Frankfurt | 1 | All Maps","name_short":"frk-1","host":"frk-1.de.uncletopia.com","port":27015,"enabled":true,"region":"eu","cc":"de","latitude":50.110924,"longitude":8.682127,"reserved":0,"last_update":"0001-01-01T00:00:00Z","name_a2s":"Uncletopia | Frankfurt | 1 | All Maps","protocol":17,"map":"cp_steel","folder":"tf","game":"Team Fortress","app_id":440,"player_count":23,"max_players":24,"Bots":0,"server_type":"Dedicated","server_os":"Linux","password":true,"vac":true,"version":"7757534","steam_id":85568392924469989,"keywords":["cp","nocrits","nodmgspread","uncletopia"],"game_id":440,"stv_port":27016,"stv_name":"Uncletopia | Frankfurt | 1 | All Maps | STV","players":[{"user_id":75,"name":"R3inis","steam_id":76561199030393569,"connected_time":793000000000,"state":"active","ping":85},{"user_id":42,"name":"Muslim Bale","steam_id":76561198160830606,"connected_time":3036000000000,"state":"active","ping":69},{"user_id":70,"name":"lore","steam_id":76561198120984188,"connected_time":950000000000,"state":"active","ping":68},{"user_id":40,"name":"Devil","steam_id":76561198129721935,"connected_time":3146000000000,"state":"active","ping":85},{"user_id":86,"name":"Tort","steam_id":76561198329646769,"connected_time":63000000000,"state":"active","ping":72},{"user_id":47,"name":"Ender az Endre Dragon","steam_id":76561198202235560,"connected_time":2530000000000,"state":"active","ping":86},{"user_id":32,"name":"Trimping Squire","steam_id":76561198367203640,"connected_time":3530000000000,"state":"active","ping":59},{"user_id":73,"name":"milan","steam_id":76561198858509678,"connected_time":926000000000,"state":"active","ping":60},{"user_id":74,"name":"ayadam","steam_id":76561198161515769,"connected_time":901000000000,"state":"active","ping":115},{"user_id":49,"name":"killer of noob, winner of game","steam_id":76561198190583242,"connected_time":2507000000000,"state":"active","ping":70},{"user_id":56,"name":"Nickel","steam_id":76561199037745941,"connected_time":2079000000000,"state":"active","ping":136},{"user_id":60,"name":"Rose","steam_id":76561198043601838,"connected_time":1875000000000,"state":"active","ping":60},{"user_id":87,"name":"Amiable","steam_id":76561198111462976,"connected_time":52000000000,"state":"active","ping":91},{"user_id":59,"name":"leminsc8","steam_id":76561198825084995,"connected_time":1962000000000,"state":"active","ping":38},{"user_id":77,"name":"Proxy","steam_id":76561199061029223,"connected_time":743000000000,"state":"active","ping":75},{"user_id":80,"name":"Striker25","steam_id":76561197975265634,"connected_time":513000000000,"state":"active","ping":69},{"user_id":85,"name":"Stylian","steam_id":76561198112948473,"connected_time":85000000000,"state":"active","ping":99},{"user_id":88,"name":"pain train tf2","steam_id":76561198111568728,"connected_time":26000000000,"state":"active","ping":50},{"user_id":82,"name":"dorak","steam_id":76561198818037965,"connected_time":489000000000,"state":"active","ping":109},{"user_id":51,"name":"üÉî Nugg1t(she/they)","steam_id":76561198065652251,"connected_time":2460000000000,"state":"active","ping":45},{"user_id":36,"name":"Dzan50","steam_id":76561198059758591,"connected_time":3498000000000,"state":"active","ping":100},{"user_id":62,"name":"Stargazer","steam_id":76561199050069286,"connected_time":1635000000000,"state":"active","ping":58},{"user_id":66,"name":"Robin ‚òÖ","steam_id":76561198124355408,"connected_time":1097000000000,"state":"active","ping":96}]},{"server_id":110,"name":"Uncletopia | Frankfurt | 2 | All Maps","name_short":"frk-2","host":"frk-1.de.uncletopia.com","port":27025,"enabled":true,"region":"eu","cc":"de","latitude":50.110924,"longitude":8.682127,"reserved":0,"last_update":"0001-01-01T00:00:00Z","name_a2s":"Uncletopia | Frankfurt | 2 | All Maps","protocol":17,"map":"pl_barnblitz","folder":"tf","game":"Team Fortress","app_id":440,"player_count":24,"max_players":24,"Bots":0,"server_type":"Dedicated","server_os":"Linux","password":true,"vac":true,"version":"7757534","steam_id":85568392924469990,"keywords":["nocrits","nodmgspread","payload","uncletopia"],"game_id":440,"stv_port":27026,"stv_name":"Uncletopia | Frankfurt | 2 | All Maps | STV","players":[{"user_id":5,"name":"Mr. Shadow | Folfie","steam_id":76561198037028507,"connected_time":1362000000000,"state":"active","ping":56},{"user_id":6,"name":"dash.","steam_id":76561198084796149,"connected_time":1304000000000,"state":"active","ping":43},{"user_id":7,"name":"Flying skyhigh","steam_id":76561198372971096,"connected_time":1273000000000,"state":"active","ping":62},{"user_id":31,"name":"zaleek69","steam_id":76561198058877595,"connected_time":639000000000,"state":"active","ping":91},{"user_id":10,"name":"the youngest trillionaire","steam_id":76561198078780040,"connected_time":1220000000000,"state":"active","ping":52},{"user_id":11,"name":"Jonkheervanflep","steam_id":76561198006853101,"connected_time":1192000000000,"state":"active","ping":82},{"user_id":12,"name":"The Daniella","steam_id":76561198023075547,"connected_time":1189000000000,"state":"active","ping":63},{"user_id":34,"name":"ThellanM","steam_id":76561199014222387,"connected_time":165000000000,"state":"active","ping":97},{"user_id":14,"name":"Tilty üë•","steam_id":76561198141834089,"connected_time":1092000000000,"state":"active","ping":59},{"user_id":15,"name":"Mr. Compress","steam_id":76561198082943599,"connected_time":1079000000000,"state":"active","ping":61},{"user_id":16,"name":"Cookies and Bakies","steam_id":76561198017442928,"connected_time":1067000000000,"state":"active","ping":58},{"user_id":22,"name":"wakeupf1lthy","steam_id":76561199232442508,"connected_time":950000000000,"state":"active","ping":73},{"user_id":33,"name":"–¢—è–∂–µ–ª—ã–π","steam_id":76561199116413509,"connected_time":397000000000,"state":"active","ping":71},{"user_id":19,"name":"Tyra","steam_id":76561198043739064,"connected_time":1026000000000,"state":"active","ping":67},{"user_id":29,"name":"Cornelius Shacklebart","steam_id":76561198000735878,"connected_time":883000000000,"state":"active","ping":60},{"user_id":21,"name":"johncenx","steam_id":76561198366703672,"connected_time":960000000000,"state":"active","ping":77},{"user_id":23,"name":"playing while wearing crocs.","steam_id":76561198139404261,"connected_time":948000000000,"state":"active","ping":53},{"user_id":24,"name":"Carrot","steam_id":76561198119340863,"connected_time":948000000000,"state":"active","ping":56},{"user_id":25,"name":"spajro","steam_id":76561198257383813,"connected_time":946000000000,"state":"active","ping":54},{"user_id":26,"name":"s√§kkij√§rven polkka","steam_id":76561198148115584,"connected_time":937000000000,"state":"active","ping":69},{"user_id":27,"name":"Cotton Eye Joe","steam_id":76561198080594207,"connected_time":937000000000,"state":"active","ping":68},{"user_id":32,"name":"666sammy","steam_id":76561198016607625,"connected_time":606000000000,"state":"active","ping":89},{"user_id":30,"name":"Carl Gustav Jung","steam_id":76561198284558039,"connected_time":823000000000,"state":"active","ping":105}]},{"server_id":308,"name":"Uncletopia | Frankfurt | 3 | All Maps","name_short":"frk-3","host":"frk-1.de.uncletopia.com","port":27035,"enabled":true,"region":"eu","cc":"de","latitude":50.110924,"longitude":8.682127,"reserved":0,"last_update":"0001-01-01T00:00:00Z","name_a2s":"Uncletopia | Frankfurt | 3 | All Maps","protocol":17,"map":"cp_process_final","folder":"tf","game":"Team Fortress","app_id":440,"player_count":0,"max_players":24,"Bots":0,"server_type":"Dedicated","server_os":"Linux","password":true,"vac":true,"version":"7757534","steam_id":85568392924504274,"keywords":["cp","nocrits","nodmgspread","uncletopia"],"game_id":440,"stv_port":27036,"stv_name":"Uncletopia | Frankfurt | 3 | All Maps | STV","players":null},{"server_id":309,"name":"Uncletopia | Frankfurt | 4 | All Maps","name_short":"frk-4","host":"frk-1.de.uncletopia.com","port":27045,"enabled":true,"region":"eu","cc":"de","latitude":50.110924,"longitude":8.682127,"reserved":0,"last_update":"0001-01-01T00:00:00Z","name_a2s":"Uncletopia | Frankfurt | 4 | All Maps","protocol":17,"map":"koth_viaduct","folder":"tf","game":"Team Fortress","app_id":440,"player_count":0,"max_players":24,"Bots":0,"server_type":"Dedicated","server_os":"Linux","password":true,"vac":true,"version":"7757534","steam_id":85568392924504275,"keywords":["cp","nocrits","nodmgspread","uncletopia"],"game_id":440,"stv_port":27046,"stv_name":"Uncletopia | Frankfurt | 4 | All Maps | STV","players":null},{"server_id":310,"name":"Uncletopia | Frankfurt | 5 | All Maps","name_short":"frk-5","host":"frk-1.de.uncletopia.com","port":27055,"enabled":true,"region":"eu","cc":"de","latitude":50.110924,"longitude":8.682127,"reserved":0,"last_update":"0001-01-01T00:00:00Z","name_a2s":"Uncletopia | Frankfurt | 5 | All Maps","protocol":17,"map":"pl_pier","folder":"tf","game":"Team Fortress","app_id":440,"player_count":24,"max_players":24,"Bots":0,"server_type":"Dedicated","server_os":"Linux","password":true,"vac":true,"version":"7757534","steam_id":85568392924504277,"keywords":["nocrits","nodmgspread","payload","uncletopia"],"game_id":440,"stv_port":27056,"stv_name":"Uncletopia | Frankfurt | 5 | All Maps | STV","players":[{"user_id":107,"name":"Mad Cat Kivima","steam_id":76561198028959678,"connected_time":2528000000000,"state":"active","ping":94},{"user_id":72,"name":"spearfishNL","steam_id":76561199077022985,"connected_time":4514000000000,"state":"active","ping":55},{"user_id":85,"name":"Dakeyras","steam_id":76561198057069564,"connected_time":3500000000000,"state":"active","ping":118},{"user_id":146,"name":"Flint","steam_id":76561197995920776,"connected_time":419000000000,"state":"active","ping":38},{"user_id":110,"name":"WanPin","steam_id":76561198090835995,"connected_time":2377000000000,"state":"active","ping":73},{"user_id":93,"name":"go play project zomboid","steam_id":76561199397932924,"connected_time":3245000000000,"state":"active","ping":59},{"user_id":51,"name":"Fpaoullis","steam_id":76561198897866131,"connected_time":5889000000000,"state":"active","ping":99},{"user_id":108,"name":"schweppestr","steam_id":76561198037485644,"connected_time":2516000000000,"state":"active","ping":33},{"user_id":142,"name":"$t@lker_Tim","steam_id":76561198963658042,"connected_time":653000000000,"state":"active","ping":101},{"user_id":67,"name":"quaking in my jammies","steam_id":76561199117720299,"connected_time":4680000000000,"state":"active","ping":48},{"user_id":143,"name":"Sulatejuusto","steam_id":76561198063971856,"connected_time":649000000000,"state":"active","ping":85},{"user_id":122,"name":"Youssef S Ahmed","steam_id":76561199435139103,"connected_time":1884000000000,"state":"active","ping":108},{"user_id":148,"name":"Acanda","steam_id":76561198123246537,"connected_time":294000000000,"state":"active","ping":53},{"user_id":126,"name":"MŒõDZŒ£D","steam_id":76561198161016806,"connected_time":1787000000000,"state":"active","ping":58},{"user_id":88,"name":"B.batt","steam_id":76561198998684199,"connected_time":3385000000000,"state":"active","ping":116},{"user_id":145,"name":"daily reminder to drink water","steam_id":76561198246573044,"connected_time":569000000000,"state":"active","ping":85},{"user_id":131,"name":"lambrusco di sorbara","steam_id":76561198066071855,"connected_time":1682000000000,"state":"active","ping":60},{"user_id":147,"name":"Chiefuz","steam_id":76561198015535215,"connected_time":404000000000,"state":"active","ping":62},{"user_id":111,"name":"sAmasam","steam_id":76561198114953928,"connected_time":2362000000000,"state":"active","ping":63},{"user_id":139,"name":"purplecan","steam_id":76561199208283508,"connected_time":713000000000,"state":"active","ping":62},{"user_id":118,"name":"poo brother","steam_id":76561199368726811,"connected_time":2198000000000,"state":"active","ping":77},{"user_id":117,"name":"ja","steam_id":76561199228540618,"connected_time":2299000000000,"state":"active","ping":69},{"user_id":130,"name":"DarkFloy","steam_id":76561198070650206,"connected_time":1742000000000,"state":"active","ping":89},{"user_id":150,"name":"skeleton_archer_1","steam_id":76561198407636430,"connected_time":102000000000,"state":"active","ping":88}]},{"server_id":311,"name":"Uncletopia | Frankfurt | 6 | All Maps","name_short":"frk-6","host":"frk-1.de.uncletopia.com","port":27065,"enabled":true,"region":"eu","cc":"de","latitude":50.110924,"longitude":8.682127,"reserved":0,"last_update":"0001-01-01T00:00:00Z","name_a2s":"Uncletopia | Frankfurt | 6 | All Maps","protocol":17,"map":"pl_frontier_final","folder":"tf","game":"Team Fortress","app_id":440,"player_count":3,"max_players":24,"Bots":0,"server_type":"Dedicated","server_os":"Linux","password":true,"vac":true,"version":"7757534","steam_id":85568392924504278,"keywords":["nocrits","nodmgspread","payload","uncletopia"],"game_id":440,"stv_port":27066,"stv_name":"Uncletopia | Frankfurt | 6 | All Maps | STV","players":[{"user_id":5,"name":"Truegr","steam_id":76561198811912339,"connected_time":1287000000000,"state":"active","ping":62},{"user_id":6,"name":"fried","steam_id":76561198307522022,"connected_time":1230000000000,"state":"active","ping":50},{"user_id":7,"name":"Meth","steam_id":76561199300394949,"connected_time":44000000000,"state":"spawning","ping":48}]},{"server_id":23,"name":"Uncletopia | Frankfurt | 7 | Stopwatch Beta","name_short":"frk-7","host":"frk-1.de.uncletopia.com","port":27075,"enabled":true,"region":"eu","cc":"de","latitude":50.110924,"longitude":8.682127,"reserved":0,"last_update":"0001-01-01T00:00:00Z","name_a2s":"Uncletopia | Frankfurt | 7 | Stopwatch Beta","protocol":17,"map":"cp_sunshine","folder":"tf","game":"Team Fortress","app_id":440,"player_count":0,"max_players":24,"Bots":0,"server_type":"Dedicated","server_os":"Linux","password":true,"vac":true,"version":"7757534","steam_id":85568392924742827,"keywords":["cp","nocrits","nodmgspread","uncletopia"],"game_id":440,"stv_port":27076,"stv_name":"Uncletopia | Frankfurt | 7 | Stopwatch Beta | STV","players":null},{"server_id":24,"name":"Uncletopia | Frankfurt | 8 | Community","name_short":"frk-8","host":"frk-1.de.uncletopia.com","port":27085,"enabled":true,"region":"eu","cc":"de","latitude":50.110924,"longitude":8.682127,"reserved":0,"last_update":"0001-01-01T00:00:00Z","name_a2s":"Uncletopia | Frankfurt | 8 | Community","protocol":17,"map":"koth_lakeside_final","folder":"tf","game":"Team Fortress","app_id":440,"player_count":0,"max_players":24,"Bots":0,"server_type":"Dedicated","server_os":"Linux","password":true,"vac":true,"version":"7757534","steam_id":85568392924742828,"keywords":["cp","nocrits","nodmgspread","uncletopia"],"game_id":440,"stv_port":27086,"stv_name":"Uncletopia | Frankfurt | 8 | Community | STV","players":null},{"server_id":202,"name":"Uncletopia | Hong Kong | 1 | All Maps","name_short":"hgk-1","host":"hgk-1.hk.uncletopia.com","port":27015,"enabled":true,"region":"asia","cc":"hk","latitude":22.302711,"longitude":114.177216,"reserved":0,"last_update":"0001-01-01T00:00:00Z","name_a2s":"Uncletopia | Hong Kong | 1 | All Maps","protocol":17,"map":"pl_badwater","folder":"tf","game":"Team Fortress","app_id":440,"player_count":24,"max_players":24,"Bots":0,"server_type":"Dedicated","server_os":"Linux","password":true,"vac":true,"version":"7757534","steam_id":85568392924494504,"keywords":["nocrits","nodmgspread","payload","uncletopia"],"game_id":440,"stv_port":27016,"stv_name":"Uncletopia | Hong Kong | 1 | All Maps | STV","players":[{"user_id":212,"name":"i saved my fart for lunch","steam_id":76561199146847474,"connected_time":5506000000000,"state":"active","ping":55},{"user_id":214,"name":"tiden2000","steam_id":76561198092969425,"connected_time":5448000000000,"state":"active","ping":102},{"user_id":258,"name":"Xx_EpicTrickstabber_xX","steam_id":76561199024960087,"connected_time":1173000000000,"state":"active","ping":59},{"user_id":251,"name":"Hay","steam_id":76561199438952901,"connected_time":2247000000000,"state":"active","ping":51},{"user_id":254,"name":"\u003c\u003cDunce](:-p)-|---\u003c","steam_id":76561199190321580,"connected_time":1249000000000,"state":"active","ping":49},{"user_id":256,"name":"xPhid","steam_id":76561199080808930,"connected_time":1198000000000,"state":"active","ping":93},{"user_id":207,"name":"Cloud-Verse","steam_id":76561198194370973,"connected_time":6200000000000,"state":"active","ping":84},{"user_id":263,"name":"Â∏ï","steam_id":76561198439343999,"connected_time":76000000000,"state":"active","ping":75},{"user_id":247,"name":"monke mode","steam_id":76561198992723983,"connected_time":2836000000000,"state":"active","ping":96},{"user_id":246,"name":"Taisho","steam_id":76561198334229197,"connected_time":2902000000000,"state":"active","ping":61},{"user_id":241,"name":"Ivy","steam_id":76561198400698408,"connected_time":3011000000000,"state":"active","ping":87},{"user_id":220,"name":"qballs","steam_id":76561198412329672,"connected_time":4780000000000,"state":"active","ping":90},{"user_id":179,"name":"Vortex Artemisio","steam_id":76561198833527091,"connected_time":8562000000000,"state":"active","ping":84},{"user_id":169,"name":"7853","steam_id":76561199390507975,"connected_time":9421000000000,"state":"active","ping":51},{"user_id":232,"name":"David Keithson","steam_id":76561199279393636,"connected_time":3645000000000,"state":"active","ping":77},{"user_id":239,"name":"Sheild swap leroy","steam_id":76561199137927625,"connected_time":3210000000000,"state":"active","ping":97},{"user_id":243,"name":"P","steam_id":76561198304514505,"connected_time":2993000000000,"state":"active","ping":69},{"user_id":249,"name":"ObscuroLucem","steam_id":76561198875037943,"connected_time":2817000000000,"state":"active","ping":88},{"user_id":252,"name":"Maria ghostcap.com","steam_id":76561198237613398,"connected_time":1732000000000,"state":"active","ping":161},{"user_id":262,"name":"TotoMackaJones","steam_id":76561198895016691,"connected_time":604000000000,"state":"active","ping":148},{"user_id":259,"name":"Crippling Depression","steam_id":76561199198723894,"connected_time":829000000000,"state":"active","ping":86},{"user_id":261,"name":"ArcticDolphin","steam_id":76561198203626319,"connected_time":784000000000,"state":"active","ping":127},{"user_id":176,"name":"brainless bozo","steam_id":76561198055553140,"connected_time":8572000000000,"state":"active","ping":73},{"user_id":244,"name":"mutwo","steam_id":76561198077043500,"connected_time":2990000000000,"state":"active","ping":78}]},{"server_id":1,"name":"Uncletopia | Los Angeles | 1 | All Maps","name_short":"lax-1","host":"lax-1.us.uncletopia.com","port":27015,"enabled":true,"region":"us-west","cc":"us","latitude":33.94279,"longitude":-118.41004,"reserved":0,"last_update":"0001-01-01T00:00:00Z","name_a2s":"Uncletopia | Los Angeles | 1 | All Maps","protocol":17,"map":"cp_altitude","folder":"tf","game":"Team Fortress","app_id":440,"player_count":0,"max_players":24,"Bots":0,"server_type":"Dedicated","server_os":"Linux","password":true,"vac":true,"version":"7757534","steam_id":85568392924469991,"keywords":["cp","nocrits","nodmgspread","uncletopia"],"game_id":440,"stv_port":27016,"stv_name":"Uncletopia | Los Angeles | 1 | All Maps | STV","players":null},{"server_id":112,"name":"Uncletopia | Los Angeles | 2 | All Maps","name_short":"lax-2","host":"lax-1.us.uncletopia.com","port":27025,"enabled":true,"region":"us-west","cc":"us","latitude":33.94279,"longitude":-118.41004,"reserved":0,"last_update":"0001-01-01T00:00:00Z","name_a2s":"Uncletopia | Los Angeles | 2 | All Maps","protocol":17,"map":"koth_cascade","folder":"tf","game":"Team Fortress","app_id":440,"player_count":8,"max_players":24,"Bots":0,"server_type":"Dedicated","server_os":"Linux","password":true,"vac":true,"version":"7757534","steam_id":85568392924469992,"keywords":["cp","nocrits","nodmgspread","uncletopia"],"game_id":440,"stv_port":27026,"stv_name":"Uncletopia | Los Angeles | 2 | All Maps | STV","players":[{"user_id":1006,"name":"paperclips","steam_id":76561198833984001,"connected_time":2169000000000,"state":"active","ping":53},{"user_id":919,"name":"Wacks","steam_id":76561198079476100,"connected_time":9363000000000,"state":"active","ping":51},{"user_id":1007,"name":"Junkmin","steam_id":76561198152251596,"connected_time":2162000000000,"state":"active","ping":42},{"user_id":930,"name":"ScoutBox","steam_id":76561198111539895,"connected_time":8394000000000,"state":"active","ping":44},{"user_id":1011,"name":"Joker's Skull","steam_id":76561199185320627,"connected_time":1427000000000,"state":"active","ping":99},{"user_id":1010,"name":"Doctor X (Michiko Daemon)","steam_id":76561199106264424,"connected_time":1742000000000,"state":"active","ping":103},{"user_id":1003,"name":"deokemi","steam_id":76561199480055194,"connected_time":2632000000000,"state":"active","ping":42},{"user_id":998,"name":"TicketWicket","steam_id":76561198999363763,"connected_time":3283000000000,"state":"active","ping":39}]},{"server_id":324,"name":"Uncletopia | Los Angeles | 3 | All Maps","name_short":"lax-3","host":"lax-1.us.uncletopia.com","port":27035,"enabled":true,"region":"us-west","cc":"us","latitude":33.94279,"longitude":-118.41004,"reserved":0,"last_update":"0001-01-01T00:00:00Z","name_a2s":"Uncletopia | Los Angeles | 3 | All Maps","protocol":17,"map":"pl_borneo","folder":"tf","game":"Team Fortress","app_id":440,"player_count":24,"max_players":24,"Bots":0,"server_type":"Dedicated","server_os":"Linux","password":true,"vac":true,"version":"7757534","steam_id":85568392924510198,"keywords":["nocrits","nodmgspread","payload","uncletopia"],"game_id":440,"stv_port":27036,"stv_name":"Uncletopia | Los Angeles | 3 | All Maps | STV","players":[{"user_id":722,"name":"THE UNDERTAKER","steam_id":76561198089852954,"connected_time":2296000000000,"state":"active","ping":105},{"user_id":735,"name":"Hifumi Togo","steam_id":76561198074930636,"connected_time":711000000000,"state":"active","ping":93},{"user_id":741,"name":"felinae","steam_id":76561198085308417,"connected_time":3000000000,"state":"spawning","ping":71},{"user_id":692,"name":"ChieF BEEF QueeF","steam_id":76561198078294539,"connected_time":4403000000000,"state":"active","ping":55},{"user_id":723,"name":"00","steam_id":76561198041700636,"connected_time":2083000000000,"state":"active","ping":56},{"user_id":638,"name":"BlixyDragon","steam_id":76561198295422834,"connected_time":8378000000000,"state":"active","ping":157},{"user_id":607,"name":"agentredx05","steam_id":76561198324962084,"connected_time":11043000000000,"state":"active","ping":88},{"user_id":715,"name":"Spinomite","steam_id":76561198247491242,"connected_time":2852000000000,"state":"active","ping":85},{"user_id":705,"name":"SolarusD","steam_id":76561198029279861,"connected_time":3355000000000,"state":"active","ping":47},{"user_id":706,"name":"Jordan","steam_id":76561198076882299,"connected_time":3228000000000,"state":"active","ping":100},{"user_id":703,"name":"beep beep","steam_id":76561198149443710,"connected_time":3904000000000,"state":"active","ping":47},{"user_id":727,"name":"jimmyfortnite2014","steam_id":76561198987713830,"connected_time":1705000000000,"state":"active","ping":155},{"user_id":719,"name":"twin","steam_id":76561198055626638,"connected_time":2510000000000,"state":"active","ping":143},{"user_id":740,"name":"Lambchop","steam_id":76561198043900363,"connected_time":168000000000,"state":"active","ping":70},{"user_id":733,"name":"sameways","steam_id":76561198120982884,"connected_time":772000000000,"state":"active","ping":61},{"user_id":729,"name":"selvhat","steam_id":76561198114225509,"connected_time":1584000000000,"state":"active","ping":48},{"user_id":720,"name":"KnightOfGames","steam_id":76561198080460659,"connected_time":2505000000000,"state":"active","ping":86},{"user_id":721,"name":"Tech Deck","steam_id":76561199070437675,"connected_time":2475000000000,"state":"active","ping":58},{"user_id":627,"name":"Gay Cake","steam_id":76561198004388831,"connected_time":8627000000000,"state":"active","ping":123},{"user_id":734,"name":"El pandora","steam_id":76561198075490385,"connected_time":739000000000,"state":"active","ping":51},{"user_id":737,"name":"cubiclasagna","steam_id":76561199233223256,"connected_time":680000000000,"state":"active","ping":60},{"user_id":738,"name":"joe bidens underwear","steam_id":76561198206922028,"connected_time":669000000000,"state":"active","ping":52},{"user_id":739,"name":"rice white","steam_id":76561198320732910,"connected_time":609000000000,"state":"active","ping":119},{"user_id":700,"name":"dunka","steam_id":76561198066114874,"connected_time":4055000000000,"state":"active","ping":86}]},{"server_id":25,"name":"Uncletopia | Los Angeles | 4 | Stopwatch Beta","name_short":"lax-4","host":"lax-1.us.uncletopia.com","port":27045,"enabled":true,"region":"us-west","cc":"us","latitude":33.94279,"longitude":-118.41004,"reserved":0,"last_update":"0001-01-01T00:00:00Z","name_a2s":"Uncletopia | Los Angeles | 4 | Stopwatch Beta","protocol":17,"map":"pl_swiftwater_final1","folder":"tf","game":"Team Fortress","app_id":440,"player_count":0,"max_players":24,"Bots":0,"server_type":"Dedicated","server_os":"Linux","password":true,"vac":true,"version":"7757534","steam_id":85568392924510199,"keywords":["nocrits","nodmgspread","payload","uncletopia"],"game_id":440,"stv_port":27046,"stv_name":"Uncletopia | Los Angeles | 4 | Stopwatch Beta | STV","players":null},{"server_id":11,"name":"Uncletopia | London | 1 | All Maps","name_short":"lon-1","host":"lon-1.uk.uncletopia.com","port":27015,"enabled":true,"region":"eu","cc":"gb","latitude":51.509865,"longitude":-0.118092,"reserved":0,"last_update":"0001-01-01T00:00:00Z","name_a2s":"Uncletopia | London | 1 | All Maps","protocol":17,"map":"pl_snowycoast","folder":"tf","game":"Team Fortress","app_id":440,"player_count":24,"max_players":24,"Bots":0,"server_type":"Dedicated","server_os":"Linux","password":true,"vac":true,"version":"7757534","steam_id":85568392924367362,"keywords":["nocrits","nodmgspread","payload","uncletopia"],"game_id":440,"stv_port":27016,"stv_name":"Uncletopia | London | 1 | All Maps | STV","players":[{"user_id":156,"name":"Oxer","steam_id":76561198055942412,"connected_time":1730000000000,"state":"active","ping":83},{"user_id":152,"name":"Rin-Nakaret","steam_id":76561197971051188,"connected_time":2711000000000,"state":"active","ping":56},{"user_id":161,"name":"Senior","steam_id":76561198065014164,"connected_time":1094000000000,"state":"active","ping":44},{"user_id":169,"name":"Bonduelle#Savetf2","steam_id":76561199041992422,"connected_time":833000000000,"state":"active","ping":180},{"user_id":166,"name":"wibe","steam_id":76561198002519060,"connected_time":920000000000,"state":"active","ping":80},{"user_id":175,"name":"Big Papa Yaaa","steam_id":76561198032777543,"connected_time":758000000000,"state":"active","ping":59},{"user_id":163,"name":"Oxy:*","steam_id":76561198275120049,"connected_time":930000000000,"state":"active","ping":70},{"user_id":170,"name":"Hetmanych","steam_id":76561198870926865,"connected_time":821000000000,"state":"active","ping":42},{"user_id":171,"name":"Ed","steam_id":76561198135081318,"connected_time":820000000000,"state":"active","ping":54},{"user_id":182,"name":"Hank Schrader","steam_id":76561198055703974,"connected_time":333000000000,"state":"active","ping":74},{"user_id":173,"name":"NATO Battle Mosquito","steam_id":76561198420349969,"connected_time":810000000000,"state":"active","ping":112},{"user_id":155,"name":"fat c’Ωnt","steam_id":76561198845550388,"connected_time":2279000000000,"state":"active","ping":134},{"user_id":174,"name":"Scavenger","steam_id":76561199067000038,"connected_time":783000000000,"state":"active","ping":67},{"user_id":162,"name":"imthegerman","steam_id":76561198053401077,"connected_time":1033000000000,"state":"active","ping":119},{"user_id":137,"name":"Helon","steam_id":76561198050761682,"connected_time":3953000000000,"state":"active","ping":55},{"user_id":177,"name":"LazyBane","steam_id":76561198032359132,"connected_time":610000000000,"state":"active","ping":43},{"user_id":136,"name":"Wat Means?","steam_id":76561197966629582,"connected_time":3982000000000,"state":"active","ping":61},{"user_id":176,"name":"Bulyto","steam_id":76561198043205202,"connected_time":668000000000,"state":"active","ping":71},{"user_id":178,"name":"Siemens Desiro","steam_id":76561199203076508,"connected_time":567000000000,"state":"active","ping":83},{"user_id":183,"name":"Egor Pomidor","steam_id":76561199175688390,"connected_time":310000000000,"state":"active","ping":76},{"user_id":165,"name":"Creep","steam_id":76561198067157049,"connected_time":926000000000,"state":"active","ping":53},{"user_id":180,"name":"YBOT554","steam_id":76561198836830645,"connected_time":515000000000,"state":"active","ping":45},{"user_id":184,"name":"Buriel","steam_id":76561199086856364,"connected_time":284000000000,"state":"active","ping":88},{"user_id":158,"name":"caribou","steam_id":76561198044916224,"connected_time":1610000000000,"state":"active","ping":43}]},{"server_id":114,"name":"Uncletopia | London | 2 | All Maps","name_short":"lon-2","host":"lon-1.uk.uncletopia.com","port":27025,"enabled":true,"region":"eu","cc":"gb","latitude":51.509865,"longitude":-0.118092,"reserved":0,"last_update":"0001-01-01T00:00:00Z","name_a2s":"Uncletopia | London | 2 | All Maps","protocol":17,"map":"koth_viaduct","folder":"tf","game":"Team Fortress","app_id":440,"player_count":1,"max_players":24,"Bots":0,"server_type":"Dedicated","server_os":"Linux","password":true,"vac":true,"version":"7757534","steam_id":85568392924470941,"keywords":["cp","nocrits","nodmgspread","uncletopia"],"game_id":440,"stv_port":27026,"stv_name":"Uncletopia | London | 2 | All Maps | STV","players":[{"user_id":6,"name":"Tacchinus","steam_id":76561199213946776,"connected_time":26000000000,"state":"active","ping":83}]},{"server_id":320,"name":"Uncletopia | London | 3 | All Maps","name_short":"lon-3","host":"lon-1.uk.uncletopia.com","port":27035,"enabled":true,"region":"eu","cc":"gb","latitude":51.509865,"longitude":-0.118092,"reserved":0,"last_update":"0001-01-01T00:00:00Z","name_a2s":"Uncletopia | London | 3 | All Maps","protocol":17,"map":"cp_dustbowl","folder":"tf","game":"Team Fortress","app_id":440,"player_count":0,"max_players":24,"Bots":0,"server_type":"Dedicated","server_os":"Linux","password":true,"vac":true,"version":"7757534","steam_id":85568392924510192,"keywords":["cp","nocrits","nodmgspread","uncletopia"],"game_id":440,"stv_port":27036,"stv_name":"Uncletopia | London | 3 | All Maps | STV","players":null},{"server_id":321,"name":"Uncletopia | London | 4 | All Maps","name_short":"lon-4","host":"lon-1.uk.uncletopia.com","port":27045,"enabled":true,"region":"eu","cc":"gb","latitude":51.509865,"longitude":-0.118092,"reserved":0,"last_update":"0001-01-01T00:00:00Z","name_a2s":"Uncletopia | London | 4 | All Maps","protocol":17,"map":"pl_upward","folder":"tf","game":"Team Fortress","app_id":440,"player_count":0,"max_players":24,"Bots":0,"server_type":"Dedicated","server_os":"Linux","password":true,"vac":true,"version":"7757534","steam_id":85568392924510193,"keywords":["nocrits","nodmgspread","payload","uncletopia"],"game_id":440,"stv_port":27046,"stv_name":"Uncletopia | London | 4 | All Maps | STV","players":null},{"server_id":21,"name":"Uncletopia | London | 5 | All Maps","name_short":"lon-5","host":"lon-1.uk.uncletopia.com","port":27055,"enabled":true,"region":"eu","cc":"gb","latitude":51.509865,"longitude":-0.118092,"reserved":0,"last_update":"0001-01-01T00:00:00Z","name_a2s":"Uncletopia | London | 5 | All Maps","protocol":17,"map":"koth_cascade","folder":"tf","game":"Team Fortress","app_id":440,"player_count":0,"max_players":24,"Bots":0,"server_type":"Dedicated","server_os":"Linux","password":true,"vac":true,"version":"7757534","steam_id":85568392924742829,"keywords":["cp","nocrits","nodmgspread","uncletopia"],"game_id":440,"stv_port":27056,"stv_name":"Uncletopia | London | 5 | All Maps | STV","players":null},{"server_id":22,"name":"Uncletopia | London | 6 | All Maps","name_short":"lon-6","host":"lon-1.uk.uncletopia.com","port":27065,"enabled":true,"region":"eu","cc":"gb","latitude":51.509865,"longitude":-0.118092,"reserved":0,"last_update":"0001-01-01T00:00:00Z","name_a2s":"Uncletopia | London | 6 | All Maps","protocol":17,"map":"cp_mountainlab","folder":"tf","game":"Team Fortress","app_id":440,"player_count":0,"max_players":24,"Bots":0,"server_type":"Dedicated","server_os":"Linux","password":true,"vac":true,"version":"7757534","steam_id":85568392924742830,"keywords":["cp","nocrits","nodmgspread","uncletopia"],"game_id":440,"stv_port":27066,"stv_name":"Uncletopia | London | 6 | All Maps | STV","players":null},{"server_id":40,"name":"Uncletopia | London | 7 | No Payload","name_short":"lon-7","host":"lon-1.uk.uncletopia.com","port":27075,"enabled":true,"region":"eu","cc":"gb","latitude":51.509865,"longitude":-0.118092,"reserved":0,"last_update":"0001-01-01T00:00:00Z","name_a2s":"Uncletopia | London | 7 | No Payload","protocol":17,"map":"pl_badwater","folder":"tf","game":"Team Fortress","app_id":440,"player_count":0,"max_players":24,"Bots":0,"server_type":"Dedicated","server_os":"Linux","password":true,"vac":true,"version":"7757534","steam_id":85568392924964314,"keywords":["nocrits","nodmgspread","payload","uncletopia"],"game_id":440,"stv_port":27076,"stv_name":"Uncletopia | London | 7 | No Payload | STV","players":null},{"server_id":41,"name":"Uncletopia | London | 8 | Community","name_short":"lon-8","host":"lon-1.uk.uncletopia.com","port":27085,"enabled":true,"region":"eu","cc":"gb","latitude":51.509865,"longitude":-0.118092,"reserved":0,"last_update":"0001-01-01T00:00:00Z","name_a2s":"Uncletopia | London | 8 | Community","protocol":17,"map":"workshop/koth_bagel_rc6.ugc2514036946","folder":"tf","game":"Team Fortress","app_id":440,"player_count":0,"max_players":24,"Bots":0,"server_type":"Dedicated","server_os":"Linux","password":true,"vac":true,"version":"7757534","steam_id":85568392924964315,"keywords":["cp","nocrits","nodmgspread","uncletopia"],"game_id":440,"stv_port":27086,"stv_name":"Uncletopia | London | 8 | Community | STV","players":null},{"server_id":300,"name":"Uncletopia | Montr√©al | 1 | All Maps","name_short":"mtl-1","host":"mtl-1.ca.uncletopia.com","port":27015,"enabled":true,"region":"us-east","cc":"ca","latitude":45.50889,"longitude":-73.56167,"reserved":0,"last_update":"0001-01-01T00:00:00Z","name_a2s":"Uncletopia | Montr√©al | 1 | All Maps","protocol":17,"map":"cp_sunshine","folder":"tf","game":"Team Fortress","app_id":440,"player_count":0,"max_players":24,"Bots":0,"server_type":"Dedicated","server_os":"Linux","password":true,"vac":true,"version":"7757534","steam_id":85568392924500087,"keywords":["cp","nocrits","nodmgspread","uncletopia"],"game_id":440,"stv_port":27016,"stv_name":"Uncletopia | Montr√©al | 1 | All Maps | STV","players":null},{"server_id":301,"name":"Uncletopia | Montr√©al | 2 | All Maps","name_short":"mtl-2","host":"mtl-1.ca.uncletopia.com","port":27025,"enabled":true,"region":"us-east","cc":"ca","latitude":45.50889,"longitude":-73.56167,"reserved":0,"last_update":"0001-01-01T00:00:00Z","name_a2s":"Uncletopia | Montr√©al | 2 | All Maps","protocol":17,"map":"pl_snowycoast","folder":"tf","game":"Team Fortress","app_id":440,"player_count":0,"max_players":24,"Bots":0,"server_type":"Dedicated","server_os":"Linux","password":true,"vac":true,"version":"7757534","steam_id":85568392924500088,"keywords":["nocrits","nodmgspread","payload","uncletopia"],"game_id":440,"stv_port":27026,"stv_name":"Uncletopia | Montr√©al | 2 | All Maps | STV","players":null},{"server_id":302,"name":"Uncletopia | Montr√©al | 3 | All Maps","name_short":"mtl-3","host":"mtl-1.ca.uncletopia.com","port":27035,"enabled":true,"region":"us-east","cc":"ca","latitude":45.50889,"longitude":-73.56167,"reserved":0,"last_update":"0001-01-01T00:00:00Z","name_a2s":"Uncletopia | Montr√©al | 3 | All Maps","protocol":17,"map":"koth_cascade","folder":"tf","game":"Team Fortress","app_id":440,"player_count":0,"max_players":24,"Bots":0,"server_type":"Dedicated","server_os":"Linux","password":true,"vac":true,"version":"7757534","steam_id":85568392924500089,"keywords":["cp","nocrits","nodmgspread","uncletopia"],"game_id":440,"stv_port":27036,"stv_name":"Uncletopia | Montr√©al | 3 | All Maps | STV","players":null},{"server_id":303,"name":"Uncletopia | Montr√©al | 4 | No Payload","name_short":"mtl-4","host":"mtl-1.ca.uncletopia.com","port":27045,"enabled":true,"region":"us-east","cc":"ca","latitude":45.50889,"longitude":-73.56167,"reserved":0,"last_update":"0001-01-01T00:00:00Z","name_a2s":"Uncletopia | Montr√©al | 4 | No Payload","protocol":17,"map":"koth_suijin","folder":"tf","game":"Team Fortress","app_id":440,"player_count":0,"max_players":24,"Bots":0,"server_type":"Dedicated","server_os":"Linux","password":true,"vac":true,"version":"7757534","steam_id":85568392924500090,"keywords":["cp","nocrits","nodmgspread","uncletopia"],"game_id":440,"stv_port":27046,"stv_name":"Uncletopia | Montr√©al | 4 | No Payload | STV","players":null},{"server_id":13,"name":"Uncletopia | New York City | 1 | All Maps","name_short":"nyc-1","host":"nyc-1.us.uncletopia.com","port":27015,"enabled":true,"region":"us-east","cc":"us","latitude":40.73061,"longitude":-73.93524,"reserved":0,"last_update":"0001-01-01T00:00:00Z","name_a2s":"Uncletopia | New York City | 1 | All Maps","protocol":17,"map":"pl_barnblitz","folder":"tf","game":"Team Fortress","app_id":440,"player_count":0,"max_players":24,"Bots":0,"server_type":"Dedicated","server_os":"Linux","password":true,"vac":true,"version":"7757534","steam_id":85568392924469993,"keywords":["nocrits","nodmgspread","payload","uncletopia"],"game_id":440,"stv_port":27016,"stv_name":"Uncletopia | New York City | 1 | All Maps | STV","players":null},{"server_id":14,"name":"Uncletopia | New York City | 2 | All Maps","name_short":"nyc-2","host":"nyc-1.us.uncletopia.com","port":27025,"enabled":true,"region":"us-east","cc":"us","latitude":40.73061,"longitude":-73.93524,"reserved":0,"last_update":"0001-01-01T00:00:00Z","name_a2s":"Uncletopia | New York City | 2 | All Maps","protocol":17,"map":"koth_highpass","folder":"tf","game":"Team Fortress","app_id":440,"player_count":0,"max_players":24,"Bots":0,"server_type":"Dedicated","server_os":"Linux","password":true,"vac":true,"version":"7757534","steam_id":85568392924469994,"keywords":["cp","nocrits","nodmgspread","uncletopia"],"game_id":440,"stv_port":27026,"stv_name":"Uncletopia | New York City | 2 | All Maps | STV","players":null},{"server_id":15,"name":"Uncletopia | New York City | 3 | Stopwatch Beta","name_short":"nyc-3","host":"nyc-1.us.uncletopia.com","port":27035,"enabled":true,"region":"us-east","cc":"us","latitude":40.73061,"longitude":-73.93524,"reserved":0,"last_update":"0001-01-01T00:00:00Z","name_a2s":"Uncletopia | New York City | 3 | Stopwatch Beta","protocol":17,"map":"workshop/cp_reckoner_rc6.ugc674719999","folder":"tf","game":"Team Fortress","app_id":440,"player_count":0,"max_players":24,"Bots":0,"server_type":"Dedicated","server_os":"Linux","password":true,"vac":true,"version":"7757534","steam_id":85568392924742820,"keywords":["cp","nocrits","nodmgspread","uncletopia"],"game_id":440,"stv_port":27036,"stv_name":"Uncletopia | New York City | 3 | Stopwatch Beta | STV","players":null},{"server_id":16,"name":"Uncletopia | New York City | 4 | Community","name_short":"nyc-4","host":"nyc-1.us.uncletopia.com","port":27045,"enabled":true,"region":"us-east","cc":"us","latitude":40.73061,"longitude":-73.93524,"reserved":0,"last_update":"0001-01-01T00:00:00Z","name_a2s":"Uncletopia | New York City | 4 | Community","protocol":17,"map":"workshop/cp_alloy_rc3.ugc592805587","folder":"tf","game":"Team Fortress","app_id":440,"player_count":0,"max_players":24,"Bots":0,"server_type":"Dedicated","server_os":"Linux","password":true,"vac":true,"version":"7757534","steam_id":85568392924742821,"keywords":["cp","nocrits","nodmgspread","uncletopia"],"game_id":440,"stv_port":27046,"stv_name":"Uncletopia | New York City | 4 | Community | STV","players":null},{"server_id":142,"name":"Uncletopia | S√£o Paulo | 1 | All Maps","name_short":"sao-1","host":"sao-1.br.uncletopia.com","port":27015,"enabled":true,"region":"sa","cc":"br","latitude":-23.533773,"longitude":-46.62529,"reserved":0,"last_update":"0001-01-01T00:00:00Z","name_a2s":"Uncletopia | S√£o Paulo | 1 | All Maps","protocol":17,"map":"koth_lakeside_final","folder":"tf","game":"Team Fortress","app_id":440,"player_count":0,"max_players":24,"Bots":0,"server_type":"Dedicated","server_os":"Linux","password":true,"vac":true,"version":"7757534","steam_id":85568392924469996,"keywords":["cp","nocrits","nodmgspread","uncletopia"],"game_id":440,"stv_port":27016,"stv_name":"Uncletopia | S√£o Paulo | 1 | All Maps | STV","players":null},{"server_id":143,"name":"Uncletopia | S√£o Paulo | 2 | All Maps","name_short":"sao-2","host":"sao-2.br.uncletopia.com","port":27015,"enabled":true,"region":"sa","cc":"br","latitude":-23.533773,"longitude":-46.62529,"reserved":0,"last_update":"0001-01-01T00:00:00Z","name_a2s":"Uncletopia | S√£o Paulo | 2 | All Maps","protocol":17,"map":"pl_borneo","folder":"tf","game":"Team Fortress","app_id":440,"player_count":0,"max_players":24,"Bots":0,"server_type":"Dedicated","server_os":"Linux","password":true,"vac":true,"version":"7757534","steam_id":85568392924485349,"keywords":["nocrits","nodmgspread","payload","uncletopia"],"game_id":440,"stv_port":27016,"stv_name":"Uncletopia | S√£o Paulo | 2 | All Maps | STV","players":null},{"server_id":7,"name":"Uncletopia | Seattle | 1 | All Maps","name_short":"sea-1","host":"sea-1.us.uncletopia.com","port":27015,"enabled":true,"region":"us-west","cc":"us","latitude":47.608013,"longitude":-122.33517,"reserved":0,"last_update":"0001-01-01T00:00:00Z","name_a2s":"Uncletopia | Seattle | 1 | All Maps","protocol":17,"map":"koth_harvest_final","folder":"tf","game":"Team Fortress","app_id":440,"player_count":24,"max_players":24,"Bots":0,"server_type":"Dedicated","server_os":"Linux","password":true,"vac":true,"version":"7757534","steam_id":85568392924469997,"keywords":["cp","nocrits","nodmgspread","uncletopia"],"game_id":440,"stv_port":27016,"stv_name":"Uncletopia | Seattle | 1 | All Maps | STV","players":[{"user_id":943,"name":"Spooky","steam_id":76561198030817605,"connected_time":1351000000000,"state":"active","ping":32},{"user_id":893,"name":"cracky","steam_id":76561197971365444,"connected_time":5924000000000,"state":"active","ping":43},{"user_id":954,"name":"everyrockstar!","steam_id":76561198272094975,"connected_time":204000000000,"state":"active","ping":96},{"user_id":822,"name":"toes","steam_id":76561198221151676,"connected_time":9496000000000,"state":"active","ping":59},{"user_id":944,"name":"FI LO","steam_id":76561198976530881,"connected_time":1321000000000,"state":"active","ping":65},{"user_id":951,"name":"Yuri Fanatic","steam_id":76561198109650521,"connected_time":429000000000,"state":"active","ping":90},{"user_id":871,"name":"cownbwead","steam_id":76561199480548883,"connected_time":6788000000000,"state":"active","ping":109},{"user_id":873,"name":"smeasly","steam_id":76561198028718812,"connected_time":6749000000000,"state":"active","ping":42},{"user_id":947,"name":"Brother Cadfael","steam_id":76561198083996768,"connected_time":974000000000,"state":"active","ping":56},{"user_id":933,"name":"heisenburger","steam_id":76561198986534519,"connected_time":1774000000000,"state":"active","ping":52},{"user_id":941,"name":"coyoteboi","steam_id":76561198311784880,"connected_time":1374000000000,"state":"active","ping":58},{"user_id":937,"name":"Yammie","steam_id":76561197987304489,"connected_time":1630000000000,"state":"active","ping":47},{"user_id":932,"name":"big car","steam_id":76561198067082350,"connected_time":1938000000000,"state":"active","ping":82},{"user_id":845,"name":"oil","steam_id":76561198099980149,"connected_time":7601000000000,"state":"active","ping":76},{"user_id":928,"name":"Glue Gobbler","steam_id":76561198237034712,"connected_time":2393000000000,"state":"active","ping":42},{"user_id":863,"name":"rorywashere /·ê† - Àï -„Éû ‚≥ä","steam_id":76561198065825165,"connected_time":7322000000000,"state":"active","ping":468},{"user_id":953,"name":"FutureSlyty","steam_id":76561198377973894,"connected_time":384000000000,"state":"active","ping":54},{"user_id":949,"name":"Distuurb","steam_id":76561198003296603,"connected_time":785000000000,"state":"active","ping":117},{"user_id":942,"name":"Grill Skills","steam_id":76561198053575147,"connected_time":1368000000000,"state":"active","ping":63},{"user_id":935,"name":"bandit !!","steam_id":76561198126546221,"connected_time":1709000000000,"state":"active","ping":75},{"user_id":931,"name":"Roseblade115","steam_id":76561198120797483,"connected_time":2066000000000,"state":"active","ping":44},{"user_id":792,"name":"Lord Hater","steam_id":76561199158148782,"connected_time":10870000000000,"state":"active","ping":49},{"user_id":889,"name":"p9 jorts (zoot)","steam_id":76561199041179985,"connected_time":6153000000000,"state":"active","ping":68},{"user_id":939,"name":"Skoad","steam_id":76561198104650528,"connected_time":1478000000000,"state":"active","ping":60}]},{"server_id":119,"name":"Uncletopia | Seattle | 2 | All Maps","name_short":"sea-2","host":"sea-1.us.uncletopia.com","port":27025,"enabled":true,"region":"us-west","cc":"us","latitude":47.608013,"longitude":-122.33517,"reserved":0,"last_update":"0001-01-01T00:00:00Z","name_a2s":"Uncletopia | Seattle | 2 | All Maps","protocol":17,"map":"pl_borneo","folder":"tf","game":"Team Fortress","app_id":440,"player_count":16,"max_players":24,"Bots":0,"server_type":"Dedicated","server_os":"Linux","password":true,"vac":true,"version":"7757534","steam_id":85568392924469998,"keywords":["nocrits","nodmgspread","payload","uncletopia"],"game_id":440,"stv_port":27026,"stv_name":"Uncletopia | Seattle | 2 | All Maps | STV","players":[{"user_id":760,"name":"‚ô• Squirrley ‚ô•","steam_id":76561198122228055,"connected_time":703000000000,"state":"active","ping":70},{"user_id":669,"name":"funkdonut","steam_id":76561199062326425,"connected_time":7003000000000,"state":"active","ping":54},{"user_id":761,"name":"Spooky Santabox","steam_id":76561198329679481,"connected_time":694000000000,"state":"active","ping":45},{"user_id":736,"name":"purple tank","steam_id":76561198257241799,"connected_time":1972000000000,"state":"active","ping":91},{"user_id":754,"name":"Zerg_Man","steam_id":76561199060404359,"connected_time":1179000000000,"state":"active","ping":70},{"user_id":750,"name":"XslPleb","steam_id":76561198309265358,"connected_time":1341000000000,"state":"active","ping":85},{"user_id":737,"name":"ShouldBeDrawing","steam_id":76561198027830584,"connected_time":1710000000000,"state":"active","ping":125},{"user_id":771,"name":"Shennan√égans","steam_id":76561198071950354,"connected_time":9000000000,"state":"spawning","ping":119},{"user_id":768,"name":"_Pai","steam_id":76561198108196753,"connected_time":376000000000,"state":"active","ping":62},{"user_id":763,"name":"Clumsy","steam_id":76561198056345245,"connected_time":657000000000,"state":"active","ping":112},{"user_id":764,"name":"Kilora","steam_id":76561198103356827,"connected_time":637000000000,"state":"active","ping":59},{"user_id":765,"name":"Apawlo","steam_id":76561198259987856,"connected_time":633000000000,"state":"active","ping":82},{"user_id":769,"name":"techno rush 536","steam_id":76561198889392973,"connected_time":221000000000,"state":"active","ping":194},{"user_id":748,"name":"Pineapple Pizza","steam_id":76561197997233176,"connected_time":1363000000000,"state":"active","ping":131},{"user_id":749,"name":"JeffPetsDucks","steam_id":76561198879504869,"connected_time":1346000000000,"state":"active","ping":46},{"user_id":733,"name":"kattaclyzm","steam_id":76561198327390236,"connected_time":2571000000000,"state":"active","ping":68}]},{"server_id":406,"name":"Uncletopia | Seattle | 3 | Stopwatch Beta","name_short":"sea-3","host":"sea-1.us.uncletopia.com","port":27035,"enabled":true,"region":"us-west","cc":"us","latitude":47.608013,"longitude":-122.33517,"reserved":0,"last_update":"0001-01-01T00:00:00Z","name_a2s":"Uncletopia | Seattle | 3 | Stopwatch Beta","protocol":17,"map":"koth_highpass","folder":"tf","game":"Team Fortress","app_id":440,"player_count":0,"max_players":24,"Bots":0,"server_type":"Dedicated","server_os":"Linux","password":true,"vac":true,"version":"7757534","steam_id":85568392924515217,"keywords":["cp","nocrits","nodmgspread","uncletopia"],"game_id":440,"stv_port":27036,"stv_name":"Uncletopia | Seattle | 3 | Stopwatch Beta | STV","players":null},{"server_id":17,"name":"Uncletopia | San Francisco | 1 | All Maps","name_short":"sfo-1","host":"sfo-1.us.uncletopia.com","port":27015,"enabled":true,"region":"us-west","cc":"us","latitude":37.77397,"longitude":-122.4313,"reserved":0,"last_update":"0001-01-01T00:00:00Z","name_a2s":"Uncletopia | San Francisco | 1 | All Maps","protocol":17,"map":"pl_swiftwater_final1","folder":"tf","game":"Team Fortress","app_id":440,"player_count":20,"max_players":24,"Bots":0,"server_type":"Dedicated","server_os":"Linux","password":true,"vac":true,"version":"7757534","steam_id":85568392924469999,"keywords":["nocrits","nodmgspread","payload","uncletopia"],"game_id":440,"stv_port":27016,"stv_name":"Uncletopia | San Francisco | 1 | All Maps | STV","players":[{"user_id":622,"name":"Jones","steam_id":76561198046037216,"connected_time":2549000000000,"state":"active","ping":86},{"user_id":442,"name":"Durial321","steam_id":76561198145669711,"connected_time":16582000000000,"state":"active","ping":47},{"user_id":481,"name":"bigman1","steam_id":76561198050225055,"connected_time":14389000000000,"state":"active","ping":53},{"user_id":634,"name":"Ramirez","steam_id":76561199216838273,"connected_time":1585000000000,"state":"active","ping":65},{"user_id":589,"name":"the quan","steam_id":76561198105374054,"connected_time":6245000000000,"state":"active","ping":71},{"user_id":653,"name":"Pah-Wraith Gul Dukat","steam_id":76561198033918106,"connected_time":54000000000,"state":"active","ping":41},{"user_id":645,"name":"Da Bird","steam_id":76561198215677985,"connected_time":756000000000,"state":"active","ping":68},{"user_id":623,"name":"Pudsla","steam_id":76561198258974036,"connected_time":2464000000000,"state":"active","ping":56},{"user_id":635,"name":"[trans]Schizo-Furry-Gamer[otaku","steam_id":76561198094990358,"connected_time":1509000000000,"state":"active","ping":46},{"user_id":651,"name":"8 raw papers","steam_id":76561198424248616,"connected_time":365000000000,"state":"active","ping":102},{"user_id":592,"name":"urotsuki","steam_id":76561197995200743,"connected_time":5873000000000,"state":"active","ping":44},{"user_id":590,"name":"bonk schnoffer","steam_id":76561198301598124,"connected_time":6177000000000,"state":"active","ping":65},{"user_id":648,"name":"Gruntic","steam_id":76561198170396647,"connected_time":644000000000,"state":"active","ping":64},{"user_id":616,"name":"Dob Bole","steam_id":76561198056367220,"connected_time":3101000000000,"state":"active","ping":44},{"user_id":628,"name":"eat chocolate look at animal","steam_id":76561198001410668,"connected_time":2250000000000,"state":"active","ping":58},{"user_id":652,"name":"ray (the based god)","steam_id":76561198311984941,"connected_time":286000000000,"state":"active","ping":101},{"user_id":626,"name":"sandwichposting","steam_id":76561199082610233,"connected_time":2366000000000,"state":"active","ping":99},{"user_id":650,"name":"Frank Ugly","steam_id":76561198247002810,"connected_time":521000000000,"state":"active","ping":65},{"user_id":639,"name":"stigma","steam_id":76561197960315263,"connected_time":1410000000000,"state":"active","ping":104},{"user_id":586,"name":"Emeraldc56","steam_id":76561198412483163,"connected_time":6673000000000,"state":"active","ping":70}]},{"server_id":18,"name":"Uncletopia | San Francisco | 2 | All Maps","name_short":"sfo-2","host":"sfo-1.us.uncletopia.com","port":27025,"enabled":true,"region":"us-west","cc":"us","latitude":37.77397,"longitude":-122.4313,"reserved":0,"last_update":"0001-01-01T00:00:00Z","name_a2s":"Uncletopia | San Francisco | 2 | All Maps","protocol":17,"map":"pl_pier","folder":"tf","game":"Team Fortress","app_id":440,"player_count":0,"max_players":24,"Bots":0,"server_type":"Dedicated","server_os":"Linux","password":true,"vac":true,"version":"7757534","steam_id":85568392924470000,"keywords":["nocrits","nodmgspread","payload","uncletopia"],"game_id":440,"stv_port":27026,"stv_name":"Uncletopia | San Francisco | 2 | All Maps | STV","players":null},{"server_id":19,"name":"Uncletopia | San Francisco | 3 | Stopwatch Beta","name_short":"sfo-3","host":"sfo-1.us.uncletopia.com","port":27035,"enabled":true,"region":"us-west","cc":"us","latitude":37.77397,"longitude":-122.4313,"reserved":0,"last_update":"0001-01-01T00:00:00Z","name_a2s":"Uncletopia | San Francisco | 3 | Stopwatch Beta","protocol":17,"map":"pl_borneo","folder":"tf","game":"Team Fortress","app_id":440,"player_count":0,"max_players":24,"Bots":0,"server_type":"Dedicated","server_os":"Linux","password":true,"vac":true,"version":"7757534","steam_id":85568392924742824,"keywords":["nocrits","nodmgspread","payload","uncletopia"],"game_id":440,"stv_port":27036,"stv_name":"Uncletopia | San Francisco | 3 | Stopwatch Beta | STV","players":null},{"server_id":20,"name":"Uncletopia | San Francisco | 4 | Community","name_short":"sfo-4","host":"sfo-1.us.uncletopia.com","port":27045,"enabled":true,"region":"us-west","cc":"us","latitude":37.77397,"longitude":-122.4313,"reserved":0,"last_update":"0001-01-01T00:00:00Z","name_a2s":"Uncletopia | San Francisco | 4 | Community","protocol":17,"map":"workshop/koth_product_final.ugc454272353","folder":"tf","game":"Team Fortress","app_id":440,"player_count":0,"max_players":24,"Bots":0,"server_type":"Dedicated","server_os":"Linux","password":true,"vac":true,"version":"7757534","steam_id":85568392924742826,"keywords":["cp","nocrits","nodmgspread","uncletopia"],"game_id":440,"stv_port":27046,"stv_name":"Uncletopia | San Francisco | 4 | Community | STV","players":null},{"server_id":141,"name":"Uncletopia | Sydney | 1 | All Maps","name_short":"syd-1","host":"syd-1.au.uncletopia.com","port":27015,"enabled":true,"region":"au","cc":"au","latitude":-33.865143,"longitude":151.2099,"reserved":0,"last_update":"0001-01-01T00:00:00Z","name_a2s":"Uncletopia | Sydney | 1 | All Maps","protocol":17,"map":"pl_badwater","folder":"tf","game":"Team Fortress","app_id":440,"player_count":21,"max_players":24,"Bots":0,"server_type":"Dedicated","server_os":"Linux","password":true,"vac":true,"version":"7757534","steam_id":85568392924470001,"keywords":["nocrits","nodmgspread","payload","uncletopia"],"game_id":440,"stv_port":27016,"stv_name":"Uncletopia | Sydney | 1 | All Maps | STV","players":[{"user_id":232,"name":"Paradon YT","steam_id":76561198060176705,"connected_time":2301000000000,"state":"active","ping":105},{"user_id":244,"name":"SniperGranny","steam_id":76561198293758694,"connected_time":1724000000000,"state":"active","ping":79},{"user_id":253,"name":"‡∏∏bifcheg","steam_id":76561198319806610,"connected_time":1225000000000,"state":"active","ping":70},{"user_id":272,"name":"boss baby *real*","steam_id":76561199123917166,"connected_time":438000000000,"state":"active","ping":55},{"user_id":259,"name":"Poop2Hard","steam_id":76561198099383586,"connected_time":1054000000000,"state":"active","ping":66},{"user_id":126,"name":"mushroom","steam_id":76561197992336470,"connected_time":10113000000000,"state":"active","ping":94},{"user_id":268,"name":"AzureFox","steam_id":76561198108179408,"connected_time":644000000000,"state":"active","ping":90},{"user_id":256,"name":"MarkFromNextDoor","steam_id":76561199042785282,"connected_time":1150000000000,"state":"active","ping":70},{"user_id":247,"name":"ChairMonster26","steam_id":76561198959787682,"connected_time":1588000000000,"state":"active","ping":74},{"user_id":249,"name":"Extra Exotic","steam_id":76561198045191981,"connected_time":1496000000000,"state":"active","ping":58},{"user_id":264,"name":"floop flub","steam_id":76561198418968979,"connected_time":757000000000,"state":"active","ping":103},{"user_id":265,"name":"Batering","steam_id":76561198039849442,"connected_time":720000000000,"state":"active","ping":55},{"user_id":266,"name":"Shadow Puppeteer","steam_id":76561198151121997,"connected_time":685000000000,"state":"active","ping":75},{"user_id":275,"name":"chef","steam_id":76561198403008029,"connected_time":229000000000,"state":"active","ping":42},{"user_id":274,"name":"El Chupacabra","steam_id":76561198070641651,"connected_time":321000000000,"state":"active","ping":45},{"user_id":228,"name":"Felix","steam_id":76561197972286512,"connected_time":3205000000000,"state":"active","ping":101},{"user_id":225,"name":"ADUCK","steam_id":76561198249887912,"connected_time":3540000000000,"state":"active","ping":67},{"user_id":199,"name":"ahhhhhhhhh","steam_id":76561198083700749,"connected_time":5222000000000,"state":"active","ping":53},{"user_id":240,"name":"FrOStY","steam_id":76561198088155805,"connected_time":1961000000000,"state":"active","ping":70},{"user_id":270,"name":"iliana","steam_id":76561198304080170,"connected_time":494000000000,"state":"active","ping":49},{"user_id":276,"name":"SchlaytoN","steam_id":76561198206793747,"connected_time":185000000000,"state":"active","ping":69}]},{"server_id":123,"name":"Uncletopia | Sydney | 2 | All Maps","name_short":"syd-2","host":"syd-1.au.uncletopia.com","port":27025,"enabled":true,"region":"au","cc":"au","latitude":-33.865143,"longitude":151.2099,"reserved":0,"last_update":"0001-01-01T00:00:00Z","name_a2s":"Uncletopia | Sydney | 2 | All Maps","protocol":17,"map":"pl_swiftwater_final1","folder":"tf","game":"Team Fortress","app_id":440,"player_count":17,"max_players":24,"Bots":0,"server_type":"Dedicated","server_os":"Linux","password":true,"vac":true,"version":"7757534","steam_id":85568392924470002,"keywords":["nocrits","nodmgspread","payload","uncletopia"],"game_id":440,"stv_port":27026,"stv_name":"Uncletopia | Sydney | 2 | All Maps | STV","players":[{"user_id":391,"name":"Father Smissmas","steam_id":76561198122924100,"connected_time":465000000000,"state":"active","ping":97},{"user_id":225,"name":"Jodelk√∂nig Franzl Lang","steam_id":76561198007667830,"connected_time":11638000000000,"state":"active","ping":59},{"user_id":305,"name":"Crabloid","steam_id":76561199081848498,"connected_time":7121000000000,"state":"active","ping":60},{"user_id":382,"name":"Pile of Sneed","steam_id":76561198143537391,"connected_time":1444000000000,"state":"active","ping":49},{"user_id":374,"name":"Don Cheezel","steam_id":76561198321407264,"connected_time":2360000000000,"state":"active","ping":55},{"user_id":348,"name":"SamK #AnnexTF2","steam_id":76561198149051619,"connected_time":3509000000000,"state":"active","ping":61},{"user_id":366,"name":"Louis","steam_id":76561198013395847,"connected_time":2801000000000,"state":"active","ping":53},{"user_id":347,"name":"thrax","steam_id":76561197992385270,"connected_time":4140000000000,"state":"active","ping":52},{"user_id":349,"name":"Jellyfish_kurage","steam_id":76561198425670698,"connected_time":3468000000000,"state":"active","ping":53},{"user_id":380,"name":"Voncrumb","steam_id":76561198054076313,"connected_time":1467000000000,"state":"active","ping":49},{"user_id":357,"name":"diavlo","steam_id":76561198207312292,"connected_time":3143000000000,"state":"active","ping":78},{"user_id":393,"name":"Invidia","steam_id":76561198096251579,"connected_time":366000000000,"state":"active","ping":46},{"user_id":384,"name":"Piklz","steam_id":76561198043384139,"connected_time":1347000000000,"state":"active","ping":55},{"user_id":360,"name":"cheemschungus","steam_id":76561198987765731,"connected_time":3039000000000,"state":"active","ping":112},{"user_id":338,"name":"Ganome Chilled","steam_id":76561198064898965,"connected_time":4781000000000,"state":"active","ping":92},{"user_id":372,"name":"Charm","steam_id":76561198028891054,"connected_time":2491000000000,"state":"active","ping":60},{"user_id":370,"name":"Arpazha","steam_id":76561199072257230,"connected_time":2567000000000,"state":"active","ping":151}]},{"server_id":395,"name":"Uncletopia | Sydney | 3 | All Maps","name_short":"syd-3","host":"syd-1.au.uncletopia.com","port":27035,"enabled":true,"region":"au","cc":"au","latitude":-33.865143,"longitude":151.2099,"reserved":0,"last_update":"0001-01-01T00:00:00Z","name_a2s":"Uncletopia | Sydney | 3 | All Maps","protocol":17,"map":"cp_steel","folder":"tf","game":"Team Fortress","app_id":440,"player_count":17,"max_players":24,"Bots":0,"server_type":"Dedicated","server_os":"Linux","password":true,"vac":true,"version":"7757534","steam_id":85568392925194467,"keywords":["cp","nocrits","nodmgspread","uncletopia"],"game_id":440,"stv_port":27036,"stv_name":"Uncletopia | Sydney | 3 | All Maps | STV","players":[{"user_id":559,"name":"Luden","steam_id":76561198069165922,"connected_time":1234000000000,"state":"active","ping":66},{"user_id":558,"name":"DylDed","steam_id":76561198364823853,"connected_time":1378000000000,"state":"active","ping":86},{"user_id":560,"name":"K41","steam_id":76561198146207192,"connected_time":1207000000000,"state":"active","ping":43},{"user_id":572,"name":"LUCAZZO","steam_id":76561198062373941,"connected_time":401000000000,"state":"active","ping":89},{"user_id":547,"name":"hive","steam_id":76561199099744527,"connected_time":1906000000000,"state":"active","ping":45},{"user_id":567,"name":"Snake101","steam_id":76561198418910767,"connected_time":769000000000,"state":"active","ping":56},{"user_id":471,"name":"Kremmen","steam_id":76561198051368641,"connected_time":7746000000000,"state":"active","ping":71},{"user_id":549,"name":"Eugene (built different)","steam_id":76561198079108027,"connected_time":1893000000000,"state":"active","ping":58},{"user_id":566,"name":"üíöMetalüåªWeedüå≥Veganüíö","steam_id":76561198107433483,"connected_time":791000000000,"state":"active","ping":62},{"user_id":570,"name":"Ethos","steam_id":76561197970514852,"connected_time":700000000000,"state":"active","ping":62},{"user_id":526,"name":"Oni","steam_id":76561199071815908,"connected_time":3555000000000,"state":"active","ping":71},{"user_id":500,"name":"Corrupt","steam_id":76561198008567328,"connected_time":6089000000000,"state":"active","ping":65},{"user_id":569,"name":"Sancho","steam_id":76561197995288524,"connected_time":727000000000,"state":"active","ping":69},{"user_id":552,"name":"Henry.","steam_id":76561198218565309,"connected_time":1835000000000,"state":"active","ping":58},{"user_id":573,"name":"TOG","steam_id":76561198068153798,"connected_time":389000000000,"state":"active","ping":102},{"user_id":496,"name":"Apteryx","steam_id":76561197976460834,"connected_time":6197000000000,"state":"active","ping":63},{"user_id":533,"name":"Vonicz","steam_id":76561198431695313,"connected_time":3238000000000,"state":"active","ping":71}]},{"server_id":396,"name":"Uncletopia | Sydney | 4 | All Maps","name_short":"syd-4","host":"syd-1.au.uncletopia.com","port":27045,"enabled":true,"region":"au","cc":"au","latitude":-33.865143,"longitude":151.2099,"reserved":0,"last_update":"0001-01-01T00:00:00Z","name_a2s":"Uncletopia | Sydney | 4 | All Maps","protocol":17,"map":"cp_sunshine","folder":"tf","game":"Team Fortress","app_id":440,"player_count":0,"max_players":24,"Bots":0,"server_type":"Dedicated","server_os":"Linux","password":true,"vac":true,"version":"7757534","steam_id":85568392925397958,"keywords":["cp","nocrits","nodmgspread","uncletopia"],"game_id":440,"stv_port":27046,"stv_name":"Uncletopia | Sydney | 4 | All Maps | STV","players":null},{"server_id":58,"name":"Uncletopia | Sydney | 5 | Stopwatch Beta","name_short":"syd-5","host":"syd-1.au.uncletopia.com","port":27055,"enabled":true,"region":"au","cc":"au","latitude":-33.865143,"longitude":151.2099,"reserved":0,"last_update":"0001-01-01T00:00:00Z","name_a2s":"Uncletopia | Sydney | 5 | Stopwatch Beta","protocol":17,"map":"workshop/cp_reckoner_rc6.ugc674719999","folder":"tf","game":"Team Fortress","app_id":440,"player_count":0,"max_players":24,"Bots":0,"server_type":"Dedicated","server_os":"Linux","password":true,"vac":true,"version":"7757534","steam_id":85568392925397959,"keywords":["cp","nocrits","nodmgspread","uncletopia"],"game_id":440,"stv_port":27056,"stv_name":"Uncletopia | Sydney | 5 | Stopwatch Beta | STV","players":null},{"server_id":59,"name":"Uncletopia | Sydney | 6 | Community","name_short":"syd-6","host":"syd-1.au.uncletopia.com","port":27065,"enabled":true,"region":"au","cc":"au","latitude":-33.865143,"longitude":151.2099,"reserved":0,"last_update":"0001-01-01T00:00:00Z","name_a2s":"Uncletopia | Sydney | 6 | Community","protocol":17,"map":"workshop/koth_ramjam_rc1.ugc459778887","folder":"tf","game":"Team Fortress","app_id":440,"player_count":0,"max_players":24,"Bots":0,"server_type":"Dedicated","server_os":"Linux","password":true,"vac":true,"version":"7757534","steam_id":85568392925397960,"keywords":["cp","nocrits","nodmgspread","uncletopia"],"game_id":440,"stv_port":27066,"stv_name":"Uncletopia | Sydney | 6 | Community | STV","players":null},{"server_id":49,"name":"Uncletopia | Warsaw | 1 | All Maps","name_short":"waw-1","host":"waw-1.pl.uncletopia.com","port":27015,"enabled":true,"region":"eu","cc":"pl","latitude":52.2297,"longitude":21.017532,"reserved":0,"last_update":"0001-01-01T00:00:00Z","name_a2s":"","protocol":0,"map":"","folder":"","game":"","app_id":0,"player_count":0,"max_players":0,"Bots":0,"server_type":"","server_os":"","password":false,"vac":false,"version":"","steam_id":0,"keywords":null,"game_id":0,"stv_port":0,"stv_name":"","players":null},{"server_id":50,"name":"Uncletopia | Warsaw | 2 | All Maps","name_short":"waw-2","host":"waw-1.pl.uncletopia.com","port":27025,"enabled":true,"region":"eu","cc":"pl","latitude":52.2297,"longitude":21.017532,"reserved":0,"last_update":"0001-01-01T00:00:00Z","name_a2s":"Uncletopia | Warsaw | 2 | All Maps","protocol":17,"map":"koth_viaduct","folder":"tf","game":"Team Fortress","app_id":440,"player_count":0,"max_players":24,"Bots":0,"server_type":"Dedicated","server_os":"Linux","password":true,"vac":true,"version":"7757534","steam_id":85568392925397851,"keywords":["cp","nocrits","nodmgspread","uncletopia"],"game_id":440,"stv_port":27026,"stv_name":"Uncletopia | Warsaw | 2 | All Maps | STV","players":null},{"server_id":51,"name":"Uncletopia | Warsaw | 3 | All Maps","name_short":"waw-3","host":"waw-1.pl.uncletopia.com","port":27035,"enabled":true,"region":"eu","cc":"pl","latitude":52.2297,"longitude":21.017532,"reserved":0,"last_update":"0001-01-01T00:00:00Z","name_a2s":"Uncletopia | Warsaw | 3 | All Maps","protocol":17,"map":"pl_badwater","folder":"tf","game":"Team Fortress","app_id":440,"player_count":0,"max_players":24,"Bots":0,"server_type":"Dedicated","server_os":"Linux","password":true,"vac":true,"version":"7757534","steam_id":85568392925397852,"keywords":["nocrits","nodmgspread","payload","uncletopia"],"game_id":440,"stv_port":27036,"stv_name":"Uncletopia | Warsaw | 3 | All Maps | STV","players":null},{"server_id":52,"name":"Uncletopia | Warsaw | 4 | All Maps","name_short":"waw-4","host":"waw-1.pl.uncletopia.com","port":27045,"enabled":true,"region":"eu","cc":"pl","latitude":52.2297,"longitude":21.017532,"reserved":0,"last_update":"0001-01-01T00:00:00Z","name_a2s":"Uncletopia | Warsaw | 4 | All Maps","protocol":17,"map":"koth_lakeside_final","folder":"tf","game":"Team Fortress","app_id":440,"player_count":0,"max_players":24,"Bots":0,"server_type":"Dedicated","server_os":"Linux","password":true,"vac":true,"version":"7757534","steam_id":85568392925397853,"keywords":["cp","nocrits","nodmgspread","uncletopia"],"game_id":440,"stv_port":27046,"stv_name":"Uncletopia | Warsaw | 4 | All Maps | STV","players":null},{"server_id":53,"name":"Uncletopia | Warsaw | 5 | Stopwatch Beta","name_short":"waw-5","host":"waw-1.pl.uncletopia.com","port":27055,"enabled":true,"region":"eu","cc":"pl","latitude":52.2297,"longitude":21.017532,"reserved":0,"last_update":"0001-01-01T00:00:00Z","name_a2s":"Uncletopia | Warsaw | 5 | Stopwatch Beta","protocol":17,"map":"pl_borneo","folder":"tf","game":"Team Fortress","app_id":440,"player_count":0,"max_players":24,"Bots":0,"server_type":"Dedicated","server_os":"Linux","password":true,"vac":true,"version":"7757534","steam_id":85568392925397854,"keywords":["nocrits","nodmgspread","payload","uncletopia"],"game_id":440,"stv_port":27056,"stv_name":"Uncletopia | Warsaw | 5 | Stopwatch Beta | STV","players":null},{"server_id":54,"name":"Uncletopia | Warsaw | 6 | Community","name_short":"waw-6","host":"waw-1.pl.uncletopia.com","port":27065,"enabled":true,"region":"eu","cc":"pl","latitude":52.2297,"longitude":21.017532,"reserved":0,"last_update":"0001-01-01T00:00:00Z","name_a2s":"Uncletopia | Warsaw | 6 | Community","protocol":17,"map":"koth_lakeside_final","folder":"tf","game":"Team Fortress","app_id":440,"player_count":0,"max_players":24,"Bots":0,"server_type":"Dedicated","server_os":"Linux","password":true,"vac":true,"version":"7757534","steam_id":85568392925397856,"keywords":["cp","nocrits","nodmgspread","uncletopia"],"game_id":440,"stv_port":27066,"stv_name":"Uncletopia | Warsaw | 6 | Community | STV","players":null}]}