{"status":true,"message":"","result":[{"server_id":9,"name":"Uncletopia | Atlanta | 1 | All Maps","name_short":"atl-1","host":"atl-1.us.uncletopia.com","port":27015,"enabled":true,"region":"us-east","cc":"us","latitude":33.753746,"longitude":-84.38633,"reserved":0,"last_update":"0001-01-01T00:00:00Z","name_a2s":"Uncletopia | Atlanta | 1 | All Maps","protocol":17,"map":"pl_swiftwater_final1","folder":"tf","game":"Team Fortress","app_id":440,"player_count":24,"max_players":24,"Bots":0,"server_type":"Dedicated","server_os":"Linux","password":true,"vac":true,"version":"7757534","steam_id":85568392924469982,"keywords":["nocrits","nodmgspread","payload","uncletopia"],"game_id":440,"stv_port":27016,"stv_name":"Uncletopia | Atlanta | 1 | All Maps | STV","players":[{"user_id":369,"name":"mayhem","steam_id":76561199246637881,"connected_time":394000000000,"state":"active","ping":54},{"user_id":366,"name":"BluzzyBee","steam_id":76561198062539161,"connected_time":588000000000,"state":"active","ping":102},{"user_id":328,"name":"Saggy","steam_id":76561198166706479,"connected_time":3961000000000,"state":"active","ping":93},{"user_id":370,"name":"mio","steam_id":76561198239286750,"connected_time":372000000000,"state":"active","ping":62},{"user_id":365,"name":"BaconLol","steam_id":76561199125317999,"connected_time":631000000000,"state":"active","ping":173},{"user_id":265,"name":"Thotimus Begonimus","steam_id":76561197970275938,"connected_time":10319000000000,"state":"active","ping":45},{"user_id":358,"name":"Decolour","steam_id":76561199045608372,"connected_time":1241000000000,"state":"active","ping":86},{"user_id":341,"name":"faceplant","steam_id":76561198249206656,"connected_time":2859000000000,"state":"active","ping":87},{"user_id":371,"name":"conscripted monk","steam_id":76561199029246232,"connected_time":364000000000,"state":"active","ping":65},{"user_id":373,"name":"4,000,000 merged Chihuahuas","steam_id":76561198130772096,"connected_time":129000000000,"state":"active","ping":52},{"user_id":362,"name":"ATL1 | Bandi","steam_id":76561198432036026,"connected_time":1009000000000,"state":"active","ping":54},{"user_id":368,"name":"GotYourNose","steam_id":76561198803527852,"connected_time":396000000000,"state":"active","ping":58},{"user_id":363,"name":"Korra \u003c3","steam_id":76561198044991497,"connected_time":997000000000,"state":"active","ping":72},{"user_id":372,"name":"bessie","steam_id":76561198079603532,"connected_time":324000000000,"state":"active","ping":83},{"user_id":317,"name":"Bali","steam_id":76561198038693845,"connected_time":5302000000000,"state":"active","ping":79},{"user_id":367,"name":"Comrade Generico","steam_id":76561198377574031,"connected_time":490000000000,"state":"active","ping":92},{"user_id":353,"name":"ATL1 | ma0re","steam_id":76561199231971506,"connected_time":2075000000000,"state":"active","ping":62},{"user_id":357,"name":"Icaras","steam_id":76561198416724843,"connected_time":1253000000000,"state":"active","ping":129},{"user_id":355,"name":"ATL1 | Kramer","steam_id":76561198083595936,"connected_time":1984000000000,"state":"active","ping":74},{"user_id":361,"name":"basil","steam_id":76561198075758026,"connected_time":1104000000000,"state":"active","ping":70},{"user_id":304,"name":"Riptide","steam_id":76561198164930435,"connected_time":6147000000000,"state":"active","ping":60},{"user_id":284,"name":"ATL1 | Pango","steam_id":76561198069811545,"connected_time":8051000000000,"state":"active","ping":42},{"user_id":351,"name":"yomo","steam_id":76561198063175935,"connected_time":2151000000000,"state":"active","ping":59}]},{"server_id":400,"name":"Uncletopia | Atlanta | 3 | Community","name_short":"atl-3","host":"atl-1.us.uncletopia.com","port":27035,"enabled":true,"region":"us-east","cc":"us","latitude":33.753746,"longitude":-84.38633,"reserved":0,"last_update":"0001-01-01T00:00:00Z","name_a2s":"Uncletopia | Atlanta | 3 | Community","protocol":17,"map":"workshop/koth_bagel_rc6.ugc2514036946","folder":"tf","game":"Team Fortress","app_id":440,"player_count":0,"max_players":24,"Bots":0,"server_type":"Dedicated","server_os":"Linux","password":true,"vac":true,"version":"7757534","steam_id":85568392924515187,"keywords":["cp","nocrits","nodmgspread","uncletopia"],"game_id":440,"stv_port":27036,"stv_name":"Uncletopia | Atlanta | 3 | Community | STV","players":null},{"server_id":401,"name":"Uncletopia | Atlanta | 4 | No Payload","name_short":"atl-4","host":"atl-1.us.uncletopia.com","port":27045,"enabled":true,"region":"us-east","cc":"us","latitude":33.753746,"longitude":-84.38633,"reserved":0,"last_update":"0001-01-01T00:00:00Z","name_a2s":"","protocol":0,"map":"","folder":"","game":"","app_id":0,"player_count":0,"max_players":0,"Bots":0,"server_type":"","server_os":"","password":false,"vac":false,"version":"","steam_id":0,"keywords":null,"game_id":0,"stv_port":0,"stv_name":"","players":null},{"server_id":2,"name":"Uncletopia | Chicago | 1 | All Maps","name_short":"chi-1","host":"chi-1.us.uncletopia.com","port":27015,"enabled":true,"region":"us-central","cc":"us","latitude":41.881832,"longitude":-87.62318,"reserved":0,"last_update":"0001-01-01T00:00:00Z","name_a2s":"Uncletopia | Chicago | 1 | All Maps","protocol":17,"map":"cp_dustbowl","folder":"tf","game":"Team Fortress","app_id":440,"player_count":13,"max_players":24,"Bots":0,"server_type":"Dedicated","server_os":"Linux","password":true,"vac":true,"version":"7757534","steam_id":85568392924469984,"keywords":["cp","nocrits","nodmgspread","uncletopia"],"game_id":440,"stv_port":27016,"stv_name":"Uncletopia | Chicago | 1 | All Maps | STV","players":[{"user_id":204,"name":"jeremimi","steam_id":76561198818225102,"connected_time":257000000000,"state":"active","ping":124},{"user_id":208,"name":"Rue","steam_id":76561198013135993,"connected_time":24000000000,"state":"active","ping":57},{"user_id":203,"name":"[DEEP] Roz257","steam_id":76561198842844532,"connected_time":330000000000,"state":"active","ping":84},{"user_id":179,"name":"Garfield","steam_id":76561198037803087,"connected_time":2889000000000,"state":"active","ping":64},{"user_id":206,"name":"[UHS] K24A4 2.4","steam_id":76561199072970627,"connected_time":197000000000,"state":"active","ping":45},{"user_id":187,"name":"[يهودي] Bill Clinton [אל","steam_id":76561198163291190,"connected_time":2154000000000,"state":"active","ping":88},{"user_id":207,"name":"estrogen addict","steam_id":76561199185046348,"connected_time":190000000000,"state":"active","ping":77},{"user_id":198,"name":"jrdoran","steam_id":76561197984753094,"connected_time":566000000000,"state":"active","ping":62},{"user_id":161,"name":"[DEEP] Danmar33","steam_id":76561198056453091,"connected_time":3766000000000,"state":"active","ping":47},{"user_id":199,"name":"Kapitan Bomba","steam_id":76561199102087660,"connected_time":559000000000,"state":"active","ping":77},{"user_id":200,"name":"mark","steam_id":76561198223421912,"connected_time":380000000000,"state":"active","ping":86},{"user_id":186,"name":"Liquid Oxycodone","steam_id":76561198154162664,"connected_time":2447000000000,"state":"active","ping":76},{"user_id":197,"name":"pat fusty","steam_id":76561198117181511,"connected_time":983000000000,"state":"active","ping":58}]},{"server_id":106,"name":"Uncletopia | Chicago | 2 | All Maps","name_short":"chi-2","host":"chi-1.us.uncletopia.com","port":27025,"enabled":true,"region":"us-central","cc":"us","latitude":41.881832,"longitude":-87.62318,"reserved":0,"last_update":"0001-01-01T00:00:00Z","name_a2s":"Uncletopia | Chicago | 2 | All Maps","protocol":17,"map":"cp_sunshine","folder":"tf","game":"Team Fortress","app_id":440,"player_count":1,"max_players":24,"Bots":0,"server_type":"Dedicated","server_os":"Linux","password":true,"vac":true,"version":"7757534","steam_id":85568392924469985,"keywords":["cp","nocrits","nodmgspread","uncletopia"],"game_id":440,"stv_port":27026,"stv_name":"Uncletopia | Chicago | 2 | All Maps | STV","players":[{"user_id":12,"name":"Zeph.","steam_id":76561199201103694,"connected_time":105000000000,"state":"active","ping":62}]},{"server_id":402,"name":"Uncletopia | Chicago | 3 | All Maps","name_short":"chi-3","host":"chi-1.us.uncletopia.com","port":27035,"enabled":true,"region":"us-central","cc":"us","latitude":41.881832,"longitude":-87.62318,"reserved":0,"last_update":"0001-01-01T00:00:00Z","name_a2s":"Uncletopia | Chicago | 3 | All Maps","protocol":17,"map":"pl_badwater","folder":"tf","game":"Team Fortress","app_id":440,"player_count":24,"max_players":24,"Bots":0,"server_type":"Dedicated","server_os":"Linux","password":true,"vac":true,"version":"7757534","steam_id":85568392924515191,"keywords":["nocrits","nodmgspread","payload","uncletopia"],"game_id":440,"stv_port":27036,"stv_name":"Uncletopia | Chicago | 3 | All Maps | STV","players":[{"user_id":178,"name":"JPSS","steam_id":76561199239530493,"connected_time":1606000000000,"state":"active","ping":107},{"user_id":127,"name":"Dot.","steam_id":76561198149463984,"connected_time":5679000000000,"state":"active","ping":41},{"user_id":160,"name":"girlpeen supreme","steam_id":76561198031242903,"connected_time":3367000000000,"state":"active","ping":56},{"user_id":190,"name":"Lawtumn","steam_id":76561198347286009,"connected_time":935000000000,"state":"active","ping":79},{"user_id":199,"name":"Donkski","steam_id":76561198406895347,"connected_time":566000000000,"state":"active","ping":70},{"user_id":102,"name":"Try Gardening","steam_id":76561198120311340,"connected_time":7347000000000,"state":"active","ping":49},{"user_id":116,"name":"tlm","steam_id":76561198178457461,"connected_time":5859000000000,"state":"active","ping":60},{"user_id":193,"name":"GooniOoni","steam_id":76561198102154561,"connected_time":600000000000,"state":"active","ping":44},{"user_id":195,"name":"AkimboAoki","steam_id":76561198158323058,"connected_time":594000000000,"state":"active","ping":91},{"user_id":164,"name":"Magik","steam_id":76561198200169706,"connected_time":2782000000000,"state":"active","ping":63},{"user_id":191,"name":"raw chicken enjoyer","steam_id":76561198986943063,"connected_time":897000000000,"state":"active","ping":65},{"user_id":173,"name":"NovaSc6ut","steam_id":76561198277163301,"connected_time":2309000000000,"state":"active","ping":70},{"user_id":202,"name":"scrapheap","steam_id":76561198202407087,"connected_time":213000000000,"state":"active","ping":69},{"user_id":198,"name":"Tomar but gaming","steam_id":76561199275071037,"connected_time":578000000000,"state":"active","ping":59},{"user_id":177,"name":"Doubting Dave","steam_id":76561198066410749,"connected_time":1708000000000,"state":"active","ping":77},{"user_id":183,"name":"Shwa","steam_id":76561198122613101,"connected_time":1501000000000,"state":"active","ping":75},{"user_id":148,"name":"Kit kyat","steam_id":76561198235786296,"connected_time":3880000000000,"state":"active","ping":63},{"user_id":162,"name":"Minerkid2004","steam_id":76561198044262827,"connected_time":3118000000000,"state":"active","ping":95},{"user_id":201,"name":"Candy Sparkles","steam_id":76561198126871264,"connected_time":555000000000,"state":"active","ping":88},{"user_id":184,"name":"SomeScuffedKid","steam_id":76561198086113234,"connected_time":1497000000000,"state":"active","ping":63},{"user_id":192,"name":"HYPERBOREAN SPACE STONERS","steam_id":76561198158206236,"connected_time":815000000000,"state":"active","ping":105},{"user_id":189,"name":"ZofoJackson","steam_id":76561197998366861,"connected_time":1172000000000,"state":"active","ping":60},{"user_id":197,"name":"Discourse","steam_id":76561198984286678,"connected_time":583000000000,"state":"active","ping":54},{"user_id":200,"name":"Rich Kitten","steam_id":76561199152388008,"connected_time":561000000000,"state":"active","ping":58}]},{"server_id":403,"name":"Uncletopia | Chicago | 4 | All Maps","name_short":"chi-4","host":"chi-1.us.uncletopia.com","port":27045,"enabled":true,"region":"us-central","cc":"us","latitude":41.881832,"longitude":-87.62318,"reserved":0,"last_update":"0001-01-01T00:00:00Z","name_a2s":"Uncletopia | Chicago | 4 | All Maps","protocol":17,"map":"pl_badwater","folder":"tf","game":"Team Fortress","app_id":440,"player_count":24,"max_players":24,"Bots":0,"server_type":"Dedicated","server_os":"Linux","password":true,"vac":true,"version":"7757534","steam_id":85568392924515193,"keywords":["nocrits","nodmgspread","payload","uncletopia"],"game_id":440,"stv_port":27046,"stv_name":"Uncletopia | Chicago | 4 | All Maps | STV","players":[{"user_id":558,"name":"UWBW","steam_id":76561198007524241,"connected_time":1071000000000,"state":"active","ping":64},{"user_id":559,"name":"Mr0_0Knight","steam_id":76561199471338064,"connected_time":1041000000000,"state":"active","ping":60},{"user_id":573,"name":"CoPilot","steam_id":76561198798217843,"connected_time":532000000000,"state":"active","ping":62},{"user_id":569,"name":"Thequirka","steam_id":76561198968058652,"connected_time":595000000000,"state":"active","ping":92},{"user_id":557,"name":"Miner2495","steam_id":76561198445904523,"connected_time":1691000000000,"state":"active","ping":69},{"user_id":562,"name":"'LaxAttack","steam_id":76561198044129346,"connected_time":940000000000,"state":"active","ping":74},{"user_id":565,"name":"Bel","steam_id":76561198213140033,"connected_time":833000000000,"state":"active","ping":83},{"user_id":552,"name":"replaycoding","steam_id":76561198289737954,"connected_time":2157000000000,"state":"active","ping":110},{"user_id":566,"name":"Shay the Sheep","steam_id":76561198065964820,"connected_time":822000000000,"state":"active","ping":50},{"user_id":567,"name":"vmoney160","steam_id":76561198053516110,"connected_time":753000000000,"state":"active","ping":68},{"user_id":570,"name":"CZS (Abbreviation)","steam_id":76561199020233296,"connected_time":579000000000,"state":"active","ping":89},{"user_id":571,"name":"slate","steam_id":76561198201446799,"connected_time":572000000000,"state":"active","ping":75},{"user_id":595,"name":"BellGrief","steam_id":76561198453489762,"connected_time":170000000000,"state":"active","ping":84},{"user_id":593,"name":"6t26j","steam_id":76561198278282836,"connected_time":202000000000,"state":"active","ping":54},{"user_id":575,"name":"ᵐ'ˢf'ᵗˢ","steam_id":76561198090271815,"connected_time":527000000000,"state":"active","ping":123},{"user_id":594,"name":"DO NOT call me BART SIMPSON!!","steam_id":76561198069113375,"connected_time":180000000000,"state":"active","ping":72},{"user_id":577,"name":"Birrd","steam_id":76561198409096300,"connected_time":521000000000,"state":"active","ping":69},{"user_id":578,"name":"DiamondNinja_160","steam_id":76561199229539990,"connected_time":518000000000,"state":"active","ping":84},{"user_id":579,"name":"Carl, Good to see you","steam_id":76561198070574075,"connected_time":504000000000,"state":"active","ping":71},{"user_id":596,"name":"Agitor","steam_id":76561198799151346,"connected_time":94000000000,"state":"active","ping":79},{"user_id":592,"name":"a_person_159","steam_id":76561199024416326,"connected_time":238000000000,"state":"active","ping":60},{"user_id":591,"name":"Moobs","steam_id":76561198215527235,"connected_time":243000000000,"state":"active","ping":97},{"user_id":585,"name":"RAHHHHHHHH","steam_id":76561198112388117,"connected_time":420000000000,"state":"active","ping":79},{"user_id":589,"name":"¡cálmate!","steam_id":76561198071421094,"connected_time":333000000000,"state":"active","ping":92}]},{"server_id":36,"name":"Uncletopia | Chicago | 5 | All Maps","name_short":"chi-5","host":"chi-2.us.uncletopia.com","port":27015,"enabled":true,"region":"us-central","cc":"us","latitude":41.881832,"longitude":-87.62318,"reserved":0,"last_update":"0001-01-01T00:00:00Z","name_a2s":"Uncletopia | Chicago | 5 | All Maps","protocol":17,"map":"koth_lakeside_final","folder":"tf","game":"Team Fortress","app_id":440,"player_count":0,"max_players":24,"Bots":0,"server_type":"Dedicated","server_os":"Linux","password":true,"vac":true,"version":"7757534","steam_id":85568392924866362,"keywords":["cp","nocrits","nodmgspread","uncletopia"],"game_id":440,"stv_port":27016,"stv_name":"Uncletopia | Chicago | 5 | All Maps | STV","players":null},{"server_id":37,"name":"Uncletopia | Chicago | 6 | All Maps","name_short":"chi-6","host":"chi-2.us.uncletopia.com","port":27025,"enabled":true,"region":"us-central","cc":"us","latitude":41.881832,"longitude":-87.62318,"reserved":0,"last_update":"0001-01-01T00:00:00Z","name_a2s":"Uncletopia | Chicago | 6 | All Maps","protocol":17,"map":"cp_metalworks","folder":"tf","game":"Team Fortress","app_id":440,"player_count":23,"max_players":24,"Bots":0,"server_type":"Dedicated","server_os":"Linux","password":true,"vac":true,"version":"7757534","steam_id":85568392924866363,"keywords":["cp","nocrits","nodmgspread","uncletopia"],"game_id":440,"stv_port":27026,"stv_name":"Uncletopia | Chicago | 6 | All Maps | STV","players":[{"user_id":12,"name":"The Dead Weight","steam_id":76561198056694098,"connected_time":3569000000000,"state":"active","ping":65},{"user_id":10,"name":"James","steam_id":76561198081313916,"connected_time":3726000000000,"state":"active","ping":74},{"user_id":56,"name":"-W3E- grim10465","steam_id":76561198045698581,"connected_time":2000000000,"state":"spawning","ping":44},{"user_id":46,"name":"Rockgraham101","steam_id":76561198171740458,"connected_time":1273000000000,"state":"active","ping":60},{"user_id":47,"name":"LukeLeal","steam_id":76561198049822995,"connected_time":1262000000000,"state":"active","ping":170},{"user_id":48,"name":"sheep","steam_id":76561198172943006,"connected_time":1221000000000,"state":"active","ping":55},{"user_id":18,"name":"uluna","steam_id":76561198284102821,"connected_time":2563000000000,"state":"active","ping":62},{"user_id":22,"name":"A Puppy","steam_id":76561198828184456,"connected_time":2309000000000,"state":"active","ping":58},{"user_id":23,"name":"Hard Soap","steam_id":76561198267905614,"connected_time":2225000000000,"state":"active","ping":89},{"user_id":49,"name":"Queen Frau the Round","steam_id":76561197999942134,"connected_time":1139000000000,"state":"active","ping":45},{"user_id":35,"name":"terrapieseven","steam_id":76561198072062415,"connected_time":1833000000000,"state":"active","ping":74},{"user_id":44,"name":"Cerabond","steam_id":76561199230915333,"connected_time":1439000000000,"state":"active","ping":86},{"user_id":27,"name":"NUt","steam_id":76561198031007966,"connected_time":2046000000000,"state":"active","ping":72},{"user_id":28,"name":"Just a little bit blue?","steam_id":76561199113013688,"connected_time":2023000000000,"state":"active","ping":83},{"user_id":50,"name":"THEDINKY","steam_id":76561198190077399,"connected_time":1103000000000,"state":"active","ping":59},{"user_id":55,"name":"JacripspyVulcano","steam_id":76561198966980576,"connected_time":207000000000,"state":"active","ping":68},{"user_id":39,"name":"caberknight tf2","steam_id":76561199273882768,"connected_time":1632000000000,"state":"active","ping":75},{"user_id":40,"name":"doctor large","steam_id":76561199195836752,"connected_time":1601000000000,"state":"active","ping":69},{"user_id":41,"name":"xiphoidar","steam_id":76561198146044049,"connected_time":1594000000000,"state":"active","ping":76},{"user_id":52,"name":"Patch","steam_id":76561198144241582,"connected_time":1031000000000,"state":"active","ping":81},{"user_id":45,"name":"jootanlima","steam_id":76561199114781808,"connected_time":1418000000000,"state":"active","ping":157},{"user_id":53,"name":"Cluth","steam_id":76561198318179594,"connected_time":1002000000000,"state":"active","ping":59}]},{"server_id":38,"name":"Uncletopia | Chicago | 7 | Stopwatch Beta","name_short":"chi-7","host":"chi-2.us.uncletopia.com","port":27035,"enabled":true,"region":"us-central","cc":"us","latitude":41.881832,"longitude":-87.62318,"reserved":0,"last_update":"0001-01-01T00:00:00Z","name_a2s":"Uncletopia | Chicago | 7 | Stopwatch Beta","protocol":17,"map":"koth_viaduct","folder":"tf","game":"Team Fortress","app_id":440,"player_count":0,"max_players":24,"Bots":0,"server_type":"Dedicated","server_os":"Linux","password":true,"vac":true,"version":"7757534","steam_id":85568392924866364,"keywords":["cp","nocrits","nodmgspread","uncletopia"],"game_id":440,"stv_port":27036,"stv_name":"Uncletopia | Chicago | 7 | Stopwatch Beta | STV","players":null},{"server_id":39,"name":"Uncletopia | Chicago | 8 | Community","name_short":"chi-8","host":"chi-2.us.uncletopia.com","port":27045,"enabled":true,"region":"us-central","cc":"us","latitude":41.881832,"longitude":-87.62318,"reserved":0,"last_update":"0001-01-01T00:00:00Z","name_a2s":"Uncletopia | Chicago | 8 | Community","protocol":17,"map":"koth_lakeside_final","folder":"tf","game":"Team Fortress","app_id":440,"player_count":0,"max_players":24,"Bots":0,"server_type":"Dedicated","server_os":"Linux","password":true,"vac":true,"version":"7757534","steam_id":85568392924866365,"keywords":["cp","nocrits","nodmgspread","uncletopia"],"game_id":440,"stv_port":27046,"stv_name":"Uncletopia | Chicago | 8 | Community | STV","players":null},{"server_id":8,"name":"Uncletopia | Dallas | 1 | All Maps","name_short":"dal-1","host":"dal-1.us.uncletopia.com","port":27015,"enabled":true,"region":"us-central","cc":"us","latitude":32.779167,"longitude":-96.80889,"reserved":0,"last_update":"0001-01-01T00:00:00Z","name_a2s":"Uncletopia | Dallas | 1 | All Maps","protocol":17,"map":"pl_snowycoast","folder":"tf","game":"Team Fortress","app_id":440,"player_count":18,"max_players":24,"Bots":0,"server_type":"Dedicated","server_os":"Linux","password":true,"vac":true,"version":"7757534","steam_id":85568392924469986,"keywords":["nocrits","nodmgspread","payload","uncletopia"],"game_id":440,"stv_port":27016,"stv_name":"Uncletopia | Dallas | 1 | All Maps | STV","players":[{"user_id":270,"name":"luscaPUTO","steam_id":76561199037598902,"connected_time":1871000000000,"state":"active","ping":135},{"user_id":283,"name":"baesth","steam_id":76561198857820304,"connected_time":942000000000,"state":"active","ping":52},{"user_id":289,"name":"just had 3 mcgriddles","steam_id":76561199438698036,"connected_time":607000000000,"state":"active","ping":86},{"user_id":295,"name":"Smyles","steam_id":76561198856210005,"connected_time":25000000000,"state":"active","ping":69},{"user_id":269,"name":"Zero","steam_id":76561199383267408,"connected_time":1893000000000,"state":"active","ping":55},{"user_id":294,"name":"jinx, you owe me a soda","steam_id":76561198108685037,"connected_time":128000000000,"state":"active","ping":61},{"user_id":292,"name":"greg","steam_id":76561198051075489,"connected_time":234000000000,"state":"active","ping":50},{"user_id":291,"name":"ObsessedNerd505","steam_id":76561199045531456,"connected_time":596000000000,"state":"active","ping":96},{"user_id":284,"name":"ya boi","steam_id":76561198420218460,"connected_time":855000000000,"state":"active","ping":52},{"user_id":285,"name":"Shamrock Shake Oct.10.2020 @8pm","steam_id":76561198833313201,"connected_time":803000000000,"state":"active","ping":85},{"user_id":274,"name":"oddlyobtuselemon1654","steam_id":76561198877069773,"connected_time":1831000000000,"state":"active","ping":85},{"user_id":219,"name":"Huge eevee fan","steam_id":76561198128057732,"connected_time":4855000000000,"state":"active","ping":89},{"user_id":218,"name":"lost in spaaaaace","steam_id":76561199085974120,"connected_time":4870000000000,"state":"active","ping":86},{"user_id":281,"name":"Tibbs","steam_id":76561198381085658,"connected_time":1371000000000,"state":"active","ping":59},{"user_id":276,"name":"herb","steam_id":76561198185980055,"connected_time":1770000000000,"state":"active","ping":84},{"user_id":278,"name":"Testosteroblerone","steam_id":76561199031278496,"connected_time":1686000000000,"state":"active","ping":82},{"user_id":279,"name":"a Salty Individual","steam_id":76561197979951077,"connected_time":1679000000000,"state":"active","ping":122},{"user_id":229,"name":"Bad Rollout","steam_id":76561197971948876,"connected_time":4411000000000,"state":"active","ping":86}]},{"server_id":108,"name":"Uncletopia | Dallas | 2 | All Maps","name_short":"dal-2","host":"dal-1.us.uncletopia.com","port":27025,"enabled":true,"region":"us-central","cc":"us","latitude":32.779167,"longitude":-96.80889,"reserved":0,"last_update":"0001-01-01T00:00:00Z","name_a2s":"Uncletopia | Dallas | 2 | All Maps","protocol":17,"map":"cp_mountainlab","folder":"tf","game":"Team Fortress","app_id":440,"player_count":23,"max_players":24,"Bots":0,"server_type":"Dedicated","server_os":"Linux","password":true,"vac":true,"version":"7757534","steam_id":85568392924469988,"keywords":["cp","nocrits","nodmgspread","uncletopia"],"game_id":440,"stv_port":27026,"stv_name":"Uncletopia | Dallas | 2 | All Maps | STV","players":[{"user_id":18,"name":"Aerobro","steam_id":76561198033530996,"connected_time":3072000000000,"state":"active","ping":66},{"user_id":55,"name":"Bad Namesman","steam_id":76561198027205470,"connected_time":892000000000,"state":"active","ping":91},{"user_id":68,"name":"Dojoloachfr","steam_id":76561198826298849,"connected_time":26000000000,"state":"active","ping":91},{"user_id":56,"name":"magotago","steam_id":76561198013650292,"connected_time":804000000000,"state":"active","ping":106},{"user_id":25,"name":"CursedCortex","steam_id":76561198273978459,"connected_time":2257000000000,"state":"active","ping":55},{"user_id":57,"name":"Zdrada","steam_id":76561198018693240,"connected_time":772000000000,"state":"active","ping":75},{"user_id":28,"name":"Estetrius","steam_id":76561198016993850,"connected_time":2154000000000,"state":"active","ping":59},{"user_id":29,"name":"Dell Conagher (real)","steam_id":76561198220120368,"connected_time":2079000000000,"state":"active","ping":45},{"user_id":41,"name":"The Ultimate Coomer","steam_id":76561199128833757,"connected_time":1360000000000,"state":"active","ping":45},{"user_id":49,"name":"bass player","steam_id":76561198203357580,"connected_time":1168000000000,"state":"active","ping":46},{"user_id":32,"name":"Orange Triangle","steam_id":76561198320498182,"connected_time":1962000000000,"state":"active","ping":128},{"user_id":33,"name":"shut #saveTF2","steam_id":76561199052847189,"connected_time":1960000000000,"state":"active","ping":90},{"user_id":36,"name":"BigBubble42","steam_id":76561198136286123,"connected_time":1864000000000,"state":"active","ping":29},{"user_id":39,"name":"dwarf guy","steam_id":76561198993740818,"connected_time":1592000000000,"state":"active","ping":61},{"user_id":65,"name":"Snorty","steam_id":76561198114304454,"connected_time":239000000000,"state":"active","ping":89},{"user_id":66,"name":"Huggle","steam_id":76561198141491662,"connected_time":195000000000,"state":"active","ping":44},{"user_id":64,"name":"Minlit","steam_id":76561198205832799,"connected_time":485000000000,"state":"active","ping":59},{"user_id":54,"name":"Gazelle","steam_id":76561198336397088,"connected_time":900000000000,"state":"active","ping":76},{"user_id":47,"name":"big balls but only 2","steam_id":76561199001464827,"connected_time":1243000000000,"state":"active","ping":69},{"user_id":48,"name":"Kohbold","steam_id":76561198996480140,"connected_time":1215000000000,"state":"active","ping":111},{"user_id":61,"name":"sentry turret","steam_id":76561198327057433,"connected_time":579000000000,"state":"active","ping":96},{"user_id":51,"name":"StuartBell511","steam_id":76561198060931721,"connected_time":1146000000000,"state":"active","ping":80},{"user_id":52,"name":"HanakoToast","steam_id":76561198045233131,"connected_time":1132000000000,"state":"active","ping":82}]},{"server_id":5,"name":"Uncletopia | Frankfurt | 1 | All Maps","name_short":"frk-1","host":"frk-1.de.uncletopia.com","port":27015,"enabled":true,"region":"eu","cc":"de","latitude":50.110924,"longitude":8.682127,"reserved":0,"last_update":"0001-01-01T00:00:00Z","name_a2s":"Uncletopia | Frankfurt | 1 | All Maps","protocol":17,"map":"koth_viaduct","folder":"tf","game":"Team Fortress","app_id":440,"player_count":0,"max_players":24,"Bots":0,"server_type":"Dedicated","server_os":"Linux","password":true,"vac":true,"version":"7757534","steam_id":85568392924469989,"keywords":["cp","nocrits","nodmgspread","uncletopia"],"game_id":440,"stv_port":27016,"stv_name":"Uncletopia | Frankfurt | 1 | All Maps | STV","players":null},{"server_id":110,"name":"Uncletopia | Frankfurt | 2 | All Maps","name_short":"frk-2","host":"frk-1.de.uncletopia.com","port":27025,"enabled":true,"region":"eu","cc":"de","latitude":50.110924,"longitude":8.682127,"reserved":0,"last_update":"0001-01-01T00:00:00Z","name_a2s":"Uncletopia | Frankfurt | 2 | All Maps","protocol":17,"map":"cp_process_final","folder":"tf","game":"Team Fortress","app_id":440,"player_count":0,"max_players":24,"Bots":0,"server_type":"Dedicated","server_os":"Linux","password":true,"vac":true,"version":"7757534","steam_id":85568392924469990,"keywords":["cp","nocrits","nodmgspread","uncletopia"],"game_id":440,"stv_port":27026,"stv_name":"Uncletopia | Frankfurt | 2 | All Maps | STV","players":null},{"server_id":308,"name":"Uncletopia | Frankfurt | 3 | All Maps","name_short":"frk-3","host":"frk-1.de.uncletopia.com","port":27035,"enabled":true,"region":"eu","cc":"de","latitude":50.110924,"longitude":8.682127,"reserved":0,"last_update":"0001-01-01T00:00:00Z","name_a2s":"Uncletopia | Frankfurt | 3 | All Maps","protocol":17,"map":"pl_swiftwater_final1","folder":"tf","game":"Team Fortress","app_id":440,"player_count":21,"max_players":24,"Bots":0,"server_type":"Dedicated","server_os":"Linux","password":true,"vac":true,"version":"7757534","steam_id":85568392924504274,"keywords":["nocrits","nodmgspread","payload","uncletopia"],"game_id":440,"stv_port":27036,"stv_name":"Uncletopia | Frankfurt | 3 | All Maps | STV","players":[{"user_id":536,"name":"mały #tf2pickup.pl","steam_id":76561198074409147,"connected_time":81000000000,"state":"active","ping":60},{"user_id":537,"name":"Baron","steam_id":76561198021901783,"connected_time":63000000000,"state":"active","ping":72},{"user_id":527,"name":"Rashid Besythe","steam_id":76561198081477129,"connected_time":1010000000000,"state":"active","ping":68},{"user_id":530,"name":"Shawty","steam_id":76561198158631465,"connected_time":782000000000,"state":"active","ping":60},{"user_id":497,"name":"MovingIsOverRated","steam_id":76561198385633292,"connected_time":2080000000000,"state":"active","ping":86},{"user_id":538,"name":"C0d3s","steam_id":76561198093907544,"connected_time":48000000000,"state":"active","ping":99},{"user_id":541,"name":"Lukas","steam_id":76561198009118452,"connected_time":12000000000,"state":"active","ping":52},{"user_id":506,"name":"Reiyo the Interloper","steam_id":76561198155092485,"connected_time":1847000000000,"state":"active","ping":45},{"user_id":539,"name":"walt","steam_id":76561198871381636,"connected_time":20000000000,"state":"active","ping":100},{"user_id":502,"name":"cuboidbird741","steam_id":76561198174823322,"connected_time":1911000000000,"state":"active","ping":57},{"user_id":540,"name":"R","steam_id":76561199379233899,"connected_time":18000000000,"state":"active","ping":98},{"user_id":534,"name":"I have aids","steam_id":76561198860347851,"connected_time":263000000000,"state":"active","ping":127},{"user_id":508,"name":"EGirl | Klarra","steam_id":76561198077745407,"connected_time":1794000000000,"state":"active","ping":60},{"user_id":533,"name":"B4R10N","steam_id":76561198047167954,"connected_time":663000000000,"state":"active","ping":58},{"user_id":509,"name":"Genuine Bear","steam_id":76561198290782996,"connected_time":1786000000000,"state":"active","ping":59},{"user_id":521,"name":"Hildreth","steam_id":76561197995254867,"connected_time":1541000000000,"state":"active","ping":63},{"user_id":523,"name":"Kutuzov","steam_id":76561198060988694,"connected_time":1455000000000,"state":"active","ping":105},{"user_id":542,"name":"Superiumentarius","steam_id":76561198081642249,"connected_time":5000000000,"state":"spawning","ping":54},{"user_id":525,"name":"Zembis","steam_id":76561198008017918,"connected_time":1173000000000,"state":"active","ping":98},{"user_id":518,"name":"AWP Bodyshot :) ❤","steam_id":76561198029928533,"connected_time":1596000000000,"state":"active","ping":35},{"user_id":532,"name":"Pyrolander","steam_id":76561198050785450,"connected_time":726000000000,"state":"active","ping":51}]},{"server_id":309,"name":"Uncletopia | Frankfurt | 4 | All Maps","name_short":"frk-4","host":"frk-1.de.uncletopia.com","port":27045,"enabled":true,"region":"eu","cc":"de","latitude":50.110924,"longitude":8.682127,"reserved":0,"last_update":"0001-01-01T00:00:00Z","name_a2s":"Uncletopia | Frankfurt | 4 | All Maps","protocol":17,"map":"cp_foundry","folder":"tf","game":"Team Fortress","app_id":440,"player_count":20,"max_players":24,"Bots":0,"server_type":"Dedicated","server_os":"Linux","password":true,"vac":true,"version":"7757534","steam_id":85568392924504275,"keywords":["cp","nocrits","nodmgspread","uncletopia"],"game_id":440,"stv_port":27046,"stv_name":"Uncletopia | Frankfurt | 4 | All Maps | STV","players":[{"user_id":392,"name":"RevoNine","steam_id":76561198163866206,"connected_time":1165000000000,"state":"active","ping":59},{"user_id":375,"name":"the joy of recycling","steam_id":76561198415564349,"connected_time":2244000000000,"state":"active","ping":64},{"user_id":385,"name":"hud_saytext_time 0","steam_id":76561198010327228,"connected_time":1281000000000,"state":"active","ping":56},{"user_id":402,"name":"Rocadinis","steam_id":76561198095910616,"connected_time":311000000000,"state":"active","ping":95},{"user_id":403,"name":"Pilaarius","steam_id":76561198120273212,"connected_time":304000000000,"state":"active","ping":100},{"user_id":305,"name":"mèx","steam_id":76561197975951572,"connected_time":8800000000000,"state":"active","ping":58},{"user_id":383,"name":"Bobirulez","steam_id":76561198009125458,"connected_time":1626000000000,"state":"active","ping":69},{"user_id":398,"name":"Paulbraker","steam_id":76561198150162470,"connected_time":470000000000,"state":"active","ping":75},{"user_id":353,"name":"hananamanna","steam_id":76561198006570285,"connected_time":3799000000000,"state":"active","ping":105},{"user_id":407,"name":"HOI","steam_id":76561198061182117,"connected_time":52000000000,"state":"active","ping":61},{"user_id":406,"name":"sork","steam_id":76561198082446459,"connected_time":162000000000,"state":"active","ping":64},{"user_id":405,"name":"MARKO","steam_id":76561198065127504,"connected_time":202000000000,"state":"active","ping":60},{"user_id":365,"name":"player","steam_id":76561198054474684,"connected_time":3053000000000,"state":"active","ping":77},{"user_id":397,"name":"Pancakes","steam_id":76561198196259989,"connected_time":545000000000,"state":"active","ping":61},{"user_id":369,"name":"Charrky","steam_id":76561198054398642,"connected_time":2698000000000,"state":"active","ping":58},{"user_id":400,"name":"Muffin","steam_id":76561199064341106,"connected_time":375000000000,"state":"active","ping":331},{"user_id":337,"name":"Catsanddogs123","steam_id":76561198030868386,"connected_time":5084000000000,"state":"active","ping":105},{"user_id":378,"name":"hey kid, wanna see my Octagon?","steam_id":76561198066287297,"connected_time":2183000000000,"state":"active","ping":45},{"user_id":401,"name":"bullbdoog","steam_id":76561198332951792,"connected_time":368000000000,"state":"active","ping":71},{"user_id":368,"name":"Udinese Dion","steam_id":76561198067931573,"connected_time":2963000000000,"state":"active","ping":45}]},{"server_id":310,"name":"Uncletopia | Frankfurt | 5 | All Maps","name_short":"frk-5","host":"frk-1.de.uncletopia.com","port":27055,"enabled":true,"region":"eu","cc":"de","latitude":50.110924,"longitude":8.682127,"reserved":0,"last_update":"0001-01-01T00:00:00Z","name_a2s":"Uncletopia | Frankfurt | 5 | All Maps","protocol":17,"map":"cp_gorge","folder":"tf","game":"Team Fortress","app_id":440,"player_count":21,"max_players":24,"Bots":0,"server_type":"Dedicated","server_os":"Linux","password":true,"vac":true,"version":"7757534","steam_id":85568392924504277,"keywords":["cp","nocrits","nodmgspread","uncletopia"],"game_id":440,"stv_port":27056,"stv_name":"Uncletopia | Frankfurt | 5 | All Maps | STV","players":[{"user_id":327,"name":"IceDreamer","steam_id":76561197997569989,"connected_time":2745000000000,"state":"active","ping":52},{"user_id":347,"name":"Malinok","steam_id":76561198025681131,"connected_time":1284000000000,"state":"active","ping":176},{"user_id":366,"name":"richie_panzer","steam_id":76561198124159344,"connected_time":410000000000,"state":"active","ping":48},{"user_id":367,"name":"_Cpt.Decoder_","steam_id":76561198236937010,"connected_time":392000000000,"state":"active","ping":114},{"user_id":363,"name":"help","steam_id":76561199056338917,"connected_time":751000000000,"state":"active","ping":177},{"user_id":310,"name":"Happy Little Accidents","steam_id":76561198153810367,"connected_time":3393000000000,"state":"active","ping":61},{"user_id":368,"name":"MaypulSoyrup","steam_id":76561199213966821,"connected_time":295000000000,"state":"active","ping":85},{"user_id":352,"name":"Eing","steam_id":76561198253125820,"connected_time":1128000000000,"state":"active","ping":81},{"user_id":341,"name":"Swiss_Nostalgia","steam_id":76561199159896259,"connected_time":2363000000000,"state":"active","ping":68},{"user_id":338,"name":"that fat croc from donkey kong","steam_id":76561198159172495,"connected_time":2466000000000,"state":"active","ping":71},{"user_id":315,"name":"Kotlet schabowy","steam_id":76561198048983509,"connected_time":3159000000000,"state":"active","ping":75},{"user_id":329,"name":"Drade","steam_id":76561198394605337,"connected_time":2718000000000,"state":"active","ping":177},{"user_id":346,"name":"- rick.","steam_id":76561198026699226,"connected_time":1413000000000,"state":"active","ping":77},{"user_id":365,"name":"upward enjoyer","steam_id":76561198055389492,"connected_time":562000000000,"state":"active","ping":52},{"user_id":360,"name":"ducks","steam_id":76561198166148685,"connected_time":814000000000,"state":"active","ping":46},{"user_id":353,"name":"Tort","steam_id":76561198329646769,"connected_time":1087000000000,"state":"active","ping":72},{"user_id":354,"name":"Furno","steam_id":76561197999723047,"connected_time":1061000000000,"state":"active","ping":47},{"user_id":372,"name":"w4gthp0h","steam_id":76561198133193445,"connected_time":49000000000,"state":"active","ping":83},{"user_id":303,"name":"PyroTitan","steam_id":76561198096550598,"connected_time":3964000000000,"state":"active","ping":64},{"user_id":362,"name":"Utkunator","steam_id":76561198967463151,"connected_time":763000000000,"state":"active","ping":91},{"user_id":307,"name":"Miolen","steam_id":76561198083366424,"connected_time":3917000000000,"state":"active","ping":93}]},{"server_id":311,"name":"Uncletopia | Frankfurt | 6 | All Maps","name_short":"frk-6","host":"frk-1.de.uncletopia.com","port":27065,"enabled":true,"region":"eu","cc":"de","latitude":50.110924,"longitude":8.682127,"reserved":0,"last_update":"0001-01-01T00:00:00Z","name_a2s":"Uncletopia | Frankfurt | 6 | All Maps","protocol":17,"map":"cp_dustbowl","folder":"tf","game":"Team Fortress","app_id":440,"player_count":24,"max_players":24,"Bots":0,"server_type":"Dedicated","server_os":"Linux","password":true,"vac":true,"version":"7757534","steam_id":85568392924504278,"keywords":["cp","nocrits","nodmgspread","uncletopia"],"game_id":440,"stv_port":27066,"stv_name":"Uncletopia | Frankfurt | 6 | All Maps | STV","players":[{"user_id":128,"name":"kaelan!","steam_id":76561198001425310,"connected_time":1220000000000,"state":"active","ping":74},{"user_id":141,"name":"Carrotcracker","steam_id":76561198034862396,"connected_time":435000000000,"state":"active","ping":68},{"user_id":123,"name":"KittyKate ❤","steam_id":76561198116340817,"connected_time":1883000000000,"state":"active","ping":56},{"user_id":142,"name":"FlameWarLock","steam_id":76561198858777798,"connected_time":388000000000,"state":"active","ping":95},{"user_id":91,"name":"dotdotdot","steam_id":76561198057628751,"connected_time":3861000000000,"state":"active","ping":61},{"user_id":17,"name":"Carrot Arc","steam_id":76561198164957006,"connected_time":8930000000000,"state":"active","ping":84},{"user_id":133,"name":"Regan","steam_id":76561198100631086,"connected_time":979000000000,"state":"active","ping":68},{"user_id":131,"name":"Seail_M","steam_id":76561198002405605,"connected_time":1128000000000,"state":"active","ping":46},{"user_id":116,"name":"RIFT","steam_id":76561198991622379,"connected_time":2332000000000,"state":"active","ping":67},{"user_id":95,"name":"smell_my_cheese","steam_id":76561198008517427,"connected_time":3731000000000,"state":"active","ping":67},{"user_id":110,"name":"Carry Krypl","steam_id":76561198136938121,"connected_time":2792000000000,"state":"active","ping":59},{"user_id":88,"name":"I'm past the point of insanity","steam_id":76561198800954471,"connected_time":3899000000000,"state":"active","ping":78},{"user_id":125,"name":"blurst of times","steam_id":76561197972325640,"connected_time":1608000000000,"state":"active","ping":50},{"user_id":139,"name":"a dollop of bird","steam_id":76561198089003514,"connected_time":731000000000,"state":"active","ping":45},{"user_id":97,"name":"GMsU | Rebikas","steam_id":76561198077053764,"connected_time":3606000000000,"state":"active","ping":44},{"user_id":126,"name":"BuzzBees ❤","steam_id":76561198101502273,"connected_time":1361000000000,"state":"active","ping":60},{"user_id":72,"name":"eduardo","steam_id":76561198014491925,"connected_time":5430000000000,"state":"active","ping":75},{"user_id":122,"name":"GMsU | DaLuigi","steam_id":76561198054486188,"connected_time":2269000000000,"state":"active","ping":45},{"user_id":81,"name":"Pico","steam_id":76561198063552545,"connected_time":5048000000000,"state":"active","ping":102},{"user_id":135,"name":"Juiceydough","steam_id":76561197997323419,"connected_time":940000000000,"state":"active","ping":89},{"user_id":136,"name":"BunkerBoy","steam_id":76561198859439313,"connected_time":910000000000,"state":"active","ping":72},{"user_id":127,"name":"Gryoss","steam_id":76561197999837111,"connected_time":1311000000000,"state":"active","ping":100},{"user_id":137,"name":"Raingnome @SaveTF2","steam_id":76561198007394958,"connected_time":903000000000,"state":"active","ping":70},{"user_id":99,"name":"Technic","steam_id":76561198128096130,"connected_time":3605000000000,"state":"active","ping":45}]},{"server_id":23,"name":"Uncletopia | Frankfurt | 7 | Stopwatch Beta","name_short":"frk-7","host":"frk-1.de.uncletopia.com","port":27075,"enabled":true,"region":"eu","cc":"de","latitude":50.110924,"longitude":8.682127,"reserved":0,"last_update":"0001-01-01T00:00:00Z","name_a2s":"Uncletopia | Frankfurt | 7 | Stopwatch Beta","protocol":17,"map":"pl_borneo","folder":"tf","game":"Team Fortress","app_id":440,"player_count":0,"max_players":24,"Bots":0,"server_type":"Dedicated","server_os":"Linux","password":true,"vac":true,"version":"7757534","steam_id":85568392924742827,"keywords":["nocrits","nodmgspread","payload","uncletopia"],"game_id":440,"stv_port":27076,"stv_name":"Uncletopia | Frankfurt | 7 | Stopwatch Beta | STV","players":null},{"server_id":24,"name":"Uncletopia | Frankfurt | 8 | Community","name_short":"frk-8","host":"frk-1.de.uncletopia.com","port":27085,"enabled":true,"region":"eu","cc":"de","latitude":50.110924,"longitude":8.682127,"reserved":0,"last_update":"0001-01-01T00:00:00Z","name_a2s":"Uncletopia | Frankfurt | 8 | Community","protocol":17,"map":"workshop/koth_ashville_final.ugc2130459942","folder":"tf","game":"Team Fortress","app_id":440,"player_count":0,"max_players":24,"Bots":0,"server_type":"Dedicated","server_os":"Linux","password":true,"vac":true,"version":"7757534","steam_id":85568392924742828,"keywords":["cp","nocrits","nodmgspread","uncletopia"],"game_id":440,"stv_port":27086,"stv_name":"Uncletopia | Frankfurt | 8 | Community | STV","players":null},{"server_id":202,"name":"Uncletopia | Hong Kong | 1 | All Maps","name_short":"hgk-1","host":"hgk-1.hk.uncletopia.com","port":27015,"enabled":true,"region":"asia","cc":"hk","latitude":22.302711,"longitude":114.177216,"reserved":0,"last_update":"0001-01-01T00:00:00Z","name_a2s":"Uncletopia | Hong Kong | 1 | All Maps","protocol":17,"map":"koth_lakeside_final","folder":"tf","game":"Team Fortress","app_id":440,"player_count":0,"max_players":24,"Bots":0,"server_type":"Dedicated","server_os":"Linux","password":true,"vac":true,"version":"7757534","steam_id":85568392924494504,"keywords":["cp","nocrits","nodmgspread","uncletopia"],"game_id":440,"stv_port":27016,"stv_name":"Uncletopia | Hong Kong | 1 | All Maps | STV","players":null},{"server_id":1,"name":"Uncletopia | Los Angeles | 1 | All Maps","name_short":"lax-1","host":"lax-1.us.uncletopia.com","port":27015,"enabled":true,"region":"us-west","cc":"us","latitude":33.94279,"longitude":-118.41004,"reserved":0,"last_update":"0001-01-01T00:00:00Z","name_a2s":"Uncletopia | Los Angeles | 1 | All Maps","protocol":17,"map":"cp_mountainlab","folder":"tf","game":"Team Fortress","app_id":440,"player_count":0,"max_players":24,"Bots":0,"server_type":"Dedicated","server_os":"Linux","password":true,"vac":true,"version":"7757534","steam_id":85568392924469991,"keywords":["cp","nocrits","nodmgspread","uncletopia"],"game_id":440,"stv_port":27016,"stv_name":"Uncletopia | Los Angeles | 1 | All Maps | STV","players":null},{"server_id":112,"name":"Uncletopia | Los Angeles | 2 | All Maps","name_short":"lax-2","host":"lax-1.us.uncletopia.com","port":27025,"enabled":true,"region":"us-west","cc":"us","latitude":33.94279,"longitude":-118.41004,"reserved":0,"last_update":"0001-01-01T00:00:00Z","name_a2s":"Uncletopia | Los Angeles | 2 | All Maps","protocol":17,"map":"koth_viaduct","folder":"tf","game":"Team Fortress","app_id":440,"player_count":0,"max_players":24,"Bots":0,"server_type":"Dedicated","server_os":"Linux","password":true,"vac":true,"version":"7757534","steam_id":85568392924469992,"keywords":["cp","nocrits","nodmgspread","uncletopia"],"game_id":440,"stv_port":27026,"stv_name":"Uncletopia | Los Angeles | 2 | All Maps | STV","players":null},{"server_id":324,"name":"Uncletopia | Los Angeles | 3 | All Maps","name_short":"lax-3","host":"lax-1.us.uncletopia.com","port":27035,"enabled":true,"region":"us-west","cc":"us","latitude":33.94279,"longitude":-118.41004,"reserved":0,"last_update":"0001-01-01T00:00:00Z","name_a2s":"Uncletopia | Los Angeles | 3 | All Maps","protocol":17,"map":"pl_swiftwater_final1","folder":"tf","game":"Team Fortress","app_id":440,"player_count":0,"max_players":24,"Bots":0,"server_type":"Dedicated","server_os":"Linux","password":true,"vac":true,"version":"7757534","steam_id":85568392924510198,"keywords":["nocrits","nodmgspread","payload","uncletopia"],"game_id":440,"stv_port":27036,"stv_name":"Uncletopia | Los Angeles | 3 | All Maps | STV","players":null},{"server_id":25,"name":"Uncletopia | Los Angeles | 4 | Stopwatch Beta","name_short":"lax-4","host":"lax-1.us.uncletopia.com","port":27045,"enabled":true,"region":"us-west","cc":"us","latitude":33.94279,"longitude":-118.41004,"reserved":0,"last_update":"0001-01-01T00:00:00Z","name_a2s":"Uncletopia | Los Angeles | 4 | Stopwatch Beta","protocol":17,"map":"workshop/koth_product_final.ugc454272353","folder":"tf","game":"Team Fortress","app_id":440,"player_count":0,"max_players":24,"Bots":0,"server_type":"Dedicated","server_os":"Linux","password":true,"vac":true,"version":"7757534","steam_id":85568392924510199,"keywords":["cp","nocrits","nodmgspread","uncletopia"],"game_id":440,"stv_port":27046,"stv_name":"Uncletopia | Los Angeles | 4 | Stopwatch Beta | STV","players":null},{"server_id":11,"name":"Uncletopia | London | 1 | All Maps","name_short":"lon-1","host":"lon-1.uk.uncletopia.com","port":27015,"enabled":true,"region":"eu","cc":"gb","latitude":51.509865,"longitude":-0.118092,"reserved":0,"last_update":"0001-01-01T00:00:00Z","name_a2s":"Uncletopia | London | 1 | All Maps","protocol":17,"map":"pl_badwater","folder":"tf","game":"Team Fortress","app_id":440,"player_count":24,"max_players":24,"Bots":0,"server_type":"Dedicated","server_os":"Linux","password":true,"vac":true,"version":"7757534","steam_id":85568392924367362,"keywords":["nocrits","nodmgspread","payload","uncletopia"],"game_id":440,"stv_port":27016,"stv_name":"Uncletopia | London | 1 | All Maps | STV","players":[{"user_id":462,"name":"Quack","steam_id":76561198048712219,"connected_time":5939000000000,"state":"active","ping":58},{"user_id":531,"name":"✪ Danny","steam_id":76561198104483241,"connected_time":995000000000,"state":"active","ping":53},{"user_id":515,"name":"regimiro","steam_id":76561198120457008,"connected_time":2221000000000,"state":"active","ping":46},{"user_id":525,"name":"CumbustiblePunda","steam_id":76561197974274677,"connected_time":1351000000000,"state":"active","ping":58},{"user_id":526,"name":"NiceBird","steam_id":76561198072118644,"connected_time":1315000000000,"state":"active","ping":39},{"user_id":518,"name":"Segra blw.tf","steam_id":76561198441974031,"connected_time":1948000000000,"state":"active","ping":79},{"user_id":500,"name":"Dewotter","steam_id":76561198007653168,"connected_time":2880000000000,"state":"active","ping":50},{"user_id":413,"name":"Proto-arc","steam_id":76561198012776747,"connected_time":9030000000000,"state":"active","ping":46},{"user_id":520,"name":"AWildTamim","steam_id":76561198048060652,"connected_time":1906000000000,"state":"active","ping":45},{"user_id":502,"name":"Chill Spirit","steam_id":76561198845001725,"connected_time":2843000000000,"state":"active","ping":46},{"user_id":532,"name":"aura","steam_id":76561197991687793,"connected_time":480000000000,"state":"active","ping":73},{"user_id":486,"name":"Mustekala1","steam_id":76561198044468928,"connected_time":3844000000000,"state":"active","ping":73},{"user_id":513,"name":"R","steam_id":76561198148030229,"connected_time":2293000000000,"state":"active","ping":61},{"user_id":529,"name":"Purps","steam_id":76561198053886680,"connected_time":1023000000000,"state":"active","ping":46},{"user_id":509,"name":"nedilya","steam_id":76561198039692077,"connected_time":2572000000000,"state":"active","ping":60},{"user_id":507,"name":"slickbandxz","steam_id":76561198119553577,"connected_time":2770000000000,"state":"active","ping":112},{"user_id":534,"name":"SuperBob103","steam_id":76561199175360012,"connected_time":84000000000,"state":"active","ping":48},{"user_id":533,"name":"fénix","steam_id":76561198083199151,"connected_time":149000000000,"state":"active","ping":57},{"user_id":530,"name":"anastasia","steam_id":76561197994492154,"connected_time":1022000000000,"state":"active","ping":76},{"user_id":454,"name":"Kwizine","steam_id":76561198147999400,"connected_time":6822000000000,"state":"active","ping":67},{"user_id":514,"name":"dn4k","steam_id":76561199221755690,"connected_time":2255000000000,"state":"active","ping":78},{"user_id":521,"name":"When Life gives you Lemons","steam_id":76561198318290663,"connected_time":1595000000000,"state":"active","ping":58},{"user_id":485,"name":"SOPHIIEE","steam_id":76561198443798981,"connected_time":3906000000000,"state":"active","ping":52},{"user_id":523,"name":"Bgm_","steam_id":76561198056452044,"connected_time":1501000000000,"state":"active","ping":73}]},{"server_id":114,"name":"Uncletopia | London | 2 | All Maps","name_short":"lon-2","host":"lon-1.uk.uncletopia.com","port":27025,"enabled":true,"region":"eu","cc":"gb","latitude":51.509865,"longitude":-0.118092,"reserved":0,"last_update":"0001-01-01T00:00:00Z","name_a2s":"Uncletopia | London | 2 | All Maps","protocol":17,"map":"pl_snowycoast","folder":"tf","game":"Team Fortress","app_id":440,"player_count":23,"max_players":24,"Bots":0,"server_type":"Dedicated","server_os":"Linux","password":true,"vac":true,"version":"7757534","steam_id":85568392924470941,"keywords":["nocrits","nodmgspread","payload","uncletopia"],"game_id":440,"stv_port":27026,"stv_name":"Uncletopia | London | 2 | All Maps | STV","players":[{"user_id":430,"name":"Sparky","steam_id":76561198036754195,"connected_time":335000000000,"state":"active","ping":49},{"user_id":435,"name":"Benzo Fury","steam_id":76561198025259336,"connected_time":157000000000,"state":"active","ping":37},{"user_id":418,"name":"alshep00","steam_id":76561198079585198,"connected_time":544000000000,"state":"active","ping":53},{"user_id":378,"name":"ster","steam_id":76561198111986039,"connected_time":3480000000000,"state":"active","ping":56},{"user_id":318,"name":"Zerfesh","steam_id":76561198117534358,"connected_time":6412000000000,"state":"active","ping":92},{"user_id":417,"name":"You're a hero and you have to..","steam_id":76561198071882999,"connected_time":629000000000,"state":"active","ping":91},{"user_id":408,"name":"Christmas Ham","steam_id":76561198119601623,"connected_time":1795000000000,"state":"active","ping":59},{"user_id":415,"name":"Codex","steam_id":76561198068748584,"connected_time":725000000000,"state":"active","ping":48},{"user_id":395,"name":"Butt Hurling","steam_id":76561198093229786,"connected_time":2484000000000,"state":"active","ping":87},{"user_id":387,"name":"Meddler","steam_id":76561198033001402,"connected_time":2605000000000,"state":"active","ping":40},{"user_id":419,"name":"Haha?","steam_id":76561198056882245,"connected_time":528000000000,"state":"active","ping":42},{"user_id":420,"name":"AWJ ˆ-ˆ","steam_id":76561198053628243,"connected_time":526000000000,"state":"active","ping":53},{"user_id":421,"name":"soup","steam_id":76561198386933065,"connected_time":511000000000,"state":"active","ping":72},{"user_id":431,"name":"The_Jaystone","steam_id":76561198126280691,"connected_time":327000000000,"state":"active","ping":40},{"user_id":423,"name":"gabagool","steam_id":76561198307111838,"connected_time":473000000000,"state":"active","ping":43},{"user_id":437,"name":"tone","steam_id":76561197975301462,"connected_time":96000000000,"state":"active","ping":67},{"user_id":338,"name":"Grumtsior","steam_id":76561198043563111,"connected_time":5641000000000,"state":"active","ping":74},{"user_id":432,"name":"frosty","steam_id":76561198094560834,"connected_time":315000000000,"state":"active","ping":45},{"user_id":438,"name":"Stretch","steam_id":76561198200856614,"connected_time":93000000000,"state":"active","ping":159},{"user_id":345,"name":"✪ m_br3","steam_id":76561198044981990,"connected_time":4977000000000,"state":"active","ping":77},{"user_id":410,"name":"Rolloden","steam_id":76561198069414404,"connected_time":1676000000000,"state":"active","ping":69},{"user_id":426,"name":"kotamine","steam_id":76561198068907991,"connected_time":432000000000,"state":"active","ping":74},{"user_id":433,"name":"skai","steam_id":76561198184881255,"connected_time":291000000000,"state":"active","ping":74}]},{"server_id":320,"name":"Uncletopia | London | 3 | All Maps","name_short":"lon-3","host":"lon-1.uk.uncletopia.com","port":27035,"enabled":true,"region":"eu","cc":"gb","latitude":51.509865,"longitude":-0.118092,"reserved":0,"last_update":"0001-01-01T00:00:00Z","name_a2s":"Uncletopia | London | 3 | All Maps","protocol":17,"map":"koth_lakeside_final","folder":"tf","game":"Team Fortress","app_id":440,"player_count":5,"max_players":24,"Bots":0,"server_type":"Dedicated","server_os":"Linux","password":true,"vac":true,"version":"7757534","steam_id":85568392924510192,"keywords":["cp","nocrits","nodmgspread","uncletopia"],"game_id":440,"stv_port":27036,"stv_name":"Uncletopia | London | 3 | All Maps | STV","players":[{"user_id":855,"name":"Carrot","steam_id":76561198119340863,"connected_time":220000000000,"state":"active","ping":33},{"user_id":856,"name":"mh","steam_id":76561198442932674,"connected_time":180000000000,"state":"active","ping":49},{"user_id":857,"name":"abipinch","steam_id":76561199104348040,"connected_time":132000000000,"state":"active","ping":59},{"user_id":858,"name":"lollyformolly","steam_id":76561199017868205,"connected_time":115000000000,"state":"active","ping":44},{"user_id":859,"name":"olsolsols12","steam_id":76561198089444052,"connected_time":64000000000,"state":"active","ping":51}]},{"server_id":321,"name":"Uncletopia | London | 4 | All Maps","name_short":"lon-4","host":"lon-1.uk.uncletopia.com","port":27045,"enabled":true,"region":"eu","cc":"gb","latitude":51.509865,"longitude":-0.118092,"reserved":0,"last_update":"0001-01-01T00:00:00Z","name_a2s":"Uncletopia | London | 4 | All Maps","protocol":17,"map":"pl_frontier_final","folder":"tf","game":"Team Fortress","app_id":440,"player_count":0,"max_players":24,"Bots":0,"server_type":"Dedicated","server_os":"Linux","password":true,"vac":true,"version":"7757534","steam_id":85568392924510193,"keywords":["nocrits","nodmgspread","payload","uncletopia"],"game_id":440,"stv_port":27046,"stv_name":"Uncletopia | London | 4 | All Maps | STV","players":null},{"server_id":21,"name":"Uncletopia | London | 5 | All Maps","name_short":"lon-5","host":"lon-1.uk.uncletopia.com","port":27055,"enabled":true,"region":"eu","cc":"gb","latitude":51.509865,"longitude":-0.118092,"reserved":0,"last_update":"0001-01-01T00:00:00Z","name_a2s":"Uncletopia | London | 5 | All Maps","protocol":17,"map":"cp_steel","folder":"tf","game":"Team Fortress","app_id":440,"player_count":24,"max_players":24,"Bots":0,"server_type":"Dedicated","server_os":"Linux","password":true,"vac":true,"version":"7757534","steam_id":85568392924742829,"keywords":["cp","nocrits","nodmgspread","uncletopia"],"game_id":440,"stv_port":27056,"stv_name":"Uncletopia | London | 5 | All Maps | STV","players":[{"user_id":129,"name":"Mad_Scientist","steam_id":76561198121431854,"connected_time":629000000000,"state":"active","ping":59},{"user_id":121,"name":"Dr Sex","steam_id":76561198029044617,"connected_time":975000000000,"state":"active","ping":47},{"user_id":78,"name":"ElBaneazos","steam_id":76561198080830061,"connected_time":4288000000000,"state":"active","ping":67},{"user_id":60,"name":"Fat Pigeon","steam_id":76561198817940142,"connected_time":5252000000000,"state":"active","ping":45},{"user_id":127,"name":"not so yahoo","steam_id":76561198037550223,"connected_time":717000000000,"state":"active","ping":101},{"user_id":117,"name":"Alexander73","steam_id":76561198964753138,"connected_time":1360000000000,"state":"active","ping":60},{"user_id":58,"name":"X-tis","steam_id":76561198043837480,"connected_time":5367000000000,"state":"active","ping":62},{"user_id":133,"name":"HEXXXXXXXXERII","steam_id":76561198149967445,"connected_time":119000000000,"state":"active","ping":31},{"user_id":130,"name":"Mussolini","steam_id":76561198218384865,"connected_time":621000000000,"state":"active","ping":99},{"user_id":118,"name":"Kraftlos","steam_id":76561198074350350,"connected_time":1346000000000,"state":"active","ping":130},{"user_id":107,"name":"GuSkand","steam_id":76561198043775605,"connected_time":1781000000000,"state":"active","ping":88},{"user_id":92,"name":"dust","steam_id":76561198293557665,"connected_time":2873000000000,"state":"active","ping":114},{"user_id":90,"name":"wouris","steam_id":76561198876188003,"connected_time":2961000000000,"state":"active","ping":71},{"user_id":108,"name":"Badrukk","steam_id":76561198954475444,"connected_time":1776000000000,"state":"active","ping":65},{"user_id":123,"name":"Aragami󠁳⁧⁧ 󠁳_delp_","steam_id":76561198017679141,"connected_time":960000000000,"state":"active","ping":49},{"user_id":112,"name":"SUIDosa","steam_id":76561198071668962,"connected_time":1688000000000,"state":"active","ping":83},{"user_id":94,"name":"Samus","steam_id":76561198045943019,"connected_time":2287000000000,"state":"active","ping":59},{"user_id":95,"name":"TurboTabs","steam_id":76561198009785131,"connected_time":2279000000000,"state":"active","ping":46},{"user_id":93,"name":"PizzaPete123","steam_id":76561198089478290,"connected_time":2328000000000,"state":"active","ping":40},{"user_id":74,"name":"Pepelu","steam_id":76561198170725977,"connected_time":4400000000000,"state":"active","ping":62},{"user_id":125,"name":"snowii","steam_id":76561198836246326,"connected_time":909000000000,"state":"active","ping":95},{"user_id":86,"name":"ChPerette","steam_id":76561198060004887,"connected_time":3210000000000,"state":"active","ping":45},{"user_id":131,"name":"Ork","steam_id":76561197968575924,"connected_time":559000000000,"state":"active","ping":54},{"user_id":135,"name":"zaleek69","steam_id":76561198058877595,"connected_time":35000000000,"state":"active","ping":78}]},{"server_id":22,"name":"Uncletopia | London | 6 | All Maps","name_short":"lon-6","host":"lon-1.uk.uncletopia.com","port":27065,"enabled":true,"region":"eu","cc":"gb","latitude":51.509865,"longitude":-0.118092,"reserved":0,"last_update":"0001-01-01T00:00:00Z","name_a2s":"Uncletopia | London | 6 | All Maps","protocol":17,"map":"koth_highpass","folder":"tf","game":"Team Fortress","app_id":440,"player_count":0,"max_players":24,"Bots":0,"server_type":"Dedicated","server_os":"Linux","password":true,"vac":true,"version":"7757534","steam_id":85568392924742830,"keywords":["cp","nocrits","nodmgspread","uncletopia"],"game_id":440,"stv_port":27066,"stv_name":"Uncletopia | London | 6 | All Maps | STV","players":null},{"server_id":40,"name":"Uncletopia | London | 7 | No Payload","name_short":"lon-7","host":"lon-1.uk.uncletopia.com","port":27075,"enabled":true,"region":"eu","cc":"gb","latitude":51.509865,"longitude":-0.118092,"reserved":0,"last_update":"0001-01-01T00:00:00Z","name_a2s":"Uncletopia | London | 7 | No Payload","protocol":17,"map":"cp_vanguard","folder":"tf","game":"Team Fortress","app_id":440,"player_count":0,"max_players":24,"Bots":0,"server_type":"Dedicated","server_os":"Linux","password":true,"vac":true,"version":"7757534","steam_id":85568392924964314,"keywords":["cp","nocrits","nodmgspread","uncletopia"],"game_id":440,"stv_port":27076,"stv_name":"Uncletopia | London | 7 | No Payload | STV","players":null},{"server_id":41,"name":"Uncletopia | London | 8 | Community","name_short":"lon-8","host":"lon-1.uk.uncletopia.com","port":27085,"enabled":true,"region":"eu","cc":"gb","latitude":51.509865,"longitude":-0.118092,"reserved":0,"last_update":"0001-01-01T00:00:00Z","name_a2s":"Uncletopia | London | 8 | Community","protocol":17,"map":"workshop/cp_kalinka_rc6a.ugc1272700588","folder":"tf","game":"Team Fortress","app_id":440,"player_count":0,"max_players":24,"Bots":0,"server_type":"Dedicated","server_os":"Linux","password":true,"vac":true,"version":"7757534","steam_id":85568392924964315,"keywords":["cp","nocrits","nodmgspread","uncletopia"],"game_id":440,"stv_port":27086,"stv_name":"Uncletopia | London | 8 | Community | STV","players":null},{"server_id":300,"name":"Uncletopia | Montréal | 1 | All Maps","name_short":"mtl-1","host":"mtl-1.ca.uncletopia.com","port":27015,"enabled":true,"region":"us-east","cc":"ca","latitude":45.50889,"longitude":-73.56167,"reserved":0,"last_update":"0001-01-01T00:00:00Z","name_a2s":"Uncletopia | Montréal | 1 | All Maps","protocol":17,"map":"pl_swiftwater_final1","folder":"tf","game":"Team Fortress","app_id":440,"player_count":24,"max_players":24,"Bots":0,"server_type":"Dedicated","server_os":"Linux","password":true,"vac":true,"version":"7757534","steam_id":85568392924500087,"keywords":["nocrits","nodmgspread","payload","uncletopia"],"game_id":440,"stv_port":27016,"stv_name":"Uncletopia | Montréal | 1 | All Maps | STV","players":[{"user_id":313,"name":"Larry from Pokemon SV","steam_id":76561198095245223,"connected_time":1351000000000,"state":"active","ping":56},{"user_id":319,"name":"Deputy Dog","steam_id":76561197960441667,"connected_time":943000000000,"state":"active","ping":77},{"user_id":331,"name":"Cousin Balki","steam_id":76561198070496395,"connected_time":161000000000,"state":"active","ping":61},{"user_id":297,"name":"Expritus","steam_id":76561198188914683,"connected_time":2461000000000,"state":"active","ping":107},{"user_id":316,"name":"HeisenBurger","steam_id":76561198040632080,"connected_time":1153000000000,"state":"active","ping":44},{"user_id":311,"name":"pieistasty14","steam_id":76561199049353948,"connected_time":1493000000000,"state":"active","ping":76},{"user_id":310,"name":"Daddys Home","steam_id":76561198034702011,"connected_time":1503000000000,"state":"active","ping":70},{"user_id":305,"name":"The Drunk Clown","steam_id":76561197986850426,"connected_time":2202000000000,"state":"active","ping":49},{"user_id":328,"name":"\u003c3Elise\u003c3","steam_id":76561198146435005,"connected_time":631000000000,"state":"active","ping":97},{"user_id":283,"name":"self-cannibalizing customer. \ufffd\ufffd","steam_id":76561198294013916,"connected_time":3171000000000,"state":"active","ping":51},{"user_id":318,"name":"Ape","steam_id":76561198132535311,"connected_time":1136000000000,"state":"active","ping":69},{"user_id":326,"name":"Major Woody","steam_id":76561198835541533,"connected_time":721000000000,"state":"active","ping":59},{"user_id":327,"name":"クレオラ","steam_id":76561198000830794,"connected_time":706000000000,"state":"active","ping":113},{"user_id":298,"name":"Spiee","steam_id":76561199032011974,"connected_time":2456000000000,"state":"active","ping":81},{"user_id":307,"name":"Bird of Paradise","steam_id":76561198891152046,"connected_time":2149000000000,"state":"active","ping":112},{"user_id":292,"name":"catrinaisahuman","steam_id":76561198281355729,"connected_time":2573000000000,"state":"active","ping":94},{"user_id":325,"name":"chicken coup d'état","steam_id":76561198069586736,"connected_time":733000000000,"state":"active","ping":58},{"user_id":278,"name":"800 Ping","steam_id":76561198079841458,"connected_time":3805000000000,"state":"active","ping":92},{"user_id":324,"name":"Skip","steam_id":76561199014240063,"connected_time":800000000000,"state":"active","ping":55},{"user_id":322,"name":"nap","steam_id":76561198162714624,"connected_time":844000000000,"state":"active","ping":84},{"user_id":300,"name":"summer_snowman","steam_id":76561198796697989,"connected_time":2413000000000,"state":"active","ping":89},{"user_id":323,"name":"Demoman With One Joke","steam_id":76561197993467034,"connected_time":808000000000,"state":"active","ping":74},{"user_id":281,"name":"Temujin","steam_id":76561198030936583,"connected_time":3725000000000,"state":"active","ping":46},{"user_id":304,"name":"Salmon run gaming #SaveTf2","steam_id":76561199239325179,"connected_time":2304000000000,"state":"active","ping":124}]},{"server_id":301,"name":"Uncletopia | Montréal | 2 | All Maps","name_short":"mtl-2","host":"mtl-1.ca.uncletopia.com","port":27025,"enabled":true,"region":"us-east","cc":"ca","latitude":45.50889,"longitude":-73.56167,"reserved":0,"last_update":"0001-01-01T00:00:00Z","name_a2s":"Uncletopia | Montréal | 2 | All Maps","protocol":17,"map":"pl_barnblitz","folder":"tf","game":"Team Fortress","app_id":440,"player_count":0,"max_players":24,"Bots":0,"server_type":"Dedicated","server_os":"Linux","password":true,"vac":true,"version":"7757534","steam_id":85568392924500088,"keywords":["nocrits","nodmgspread","payload","uncletopia"],"game_id":440,"stv_port":27026,"stv_name":"Uncletopia | Montréal | 2 | All Maps | STV","players":null},{"server_id":302,"name":"Uncletopia | Montréal | 3 | All Maps","name_short":"mtl-3","host":"mtl-1.ca.uncletopia.com","port":27035,"enabled":true,"region":"us-east","cc":"ca","latitude":45.50889,"longitude":-73.56167,"reserved":0,"last_update":"0001-01-01T00:00:00Z","name_a2s":"Uncletopia | Montréal | 3 | All Maps","protocol":17,"map":"plr_hightower","folder":"tf","game":"Team Fortress","app_id":440,"player_count":10,"max_players":24,"Bots":0,"server_type":"Dedicated","server_os":"Linux","password":true,"vac":true,"version":"7757534","steam_id":85568392924500089,"keywords":["nocrits","nodmgspread","payload","uncletopia"],"game_id":440,"stv_port":27036,"stv_name":"Uncletopia | Montréal | 3 | All Maps | STV","players":[{"user_id":21,"name":"Dorsalgull","steam_id":76561199098217729,"connected_time":2235000000000,"state":"active","ping":113},{"user_id":23,"name":"Knightking309","steam_id":76561199076546834,"connected_time":2188000000000,"state":"active","ping":112},{"user_id":24,"name":"Kanksteli","steam_id":76561198035919109,"connected_time":1950000000000,"state":"active","ping":150},{"user_id":26,"name":"BIGGEST MAC","steam_id":76561198847517098,"connected_time":1893000000000,"state":"active","ping":85},{"user_id":27,"name":"Infinitive","steam_id":76561199454352648,"connected_time":1673000000000,"state":"active","ping":82},{"user_id":28,"name":"Felix Argyle","steam_id":76561198999454961,"connected_time":1612000000000,"state":"active","ping":77},{"user_id":29,"name":"Grenade Chucker","steam_id":76561198040532757,"connected_time":1450000000000,"state":"active","ping":89},{"user_id":32,"name":"br3tose","steam_id":76561198209072776,"connected_time":483000000000,"state":"active","ping":105},{"user_id":33,"name":"badbobdooley","steam_id":76561199092672434,"connected_time":285000000000,"state":"active","ping":96},{"user_id":34,"name":"WALLOP","steam_id":76561198280098491,"connected_time":211000000000,"state":"active","ping":100}]},{"server_id":303,"name":"Uncletopia | Montréal | 4 | No Payload","name_short":"mtl-4","host":"mtl-1.ca.uncletopia.com","port":27045,"enabled":true,"region":"us-east","cc":"ca","latitude":45.50889,"longitude":-73.56167,"reserved":0,"last_update":"0001-01-01T00:00:00Z","name_a2s":"Uncletopia | Montréal | 4 | No Payload","protocol":17,"map":"pl_pier","folder":"tf","game":"Team Fortress","app_id":440,"player_count":0,"max_players":24,"Bots":0,"server_type":"Dedicated","server_os":"Linux","password":true,"vac":true,"version":"7757534","steam_id":85568392924500090,"keywords":["nocrits","nodmgspread","payload","uncletopia"],"game_id":440,"stv_port":27046,"stv_name":"Uncletopia | Montréal | 4 | No Payload | STV","players":null},{"server_id":13,"name":"Uncletopia | New York City | 1 | All Maps","name_short":"nyc-1","host":"nyc-1.us.uncletopia.com","port":27015,"enabled":true,"region":"us-east","cc":"us","latitude":40.73061,"longitude":-73.93524,"reserved":0,"last_update":"0001-01-01T00:00:00Z","name_a2s":"Uncletopia | New York City | 1 | All Maps","protocol":17,"map":"koth_lakeside_final","folder":"tf","game":"Team Fortress","app_id":440,"player_count":2,"max_players":24,"Bots":0,"server_type":"Dedicated","server_os":"Linux","password":true,"vac":true,"version":"7757534","steam_id":85568392924469993,"keywords":["cp","nocrits","nodmgspread","uncletopia"],"game_id":440,"stv_port":27016,"stv_name":"Uncletopia | New York City | 1 | All Maps | STV","players":[{"user_id":14,"name":"Super D Duper","steam_id":76561198078203677,"connected_time":64000000000,"state":"active","ping":48},{"user_id":15,"name":"Hook, Line, and Sphincter","steam_id":76561198078207743,"connected_time":54000000000,"state":"active","ping":40}]},{"server_id":14,"name":"Uncletopia | New York City | 2 | All Maps","name_short":"nyc-2","host":"nyc-1.us.uncletopia.com","port":27025,"enabled":true,"region":"us-east","cc":"us","latitude":40.73061,"longitude":-73.93524,"reserved":0,"last_update":"0001-01-01T00:00:00Z","name_a2s":"Uncletopia | New York City | 2 | All Maps","protocol":17,"map":"koth_cascade","folder":"tf","game":"Team Fortress","app_id":440,"player_count":0,"max_players":24,"Bots":0,"server_type":"Dedicated","server_os":"Linux","password":true,"vac":true,"version":"7757534","steam_id":85568392924469994,"keywords":["cp","nocrits","nodmgspread","uncletopia"],"game_id":440,"stv_port":27026,"stv_name":"Uncletopia | New York City | 2 | All Maps | STV","players":null},{"server_id":15,"name":"Uncletopia | New York City | 3 | Stopwatch Beta","name_short":"nyc-3","host":"nyc-1.us.uncletopia.com","port":27035,"enabled":true,"region":"us-east","cc":"us","latitude":40.73061,"longitude":-73.93524,"reserved":0,"last_update":"0001-01-01T00:00:00Z","name_a2s":"Uncletopia | New York City | 3 | Stopwatch Beta","protocol":17,"map":"workshop/pl_barnblitz_pro7.ugc582280235","folder":"tf","game":"Team Fortress","app_id":440,"player_count":0,"max_players":24,"Bots":0,"server_type":"Dedicated","server_os":"Linux","password":true,"vac":true,"version":"7757534","steam_id":85568392924742820,"keywords":["nocrits","nodmgspread","payload","uncletopia"],"game_id":440,"stv_port":27036,"stv_name":"Uncletopia | New York City | 3 | Stopwatch Beta | STV","players":null},{"server_id":16,"name":"Uncletopia | New York City | 4 | Community","name_short":"nyc-4","host":"nyc-1.us.uncletopia.com","port":27045,"enabled":true,"region":"us-east","cc":"us","latitude":40.73061,"longitude":-73.93524,"reserved":0,"last_update":"0001-01-01T00:00:00Z","name_a2s":"Uncletopia | New York City | 4 | Community","protocol":17,"map":"workshop/koth_ashville_final.ugc2130459942","folder":"tf","game":"Team Fortress","app_id":440,"player_count":0,"max_players":24,"Bots":0,"server_type":"Dedicated","server_os":"Linux","password":true,"vac":true,"version":"7757534","steam_id":85568392924742821,"keywords":["cp","nocrits","nodmgspread","uncletopia"],"game_id":440,"stv_port":27046,"stv_name":"Uncletopia | New York City | 4 | Community | STV","players":null},{"server_id":142,"name":"Uncletopia | São Paulo | 1 | All Maps","name_short":"sao-1","host":"sao-1.br.uncletopia.com","port":27015,"enabled":true,"region":"sa","cc":"br","latitude":-23.533773,"longitude":-46.62529,"reserved":0,"last_update":"0001-01-01T00:00:00Z","name_a2s":"Uncletopia | São Paulo | 1 | All Maps","protocol":17,"map":"pl_upward","folder":"tf","game":"Team Fortress","app_id":440,"player_count":1,"max_players":24,"Bots":0,"server_type":"Dedicated","server_os":"Linux","password":true,"vac":true,"version":"7757534","steam_id":85568392924469996,"keywords":["nocrits","nodmgspread","payload","uncletopia"],"game_id":440,"stv_port":27016,"stv_name":"Uncletopia | São Paulo | 1 | All Maps | STV","players":[{"user_id":6,"name":"Edge","steam_id":76561198850405241,"connected_time":514000000000,"state":"spawning","ping":73}]},{"server_id":143,"name":"Uncletopia | São Paulo | 2 | All Maps","name_short":"sao-2","host":"sao-2.br.uncletopia.com","port":27015,"enabled":true,"region":"sa","cc":"br","latitude":-23.533773,"longitude":-46.62529,"reserved":0,"last_update":"0001-01-01T00:00:00Z","name_a2s":"Uncletopia | São Paulo | 2 | All Maps","protocol":17,"map":"cp_altitude","folder":"tf","game":"Team Fortress","app_id":440,"player_count":0,"max_players":24,"Bots":0,"server_type":"Dedicated","server_os":"Linux","password":true,"vac":true,"version":"7757534","steam_id":85568392924485349,"keywords":["cp","nocrits","nodmgspread","uncletopia"],"game_id":440,"stv_port":27016,"stv_name":"Uncletopia | São Paulo | 2 | All Maps | STV","players":null},{"server_id":7,"name":"Uncletopia | Seattle | 1 | All Maps","name_short":"sea-1","host":"sea-1.us.uncletopia.com","port":27015,"enabled":true,"region":"us-west","cc":"us","latitude":47.608013,"longitude":-122.33517,"reserved":0,"last_update":"0001-01-01T00:00:00Z","name_a2s":"Uncletopia | Seattle | 1 | All Maps","protocol":17,"map":"cp_snakewater_final1","folder":"tf","game":"Team Fortress","app_id":440,"player_count":24,"max_players":24,"Bots":0,"server_type":"Dedicated","server_os":"Linux","password":true,"vac":true,"version":"7757534","steam_id":85568392924469997,"keywords":["cp","nocrits","nodmgspread","uncletopia"],"game_id":440,"stv_port":27016,"stv_name":"Uncletopia | Seattle | 1 | All Maps | STV","players":[{"user_id":402,"name":"Training Arc","steam_id":76561198038832034,"connected_time":776000000000,"state":"active","ping":54},{"user_id":395,"name":"AngPlague(KOS)","steam_id":76561199230937981,"connected_time":1097000000000,"state":"active","ping":136},{"user_id":341,"name":"merkure","steam_id":76561198213385439,"connected_time":5933000000000,"state":"active","ping":68},{"user_id":390,"name":"bomb","steam_id":76561198312179067,"connected_time":1285000000000,"state":"active","ping":90},{"user_id":407,"name":"Meowmers","steam_id":76561197994170810,"connected_time":151000000000,"state":"active","ping":104},{"user_id":391,"name":"Rick","steam_id":76561198082608196,"connected_time":1256000000000,"state":"active","ping":72},{"user_id":361,"name":"shy guy","steam_id":76561198151246059,"connected_time":4268000000000,"state":"active","ping":65},{"user_id":405,"name":"isy","steam_id":76561198068017860,"connected_time":547000000000,"state":"active","ping":77},{"user_id":382,"name":"zrsp1","steam_id":76561199030845505,"connected_time":2088000000000,"state":"active","ping":128},{"user_id":406,"name":"AmyPercent","steam_id":76561198071896932,"connected_time":222000000000,"state":"active","ping":82},{"user_id":368,"name":"A Duck With Socks","steam_id":76561198018844227,"connected_time":3300000000000,"state":"active","ping":61},{"user_id":399,"name":"1hbin","steam_id":76561198274007110,"connected_time":870000000000,"state":"active","ping":78},{"user_id":397,"name":"twitch.tv/ladyloki_ch","steam_id":76561198280150602,"connected_time":884000000000,"state":"active","ping":56},{"user_id":377,"name":"mhmyeah_yeahmhm","steam_id":76561198341190679,"connected_time":2791000000000,"state":"active","ping":64},{"user_id":349,"name":"The Pepsi® Superbowl®!","steam_id":76561198080828981,"connected_time":5639000000000,"state":"active","ping":81},{"user_id":376,"name":"Numb Knot","steam_id":76561198333078151,"connected_time":3123000000000,"state":"active","ping":103},{"user_id":387,"name":"[ATP]Cocktail","steam_id":76561197965256717,"connected_time":1783000000000,"state":"active","ping":119},{"user_id":374,"name":"rock gaming","steam_id":76561199402868311,"connected_time":3164000000000,"state":"active","ping":87},{"user_id":351,"name":"Gut125Cin","steam_id":76561198101787225,"connected_time":5520000000000,"state":"active","ping":53},{"user_id":400,"name":"1 Great Wooden Dad","steam_id":76561198377126974,"connected_time":866000000000,"state":"active","ping":123},{"user_id":401,"name":"Zenix","steam_id":76561198261817732,"connected_time":847000000000,"state":"active","ping":91},{"user_id":364,"name":"Mara Roo","steam_id":76561198279341789,"connected_time":4239000000000,"state":"active","ping":130},{"user_id":404,"name":"Clean your room","steam_id":76561198011617388,"connected_time":728000000000,"state":"active","ping":58},{"user_id":394,"name":"AIPQ kritz me","steam_id":76561198439899407,"connected_time":1176000000000,"state":"active","ping":45}]},{"server_id":119,"name":"Uncletopia | Seattle | 2 | All Maps","name_short":"sea-2","host":"sea-1.us.uncletopia.com","port":27025,"enabled":true,"region":"us-west","cc":"us","latitude":47.608013,"longitude":-122.33517,"reserved":0,"last_update":"0001-01-01T00:00:00Z","name_a2s":"Uncletopia | Seattle | 2 | All Maps","protocol":17,"map":"pl_barnblitz","folder":"tf","game":"Team Fortress","app_id":440,"player_count":24,"max_players":24,"Bots":0,"server_type":"Dedicated","server_os":"Linux","password":true,"vac":true,"version":"7757534","steam_id":85568392924469998,"keywords":["nocrits","nodmgspread","payload","uncletopia"],"game_id":440,"stv_port":27026,"stv_name":"Uncletopia | Seattle | 2 | All Maps | STV","players":[{"user_id":243,"name":"oil","steam_id":76561198099980149,"connected_time":644000000000,"state":"active","ping":77},{"user_id":9,"name":"Spoilt Pudding","steam_id":76561198001195423,"connected_time":11997000000000,"state":"active","ping":102},{"user_id":246,"name":"pencil","steam_id":76561198104658102,"connected_time":580000000000,"state":"active","ping":69},{"user_id":204,"name":"WhackyOrc","steam_id":76561199470020355,"connected_time":3579000000000,"state":"active","ping":113},{"user_id":194,"name":"Tort boi","steam_id":76561198125327110,"connected_time":3986000000000,"state":"active","ping":86},{"user_id":232,"name":"Acehay14","steam_id":76561198052373291,"connected_time":1207000000000,"state":"active","ping":119},{"user_id":247,"name":"takeshi_","steam_id":76561198148797456,"connected_time":443000000000,"state":"active","ping":69},{"user_id":196,"name":"coolfalcon168","steam_id":76561198948665710,"connected_time":3942000000000,"state":"active","ping":128},{"user_id":250,"name":"420blzItM8","steam_id":76561198137983285,"connected_time":75000000000,"state":"active","ping":79},{"user_id":234,"name":"floppy muppet","steam_id":76561198003076261,"connected_time":1167000000000,"state":"active","ping":136},{"user_id":229,"name":"lili.winters","steam_id":76561199391478575,"connected_time":1760000000000,"state":"active","ping":71},{"user_id":237,"name":"tristan","steam_id":76561198188754881,"connected_time":903000000000,"state":"active","ping":44},{"user_id":235,"name":"Jolly","steam_id":76561198381749192,"connected_time":1154000000000,"state":"active","ping":88},{"user_id":242,"name":"DK360","steam_id":76561198796783094,"connected_time":731000000000,"state":"active","ping":74},{"user_id":201,"name":"Blitzy","steam_id":76561198149472890,"connected_time":3681000000000,"state":"active","ping":68},{"user_id":202,"name":"ratie","steam_id":76561198059399661,"connected_time":3671000000000,"state":"active","ping":86},{"user_id":227,"name":"Leo","steam_id":76561198309760791,"connected_time":1946000000000,"state":"active","ping":141},{"user_id":223,"name":"LProduct","steam_id":76561199442139670,"connected_time":2461000000000,"state":"active","ping":80},{"user_id":207,"name":"Strikerbolt","steam_id":76561199095622897,"connected_time":3530000000000,"state":"active","ping":99},{"user_id":251,"name":"hoovy","steam_id":76561199228653314,"connected_time":14000000000,"state":"active","ping":94},{"user_id":249,"name":"Lorne Malvo","steam_id":76561198067611037,"connected_time":138000000000,"state":"active","ping":99},{"user_id":238,"name":"god approaches","steam_id":76561198081617990,"connected_time":899000000000,"state":"active","ping":121},{"user_id":236,"name":"Piddlybonking the Cheese Man","steam_id":76561197970791798,"connected_time":1118000000000,"state":"active","ping":39},{"user_id":215,"name":"Big Jon","steam_id":76561198402285099,"connected_time":3137000000000,"state":"active","ping":81}]},{"server_id":406,"name":"Uncletopia | Seattle | 3 | Stopwatch Beta","name_short":"sea-3","host":"sea-1.us.uncletopia.com","port":27035,"enabled":true,"region":"us-west","cc":"us","latitude":47.608013,"longitude":-122.33517,"reserved":0,"last_update":"0001-01-01T00:00:00Z","name_a2s":"Uncletopia | Seattle | 3 | Stopwatch Beta","protocol":17,"map":"workshop/koth_ashville_final.ugc2130459942","folder":"tf","game":"Team Fortress","app_id":440,"player_count":0,"max_players":24,"Bots":0,"server_type":"Dedicated","server_os":"Linux","password":true,"vac":true,"version":"7757534","steam_id":85568392924515217,"keywords":["cp","nocrits","nodmgspread","uncletopia"],"game_id":440,"stv_port":27036,"stv_name":"Uncletopia | Seattle | 3 | Stopwatch Beta | STV","players":null},{"server_id":17,"name":"Uncletopia | San Francisco | 1 | All Maps","name_short":"sfo-1","host":"sfo-1.us.uncletopia.com","port":27015,"enabled":true,"region":"us-west","cc":"us","latitude":37.77397,"longitude":-122.4313,"reserved":0,"last_update":"0001-01-01T00:00:00Z","name_a2s":"Uncletopia | San Francisco | 1 | All Maps","protocol":17,"map":"pl_pier","folder":"tf","game":"Team Fortress","app_id":440,"player_count":24,"max_players":24,"Bots":0,"server_type":"Dedicated","server_os":"Linux","password":true,"vac":true,"version":"7757534","steam_id":85568392924469999,"keywords":["nocrits","nodmgspread","payload","uncletopia"],"game_id":440,"stv_port":27016,"stv_name":"Uncletopia | San Francisco | 1 | All Maps | STV","players":[{"user_id":98,"name":"charm quark","steam_id":76561198098770777,"connected_time":1071000000000,"state":"active","ping":69},{"user_id":97,"name":"VerseG","steam_id":76561198059246919,"connected_time":1333000000000,"state":"active","ping":52},{"user_id":28,"name":"Good Mudkip","steam_id":76561198439784449,"connected_time":5149000000000,"state":"active","ping":69},{"user_id":115,"name":"Shark Sandwich","steam_id":76561198025007938,"connected_time":147000000000,"state":"active","ping":82},{"user_id":108,"name":"Tealim","steam_id":76561198330085713,"connected_time":427000000000,"state":"active","ping":228},{"user_id":14,"name":"Grammaring","steam_id":76561198867366139,"connected_time":5722000000000,"state":"active","ping":69},{"user_id":112,"name":"Jeffy Epstein","steam_id":76561198053832401,"connected_time":368000000000,"state":"active","ping":71},{"user_id":84,"name":"mu","steam_id":76561197997530228,"connected_time":2229000000000,"state":"active","ping":59},{"user_id":106,"name":"jawnymac","steam_id":76561198179529599,"connected_time":444000000000,"state":"active","ping":53},{"user_id":73,"name":"Thiccums","steam_id":76561198291586739,"connected_time":2659000000000,"state":"active","ping":58},{"user_id":110,"name":"Duncle Frazzle","steam_id":76561198145596626,"connected_time":399000000000,"state":"active","ping":52},{"user_id":87,"name":"Bluesleek","steam_id":76561199207607835,"connected_time":1632000000000,"state":"active","ping":65},{"user_id":79,"name":"oxbudy","steam_id":76561198022120207,"connected_time":2542000000000,"state":"active","ping":73},{"user_id":55,"name":"Wacks","steam_id":76561198079476100,"connected_time":4232000000000,"state":"active","ping":45},{"user_id":102,"name":"Gray","steam_id":76561197997214168,"connected_time":729000000000,"state":"active","ping":66},{"user_id":105,"name":"Assassin","steam_id":76561198321410235,"connected_time":598000000000,"state":"active","ping":44},{"user_id":113,"name":"Ghost Cage","steam_id":76561198101172776,"connected_time":304000000000,"state":"active","ping":96},{"user_id":103,"name":"Kaluka","steam_id":76561198036861445,"connected_time":693000000000,"state":"active","ping":106},{"user_id":72,"name":"ray (the based god)","steam_id":76561198311984941,"connected_time":2930000000000,"state":"active","ping":121},{"user_id":114,"name":"touka","steam_id":76561198171521806,"connected_time":241000000000,"state":"active","ping":68},{"user_id":62,"name":"Mr. Snatched Yo Nutsack","steam_id":76561199075873174,"connected_time":3875000000000,"state":"active","ping":119},{"user_id":95,"name":"Arenovas","steam_id":76561198042341811,"connected_time":1456000000000,"state":"active","ping":59},{"user_id":100,"name":"Dapper Bubble","steam_id":76561198094007434,"connected_time":1057000000000,"state":"active","ping":92},{"user_id":107,"name":"Simply_Komeiji","steam_id":76561198354177703,"connected_time":438000000000,"state":"active","ping":93}]},{"server_id":18,"name":"Uncletopia | San Francisco | 2 | All Maps","name_short":"sfo-2","host":"sfo-1.us.uncletopia.com","port":27025,"enabled":true,"region":"us-west","cc":"us","latitude":37.77397,"longitude":-122.4313,"reserved":0,"last_update":"0001-01-01T00:00:00Z","name_a2s":"Uncletopia | San Francisco | 2 | All Maps","protocol":17,"map":"koth_viaduct","folder":"tf","game":"Team Fortress","app_id":440,"player_count":0,"max_players":24,"Bots":0,"server_type":"Dedicated","server_os":"Linux","password":true,"vac":true,"version":"7757534","steam_id":85568392924470000,"keywords":["cp","nocrits","nodmgspread","uncletopia"],"game_id":440,"stv_port":27026,"stv_name":"Uncletopia | San Francisco | 2 | All Maps | STV","players":null},{"server_id":19,"name":"Uncletopia | San Francisco | 3 | Stopwatch Beta","name_short":"sfo-3","host":"sfo-1.us.uncletopia.com","port":27035,"enabled":true,"region":"us-west","cc":"us","latitude":37.77397,"longitude":-122.4313,"reserved":0,"last_update":"0001-01-01T00:00:00Z","name_a2s":"Uncletopia | San Francisco | 3 | Stopwatch Beta","protocol":17,"map":"pl_swiftwater_final1","folder":"tf","game":"Team Fortress","app_id":440,"player_count":0,"max_players":24,"Bots":0,"server_type":"Dedicated","server_os":"Linux","password":true,"vac":true,"version":"7757534","steam_id":85568392924742824,"keywords":["nocrits","nodmgspread","payload","uncletopia"],"game_id":440,"stv_port":27036,"stv_name":"Uncletopia | San Francisco | 3 | Stopwatch Beta | STV","players":null},{"server_id":20,"name":"Uncletopia | San Francisco | 4 | Community","name_short":"sfo-4","host":"sfo-1.us.uncletopia.com","port":27045,"enabled":true,"region":"us-west","cc":"us","latitude":37.77397,"longitude":-122.4313,"reserved":0,"last_update":"0001-01-01T00:00:00Z","name_a2s":"Uncletopia | San Francisco | 4 | Community","protocol":17,"map":"workshop/koth_kemptown_rc1.ugc767410655","folder":"tf","game":"Team Fortress","app_id":440,"player_count":0,"max_players":24,"Bots":0,"server_type":"Dedicated","server_os":"Linux","password":true,"vac":true,"version":"7757534","steam_id":85568392924742826,"keywords":["cp","nocrits","nodmgspread","uncletopia"],"game_id":440,"stv_port":27046,"stv_name":"Uncletopia | San Francisco | 4 | Community | STV","players":null},{"server_id":141,"name":"Uncletopia | Sydney | 1 | All Maps","name_short":"syd-1","host":"syd-1.au.uncletopia.com","port":27015,"enabled":true,"region":"au","cc":"au","latitude":-33.865143,"longitude":151.2099,"reserved":0,"last_update":"0001-01-01T00:00:00Z","name_a2s":"Uncletopia | Sydney | 1 | All Maps","protocol":17,"map":"pl_barnblitz","folder":"tf","game":"Team Fortress","app_id":440,"player_count":0,"max_players":24,"Bots":0,"server_type":"Dedicated","server_os":"Linux","password":true,"vac":true,"version":"7757534","steam_id":85568392924470001,"keywords":["nocrits","nodmgspread","payload","uncletopia"],"game_id":440,"stv_port":27016,"stv_name":"Uncletopia | Sydney | 1 | All Maps | STV","players":null},{"server_id":123,"name":"Uncletopia | Sydney | 2 | All Maps","name_short":"syd-2","host":"syd-1.au.uncletopia.com","port":27025,"enabled":true,"region":"au","cc":"au","latitude":-33.865143,"longitude":151.2099,"reserved":0,"last_update":"0001-01-01T00:00:00Z","name_a2s":"Uncletopia | Sydney | 2 | All Maps","protocol":17,"map":"cp_snakewater_final1","folder":"tf","game":"Team Fortress","app_id":440,"player_count":0,"max_players":24,"Bots":0,"server_type":"Dedicated","server_os":"Linux","password":true,"vac":true,"version":"7757534","steam_id":85568392924470002,"keywords":["cp","nocrits","nodmgspread","uncletopia"],"game_id":440,"stv_port":27026,"stv_name":"Uncletopia | Sydney | 2 | All Maps | STV","players":null},{"server_id":395,"name":"Uncletopia | Sydney | 3 | All Maps","name_short":"syd-3","host":"syd-1.au.uncletopia.com","port":27035,"enabled":true,"region":"au","cc":"au","latitude":-33.865143,"longitude":151.2099,"reserved":0,"last_update":"0001-01-01T00:00:00Z","name_a2s":"Uncletopia | Sydney | 3 | All Maps","protocol":17,"map":"pl_borneo","folder":"tf","game":"Team Fortress","app_id":440,"player_count":0,"max_players":24,"Bots":0,"server_type":"Dedicated","server_os":"Linux","password":true,"vac":true,"version":"7757534","steam_id":85568392925194467,"keywords":["nocrits","nodmgspread","payload","uncletopia"],"game_id":440,"stv_port":27036,"stv_name":"Uncletopia | Sydney | 3 | All Maps | STV","players":null},{"server_id":396,"name":"Uncletopia | Sydney | 4 | All Maps","name_short":"syd-4","host":"syd-1.au.uncletopia.com","port":27045,"enabled":true,"region":"au","cc":"au","latitude":-33.865143,"longitude":151.2099,"reserved":0,"last_update":"0001-01-01T00:00:00Z","name_a2s":"Uncletopia | Sydney | 4 | All Maps","protocol":17,"map":"cp_process_final","folder":"tf","game":"Team Fortress","app_id":440,"player_count":0,"max_players":24,"Bots":0,"server_type":"Dedicated","server_os":"Linux","password":true,"vac":true,"version":"7757534","steam_id":85568392925397958,"keywords":["cp","nocrits","nodmgspread","uncletopia"],"game_id":440,"stv_port":27046,"stv_name":"Uncletopia | Sydney | 4 | All Maps | STV","players":null},{"server_id":58,"name":"Uncletopia | Sydney | 5 | Stopwatch Beta","name_short":"syd-5","host":"syd-1.au.uncletopia.com","port":27055,"enabled":true,"region":"au","cc":"au","latitude":-33.865143,"longitude":151.2099,"reserved":0,"last_update":"0001-01-01T00:00:00Z","name_a2s":"Uncletopia | Sydney | 5 | Stopwatch Beta","protocol":17,"map":"koth_cascade","folder":"tf","game":"Team Fortress","app_id":440,"player_count":0,"max_players":24,"Bots":0,"server_type":"Dedicated","server_os":"Linux","password":true,"vac":true,"version":"7757534","steam_id":85568392925397959,"keywords":["cp","nocrits","nodmgspread","uncletopia"],"game_id":440,"stv_port":27056,"stv_name":"Uncletopia | Sydney | 5 | Stopwatch Beta | STV","players":null},{"server_id":59,"name":"Uncletopia | Sydney | 6 | Community","name_short":"syd-6","host":"syd-1.au.uncletopia.com","port":27065,"enabled":true,"region":"au","cc":"au","latitude":-33.865143,"longitude":151.2099,"reserved":0,"last_update":"0001-01-01T00:00:00Z","name_a2s":"Uncletopia | Sydney | 6 | Community","protocol":17,"map":"pl_badwater","folder":"tf","game":"Team Fortress","app_id":440,"player_count":0,"max_players":24,"Bots":0,"server_type":"Dedicated","server_os":"Linux","password":true,"vac":true,"version":"7757534","steam_id":85568392925397960,"keywords":["nocrits","nodmgspread","payload","uncletopia"],"game_id":440,"stv_port":27066,"stv_name":"Uncletopia | Sydney | 6 | Community | STV","players":null},{"server_id":49,"name":"Uncletopia | Warsaw | 1 | All Maps","name_short":"waw-1","host":"waw-1.pl.uncletopia.com","port":27015,"enabled":true,"region":"eu","cc":"pl","latitude":52.2297,"longitude":21.017532,"reserved":0,"last_update":"0001-01-01T00:00:00Z","name_a2s":"","protocol":0,"map":"","folder":"","game":"","app_id":0,"player_count":0,"max_players":0,"Bots":0,"server_type":"","server_os":"","password":false,"vac":false,"version":"","steam_id":0,"keywords":null,"game_id":0,"stv_port":0,"stv_name":"","players":null},{"server_id":50,"name":"Uncletopia | Warsaw | 2 | All Maps","name_short":"waw-2","host":"waw-1.pl.uncletopia.com","port":27025,"enabled":true,"region":"eu","cc":"pl","latitude":52.2297,"longitude":21.017532,"reserved":0,"last_update":"0001-01-01T00:00:00Z","name_a2s":"Uncletopia | Warsaw | 2 | All Maps","protocol":17,"map":"pl_borneo","folder":"tf","game":"Team Fortress","app_id":440,"player_count":0,"max_players":24,"Bots":0,"server_type":"Dedicated","server_os":"Linux","password":true,"vac":true,"version":"7757534","steam_id":85568392925397851,"keywords":["nocrits","nodmgspread","payload","uncletopia"],"game_id":440,"stv_port":27026,"stv_name":"Uncletopia | Warsaw | 2 | All Maps | STV","players":null},{"server_id":51,"name":"Uncletopia | Warsaw | 3 | All Maps","name_short":"waw-3","host":"waw-1.pl.uncletopia.com","port":27035,"enabled":true,"region":"eu","cc":"pl","latitude":52.2297,"longitude":21.017532,"reserved":0,"last_update":"0001-01-01T00:00:00Z","name_a2s":"Uncletopia | Warsaw | 3 | All Maps","protocol":17,"map":"pl_barnblitz","folder":"tf","game":"Team Fortress","app_id":440,"player_count":0,"max_players":24,"Bots":0,"server_type":"Dedicated","server_os":"Linux","password":true,"vac":true,"version":"7757534","steam_id":85568392925397852,"keywords":["nocrits","nodmgspread","payload","uncletopia"],"game_id":440,"stv_port":27036,"stv_name":"Uncletopia | Warsaw | 3 | All Maps | STV","players":null},{"server_id":52,"name":"Uncletopia | Warsaw | 4 | All Maps","name_short":"waw-4","host":"waw-1.pl.uncletopia.com","port":27045,"enabled":true,"region":"eu","cc":"pl","latitude":52.2297,"longitude":21.017532,"reserved":0,"last_update":"0001-01-01T00:00:00Z","name_a2s":"Uncletopia | Warsaw | 4 | All Maps","protocol":17,"map":"pl_swiftwater_final1","folder":"tf","game":"Team Fortress","app_id":440,"player_count":0,"max_players":24,"Bots":0,"server_type":"Dedicated","server_os":"Linux","password":true,"vac":true,"version":"7757534","steam_id":85568392925397853,"keywords":["nocrits","nodmgspread","payload","uncletopia"],"game_id":440,"stv_port":27046,"stv_name":"Uncletopia | Warsaw | 4 | All Maps | STV","players":null},{"server_id":53,"name":"Uncletopia | Warsaw | 5 | Stopwatch Beta","name_short":"waw-5","host":"waw-1.pl.uncletopia.com","port":27055,"enabled":true,"region":"eu","cc":"pl","latitude":52.2297,"longitude":21.017532,"reserved":0,"last_update":"0001-01-01T00:00:00Z","name_a2s":"Uncletopia | Warsaw | 5 | Stopwatch Beta","protocol":17,"map":"pl_pier","folder":"tf","game":"Team Fortress","app_id":440,"player_count":0,"max_players":24,"Bots":0,"server_type":"Dedicated","server_os":"Linux","password":true,"vac":true,"version":"7757534","steam_id":85568392925397854,"keywords":["nocrits","nodmgspread","payload","uncletopia"],"game_id":440,"stv_port":27056,"stv_name":"Uncletopia | Warsaw | 5 | Stopwatch Beta | STV","players":null},{"server_id":54,"name":"Uncletopia | Warsaw | 6 | Community","name_short":"waw-6","host":"waw-1.pl.uncletopia.com","port":27065,"enabled":true,"region":"eu","cc":"pl","latitude":52.2297,"longitude":21.017532,"reserved":0,"last_update":"0001-01-01T00:00:00Z","name_a2s":"Uncletopia | Warsaw | 6 | Community","protocol":17,"map":"koth_highpass","folder":"tf","game":"Team Fortress","app_id":440,"player_count":0,"max_players":24,"Bots":0,"server_type":"Dedicated","server_os":"Linux","password":true,"vac":true,"version":"7757534","steam_id":85568392925397856,"keywords":["cp","nocrits","nodmgspread","uncletopia"],"game_id":440,"stv_port":27066,"stv_name":"Uncletopia | Warsaw | 6 | Community | STV","players":null}]}