{"status":true,"message":"","result":[{"server_id":9,"name":"Uncletopia | Atlanta | 1 | All Maps","name_short":"atl-1","host":"atl-1.us.uncletopia.com","port":27015,"enabled":true,"region":"us-east","cc":"us","latitude":33.753746,"longitude":-84.38633,"reserved":0,"last_update":"0001-01-01T00:00:00Z","name_a2s":"Uncletopia | Atlanta | 1 | All Maps","protocol":17,"map":"pl_badwater","folder":"tf","game":"Team Fortress","app_id":440,"player_count":24,"max_players":24,"Bots":0,"server_type":"Dedicated","server_os":"Linux","password":true,"vac":true,"version":"7882260","steam_id":85568392924469982,"keywords":["nocrits","nodmgspread","payload","uncletopia"],"game_id":440,"stv_port":27016,"stv_name":"Uncletopia | Atlanta | 1 | All Maps | STV","players":[{"user_id":68,"name":"HarryjusttHarry","steam_id":76561198982810452,"connected_time":2013000000000,"state":"active","ping":77},{"user_id":22,"name":"LUKS.tar.gz","steam_id":76561199178556785,"connected_time":3932000000000,"state":"active","ping":101},{"user_id":89,"name":"Jazz hates Jazz","steam_id":76561199053475022,"connected_time":362000000000,"state":"active","ping":103},{"user_id":93,"name":"Clay","steam_id":76561198361692175,"connected_time":159000000000,"state":"active","ping":59},{"user_id":92,"name":"[SNS] Guest3444306 2","steam_id":76561198123354179,"connected_time":165000000000,"state":"active","ping":69},{"user_id":70,"name":"computer club","steam_id":76561198057076267,"connected_time":1954000000000,"state":"active","ping":70},{"user_id":78,"name":"BowTiedKzat","steam_id":76561198801079082,"connected_time":1254000000000,"state":"active","ping":74},{"user_id":33,"name":"ATL1 | on my hunting trip","steam_id":76561198315341646,"connected_time":2745000000000,"state":"active","ping":71},{"user_id":34,"name":"Dr. Professor PJ, Ph.D","steam_id":76561198004429398,"connected_time":2709000000000,"state":"active","ping":39},{"user_id":71,"name":"DJPEANUTBUTTER","steam_id":76561198043862737,"connected_time":1920000000000,"state":"active","ping":49},{"user_id":37,"name":"Religiously healing","steam_id":76561198843961343,"connected_time":2673000000000,"state":"active","ping":57},{"user_id":38,"name":"N0T@TR@P","steam_id":76561198323432636,"connected_time":2623000000000,"state":"active","ping":90},{"user_id":40,"name":"Soupcan","steam_id":76561198012807915,"connected_time":2571000000000,"state":"active","ping":89},{"user_id":87,"name":"The 64th Gamer","steam_id":76561198191188271,"connected_time":613000000000,"state":"active","ping":66},{"user_id":61,"name":"Tejo","steam_id":76561198200617911,"connected_time":2159000000000,"state":"active","ping":75},{"user_id":76,"name":"local shower shitter","steam_id":76561198140627349,"connected_time":1411000000000,"state":"active","ping":76},{"user_id":94,"name":"tacobell","steam_id":76561198987985933,"connected_time":146000000000,"state":"active","ping":77},{"user_id":82,"name":"Mr.Kevin120","steam_id":76561199186919096,"connected_time":1100000000000,"state":"active","ping":100},{"user_id":83,"name":"You Don't Nomi.","steam_id":76561197969137836,"connected_time":1079000000000,"state":"active","ping":67},{"user_id":59,"name":"Echo21","steam_id":76561199105713105,"connected_time":2197000000000,"state":"active","ping":103},{"user_id":75,"name":"FancyBones","steam_id":76561198180198885,"connected_time":1626000000000,"state":"active","ping":65},{"user_id":50,"name":"tesagi","steam_id":76561198026664629,"connected_time":2362000000000,"state":"active","ping":60},{"user_id":88,"name":"Scorch","steam_id":76561198167024005,"connected_time":493000000000,"state":"active","ping":55},{"user_id":73,"name":"Apricot","steam_id":76561198355699935,"connected_time":1737000000000,"state":"active","ping":83}]},{"server_id":104,"name":"Uncletopia | Atlanta | 2 | All Maps","name_short":"atl-2","host":"atl-1.us.uncletopia.com","port":27025,"enabled":true,"region":"us-east","cc":"us","latitude":33.753746,"longitude":-84.38633,"reserved":0,"last_update":"0001-01-01T00:00:00Z","name_a2s":"Uncletopia | Atlanta | 2 | All Maps","protocol":17,"map":"koth_viaduct","folder":"tf","game":"Team Fortress","app_id":440,"player_count":0,"max_players":24,"Bots":0,"server_type":"Dedicated","server_os":"Linux","password":true,"vac":true,"version":"7882260","steam_id":85568392924469983,"keywords":["cp","nocrits","nodmgspread","uncletopia"],"game_id":440,"stv_port":27026,"stv_name":"Uncletopia | Atlanta | 2 | All Maps | STV","players":null},{"server_id":400,"name":"Uncletopia | Atlanta | 3 | Community","name_short":"atl-3","host":"atl-1.us.uncletopia.com","port":27035,"enabled":true,"region":"us-east","cc":"us","latitude":33.753746,"longitude":-84.38633,"reserved":0,"last_update":"0001-01-01T00:00:00Z","name_a2s":"Uncletopia | Atlanta | 3 | Community","protocol":17,"map":"workshop/pl_fifthcurve_rc1.ugc648227046","folder":"tf","game":"Team Fortress","app_id":440,"player_count":0,"max_players":24,"Bots":0,"server_type":"Dedicated","server_os":"Linux","password":true,"vac":true,"version":"7882260","steam_id":85568392924515187,"keywords":["nocrits","nodmgspread","payload","uncletopia"],"game_id":440,"stv_port":27036,"stv_name":"Uncletopia | Atlanta | 3 | Community | STV","players":null},{"server_id":401,"name":"Uncletopia | Atlanta | 4 | No Payload","name_short":"atl-4","host":"atl-1.us.uncletopia.com","port":27045,"enabled":true,"region":"us-east","cc":"us","latitude":33.753746,"longitude":-84.38633,"reserved":0,"last_update":"0001-01-01T00:00:00Z","name_a2s":"","protocol":0,"map":"","folder":"","game":"","app_id":0,"player_count":0,"max_players":0,"Bots":0,"server_type":"","server_os":"","password":false,"vac":false,"version":"","steam_id":0,"keywords":null,"game_id":0,"stv_port":0,"stv_name":"","players":null},{"server_id":2,"name":"Uncletopia | Chicago | 1 | All Maps","name_short":"chi-1","host":"chi-1.us.uncletopia.com","port":27015,"enabled":true,"region":"us-central","cc":"us","latitude":41.881832,"longitude":-87.62318,"reserved":0,"last_update":"0001-01-01T00:00:00Z","name_a2s":"Uncletopia | Chicago | 1 | All Maps","protocol":17,"map":"pl_pier","folder":"tf","game":"Team Fortress","app_id":440,"player_count":24,"max_players":24,"Bots":0,"server_type":"Dedicated","server_os":"Linux","password":true,"vac":true,"version":"7882260","steam_id":85568392924469984,"keywords":["nocrits","nodmgspread","payload","uncletopia"],"game_id":440,"stv_port":27016,"stv_name":"Uncletopia | Chicago | 1 | All Maps | STV","players":[{"user_id":174,"name":"SumrandomS","steam_id":76561199208168857,"connected_time":981000000000,"state":"active","ping":108},{"user_id":149,"name":"Tommy Pickles (Very Cool)","steam_id":76561198391261463,"connected_time":3023000000000,"state":"active","ping":75},{"user_id":170,"name":"asbestos","steam_id":76561198079178866,"connected_time":1508000000000,"state":"active","ping":68},{"user_id":153,"name":"kibble","steam_id":76561198077083011,"connected_time":1927000000000,"state":"active","ping":75},{"user_id":168,"name":"peeni koala","steam_id":76561198811554257,"connected_time":1606000000000,"state":"active","ping":55},{"user_id":182,"name":"Soull","steam_id":76561199188088471,"connected_time":194000000000,"state":"active","ping":70},{"user_id":181,"name":"Yam Jazzy Jim","steam_id":76561198000788950,"connected_time":200000000000,"state":"active","ping":60},{"user_id":145,"name":"Hadvar","steam_id":76561198081681234,"connected_time":3504000000000,"state":"active","ping":61},{"user_id":183,"name":"lukethepumpkin","steam_id":76561198204158335,"connected_time":139000000000,"state":"active","ping":74},{"user_id":184,"name":"sunny","steam_id":76561198069380992,"connected_time":129000000000,"state":"active","ping":77},{"user_id":177,"name":"DoubleX2000","steam_id":76561198164134387,"connected_time":549000000000,"state":"active","ping":113},{"user_id":124,"name":"Bleebi","steam_id":76561197971264259,"connected_time":5511000000000,"state":"active","ping":55},{"user_id":159,"name":"TJGSASQUATCH","steam_id":76561198077806921,"connected_time":1818000000000,"state":"active","ping":78},{"user_id":166,"name":"Madeline the Mad","steam_id":76561198153456869,"connected_time":1713000000000,"state":"active","ping":68},{"user_id":188,"name":"Drachma","steam_id":76561198007310514,"connected_time":2000000000,"state":"spawning","ping":57},{"user_id":162,"name":"rat eater","steam_id":76561199216874750,"connected_time":1738000000000,"state":"active","ping":60},{"user_id":148,"name":"mothra","steam_id":76561198028444359,"connected_time":3039000000000,"state":"active","ping":150},{"user_id":169,"name":"superwarm07","steam_id":76561199196313157,"connected_time":1599000000000,"state":"active","ping":85},{"user_id":175,"name":"roto","steam_id":76561198138735860,"connected_time":841000000000,"state":"active","ping":71},{"user_id":155,"name":"capybara(happy womens month)","steam_id":76561198798828328,"connected_time":1923000000000,"state":"active","ping":54},{"user_id":187,"name":"Jitters","steam_id":76561198078898336,"connected_time":34000000000,"state":"active","ping":55},{"user_id":178,"name":"Owl Pacino","steam_id":76561197979970666,"connected_time":419000000000,"state":"active","ping":57},{"user_id":186,"name":"Player0x01","steam_id":76561197979240996,"connected_time":91000000000,"state":"active","ping":118}]},{"server_id":106,"name":"Uncletopia | Chicago | 2 | All Maps","name_short":"chi-2","host":"chi-1.us.uncletopia.com","port":27025,"enabled":true,"region":"us-central","cc":"us","latitude":41.881832,"longitude":-87.62318,"reserved":0,"last_update":"0001-01-01T00:00:00Z","name_a2s":"Uncletopia | Chicago | 2 | All Maps","protocol":17,"map":"pl_upward","folder":"tf","game":"Team Fortress","app_id":440,"player_count":24,"max_players":24,"Bots":0,"server_type":"Dedicated","server_os":"Linux","password":true,"vac":true,"version":"7882260","steam_id":85568392924469985,"keywords":["nocrits","nodmgspread","payload","uncletopia"],"game_id":440,"stv_port":27026,"stv_name":"Uncletopia | Chicago | 2 | All Maps | STV","players":[{"user_id":43,"name":"WANNA SPOON TONIGHT?","steam_id":76561199039152146,"connected_time":535000000000,"state":"active","ping":61},{"user_id":44,"name":"bunceian","steam_id":76561198975662918,"connected_time":529000000000,"state":"active","ping":133},{"user_id":9,"name":"GamingGeneral","steam_id":76561198872339275,"connected_time":2421000000000,"state":"active","ping":70},{"user_id":10,"name":"Nathan","steam_id":76561199132214008,"connected_time":2257000000000,"state":"active","ping":94},{"user_id":14,"name":"Cruisin'","steam_id":76561199245457119,"connected_time":1703000000000,"state":"active","ping":73},{"user_id":15,"name":"KyonHB","steam_id":76561198050311904,"connected_time":1473000000000,"state":"active","ping":84},{"user_id":16,"name":"pigfarmer.gov","steam_id":76561199071167548,"connected_time":1461000000000,"state":"active","ping":67},{"user_id":17,"name":"Disco Fever","steam_id":76561198069532215,"connected_time":1446000000000,"state":"active","ping":73},{"user_id":18,"name":"Fly_Johnson","steam_id":76561198882285873,"connected_time":1438000000000,"state":"active","ping":61},{"user_id":35,"name":"endo","steam_id":76561197995204381,"connected_time":845000000000,"state":"active","ping":95},{"user_id":22,"name":"reisen fumo","steam_id":76561198243487026,"connected_time":1392000000000,"state":"active","ping":102},{"user_id":21,"name":"beans","steam_id":76561199082781884,"connected_time":1406000000000,"state":"active","ping":90},{"user_id":47,"name":"ryder","steam_id":76561199230391346,"connected_time":259000000000,"state":"active","ping":60},{"user_id":25,"name":"Waaagh!","steam_id":76561197995317887,"connected_time":1105000000000,"state":"active","ping":64},{"user_id":45,"name":"Cosmic Torgue","steam_id":76561198828724945,"connected_time":527000000000,"state":"active","ping":84},{"user_id":42,"name":"Spiderfight1","steam_id":76561199189991528,"connected_time":756000000000,"state":"active","ping":110},{"user_id":46,"name":"Yup","steam_id":76561198847690613,"connected_time":471000000000,"state":"active","ping":71},{"user_id":48,"name":"figs.","steam_id":76561198236673172,"connected_time":1000000000,"state":"connecting","ping":0},{"user_id":31,"name":"Dr. Anonymous","steam_id":76561198061654197,"connected_time":906000000000,"state":"active","ping":78},{"user_id":33,"name":"anonion","steam_id":76561198056477584,"connected_time":859000000000,"state":"active","ping":85},{"user_id":34,"name":"AddamsFamilyReject","steam_id":76561198035046824,"connected_time":859000000000,"state":"active","ping":170},{"user_id":38,"name":"b4rry","steam_id":76561198365887154,"connected_time":804000000000,"state":"active","ping":70},{"user_id":39,"name":"Tuvok Shakur","steam_id":76561198018875334,"connected_time":795000000000,"state":"active","ping":91},{"user_id":40,"name":"Rick Astley Is A F2P?","steam_id":76561199258805660,"connected_time":787000000000,"state":"active","ping":62}]},{"server_id":402,"name":"Uncletopia | Chicago | 3 | All Maps","name_short":"chi-3","host":"chi-1.us.uncletopia.com","port":27035,"enabled":true,"region":"us-central","cc":"us","latitude":41.881832,"longitude":-87.62318,"reserved":0,"last_update":"0001-01-01T00:00:00Z","name_a2s":"Uncletopia | Chicago | 3 | All Maps","protocol":17,"map":"pl_badwater","folder":"tf","game":"Team Fortress","app_id":440,"player_count":24,"max_players":24,"Bots":0,"server_type":"Dedicated","server_os":"Linux","password":true,"vac":true,"version":"7882260","steam_id":85568392924515191,"keywords":["nocrits","nodmgspread","payload","uncletopia"],"game_id":440,"stv_port":27036,"stv_name":"Uncletopia | Chicago | 3 | All Maps | STV","players":[{"user_id":118,"name":"Prsm","steam_id":76561198053344995,"connected_time":1699000000000,"state":"active","ping":53},{"user_id":112,"name":"blitzkriiegi","steam_id":76561198200944766,"connected_time":2159000000000,"state":"active","ping":45},{"user_id":121,"name":"Ark","steam_id":76561198053000340,"connected_time":1240000000000,"state":"active","ping":60},{"user_id":104,"name":"TF2C | fac -AA-","steam_id":76561198009818412,"connected_time":2815000000000,"state":"active","ping":63},{"user_id":123,"name":"*‚ÄßÀökitsu  ö‚ô•…û","steam_id":76561198091741658,"connected_time":951000000000,"state":"active","ping":64},{"user_id":134,"name":"basket","steam_id":76561199486768009,"connected_time":16000000000,"state":"active","ping":91},{"user_id":129,"name":"coms","steam_id":76561198359456881,"connected_time":312000000000,"state":"active","ping":60},{"user_id":130,"name":"Mehman","steam_id":76561199020244051,"connected_time":250000000000,"state":"active","ping":96},{"user_id":119,"name":"JetZ","steam_id":76561199122488957,"connected_time":1629000000000,"state":"active","ping":69},{"user_id":131,"name":"i should go","steam_id":76561198194614289,"connected_time":199000000000,"state":"active","ping":61},{"user_id":127,"name":"{FITH}‚Ñ¢ SmittyWun {FM}","steam_id":76561198079531938,"connected_time":335000000000,"state":"active","ping":69},{"user_id":124,"name":"saturn #TF2C","steam_id":76561198348918232,"connected_time":951000000000,"state":"active","ping":55},{"user_id":88,"name":"Hoob.egfug","steam_id":76561197980557818,"connected_time":4657000000000,"state":"active","ping":72},{"user_id":117,"name":"Zanartan","steam_id":76561198050528902,"connected_time":1816000000000,"state":"active","ping":183},{"user_id":128,"name":"rept","steam_id":76561198022100969,"connected_time":327000000000,"state":"active","ping":52},{"user_id":70,"name":"IlTrashPanda","steam_id":76561198447864095,"connected_time":5970000000000,"state":"active","ping":88},{"user_id":132,"name":"judoxavionjohnson","steam_id":76561199196549547,"connected_time":169000000000,"state":"active","ping":108},{"user_id":79,"name":"Thy Stupid Rat","steam_id":76561198272075712,"connected_time":5316000000000,"state":"active","ping":71},{"user_id":105,"name":"MellowBoy-2354","steam_id":76561199080630632,"connected_time":2672000000000,"state":"active","ping":98},{"user_id":116,"name":"Fiendish Frog","steam_id":76561198029478821,"connected_time":1956000000000,"state":"active","ping":72},{"user_id":133,"name":"Poop_toast","steam_id":76561199251933053,"connected_time":101000000000,"state":"active","ping":162},{"user_id":126,"name":"the","steam_id":76561198003226288,"connected_time":389000000000,"state":"active","ping":60},{"user_id":125,"name":"ole_diggy","steam_id":76561198970212746,"connected_time":790000000000,"state":"active","ping":68},{"user_id":78,"name":"Peppino","steam_id":76561198189176634,"connected_time":5472000000000,"state":"active","ping":83}]},{"server_id":403,"name":"Uncletopia | Chicago | 4 | All Maps","name_short":"chi-4","host":"chi-1.us.uncletopia.com","port":27045,"enabled":true,"region":"us-central","cc":"us","latitude":41.881832,"longitude":-87.62318,"reserved":0,"last_update":"0001-01-01T00:00:00Z","name_a2s":"Uncletopia | Chicago | 4 | All Maps","protocol":17,"map":"koth_lakeside_final","folder":"tf","game":"Team Fortress","app_id":440,"player_count":0,"max_players":24,"Bots":0,"server_type":"Dedicated","server_os":"Linux","password":true,"vac":true,"version":"7882260","steam_id":85568392924515193,"keywords":["cp","nocrits","nodmgspread","uncletopia"],"game_id":440,"stv_port":27046,"stv_name":"Uncletopia | Chicago | 4 | All Maps | STV","players":null},{"server_id":36,"name":"Uncletopia | Chicago | 5 | All Maps","name_short":"chi-5","host":"chi-2.us.uncletopia.com","port":27015,"enabled":true,"region":"us-central","cc":"us","latitude":41.881832,"longitude":-87.62318,"reserved":0,"last_update":"0001-01-01T00:00:00Z","name_a2s":"Uncletopia | Chicago | 5 | All Maps","protocol":17,"map":"cp_dustbowl","folder":"tf","game":"Team Fortress","app_id":440,"player_count":0,"max_players":24,"Bots":0,"server_type":"Dedicated","server_os":"Linux","password":true,"vac":true,"version":"7882260","steam_id":85568392924866362,"keywords":["cp","nocrits","nodmgspread","uncletopia"],"game_id":440,"stv_port":27016,"stv_name":"Uncletopia | Chicago | 5 | All Maps | STV","players":null},{"server_id":37,"name":"Uncletopia | Chicago | 6 | All Maps","name_short":"chi-6","host":"chi-2.us.uncletopia.com","port":27025,"enabled":true,"region":"us-central","cc":"us","latitude":41.881832,"longitude":-87.62318,"reserved":0,"last_update":"0001-01-01T00:00:00Z","name_a2s":"Uncletopia | Chicago | 6 | All Maps","protocol":17,"map":"pl_snowycoast","folder":"tf","game":"Team Fortress","app_id":440,"player_count":0,"max_players":24,"Bots":0,"server_type":"Dedicated","server_os":"Linux","password":true,"vac":true,"version":"7882260","steam_id":85568392924866363,"keywords":["nocrits","nodmgspread","payload","uncletopia"],"game_id":440,"stv_port":27026,"stv_name":"Uncletopia | Chicago | 6 | All Maps | STV","players":null},{"server_id":38,"name":"Uncletopia | Chicago | 7 | Stopwatch Beta","name_short":"chi-7","host":"chi-2.us.uncletopia.com","port":27035,"enabled":true,"region":"us-central","cc":"us","latitude":41.881832,"longitude":-87.62318,"reserved":0,"last_update":"0001-01-01T00:00:00Z","name_a2s":"Uncletopia | Chicago | 7 | Stopwatch Beta","protocol":17,"map":"pl_upward","folder":"tf","game":"Team Fortress","app_id":440,"player_count":0,"max_players":24,"Bots":0,"server_type":"Dedicated","server_os":"Linux","password":true,"vac":true,"version":"7882260","steam_id":85568392924866364,"keywords":["nocrits","nodmgspread","payload","uncletopia"],"game_id":440,"stv_port":27036,"stv_name":"Uncletopia | Chicago | 7 | Stopwatch Beta | STV","players":null},{"server_id":39,"name":"Uncletopia | Chicago | 8 | Community","name_short":"chi-8","host":"chi-2.us.uncletopia.com","port":27045,"enabled":true,"region":"us-central","cc":"us","latitude":41.881832,"longitude":-87.62318,"reserved":0,"last_update":"0001-01-01T00:00:00Z","name_a2s":"Uncletopia | Chicago | 8 | Community","protocol":17,"map":"pl_badwater","folder":"tf","game":"Team Fortress","app_id":440,"player_count":0,"max_players":24,"Bots":0,"server_type":"Dedicated","server_os":"Linux","password":true,"vac":true,"version":"7882260","steam_id":85568392924866365,"keywords":["nocrits","nodmgspread","payload","uncletopia"],"game_id":440,"stv_port":27046,"stv_name":"Uncletopia | Chicago | 8 | Community | STV","players":null},{"server_id":8,"name":"Uncletopia | Dallas | 1 | All Maps","name_short":"dal-1","host":"dal-1.us.uncletopia.com","port":27015,"enabled":true,"region":"us-central","cc":"us","latitude":32.779167,"longitude":-96.80889,"reserved":0,"last_update":"0001-01-01T00:00:00Z","name_a2s":"Uncletopia | Dallas | 1 | All Maps","protocol":17,"map":"ctf_sawmill","folder":"tf","game":"Team Fortress","app_id":440,"player_count":24,"max_players":24,"Bots":0,"server_type":"Dedicated","server_os":"Linux","password":true,"vac":true,"version":"7882260","steam_id":85568392924469986,"keywords":["ctf","nocrits","nodmgspread","uncletopia"],"game_id":440,"stv_port":27016,"stv_name":"Uncletopia | Dallas | 1 | All Maps | STV","players":[{"user_id":70,"name":"Stolas Enjoyer","steam_id":76561198835430280,"connected_time":830000000000,"state":"active","ping":50},{"user_id":10,"name":"_Lusty_","steam_id":76561198876948142,"connected_time":5131000000000,"state":"active","ping":61},{"user_id":35,"name":"bean goblin #savetf2","steam_id":76561199185148234,"connected_time":3542000000000,"state":"active","ping":132},{"user_id":81,"name":"FreonAddict9x19","steam_id":76561198060010824,"connected_time":345000000000,"state":"active","ping":92},{"user_id":88,"name":"Chimpanzee","steam_id":76561198850387282,"connected_time":6000000000,"state":"spawning","ping":59},{"user_id":51,"name":"222","steam_id":76561198010637797,"connected_time":2672000000000,"state":"active","ping":60},{"user_id":67,"name":"2spooky","steam_id":76561198094747637,"connected_time":972000000000,"state":"active","ping":101},{"user_id":66,"name":"FanaticSalt","steam_id":76561199380123059,"connected_time":1065000000000,"state":"active","ping":40},{"user_id":79,"name":"The Sydney Sleeper Itself","steam_id":76561198180251763,"connected_time":456000000000,"state":"active","ping":55},{"user_id":19,"name":"Biggest Iron","steam_id":76561199072443102,"connected_time":3936000000000,"state":"active","ping":69},{"user_id":76,"name":"Big Ears","steam_id":76561198851363077,"connected_time":623000000000,"state":"active","ping":62},{"user_id":54,"name":"mkl","steam_id":76561197986401685,"connected_time":2420000000000,"state":"active","ping":59},{"user_id":82,"name":"Minlit","steam_id":76561198205832799,"connected_time":265000000000,"state":"active","ping":58},{"user_id":73,"name":"firstlastmcgee","steam_id":76561198170187989,"connected_time":731000000000,"state":"active","ping":44},{"user_id":80,"name":"Cheese_Miser_","steam_id":76561198240011418,"connected_time":452000000000,"state":"active","ping":73},{"user_id":83,"name":"Plow cheese","steam_id":76561198142478067,"connected_time":252000000000,"state":"active","ping":180},{"user_id":65,"name":"Sunny","steam_id":76561198125892600,"connected_time":1394000000000,"state":"active","ping":60},{"user_id":48,"name":"skunk","steam_id":76561198080301085,"connected_time":2797000000000,"state":"active","ping":73},{"user_id":87,"name":"Alpha","steam_id":76561198133229149,"connected_time":88000000000,"state":"active","ping":186},{"user_id":30,"name":"Danger Daniel","steam_id":76561199085838474,"connected_time":3669000000000,"state":"active","ping":93},{"user_id":49,"name":"Pinetree w/ apples.","steam_id":76561198105411709,"connected_time":2764000000000,"state":"active","ping":106},{"user_id":84,"name":"cmjgamingOHHH YEA","steam_id":76561199124037552,"connected_time":252000000000,"state":"active","ping":70},{"user_id":85,"name":"Anor","steam_id":76561198356139775,"connected_time":193000000000,"state":"active","ping":71},{"user_id":53,"name":"BENIS  BOI","steam_id":76561198813112341,"connected_time":2454000000000,"state":"active","ping":49}]},{"server_id":108,"name":"Uncletopia | Dallas | 2 | All Maps","name_short":"dal-2","host":"dal-1.us.uncletopia.com","port":27025,"enabled":true,"region":"us-central","cc":"us","latitude":32.779167,"longitude":-96.80889,"reserved":0,"last_update":"0001-01-01T00:00:00Z","name_a2s":"Uncletopia | Dallas | 2 | All Maps","protocol":17,"map":"pl_pier","folder":"tf","game":"Team Fortress","app_id":440,"player_count":1,"max_players":24,"Bots":0,"server_type":"Dedicated","server_os":"Linux","password":true,"vac":true,"version":"7882260","steam_id":85568392924469988,"keywords":["nocrits","nodmgspread","payload","uncletopia"],"game_id":440,"stv_port":27026,"stv_name":"Uncletopia | Dallas | 2 | All Maps | STV","players":[{"user_id":4,"name":"V!CT!M","steam_id":76561198962721502,"connected_time":53000000000,"state":"active","ping":84}]},{"server_id":5,"name":"Uncletopia | Frankfurt | 1 | All Maps","name_short":"frk-1","host":"frk-1.de.uncletopia.com","port":27015,"enabled":true,"region":"eu","cc":"de","latitude":50.110924,"longitude":8.682127,"reserved":0,"last_update":"0001-01-01T00:00:00Z","name_a2s":"Uncletopia | Frankfurt | 1 | All Maps","protocol":17,"map":"pl_upward","folder":"tf","game":"Team Fortress","app_id":440,"player_count":25,"max_players":24,"Bots":0,"server_type":"Dedicated","server_os":"Linux","password":true,"vac":true,"version":"7882260","steam_id":85568392924469989,"keywords":["nocrits","nodmgspread","payload","uncletopia"],"game_id":440,"stv_port":27016,"stv_name":"Uncletopia | Frankfurt | 1 | All Maps | STV","players":[{"user_id":393,"name":"Coconut James","steam_id":76561198081770619,"connected_time":1454000000000,"state":"active","ping":104},{"user_id":417,"name":"theodorc68","steam_id":76561199250592158,"connected_time":362000000000,"state":"active","ping":66},{"user_id":407,"name":"Smaug [Ger]","steam_id":76561198853461583,"connected_time":590000000000,"state":"active","ping":68},{"user_id":408,"name":"Lubi Animal","steam_id":76561199041620433,"connected_time":578000000000,"state":"active","ping":49},{"user_id":401,"name":"JayKey","steam_id":76561198008847925,"connected_time":805000000000,"state":"active","ping":59},{"user_id":383,"name":"VampiuS","steam_id":76561197998827007,"connected_time":1809000000000,"state":"active","ping":59},{"user_id":353,"name":"Mac Bean","steam_id":76561198133782205,"connected_time":4551000000000,"state":"active","ping":118},{"user_id":410,"name":"Trollstoy","steam_id":76561198072017175,"connected_time":497000000000,"state":"active","ping":58},{"user_id":411,"name":"Benito „ÉÑ","steam_id":76561198082522007,"connected_time":468000000000,"state":"active","ping":56},{"user_id":409,"name":"The Third Degree collector","steam_id":76561199165355017,"connected_time":566000000000,"state":"active","ping":71},{"user_id":403,"name":"h","steam_id":76561198273551016,"connected_time":785000000000,"state":"active","ping":65},{"user_id":412,"name":"Cars","steam_id":76561198173329977,"connected_time":450000000000,"state":"active","ping":62},{"user_id":413,"name":"KNARRER","steam_id":76561199130777953,"connected_time":413000000000,"state":"active","ping":55},{"user_id":414,"name":"‚ù§mge sister quirky nyaüíú","steam_id":76561198444036574,"connected_time":387000000000,"state":"active","ping":62},{"user_id":385,"name":"ossop","steam_id":76561198045271499,"connected_time":1771000000000,"state":"active","ping":72},{"user_id":349,"name":"Master Of Noob","steam_id":76561198217926783,"connected_time":4959000000000,"state":"active","ping":73},{"user_id":415,"name":"After8","steam_id":76561198090750865,"connected_time":373000000000,"state":"active","ping":61},{"user_id":316,"name":"Star_","steam_id":76561198160975698,"connected_time":7418000000000,"state":"active","ping":58},{"user_id":402,"name":"Persic","steam_id":76561197997828319,"connected_time":805000000000,"state":"active","ping":76},{"user_id":395,"name":"Wonkglorg","steam_id":76561198302060474,"connected_time":1409000000000,"state":"active","ping":70},{"user_id":396,"name":"FilipeLuk","steam_id":76561198150675438,"connected_time":1372000000000,"state":"active","ping":75},{"user_id":416,"name":"[NL] JTI","steam_id":76561198173153699,"connected_time":370000000000,"state":"active","ping":58},{"user_id":350,"name":"Venenakki","steam_id":76561198311526482,"connected_time":4944000000000,"state":"active","ping":61},{"user_id":253,"name":"Aspartus","steam_id":76561198101385763,"connected_time":11901000000000,"state":"active","ping":46},{"user_id":430,"name":"dunduu","steam_id":76561198875240717,"connected_time":57000000000,"state":"active","ping":62}]},{"server_id":110,"name":"Uncletopia | Frankfurt | 2 | All Maps","name_short":"frk-2","host":"frk-1.de.uncletopia.com","port":27025,"enabled":true,"region":"eu","cc":"de","latitude":50.110924,"longitude":8.682127,"reserved":0,"last_update":"0001-01-01T00:00:00Z","name_a2s":"Uncletopia | Frankfurt | 2 | All Maps","protocol":17,"map":"plr_hightower","folder":"tf","game":"Team Fortress","app_id":440,"player_count":11,"max_players":24,"Bots":0,"server_type":"Dedicated","server_os":"Linux","password":true,"vac":true,"version":"7882260","steam_id":85568392924469990,"keywords":["nocrits","nodmgspread","payload","uncletopia"],"game_id":440,"stv_port":27026,"stv_name":"Uncletopia | Frankfurt | 2 | All Maps | STV","players":[{"user_id":92,"name":"nin","steam_id":76561199133245449,"connected_time":191000000000,"state":"active","ping":107},{"user_id":93,"name":"UltimateAura","steam_id":76561198338361324,"connected_time":37000000000,"state":"active","ping":48},{"user_id":83,"name":"EkkiHinrik","steam_id":76561198078791141,"connected_time":2311000000000,"state":"active","ping":96},{"user_id":74,"name":"Diceyface","steam_id":76561197997592437,"connected_time":3006000000000,"state":"active","ping":64},{"user_id":80,"name":"Tiger Woods' Ping Pong World","steam_id":76561198011155232,"connected_time":2525000000000,"state":"active","ping":70},{"user_id":84,"name":"D√≥ri St√≥ri","steam_id":76561198103633890,"connected_time":2303000000000,"state":"active","ping":91},{"user_id":85,"name":"confine","steam_id":76561198176016083,"connected_time":2284000000000,"state":"active","ping":79},{"user_id":68,"name":"Homebound","steam_id":76561198531978435,"connected_time":3741000000000,"state":"active","ping":79},{"user_id":58,"name":"jakonator1","steam_id":76561198127792559,"connected_time":4299000000000,"state":"active","ping":92},{"user_id":69,"name":"Lord Bogadoo","steam_id":76561198218613716,"connected_time":3675000000000,"state":"active","ping":103},{"user_id":65,"name":"I.AM.THE.BOOP.WHICH.IS.APROACHI","steam_id":76561198049342507,"connected_time":3942000000000,"state":"active","ping":83}]},{"server_id":308,"name":"Uncletopia | Frankfurt | 3 | All Maps","name_short":"frk-3","host":"frk-1.de.uncletopia.com","port":27035,"enabled":true,"region":"eu","cc":"de","latitude":50.110924,"longitude":8.682127,"reserved":0,"last_update":"0001-01-01T00:00:00Z","name_a2s":"Uncletopia | Frankfurt | 3 | All Maps","protocol":17,"map":"cp_dustbowl","folder":"tf","game":"Team Fortress","app_id":440,"player_count":25,"max_players":24,"Bots":0,"server_type":"Dedicated","server_os":"Linux","password":true,"vac":true,"version":"7882260","steam_id":85568392924504274,"keywords":["cp","nocrits","nodmgspread","uncletopia"],"game_id":440,"stv_port":27036,"stv_name":"Uncletopia | Frankfurt | 3 | All Maps | STV","players":[{"user_id":51,"name":"TrollSechsMann1941","steam_id":76561198150569669,"connected_time":1707000000000,"state":"active","ping":89},{"user_id":86,"name":"Avast AntiPony 9445","steam_id":76561197992046533,"connected_time":528000000000,"state":"active","ping":45},{"user_id":91,"name":"Dark Wizart","steam_id":76561198377689439,"connected_time":304000000000,"state":"active","ping":62},{"user_id":89,"name":"–ï–º–Ω–µ_–ì—Ä–æ–≤","steam_id":76561198079990237,"connected_time":383000000000,"state":"active","ping":123},{"user_id":65,"name":"-15 Social Credit","steam_id":76561199013107775,"connected_time":1415000000000,"state":"active","ping":62},{"user_id":68,"name":"MERP","steam_id":76561198392409485,"connected_time":1392000000000,"state":"active","ping":95},{"user_id":72,"name":"Astyloblatta","steam_id":76561199222909666,"connected_time":1110000000000,"state":"active","ping":54},{"user_id":90,"name":"froglids","steam_id":76561198045466919,"connected_time":352000000000,"state":"active","ping":67},{"user_id":45,"name":"Cannabis Enjoyer","steam_id":76561198051685232,"connected_time":1801000000000,"state":"active","ping":58},{"user_id":31,"name":"Grenade_Addict","steam_id":76561199212037850,"connected_time":2581000000000,"state":"active","ping":169},{"user_id":92,"name":"Dr. Trustmeonthisone","steam_id":76561198009884765,"connected_time":260000000000,"state":"active","ping":92},{"user_id":46,"name":"ANGELFISH","steam_id":76561198027536466,"connected_time":1787000000000,"state":"active","ping":97},{"user_id":94,"name":"united chunk","steam_id":76561199017850298,"connected_time":166000000000,"state":"active","ping":64},{"user_id":48,"name":"ysapir35","steam_id":76561199132798948,"connected_time":1737000000000,"state":"active","ping":157},{"user_id":76,"name":"Mal","steam_id":76561198262337669,"connected_time":1043000000000,"state":"active","ping":66},{"user_id":95,"name":"h√ñh","steam_id":76561198418503654,"connected_time":158000000000,"state":"active","ping":93},{"user_id":53,"name":"Mak≈Çowicz","steam_id":76561198281831506,"connected_time":1667000000000,"state":"active","ping":72},{"user_id":70,"name":"Darkened_Void","steam_id":76561198067064112,"connected_time":1283000000000,"state":"active","ping":75},{"user_id":71,"name":"Kee","steam_id":76561198258764421,"connected_time":1133000000000,"state":"active","ping":85},{"user_id":56,"name":"janga","steam_id":76561197977643629,"connected_time":1645000000000,"state":"active","ping":48},{"user_id":78,"name":"DoubleHelix","steam_id":76561198045549571,"connected_time":950000000000,"state":"active","ping":69},{"user_id":59,"name":"WomenBeardLike","steam_id":76561198390184314,"connected_time":1635000000000,"state":"active","ping":65},{"user_id":61,"name":"Urfangonultasadana","steam_id":76561199389286151,"connected_time":1615000000000,"state":"active","ping":97},{"user_id":63,"name":"Dani Gud","steam_id":76561198122036930,"connected_time":1509000000000,"state":"active","ping":58},{"user_id":99,"name":"chess club manager","steam_id":76561198011047413,"connected_time":2000000000,"state":"spawning","ping":46}]},{"server_id":309,"name":"Uncletopia | Frankfurt | 4 | All Maps","name_short":"frk-4","host":"frk-1.de.uncletopia.com","port":27045,"enabled":true,"region":"eu","cc":"de","latitude":50.110924,"longitude":8.682127,"reserved":0,"last_update":"0001-01-01T00:00:00Z","name_a2s":"Uncletopia | Frankfurt | 4 | All Maps","protocol":17,"map":"pl_borneo","folder":"tf","game":"Team Fortress","app_id":440,"player_count":24,"max_players":24,"Bots":0,"server_type":"Dedicated","server_os":"Linux","password":true,"vac":true,"version":"7882260","steam_id":85568392924504275,"keywords":["nocrits","nodmgspread","payload","uncletopia"],"game_id":440,"stv_port":27046,"stv_name":"Uncletopia | Frankfurt | 4 | All Maps | STV","players":[{"user_id":197,"name":"ValentiN","steam_id":76561198183759705,"connected_time":192000000000,"state":"active","ping":68},{"user_id":152,"name":"Zilean","steam_id":76561198214848887,"connected_time":3816000000000,"state":"active","ping":63},{"user_id":189,"name":"Dunya","steam_id":76561198041371314,"connected_time":822000000000,"state":"active","ping":122},{"user_id":188,"name":"n-ski","steam_id":76561198020550849,"connected_time":845000000000,"state":"active","ping":78},{"user_id":200,"name":"woop","steam_id":76561198985105074,"connected_time":52000000000,"state":"active","ping":76},{"user_id":186,"name":"kgf","steam_id":76561198181442259,"connected_time":960000000000,"state":"active","ping":47},{"user_id":170,"name":"suddenly, a bear","steam_id":76561198195857751,"connected_time":2191000000000,"state":"active","ping":71},{"user_id":184,"name":"Pixar Cars on the PS2","steam_id":76561198079386295,"connected_time":999000000000,"state":"active","ping":66},{"user_id":196,"name":"The Cadean Lucius","steam_id":76561198183880529,"connected_time":312000000000,"state":"active","ping":62},{"user_id":149,"name":"hhhhhh","steam_id":76561198031982574,"connected_time":4635000000000,"state":"active","ping":54},{"user_id":180,"name":"USBug999","steam_id":76561199174677820,"connected_time":1241000000000,"state":"active","ping":137},{"user_id":193,"name":"de_nerferno","steam_id":76561198051903037,"connected_time":616000000000,"state":"active","ping":105},{"user_id":65,"name":"Kendrick HugeE","steam_id":76561198245495152,"connected_time":8675000000000,"state":"active","ping":59},{"user_id":194,"name":"AxyzS | affenbr0t_6o4","steam_id":76561197981823456,"connected_time":605000000000,"state":"active","ping":64},{"user_id":153,"name":"Cirilla.gif","steam_id":76561198090586031,"connected_time":3759000000000,"state":"active","ping":76},{"user_id":168,"name":"Pipper","steam_id":76561197970326616,"connected_time":2234000000000,"state":"active","ping":70},{"user_id":70,"name":"Usher Arentrir","steam_id":76561198334126785,"connected_time":8396000000000,"state":"active","ping":71},{"user_id":176,"name":"mixxxa_french","steam_id":76561198085098243,"connected_time":1639000000000,"state":"active","ping":113},{"user_id":199,"name":"‚ôî Churaq Semi ‚ôî","steam_id":76561198952002985,"connected_time":106000000000,"state":"active","ping":67},{"user_id":179,"name":"Taez","steam_id":76561198261820803,"connected_time":1327000000000,"state":"active","ping":69},{"user_id":185,"name":"Dr. Sir Knight","steam_id":76561198146313878,"connected_time":999000000000,"state":"active","ping":66},{"user_id":143,"name":"Holo","steam_id":76561198348567663,"connected_time":5117000000000,"state":"active","ping":72},{"user_id":141,"name":"Buddy","steam_id":76561198050185582,"connected_time":5183000000000,"state":"active","ping":74},{"user_id":192,"name":"IVAN","steam_id":76561199013333685,"connected_time":674000000000,"state":"active","ping":87}]},{"server_id":310,"name":"Uncletopia | Frankfurt | 5 | All Maps","name_short":"frk-5","host":"frk-1.de.uncletopia.com","port":27055,"enabled":true,"region":"eu","cc":"de","latitude":50.110924,"longitude":8.682127,"reserved":0,"last_update":"0001-01-01T00:00:00Z","name_a2s":"Uncletopia | Frankfurt | 5 | All Maps","protocol":17,"map":"cp_altitude","folder":"tf","game":"Team Fortress","app_id":440,"player_count":23,"max_players":24,"Bots":0,"server_type":"Dedicated","server_os":"Linux","password":true,"vac":true,"version":"7882260","steam_id":85568392924504277,"keywords":["cp","nocrits","nodmgspread","uncletopia"],"game_id":440,"stv_port":27056,"stv_name":"Uncletopia | Frankfurt | 5 | All Maps | STV","players":[{"user_id":227,"name":"viltzu","steam_id":76561198190253894,"connected_time":935000000000,"state":"active","ping":103},{"user_id":234,"name":"Shrimpeee","steam_id":76561199012689768,"connected_time":264000000000,"state":"active","ping":78},{"user_id":235,"name":"swueuws","steam_id":76561198020716743,"connected_time":244000000000,"state":"active","ping":59},{"user_id":211,"name":"driz","steam_id":76561198069462235,"connected_time":1929000000000,"state":"active","ping":56},{"user_id":229,"name":"Mr.killer","steam_id":76561198290584189,"connected_time":779000000000,"state":"active","ping":94},{"user_id":172,"name":"Sarah Obama Michella","steam_id":76561198078996559,"connected_time":4550000000000,"state":"active","ping":73},{"user_id":236,"name":"Kustik","steam_id":76561198879805822,"connected_time":230000000000,"state":"active","ping":83},{"user_id":193,"name":"–ê–Ω–¥—Ä–µ–π","steam_id":76561199004027817,"connected_time":3278000000000,"state":"active","ping":112},{"user_id":212,"name":"Sammy096","steam_id":76561198128167541,"connected_time":1927000000000,"state":"active","ping":69},{"user_id":214,"name":"hisham","steam_id":76561198414437290,"connected_time":1899000000000,"state":"active","ping":108},{"user_id":150,"name":"Shadow","steam_id":76561199128177959,"connected_time":6336000000000,"state":"active","ping":70},{"user_id":219,"name":"Tsuwu","steam_id":76561198354596897,"connected_time":1783000000000,"state":"active","ping":94},{"user_id":241,"name":"snsmac","steam_id":76561198082821185,"connected_time":19000000000,"state":"active","ping":42},{"user_id":184,"name":"sokige","steam_id":76561198167112371,"connected_time":3533000000000,"state":"active","ping":115},{"user_id":222,"name":"Reague","steam_id":76561199092175631,"connected_time":1540000000000,"state":"active","ping":179},{"user_id":238,"name":"lowdash","steam_id":76561198327827635,"connected_time":118000000000,"state":"active","ping":75},{"user_id":215,"name":"Got banned for having pp in my ","steam_id":76561198173218318,"connected_time":1893000000000,"state":"active","ping":52},{"user_id":231,"name":"Gaxkang","steam_id":76561198125768571,"connected_time":756000000000,"state":"active","ping":69},{"user_id":239,"name":"JoueurFran√ßais","steam_id":76561198108081068,"connected_time":102000000000,"state":"active","ping":46},{"user_id":240,"name":"–ø—Ä–æ339","steam_id":76561198428111079,"connected_time":100000000000,"state":"active","ping":106},{"user_id":176,"name":"Glacierwinter","steam_id":76561198229675152,"connected_time":4312000000000,"state":"active","ping":94},{"user_id":223,"name":"monkaChrist","steam_id":76561197996448859,"connected_time":1496000000000,"state":"active","ping":92},{"user_id":226,"name":"Wuf","steam_id":76561199059646084,"connected_time":1268000000000,"state":"active","ping":89}]},{"server_id":311,"name":"Uncletopia | Frankfurt | 6 | All Maps","name_short":"frk-6","host":"frk-1.de.uncletopia.com","port":27065,"enabled":true,"region":"eu","cc":"de","latitude":50.110924,"longitude":8.682127,"reserved":0,"last_update":"0001-01-01T00:00:00Z","name_a2s":"Uncletopia | Frankfurt | 6 | All Maps","protocol":17,"map":"pl_snowycoast","folder":"tf","game":"Team Fortress","app_id":440,"player_count":24,"max_players":24,"Bots":0,"server_type":"Dedicated","server_os":"Linux","password":true,"vac":true,"version":"7882260","steam_id":85568392924504278,"keywords":["nocrits","nodmgspread","payload","uncletopia"],"game_id":440,"stv_port":27066,"stv_name":"Uncletopia | Frankfurt | 6 | All Maps | STV","players":[{"user_id":385,"name":"huu","steam_id":76561198102063164,"connected_time":577000000000,"state":"active","ping":59},{"user_id":378,"name":"Li√∏nHeart","steam_id":76561198081370704,"connected_time":1156000000000,"state":"active","ping":52},{"user_id":375,"name":"SCRAMMMBLED","steam_id":76561197998307746,"connected_time":1693000000000,"state":"active","ping":62},{"user_id":354,"name":"Eldritch Curio.üëÅ","steam_id":76561198044669027,"connected_time":3099000000000,"state":"active","ping":140},{"user_id":386,"name":"‡∂ûbominasus 2137  #SaveTF2","steam_id":76561198030062981,"connected_time":576000000000,"state":"active","ping":69},{"user_id":387,"name":"ALARM","steam_id":76561198120686521,"connected_time":571000000000,"state":"active","ping":51},{"user_id":379,"name":"Na'vi Misato (by popular demand","steam_id":76561198130860698,"connected_time":1058000000000,"state":"active","ping":63},{"user_id":346,"name":"Olfrad","steam_id":76561198161763817,"connected_time":3536000000000,"state":"active","ping":49},{"user_id":396,"name":"Fiurius","steam_id":76561198151910950,"connected_time":274000000000,"state":"active","ping":74},{"user_id":310,"name":"Punker","steam_id":76561198255964089,"connected_time":5731000000000,"state":"active","ping":109},{"user_id":394,"name":"big poo","steam_id":76561198129157178,"connected_time":367000000000,"state":"active","ping":91},{"user_id":393,"name":"You know i had to do it to em","steam_id":76561198023884216,"connected_time":469000000000,"state":"active","ping":68},{"user_id":331,"name":"Jack off into the Matrix","steam_id":76561198032359132,"connected_time":4415000000000,"state":"active","ping":60},{"user_id":388,"name":"mohamadparadox","steam_id":76561198346156085,"connected_time":568000000000,"state":"active","ping":152},{"user_id":400,"name":"CerealKiller154","steam_id":76561198831177630,"connected_time":132000000000,"state":"active","ping":88},{"user_id":376,"name":"1ggy","steam_id":76561199051285912,"connected_time":1575000000000,"state":"active","ping":76},{"user_id":356,"name":"Celarvaa (cel-larva)","steam_id":76561198035024894,"connected_time":3027000000000,"state":"active","ping":75},{"user_id":380,"name":"KingPotatoChips","steam_id":76561198035156465,"connected_time":1044000000000,"state":"active","ping":65},{"user_id":369,"name":"Rizz","steam_id":76561198192135953,"connected_time":2007000000000,"state":"active","ping":100},{"user_id":395,"name":"Popop","steam_id":76561198004793795,"connected_time":326000000000,"state":"active","ping":57},{"user_id":399,"name":"\u003c blank \u003e","steam_id":76561198059375315,"connected_time":145000000000,"state":"active","ping":68},{"user_id":382,"name":"Cosmetic brain","steam_id":76561198055936410,"connected_time":896000000000,"state":"active","ping":83},{"user_id":384,"name":"nevim","steam_id":76561199120843402,"connected_time":694000000000,"state":"active","ping":53},{"user_id":377,"name":"ttv.PogHog1234","steam_id":76561199109713313,"connected_time":1500000000000,"state":"active","ping":67}]},{"server_id":23,"name":"Uncletopia | Frankfurt | 7 | Stopwatch Beta","name_short":"frk-7","host":"frk-1.de.uncletopia.com","port":27075,"enabled":true,"region":"eu","cc":"de","latitude":50.110924,"longitude":8.682127,"reserved":0,"last_update":"0001-01-01T00:00:00Z","name_a2s":"Uncletopia | Frankfurt | 7 | Stopwatch Beta","protocol":17,"map":"workshop/koth_clearcut_b15.ugc2107050255","folder":"tf","game":"Team Fortress","app_id":440,"player_count":1,"max_players":24,"Bots":0,"server_type":"Dedicated","server_os":"Linux","password":true,"vac":true,"version":"7882260","steam_id":85568392924742827,"keywords":["cp","nocrits","nodmgspread","uncletopia"],"game_id":440,"stv_port":27076,"stv_name":"Uncletopia | Frankfurt | 7 | Stopwatch Beta | STV","players":[{"user_id":23,"name":"DeterminedXD[HUN]","steam_id":76561199469006453,"connected_time":720000000000,"state":"active","ping":80}]},{"server_id":24,"name":"Uncletopia | Frankfurt | 8 | Community","name_short":"frk-8","host":"frk-1.de.uncletopia.com","port":27085,"enabled":true,"region":"eu","cc":"de","latitude":50.110924,"longitude":8.682127,"reserved":0,"last_update":"0001-01-01T00:00:00Z","name_a2s":"Uncletopia | Frankfurt | 8 | Community","protocol":17,"map":"workshop/cp_hazyfort_rc6.ugc1365963729","folder":"tf","game":"Team Fortress","app_id":440,"player_count":0,"max_players":24,"Bots":0,"server_type":"Dedicated","server_os":"Linux","password":true,"vac":true,"version":"7882260","steam_id":85568392924742828,"keywords":["cp","nocrits","nodmgspread","uncletopia"],"game_id":440,"stv_port":27086,"stv_name":"Uncletopia | Frankfurt | 8 | Community | STV","players":null},{"server_id":202,"name":"Uncletopia | Hong Kong | 1 | All Maps","name_short":"hgk-1","host":"hgk-1.hk.uncletopia.com","port":27015,"enabled":true,"region":"asia","cc":"hk","latitude":22.302711,"longitude":114.177216,"reserved":0,"last_update":"0001-01-01T00:00:00Z","name_a2s":"Uncletopia | Hong Kong | 1 | All Maps","protocol":17,"map":"pl_upward","folder":"tf","game":"Team Fortress","app_id":440,"player_count":24,"max_players":24,"Bots":0,"server_type":"Dedicated","server_os":"Linux","password":true,"vac":true,"version":"7882260","steam_id":85568392924494504,"keywords":["nocrits","nodmgspread","payload","uncletopia"],"game_id":440,"stv_port":27016,"stv_name":"Uncletopia | Hong Kong | 1 | All Maps | STV","players":[{"user_id":499,"name":"clorio","steam_id":76561199146847474,"connected_time":7556000000000,"state":"active","ping":37},{"user_id":457,"name":"TheChainsaw","steam_id":76561198312001455,"connected_time":12196000000000,"state":"active","ping":118},{"user_id":560,"name":"ÊØç„ÅÆËÇâÂõ£Â≠ê@hao123.com","steam_id":76561198069561896,"connected_time":986000000000,"state":"active","ping":37},{"user_id":536,"name":"Cornelius Cuntwad","steam_id":76561199122491157,"connected_time":3626000000000,"state":"active","ping":82},{"user_id":537,"name":"Waltuh (CEO of Chicanery)","steam_id":76561199257300024,"connected_time":3616000000000,"state":"active","ping":88},{"user_id":552,"name":"„Åµ„Çè„Åµ„ÇèÊØõÂ∏É","steam_id":76561198088403016,"connected_time":1791000000000,"state":"active","ping":97},{"user_id":562,"name":"De Devil","steam_id":76561198052687656,"connected_time":912000000000,"state":"active","ping":134},{"user_id":476,"name":"r/sinkpissers","steam_id":76561198413116920,"connected_time":9867000000000,"state":"active","ping":76},{"user_id":521,"name":"m 1 k o","steam_id":76561198337154745,"connected_time":5234000000000,"state":"active","ping":83},{"user_id":571,"name":"Jasontan1123","steam_id":76561198833031514,"connected_time":564000000000,"state":"active","ping":94},{"user_id":531,"name":"Hay","steam_id":76561199438952901,"connected_time":3875000000000,"state":"active","ping":57},{"user_id":426,"name":"erwynmurphy711","steam_id":76561198288311270,"connected_time":15688000000000,"state":"active","ping":127},{"user_id":555,"name":"coakDeLera","steam_id":76561199262817512,"connected_time":1760000000000,"state":"active","ping":84},{"user_id":565,"name":"reio","steam_id":76561198119007753,"connected_time":890000000000,"state":"active","ping":72},{"user_id":557,"name":"Sophia the librarian werewolf","steam_id":76561199131651798,"connected_time":1567000000000,"state":"active","ping":82},{"user_id":553,"name":"cstr","steam_id":76561198125946388,"connected_time":1791000000000,"state":"active","ping":90},{"user_id":427,"name":"TomCat","steam_id":76561198133744053,"connected_time":15676000000000,"state":"active","ping":121},{"user_id":544,"name":"Samoyed","steam_id":76561198299150410,"connected_time":2483000000000,"state":"active","ping":104},{"user_id":465,"name":"Stupid B","steam_id":76561198131423270,"connected_time":11064000000000,"state":"active","ping":122},{"user_id":539,"name":"Kurtie","steam_id":76561198144737876,"connected_time":2970000000000,"state":"active","ping":72},{"user_id":566,"name":"Frostbyte","steam_id":76561199209090756,"connected_time":876000000000,"state":"active","ping":91},{"user_id":568,"name":"13MAN","steam_id":76561198900023603,"connected_time":658000000000,"state":"active","ping":97},{"user_id":547,"name":"GAMA","steam_id":76561198049755630,"connected_time":2327000000000,"state":"active","ping":116},{"user_id":570,"name":"Aug","steam_id":76561199212711900,"connected_time":601000000000,"state":"active","ping":112}]},{"server_id":1,"name":"Uncletopia | Los Angeles | 1 | All Maps","name_short":"lax-1","host":"lax-1.us.uncletopia.com","port":27015,"enabled":true,"region":"us-west","cc":"us","latitude":33.94279,"longitude":-118.41004,"reserved":0,"last_update":"0001-01-01T00:00:00Z","name_a2s":"Uncletopia | Los Angeles | 1 | All Maps","protocol":17,"map":"koth_lakeside_final","folder":"tf","game":"Team Fortress","app_id":440,"player_count":0,"max_players":24,"Bots":0,"server_type":"Dedicated","server_os":"Linux","password":true,"vac":true,"version":"7882260","steam_id":85568392924469991,"keywords":["cp","nocrits","nodmgspread","uncletopia"],"game_id":440,"stv_port":27016,"stv_name":"Uncletopia | Los Angeles | 1 | All Maps | STV","players":null},{"server_id":112,"name":"Uncletopia | Los Angeles | 2 | All Maps","name_short":"lax-2","host":"lax-1.us.uncletopia.com","port":27025,"enabled":true,"region":"us-west","cc":"us","latitude":33.94279,"longitude":-118.41004,"reserved":0,"last_update":"0001-01-01T00:00:00Z","name_a2s":"Uncletopia | Los Angeles | 2 | All Maps","protocol":17,"map":"cp_sunshine","folder":"tf","game":"Team Fortress","app_id":440,"player_count":0,"max_players":24,"Bots":0,"server_type":"Dedicated","server_os":"Linux","password":true,"vac":true,"version":"7882260","steam_id":85568392924469992,"keywords":["cp","nocrits","nodmgspread","uncletopia"],"game_id":440,"stv_port":27026,"stv_name":"Uncletopia | Los Angeles | 2 | All Maps | STV","players":null},{"server_id":324,"name":"Uncletopia | Los Angeles | 3 | All Maps","name_short":"lax-3","host":"lax-1.us.uncletopia.com","port":27035,"enabled":true,"region":"us-west","cc":"us","latitude":33.94279,"longitude":-118.41004,"reserved":0,"last_update":"0001-01-01T00:00:00Z","name_a2s":"Uncletopia | Los Angeles | 3 | All Maps","protocol":17,"map":"pl_swiftwater_final1","folder":"tf","game":"Team Fortress","app_id":440,"player_count":0,"max_players":24,"Bots":0,"server_type":"Dedicated","server_os":"Linux","password":true,"vac":true,"version":"7882260","steam_id":85568392924510198,"keywords":["nocrits","nodmgspread","payload","uncletopia"],"game_id":440,"stv_port":27036,"stv_name":"Uncletopia | Los Angeles | 3 | All Maps | STV","players":null},{"server_id":25,"name":"Uncletopia | Los Angeles | 4 | Stopwatch Beta","name_short":"lax-4","host":"lax-1.us.uncletopia.com","port":27045,"enabled":true,"region":"us-west","cc":"us","latitude":33.94279,"longitude":-118.41004,"reserved":0,"last_update":"0001-01-01T00:00:00Z","name_a2s":"Uncletopia | Los Angeles | 4 | Stopwatch Beta","protocol":17,"map":"koth_viaduct","folder":"tf","game":"Team Fortress","app_id":440,"player_count":0,"max_players":24,"Bots":0,"server_type":"Dedicated","server_os":"Linux","password":true,"vac":true,"version":"7882260","steam_id":85568392924510199,"keywords":["cp","nocrits","nodmgspread","uncletopia"],"game_id":440,"stv_port":27046,"stv_name":"Uncletopia | Los Angeles | 4 | Stopwatch Beta | STV","players":null},{"server_id":11,"name":"Uncletopia | London | 1 | All Maps","name_short":"lon-1","host":"lon-1.uk.uncletopia.com","port":27015,"enabled":true,"region":"eu","cc":"gb","latitude":51.509865,"longitude":-0.118092,"reserved":0,"last_update":"0001-01-01T00:00:00Z","name_a2s":"Uncletopia | London | 1 | All Maps","protocol":17,"map":"pl_badwater","folder":"tf","game":"Team Fortress","app_id":440,"player_count":24,"max_players":24,"Bots":0,"server_type":"Dedicated","server_os":"Linux","password":true,"vac":true,"version":"7882260","steam_id":85568392924367362,"keywords":["nocrits","nodmgspread","payload","uncletopia"],"game_id":440,"stv_port":27016,"stv_name":"Uncletopia | London | 1 | All Maps | STV","players":[{"user_id":476,"name":"moseley519","steam_id":76561198045485374,"connected_time":521000000000,"state":"active","ping":39},{"user_id":391,"name":"The SexHaver Gamer","steam_id":76561198093735871,"connected_time":5735000000000,"state":"active","ping":60},{"user_id":462,"name":"Mohghass","steam_id":76561198391333960,"connected_time":1363000000000,"state":"active","ping":112},{"user_id":448,"name":"ODanial","steam_id":76561198034854402,"connected_time":2007000000000,"state":"active","ping":70},{"user_id":425,"name":"–î–∏–º–∞ –¢–µ—Ä–º–∏–Ω–∞—Ç–æ—Ä [","steam_id":76561198451817781,"connected_time":3480000000000,"state":"active","ping":201},{"user_id":466,"name":"cister0","steam_id":76561198130195469,"connected_time":1320000000000,"state":"active","ping":86},{"user_id":465,"name":"Lampinen","steam_id":76561198004936228,"connected_time":1350000000000,"state":"active","ping":77},{"user_id":481,"name":"gr3821","steam_id":76561198091531010,"connected_time":213000000000,"state":"active","ping":44},{"user_id":368,"name":"something","steam_id":76561198198581615,"connected_time":7220000000000,"state":"active","ping":58},{"user_id":460,"name":"NI","steam_id":76561198941142018,"connected_time":1683000000000,"state":"active","ping":84},{"user_id":477,"name":"Chilly Snipples","steam_id":76561198203326293,"connected_time":518000000000,"state":"active","ping":69},{"user_id":482,"name":"elijah","steam_id":76561198093936708,"connected_time":197000000000,"state":"active","ping":85},{"user_id":488,"name":"Sixie","steam_id":76561198251675360,"connected_time":131000000000,"state":"active","ping":65},{"user_id":428,"name":"Waltcha","steam_id":76561198007691468,"connected_time":3441000000000,"state":"active","ping":73},{"user_id":483,"name":"zircon226","steam_id":76561198332529555,"connected_time":174000000000,"state":"active","ping":89},{"user_id":484,"name":"Columban","steam_id":76561199202258284,"connected_time":151000000000,"state":"active","ping":59},{"user_id":445,"name":"Lyra","steam_id":76561198043601838,"connected_time":2472000000000,"state":"active","ping":60},{"user_id":423,"name":"doopsuiker","steam_id":76561198025916703,"connected_time":3529000000000,"state":"active","ping":68},{"user_id":473,"name":"Smokio","steam_id":76561198069650580,"connected_time":900000000000,"state":"active","ping":89},{"user_id":485,"name":"Mr Gnash","steam_id":76561198007410990,"connected_time":150000000000,"state":"active","ping":61},{"user_id":475,"name":"OPUR \u003e:(","steam_id":76561197993123284,"connected_time":617000000000,"state":"active","ping":76},{"user_id":486,"name":"boss of h2h combat","steam_id":76561198091864790,"connected_time":144000000000,"state":"active","ping":45},{"user_id":479,"name":"jeffy","steam_id":76561199477304350,"connected_time":367000000000,"state":"active","ping":83},{"user_id":487,"name":"pyromaniac","steam_id":76561198292781255,"connected_time":132000000000,"state":"active","ping":80}]},{"server_id":114,"name":"Uncletopia | London | 2 | All Maps","name_short":"lon-2","host":"lon-1.uk.uncletopia.com","port":27025,"enabled":true,"region":"eu","cc":"gb","latitude":51.509865,"longitude":-0.118092,"reserved":0,"last_update":"0001-01-01T00:00:00Z","name_a2s":"Uncletopia | London | 2 | All Maps","protocol":17,"map":"koth_highpass","folder":"tf","game":"Team Fortress","app_id":440,"player_count":0,"max_players":24,"Bots":0,"server_type":"Dedicated","server_os":"Linux","password":true,"vac":true,"version":"7882260","steam_id":85568392924470941,"keywords":["cp","nocrits","nodmgspread","uncletopia"],"game_id":440,"stv_port":27026,"stv_name":"Uncletopia | London | 2 | All Maps | STV","players":null},{"server_id":320,"name":"Uncletopia | London | 3 | All Maps","name_short":"lon-3","host":"lon-1.uk.uncletopia.com","port":27035,"enabled":true,"region":"eu","cc":"gb","latitude":51.509865,"longitude":-0.118092,"reserved":0,"last_update":"0001-01-01T00:00:00Z","name_a2s":"Uncletopia | London | 3 | All Maps","protocol":17,"map":"pl_pier","folder":"tf","game":"Team Fortress","app_id":440,"player_count":15,"max_players":24,"Bots":0,"server_type":"Dedicated","server_os":"Linux","password":true,"vac":true,"version":"7882260","steam_id":85568392924510192,"keywords":["nocrits","nodmgspread","payload","uncletopia"],"game_id":440,"stv_port":27036,"stv_name":"Uncletopia | London | 3 | All Maps | STV","players":[{"user_id":360,"name":"Fresh","steam_id":76561198281238533,"connected_time":50000000000,"state":"active","ping":74},{"user_id":334,"name":"Tink","steam_id":76561198118235443,"connected_time":1692000000000,"state":"active","ping":55},{"user_id":353,"name":"Wally","steam_id":76561199383437138,"connected_time":865000000000,"state":"active","ping":119},{"user_id":336,"name":"thebigcheif","steam_id":76561198236015392,"connected_time":1596000000000,"state":"active","ping":116},{"user_id":320,"name":"wide appreciator","steam_id":76561198083286511,"connected_time":2461000000000,"state":"active","ping":42},{"user_id":356,"name":"‚ôõperry the platypus‚ôõ","steam_id":76561199379159771,"connected_time":580000000000,"state":"active","ping":130},{"user_id":340,"name":"AftiksPL","steam_id":76561198875182686,"connected_time":1407000000000,"state":"active","ping":101},{"user_id":357,"name":"Purpurea","steam_id":76561198075376419,"connected_time":579000000000,"state":"active","ping":62},{"user_id":351,"name":"boy23","steam_id":76561199475322713,"connected_time":1156000000000,"state":"active","ping":51},{"user_id":355,"name":"Ded","steam_id":76561198186054573,"connected_time":843000000000,"state":"active","ping":88},{"user_id":350,"name":"A3517","steam_id":76561198346434027,"connected_time":1306000000000,"state":"active","ping":126},{"user_id":345,"name":"gorgipro123","steam_id":76561198428571024,"connected_time":1372000000000,"state":"active","ping":102},{"user_id":314,"name":"Egg Hunter","steam_id":76561199372365790,"connected_time":2801000000000,"state":"active","ping":115},{"user_id":349,"name":"ShadowBlade","steam_id":76561198022553099,"connected_time":1318000000000,"state":"active","ping":69},{"user_id":332,"name":"taxi","steam_id":76561198269154534,"connected_time":1767000000000,"state":"active","ping":42}]},{"server_id":321,"name":"Uncletopia | London | 4 | All Maps","name_short":"lon-4","host":"lon-1.uk.uncletopia.com","port":27045,"enabled":true,"region":"eu","cc":"gb","latitude":51.509865,"longitude":-0.118092,"reserved":0,"last_update":"0001-01-01T00:00:00Z","name_a2s":"Uncletopia | London | 4 | All Maps","protocol":17,"map":"pl_swiftwater_final1","folder":"tf","game":"Team Fortress","app_id":440,"player_count":24,"max_players":24,"Bots":0,"server_type":"Dedicated","server_os":"Linux","password":true,"vac":true,"version":"7882260","steam_id":85568392924510193,"keywords":["nocrits","nodmgspread","payload","uncletopia"],"game_id":440,"stv_port":27046,"stv_name":"Uncletopia | London | 4 | All Maps | STV","players":[{"user_id":159,"name":"beurgeur","steam_id":76561198872426314,"connected_time":411000000000,"state":"active","ping":33},{"user_id":160,"name":"DelaNo","steam_id":76561199125086655,"connected_time":384000000000,"state":"active","ping":42},{"user_id":161,"name":"–†–∞–∫ —Ö—É—è","steam_id":76561199242618224,"connected_time":381000000000,"state":"active","ping":96},{"user_id":162,"name":"Kamanie","steam_id":76561198135448255,"connected_time":354000000000,"state":"active","ping":74},{"user_id":163,"name":"I can't take it anymore :3","steam_id":76561199073802389,"connected_time":352000000000,"state":"active","ping":96},{"user_id":167,"name":"cosmomari","steam_id":76561198174312414,"connected_time":255000000000,"state":"active","ping":79},{"user_id":117,"name":"Sir Cauterize","steam_id":76561198047079422,"connected_time":2275000000000,"state":"active","ping":53},{"user_id":141,"name":"12Adam12","steam_id":76561198037882443,"connected_time":1174000000000,"state":"active","ping":56},{"user_id":111,"name":"vurtun","steam_id":76561198857395274,"connected_time":2645000000000,"state":"active","ping":58},{"user_id":95,"name":"pepper","steam_id":76561198059782462,"connected_time":3731000000000,"state":"active","ping":62},{"user_id":89,"name":"Jude!","steam_id":76561197983597798,"connected_time":3899000000000,"state":"active","ping":34},{"user_id":105,"name":"whyamialive","steam_id":76561199070008862,"connected_time":2837000000000,"state":"active","ping":42},{"user_id":165,"name":"Dolcelatte","steam_id":76561198038501770,"connected_time":328000000000,"state":"active","ping":60},{"user_id":104,"name":"Glitch","steam_id":76561198801335846,"connected_time":2850000000000,"state":"active","ping":39},{"user_id":168,"name":"Mephistopheles","steam_id":76561199033390312,"connected_time":202000000000,"state":"active","ping":115},{"user_id":151,"name":"mo√∞√∞e","steam_id":76561199006462039,"connected_time":946000000000,"state":"active","ping":60},{"user_id":114,"name":"Just Navlis","steam_id":76561198090479609,"connected_time":2335000000000,"state":"active","ping":54},{"user_id":112,"name":"„Åô LightFlight „Åó","steam_id":76561198079007530,"connected_time":2373000000000,"state":"active","ping":57},{"user_id":147,"name":"IR0N BARBECUE","steam_id":76561198156038219,"connected_time":1003000000000,"state":"active","ping":52},{"user_id":143,"name":"Erior","steam_id":76561198039462080,"connected_time":1149000000000,"state":"active","ping":87},{"user_id":123,"name":"Orbit","steam_id":76561198242999878,"connected_time":2077000000000,"state":"active","ping":59},{"user_id":166,"name":"gagalak","steam_id":76561198089979108,"connected_time":317000000000,"state":"active","ping":95},{"user_id":170,"name":"gabagool","steam_id":76561198307111838,"connected_time":68000000000,"state":"active","ping":31},{"user_id":108,"name":"Peep","steam_id":76561198132508552,"connected_time":2777000000000,"state":"active","ping":45}]},{"server_id":21,"name":"Uncletopia | London | 5 | All Maps","name_short":"lon-5","host":"lon-1.uk.uncletopia.com","port":27055,"enabled":true,"region":"eu","cc":"gb","latitude":51.509865,"longitude":-0.118092,"reserved":0,"last_update":"0001-01-01T00:00:00Z","name_a2s":"Uncletopia | London | 5 | All Maps","protocol":17,"map":"koth_viaduct","folder":"tf","game":"Team Fortress","app_id":440,"player_count":0,"max_players":24,"Bots":0,"server_type":"Dedicated","server_os":"Linux","password":true,"vac":true,"version":"7882260","steam_id":85568392924742829,"keywords":["cp","nocrits","nodmgspread","uncletopia"],"game_id":440,"stv_port":27056,"stv_name":"Uncletopia | London | 5 | All Maps | STV","players":null},{"server_id":22,"name":"Uncletopia | London | 6 | All Maps","name_short":"lon-6","host":"lon-1.uk.uncletopia.com","port":27065,"enabled":true,"region":"eu","cc":"gb","latitude":51.509865,"longitude":-0.118092,"reserved":0,"last_update":"0001-01-01T00:00:00Z","name_a2s":"Uncletopia | London | 6 | All Maps","protocol":17,"map":"pl_frontier_final","folder":"tf","game":"Team Fortress","app_id":440,"player_count":13,"max_players":24,"Bots":0,"server_type":"Dedicated","server_os":"Linux","password":true,"vac":true,"version":"7882260","steam_id":85568392924742830,"keywords":["nocrits","nodmgspread","payload","uncletopia"],"game_id":440,"stv_port":27066,"stv_name":"Uncletopia | London | 6 | All Maps | STV","players":[{"user_id":279,"name":"Likor","steam_id":76561198045743406,"connected_time":136000000000,"state":"active","ping":68},{"user_id":232,"name":"Schloompa","steam_id":76561198286725629,"connected_time":4231000000000,"state":"active","ping":51},{"user_id":280,"name":"Duckguy","steam_id":76561199000967552,"connected_time":65000000000,"state":"spawning","ping":123},{"user_id":272,"name":"GentleRex","steam_id":76561198136589162,"connected_time":1256000000000,"state":"active","ping":63},{"user_id":266,"name":"ÀêmissingÀê","steam_id":76561198080541279,"connected_time":1645000000000,"state":"active","ping":98},{"user_id":268,"name":"Bombilla","steam_id":76561198084281798,"connected_time":1571000000000,"state":"active","ping":76},{"user_id":235,"name":"W","steam_id":76561198273623211,"connected_time":4121000000000,"state":"active","ping":86},{"user_id":259,"name":"ldshwt","steam_id":76561198090364357,"connected_time":2277000000000,"state":"active","ping":60},{"user_id":264,"name":"laza's boy","steam_id":76561199074095198,"connected_time":1857000000000,"state":"active","ping":114},{"user_id":270,"name":"Mason Troy Adams","steam_id":76561198310010748,"connected_time":1398000000000,"state":"active","ping":55},{"user_id":103,"name":"hmscole09","steam_id":76561198811362788,"connected_time":13786000000000,"state":"active","ping":54},{"user_id":276,"name":"PsychicTrampoline","steam_id":76561199466414348,"connected_time":1078000000000,"state":"active","ping":55},{"user_id":271,"name":"Stoic","steam_id":76561199088506542,"connected_time":1330000000000,"state":"active","ping":49}]},{"server_id":40,"name":"Uncletopia | London | 7 | No Payload","name_short":"lon-7","host":"lon-1.uk.uncletopia.com","port":27075,"enabled":true,"region":"eu","cc":"gb","latitude":51.509865,"longitude":-0.118092,"reserved":0,"last_update":"0001-01-01T00:00:00Z","name_a2s":"Uncletopia | London | 7 | No Payload","protocol":17,"map":"koth_nucleus","folder":"tf","game":"Team Fortress","app_id":440,"player_count":14,"max_players":24,"Bots":0,"server_type":"Dedicated","server_os":"Linux","password":true,"vac":true,"version":"7882260","steam_id":85568392924964314,"keywords":["cp","nocrits","nodmgspread","uncletopia"],"game_id":440,"stv_port":27076,"stv_name":"Uncletopia | London | 7 | No Payload | STV","players":[{"user_id":19,"name":"Nyhde","steam_id":76561198012771416,"connected_time":2796000000000,"state":"active","ping":106},{"user_id":17,"name":"RedPyro2009","steam_id":76561198935824363,"connected_time":2961000000000,"state":"active","ping":106},{"user_id":18,"name":"WOW i'm dead","steam_id":76561199082267619,"connected_time":2885000000000,"state":"active","ping":85},{"user_id":27,"name":"ran is running","steam_id":76561199443185667,"connected_time":753000000000,"state":"active","ping":131},{"user_id":24,"name":"Lessoz","steam_id":76561199211572036,"connected_time":1001000000000,"state":"active","ping":81},{"user_id":25,"name":"k3n8k1","steam_id":76561199185253785,"connected_time":892000000000,"state":"active","ping":55},{"user_id":28,"name":"Ratimedes","steam_id":76561199083035892,"connected_time":670000000000,"state":"active","ping":173},{"user_id":29,"name":"kamu","steam_id":76561198367337443,"connected_time":644000000000,"state":"active","ping":100},{"user_id":30,"name":"OSwaldd","steam_id":76561199078712899,"connected_time":638000000000,"state":"active","ping":62},{"user_id":31,"name":"Game Bot","steam_id":76561199003188725,"connected_time":470000000000,"state":"active","ping":219},{"user_id":32,"name":"PerskuleBenener","steam_id":76561198156899375,"connected_time":402000000000,"state":"active","ping":85},{"user_id":33,"name":"Drunk mann","steam_id":76561199240999139,"connected_time":289000000000,"state":"active","ping":117},{"user_id":34,"name":"Miky Cage","steam_id":76561198348300121,"connected_time":270000000000,"state":"active","ping":75},{"user_id":35,"name":"Dangerousbros","steam_id":76561198088952519,"connected_time":82000000000,"state":"active","ping":32}]},{"server_id":41,"name":"Uncletopia | London | 8 | Community","name_short":"lon-8","host":"lon-1.uk.uncletopia.com","port":27085,"enabled":true,"region":"eu","cc":"gb","latitude":51.509865,"longitude":-0.118092,"reserved":0,"last_update":"0001-01-01T00:00:00Z","name_a2s":"Uncletopia | London | 8 | Community","protocol":17,"map":"workshop/cp_croissant_final.ugc458840209","folder":"tf","game":"Team Fortress","app_id":440,"player_count":0,"max_players":24,"Bots":0,"server_type":"Dedicated","server_os":"Linux","password":true,"vac":true,"version":"7882260","steam_id":85568392924964315,"keywords":["cp","nocrits","nodmgspread","uncletopia"],"game_id":440,"stv_port":27086,"stv_name":"Uncletopia | London | 8 | Community | STV","players":null},{"server_id":300,"name":"Uncletopia | Montr√©al | 1 | All Maps","name_short":"mtl-1","host":"mtl-1.ca.uncletopia.com","port":27015,"enabled":true,"region":"us-east","cc":"ca","latitude":45.50889,"longitude":-73.56167,"reserved":0,"last_update":"0001-01-01T00:00:00Z","name_a2s":"Uncletopia | Montr√©al | 1 | All Maps","protocol":17,"map":"cp_snakewater_final1","folder":"tf","game":"Team Fortress","app_id":440,"player_count":0,"max_players":24,"Bots":0,"server_type":"Dedicated","server_os":"Linux","password":true,"vac":true,"version":"7882260","steam_id":85568392924500087,"keywords":["cp","nocrits","nodmgspread","uncletopia"],"game_id":440,"stv_port":27016,"stv_name":"Uncletopia | Montr√©al | 1 | All Maps | STV","players":null},{"server_id":301,"name":"Uncletopia | Montr√©al | 2 | All Maps","name_short":"mtl-2","host":"mtl-1.ca.uncletopia.com","port":27025,"enabled":true,"region":"us-east","cc":"ca","latitude":45.50889,"longitude":-73.56167,"reserved":0,"last_update":"0001-01-01T00:00:00Z","name_a2s":"Uncletopia | Montr√©al | 2 | All Maps","protocol":17,"map":"pl_swiftwater_final1","folder":"tf","game":"Team Fortress","app_id":440,"player_count":0,"max_players":24,"Bots":0,"server_type":"Dedicated","server_os":"Linux","password":true,"vac":true,"version":"7882260","steam_id":85568392924500088,"keywords":["nocrits","nodmgspread","payload","uncletopia"],"game_id":440,"stv_port":27026,"stv_name":"Uncletopia | Montr√©al | 2 | All Maps | STV","players":null},{"server_id":302,"name":"Uncletopia | Montr√©al | 3 | All Maps","name_short":"mtl-3","host":"mtl-1.ca.uncletopia.com","port":27035,"enabled":true,"region":"us-east","cc":"ca","latitude":45.50889,"longitude":-73.56167,"reserved":0,"last_update":"0001-01-01T00:00:00Z","name_a2s":"Uncletopia | Montr√©al | 3 | All Maps","protocol":17,"map":"koth_highpass","folder":"tf","game":"Team Fortress","app_id":440,"player_count":0,"max_players":24,"Bots":0,"server_type":"Dedicated","server_os":"Linux","password":true,"vac":true,"version":"7882260","steam_id":85568392924500089,"keywords":["cp","nocrits","nodmgspread","uncletopia"],"game_id":440,"stv_port":27036,"stv_name":"Uncletopia | Montr√©al | 3 | All Maps | STV","players":null},{"server_id":303,"name":"Uncletopia | Montr√©al | 4 | No Payload","name_short":"mtl-4","host":"mtl-1.ca.uncletopia.com","port":27045,"enabled":true,"region":"us-east","cc":"ca","latitude":45.50889,"longitude":-73.56167,"reserved":0,"last_update":"0001-01-01T00:00:00Z","name_a2s":"Uncletopia | Montr√©al | 4 | No Payload","protocol":17,"map":"koth_highpass","folder":"tf","game":"Team Fortress","app_id":440,"player_count":0,"max_players":24,"Bots":0,"server_type":"Dedicated","server_os":"Linux","password":true,"vac":true,"version":"7882260","steam_id":85568392924500090,"keywords":["cp","nocrits","nodmgspread","uncletopia"],"game_id":440,"stv_port":27046,"stv_name":"Uncletopia | Montr√©al | 4 | No Payload | STV","players":null},{"server_id":13,"name":"Uncletopia | New York City | 1 | All Maps","name_short":"nyc-1","host":"nyc-1.us.uncletopia.com","port":27015,"enabled":true,"region":"us-east","cc":"us","latitude":40.73061,"longitude":-73.93524,"reserved":0,"last_update":"0001-01-01T00:00:00Z","name_a2s":"Uncletopia | New York City | 1 | All Maps","protocol":17,"map":"pl_swiftwater_final1","folder":"tf","game":"Team Fortress","app_id":440,"player_count":24,"max_players":24,"Bots":0,"server_type":"Dedicated","server_os":"Linux","password":true,"vac":true,"version":"7882260","steam_id":85568392924469993,"keywords":["nocrits","nodmgspread","payload","uncletopia"],"game_id":440,"stv_port":27016,"stv_name":"Uncletopia | New York City | 1 | All Maps | STV","players":[{"user_id":117,"name":"Conkamonk","steam_id":76561198109878524,"connected_time":418000000000,"state":"active","ping":28},{"user_id":106,"name":"SireOfTheSun","steam_id":76561199049465503,"connected_time":1018000000000,"state":"active","ping":46},{"user_id":113,"name":"pancake","steam_id":76561199071416407,"connected_time":757000000000,"state":"active","ping":97},{"user_id":107,"name":"Jo","steam_id":76561198060447015,"connected_time":1014000000000,"state":"active","ping":71},{"user_id":68,"name":"Orenji","steam_id":76561199229204857,"connected_time":4623000000000,"state":"active","ping":122},{"user_id":93,"name":"SpazBot","steam_id":76561198040099767,"connected_time":2674000000000,"state":"active","ping":78},{"user_id":72,"name":"IMM0RTAL","steam_id":76561198013747901,"connected_time":4424000000000,"state":"active","ping":64},{"user_id":119,"name":"BudTuggly","steam_id":76561198026873580,"connected_time":382000000000,"state":"active","ping":65},{"user_id":101,"name":"katryna","steam_id":76561198023440304,"connected_time":1676000000000,"state":"active","ping":76},{"user_id":118,"name":"BuncusBeffer","steam_id":76561198285936616,"connected_time":414000000000,"state":"active","ping":136},{"user_id":114,"name":"richarven","steam_id":76561198189429665,"connected_time":735000000000,"state":"active","ping":79},{"user_id":115,"name":"JHLO","steam_id":76561198074359967,"connected_time":486000000000,"state":"active","ping":74},{"user_id":120,"name":"mistah ham","steam_id":76561198880365394,"connected_time":312000000000,"state":"active","ping":76},{"user_id":96,"name":"Sipder","steam_id":76561198147474387,"connected_time":2654000000000,"state":"active","ping":80},{"user_id":108,"name":"CrazyKermitRubes","steam_id":76561198009065204,"connected_time":1005000000000,"state":"active","ping":65},{"user_id":109,"name":"nefarious criminal","steam_id":76561198077506415,"connected_time":1003000000000,"state":"active","ping":45},{"user_id":111,"name":"Bulletbombat","steam_id":76561199122280347,"connected_time":979000000000,"state":"active","ping":70},{"user_id":122,"name":"Ventastega","steam_id":76561197999366317,"connected_time":68000000000,"state":"active","ping":98},{"user_id":116,"name":"hawk32791","steam_id":76561197991045735,"connected_time":442000000000,"state":"active","ping":56},{"user_id":100,"name":"Jane","steam_id":76561198353961509,"connected_time":1760000000000,"state":"active","ping":43},{"user_id":110,"name":"joyeuxnoelle","steam_id":76561198062423120,"connected_time":990000000000,"state":"active","ping":56},{"user_id":78,"name":"Mecha","steam_id":76561198014927379,"connected_time":4362000000000,"state":"active","ping":73},{"user_id":83,"name":"Sneetch [sRb]","steam_id":76561197996693506,"connected_time":3982000000000,"state":"active","ping":108},{"user_id":121,"name":"frank","steam_id":76561198045499333,"connected_time":251000000000,"state":"active","ping":84}]},{"server_id":14,"name":"Uncletopia | New York City | 2 | All Maps","name_short":"nyc-2","host":"nyc-1.us.uncletopia.com","port":27025,"enabled":true,"region":"us-east","cc":"us","latitude":40.73061,"longitude":-73.93524,"reserved":0,"last_update":"0001-01-01T00:00:00Z","name_a2s":"Uncletopia | New York City | 2 | All Maps","protocol":17,"map":"pl_frontier_final","folder":"tf","game":"Team Fortress","app_id":440,"player_count":22,"max_players":24,"Bots":0,"server_type":"Dedicated","server_os":"Linux","password":true,"vac":true,"version":"7882260","steam_id":85568392924469994,"keywords":["nocrits","nodmgspread","payload","uncletopia"],"game_id":440,"stv_port":27026,"stv_name":"Uncletopia | New York City | 2 | All Maps | STV","players":[{"user_id":4,"name":"Dramatic","steam_id":76561199012990268,"connected_time":1972000000000,"state":"active","ping":44},{"user_id":5,"name":"Pyre","steam_id":76561198031623189,"connected_time":1877000000000,"state":"active","ping":82},{"user_id":6,"name":"starvin marvin","steam_id":76561198347286009,"connected_time":1391000000000,"state":"active","ping":55},{"user_id":7,"name":"dnaak","steam_id":76561197960489193,"connected_time":1383000000000,"state":"active","ping":61},{"user_id":30,"name":"Chaotic Rushu","steam_id":76561198170054407,"connected_time":4000000000,"state":"spawning","ping":77},{"user_id":9,"name":"parque","steam_id":76561198088325483,"connected_time":1122000000000,"state":"active","ping":105},{"user_id":10,"name":"kyzzbotrue","steam_id":76561199213289839,"connected_time":850000000000,"state":"active","ping":192},{"user_id":13,"name":"Dragorhino","steam_id":76561198882000484,"connected_time":816000000000,"state":"active","ping":48},{"user_id":12,"name":"Asanez3","steam_id":76561198037381436,"connected_time":840000000000,"state":"active","ping":56},{"user_id":14,"name":"Carlos Spartan","steam_id":76561198362047478,"connected_time":790000000000,"state":"active","ping":104},{"user_id":15,"name":"Mediocre Medic","steam_id":76561198006569710,"connected_time":747000000000,"state":"active","ping":70},{"user_id":20,"name":"LolExxDee","steam_id":76561198117370849,"connected_time":484000000000,"state":"active","ping":83},{"user_id":17,"name":"AbbyRoads","steam_id":76561198868564212,"connected_time":694000000000,"state":"active","ping":70},{"user_id":29,"name":"you forgot the sauce","steam_id":76561198387016713,"connected_time":201000000000,"state":"active","ping":58},{"user_id":19,"name":"spy","steam_id":76561198364943570,"connected_time":567000000000,"state":"active","ping":46},{"user_id":21,"name":"Spiral Mountain","steam_id":76561198058683715,"connected_time":484000000000,"state":"active","ping":66},{"user_id":22,"name":"Uncle Dogster","steam_id":76561198018922424,"connected_time":482000000000,"state":"active","ping":81},{"user_id":23,"name":"priva","steam_id":76561198217537653,"connected_time":429000000000,"state":"active","ping":75},{"user_id":24,"name":"Guil","steam_id":76561197993289176,"connected_time":427000000000,"state":"active","ping":69},{"user_id":31,"name":"Jfrvl Gvl","steam_id":76561199013465852,"connected_time":0,"state":"connecting","ping":0},{"user_id":27,"name":"Zhenaj","steam_id":76561199209016136,"connected_time":274000000000,"state":"active","ping":60},{"user_id":28,"name":"Jackie Bnuyy {{Trans Rights}}","steam_id":76561198804886675,"connected_time":227000000000,"state":"active","ping":70}]},{"server_id":15,"name":"Uncletopia | New York City | 3 | Stopwatch Beta","name_short":"nyc-3","host":"nyc-1.us.uncletopia.com","port":27035,"enabled":true,"region":"us-east","cc":"us","latitude":40.73061,"longitude":-73.93524,"reserved":0,"last_update":"0001-01-01T00:00:00Z","name_a2s":"Uncletopia | New York City | 3 | Stopwatch Beta","protocol":17,"map":"pl_borneo","folder":"tf","game":"Team Fortress","app_id":440,"player_count":0,"max_players":24,"Bots":0,"server_type":"Dedicated","server_os":"Linux","password":true,"vac":true,"version":"7882260","steam_id":85568392924742820,"keywords":["nocrits","nodmgspread","payload","uncletopia"],"game_id":440,"stv_port":27036,"stv_name":"Uncletopia | New York City | 3 | Stopwatch Beta | STV","players":null},{"server_id":16,"name":"Uncletopia | New York City | 4 | Community","name_short":"nyc-4","host":"nyc-1.us.uncletopia.com","port":27045,"enabled":true,"region":"us-east","cc":"us","latitude":40.73061,"longitude":-73.93524,"reserved":0,"last_update":"0001-01-01T00:00:00Z","name_a2s":"Uncletopia | New York City | 4 | Community","protocol":17,"map":"cp_altitude","folder":"tf","game":"Team Fortress","app_id":440,"player_count":0,"max_players":24,"Bots":0,"server_type":"Dedicated","server_os":"Linux","password":true,"vac":true,"version":"7882260","steam_id":85568392924742821,"keywords":["cp","nocrits","nodmgspread","uncletopia"],"game_id":440,"stv_port":27046,"stv_name":"Uncletopia | New York City | 4 | Community | STV","players":null},{"server_id":142,"name":"Uncletopia | S√£o Paulo | 1 | All Maps","name_short":"sao-1","host":"sao-1.br.uncletopia.com","port":27015,"enabled":true,"region":"sa","cc":"br","latitude":-23.533773,"longitude":-46.62529,"reserved":0,"last_update":"0001-01-01T00:00:00Z","name_a2s":"Uncletopia | S√£o Paulo | 1 | All Maps","protocol":17,"map":"koth_viaduct","folder":"tf","game":"Team Fortress","app_id":440,"player_count":0,"max_players":24,"Bots":0,"server_type":"Dedicated","server_os":"Linux","password":true,"vac":true,"version":"7882260","steam_id":85568392924469996,"keywords":["cp","nocrits","nodmgspread","uncletopia"],"game_id":440,"stv_port":27016,"stv_name":"Uncletopia | S√£o Paulo | 1 | All Maps | STV","players":null},{"server_id":143,"name":"Uncletopia | S√£o Paulo | 2 | All Maps","name_short":"sao-2","host":"sao-2.br.uncletopia.com","port":27015,"enabled":true,"region":"sa","cc":"br","latitude":-23.533773,"longitude":-46.62529,"reserved":0,"last_update":"0001-01-01T00:00:00Z","name_a2s":"Uncletopia | S√£o Paulo | 2 | All Maps","protocol":17,"map":"koth_cascade","folder":"tf","game":"Team Fortress","app_id":440,"player_count":5,"max_players":24,"Bots":0,"server_type":"Dedicated","server_os":"Linux","password":true,"vac":true,"version":"7882260","steam_id":85568392924485349,"keywords":["cp","nocrits","nodmgspread","uncletopia"],"game_id":440,"stv_port":27016,"stv_name":"Uncletopia | S√£o Paulo | 2 | All Maps | STV","players":[{"user_id":5,"name":"BobRovskii","steam_id":76561199068919370,"connected_time":2614000000000,"state":"active","ping":281},{"user_id":6,"name":"Freeman","steam_id":76561199205650709,"connected_time":2526000000000,"state":"active","ping":267},{"user_id":7,"name":"Zaparol","steam_id":76561198971733797,"connected_time":2239000000000,"state":"active","ping":69},{"user_id":13,"name":"Lish","steam_id":76561199382722647,"connected_time":669000000000,"state":"active","ping":103},{"user_id":14,"name":"LargChld","steam_id":76561199257254927,"connected_time":277000000000,"state":"active","ping":184}]},{"server_id":7,"name":"Uncletopia | Seattle | 1 | All Maps","name_short":"sea-1","host":"sea-1.us.uncletopia.com","port":27015,"enabled":true,"region":"us-west","cc":"us","latitude":47.608013,"longitude":-122.33517,"reserved":0,"last_update":"0001-01-01T00:00:00Z","name_a2s":"Uncletopia | Seattle | 1 | All Maps","protocol":17,"map":"pl_badwater","folder":"tf","game":"Team Fortress","app_id":440,"player_count":0,"max_players":24,"Bots":0,"server_type":"Dedicated","server_os":"Linux","password":true,"vac":true,"version":"7882260","steam_id":85568392924469997,"keywords":["nocrits","nodmgspread","payload","uncletopia"],"game_id":440,"stv_port":27016,"stv_name":"Uncletopia | Seattle | 1 | All Maps | STV","players":null},{"server_id":119,"name":"Uncletopia | Seattle | 2 | All Maps","name_short":"sea-2","host":"sea-1.us.uncletopia.com","port":27025,"enabled":true,"region":"us-west","cc":"us","latitude":47.608013,"longitude":-122.33517,"reserved":0,"last_update":"0001-01-01T00:00:00Z","name_a2s":"Uncletopia | Seattle | 2 | All Maps","protocol":17,"map":"koth_highpass","folder":"tf","game":"Team Fortress","app_id":440,"player_count":0,"max_players":24,"Bots":0,"server_type":"Dedicated","server_os":"Linux","password":true,"vac":true,"version":"7882260","steam_id":85568392924469998,"keywords":["cp","nocrits","nodmgspread","uncletopia"],"game_id":440,"stv_port":27026,"stv_name":"Uncletopia | Seattle | 2 | All Maps | STV","players":null},{"server_id":406,"name":"Uncletopia | Seattle | 3 | Stopwatch Beta","name_short":"sea-3","host":"sea-1.us.uncletopia.com","port":27035,"enabled":true,"region":"us-west","cc":"us","latitude":47.608013,"longitude":-122.33517,"reserved":0,"last_update":"0001-01-01T00:00:00Z","name_a2s":"Uncletopia | Seattle | 3 | Stopwatch Beta","protocol":17,"map":"koth_viaduct","folder":"tf","game":"Team Fortress","app_id":440,"player_count":0,"max_players":24,"Bots":0,"server_type":"Dedicated","server_os":"Linux","password":true,"vac":true,"version":"7882260","steam_id":85568392924515217,"keywords":["cp","nocrits","nodmgspread","uncletopia"],"game_id":440,"stv_port":27036,"stv_name":"Uncletopia | Seattle | 3 | Stopwatch Beta | STV","players":null},{"server_id":17,"name":"Uncletopia | San Francisco | 1 | All Maps","name_short":"sfo-1","host":"sfo-1.us.uncletopia.com","port":27015,"enabled":true,"region":"us-west","cc":"us","latitude":37.77397,"longitude":-122.4313,"reserved":0,"last_update":"0001-01-01T00:00:00Z","name_a2s":"Uncletopia | San Francisco | 1 | All Maps","protocol":17,"map":"koth_viaduct","folder":"tf","game":"Team Fortress","app_id":440,"player_count":0,"max_players":24,"Bots":0,"server_type":"Dedicated","server_os":"Linux","password":true,"vac":true,"version":"7882260","steam_id":85568392924469999,"keywords":["cp","nocrits","nodmgspread","uncletopia"],"game_id":440,"stv_port":27016,"stv_name":"Uncletopia | San Francisco | 1 | All Maps | STV","players":null},{"server_id":18,"name":"Uncletopia | San Francisco | 2 | All Maps","name_short":"sfo-2","host":"sfo-1.us.uncletopia.com","port":27025,"enabled":true,"region":"us-west","cc":"us","latitude":37.77397,"longitude":-122.4313,"reserved":0,"last_update":"0001-01-01T00:00:00Z","name_a2s":"Uncletopia | San Francisco | 2 | All Maps","protocol":17,"map":"pl_snowycoast","folder":"tf","game":"Team Fortress","app_id":440,"player_count":23,"max_players":24,"Bots":0,"server_type":"Dedicated","server_os":"Linux","password":true,"vac":true,"version":"7882260","steam_id":85568392924470000,"keywords":["nocrits","nodmgspread","payload","uncletopia"],"game_id":440,"stv_port":27026,"stv_name":"Uncletopia | San Francisco | 2 | All Maps | STV","players":[{"user_id":164,"name":"RavingLuntic","steam_id":76561198010360784,"connected_time":867000000000,"state":"active","ping":51},{"user_id":66,"name":"Likeia #Savetf2","steam_id":76561198005214207,"connected_time":6576000000000,"state":"active","ping":91},{"user_id":175,"name":"retaW","steam_id":76561198308097092,"connected_time":199000000000,"state":"active","ping":93},{"user_id":163,"name":"HollowMan","steam_id":76561198967266827,"connected_time":986000000000,"state":"active","ping":129},{"user_id":142,"name":"grilled cheese","steam_id":76561198882986104,"connected_time":2979000000000,"state":"active","ping":133},{"user_id":77,"name":"jay","steam_id":76561199474493516,"connected_time":5786000000000,"state":"active","ping":59},{"user_id":166,"name":"Dawg","steam_id":76561198214090164,"connected_time":798000000000,"state":"active","ping":111},{"user_id":139,"name":"yoooooooooo chill","steam_id":76561199100342013,"connected_time":3127000000000,"state":"active","ping":57},{"user_id":162,"name":"‚ô•Lyra‚ô•","steam_id":76561198092853824,"connected_time":1229000000000,"state":"active","ping":115},{"user_id":147,"name":"Dimple #TF2Center","steam_id":76561198980324190,"connected_time":2562000000000,"state":"active","ping":68},{"user_id":155,"name":"Chorizo","steam_id":76561198208080773,"connected_time":1768000000000,"state":"active","ping":76},{"user_id":172,"name":"Swag Messiah","steam_id":76561198970803382,"connected_time":297000000000,"state":"active","ping":65},{"user_id":125,"name":"Coup de Grass","steam_id":76561198011643226,"connected_time":4275000000000,"state":"active","ping":119},{"user_id":165,"name":"S1B0RG2","steam_id":76561198103951211,"connected_time":844000000000,"state":"active","ping":78},{"user_id":173,"name":"old_gus","steam_id":76561197964214993,"connected_time":279000000000,"state":"active","ping":61},{"user_id":171,"name":"World's Smartest Dumbass","steam_id":76561198031792106,"connected_time":372000000000,"state":"active","ping":102},{"user_id":161,"name":"SAD MOSCOVIA","steam_id":76561198101081520,"connected_time":1325000000000,"state":"active","ping":86},{"user_id":109,"name":"YoyoMama","steam_id":76561198260113828,"connected_time":5251000000000,"state":"active","ping":55},{"user_id":168,"name":"sprinkledcereal","steam_id":76561198412600420,"connected_time":427000000000,"state":"active","ping":67},{"user_id":68,"name":"Terminal Brain Rot","steam_id":76561198112594672,"connected_time":6553000000000,"state":"active","ping":111},{"user_id":121,"name":"Buakaw","steam_id":76561199067143694,"connected_time":4929000000000,"state":"active","ping":60},{"user_id":31,"name":"Phoenix","steam_id":76561197971265992,"connected_time":8875000000000,"state":"active","ping":71},{"user_id":110,"name":"mitch caught a body bout a week","steam_id":76561198199258353,"connected_time":5249000000000,"state":"active","ping":104}]},{"server_id":19,"name":"Uncletopia | San Francisco | 3 | Stopwatch Beta","name_short":"sfo-3","host":"sfo-1.us.uncletopia.com","port":27035,"enabled":true,"region":"us-west","cc":"us","latitude":37.77397,"longitude":-122.4313,"reserved":0,"last_update":"0001-01-01T00:00:00Z","name_a2s":"Uncletopia | San Francisco | 3 | Stopwatch Beta","protocol":17,"map":"pl_snowycoast","folder":"tf","game":"Team Fortress","app_id":440,"player_count":0,"max_players":24,"Bots":0,"server_type":"Dedicated","server_os":"Linux","password":true,"vac":true,"version":"7882260","steam_id":85568392924742824,"keywords":["nocrits","nodmgspread","payload","uncletopia"],"game_id":440,"stv_port":27036,"stv_name":"Uncletopia | San Francisco | 3 | Stopwatch Beta | STV","players":null},{"server_id":20,"name":"Uncletopia | San Francisco | 4 | Community","name_short":"sfo-4","host":"sfo-1.us.uncletopia.com","port":27045,"enabled":true,"region":"us-west","cc":"us","latitude":37.77397,"longitude":-122.4313,"reserved":0,"last_update":"0001-01-01T00:00:00Z","name_a2s":"Uncletopia | San Francisco | 4 | Community","protocol":17,"map":"pl_swiftwater_final1","folder":"tf","game":"Team Fortress","app_id":440,"player_count":0,"max_players":24,"Bots":0,"server_type":"Dedicated","server_os":"Linux","password":true,"vac":true,"version":"7882260","steam_id":85568392924742826,"keywords":["nocrits","nodmgspread","payload","uncletopia"],"game_id":440,"stv_port":27046,"stv_name":"Uncletopia | San Francisco | 4 | Community | STV","players":null},{"server_id":141,"name":"Uncletopia | Sydney | 1 | All Maps","name_short":"syd-1","host":"syd-1.au.uncletopia.com","port":27015,"enabled":true,"region":"au","cc":"au","latitude":-33.865143,"longitude":151.2099,"reserved":0,"last_update":"0001-01-01T00:00:00Z","name_a2s":"Uncletopia | Sydney | 1 | All Maps","protocol":17,"map":"pl_borneo","folder":"tf","game":"Team Fortress","app_id":440,"player_count":0,"max_players":24,"Bots":0,"server_type":"Dedicated","server_os":"Linux","password":true,"vac":true,"version":"7882260","steam_id":85568392924470001,"keywords":["nocrits","nodmgspread","payload","uncletopia"],"game_id":440,"stv_port":27016,"stv_name":"Uncletopia | Sydney | 1 | All Maps | STV","players":null},{"server_id":123,"name":"Uncletopia | Sydney | 2 | All Maps","name_short":"syd-2","host":"syd-1.au.uncletopia.com","port":27025,"enabled":true,"region":"au","cc":"au","latitude":-33.865143,"longitude":151.2099,"reserved":0,"last_update":"0001-01-01T00:00:00Z","name_a2s":"Uncletopia | Sydney | 2 | All Maps","protocol":17,"map":"pl_pier","folder":"tf","game":"Team Fortress","app_id":440,"player_count":0,"max_players":24,"Bots":0,"server_type":"Dedicated","server_os":"Linux","password":true,"vac":true,"version":"7882260","steam_id":85568392924470002,"keywords":["nocrits","nodmgspread","payload","uncletopia"],"game_id":440,"stv_port":27026,"stv_name":"Uncletopia | Sydney | 2 | All Maps | STV","players":null},{"server_id":395,"name":"Uncletopia | Sydney | 3 | All Maps","name_short":"syd-3","host":"syd-1.au.uncletopia.com","port":27035,"enabled":true,"region":"au","cc":"au","latitude":-33.865143,"longitude":151.2099,"reserved":0,"last_update":"0001-01-01T00:00:00Z","name_a2s":"Uncletopia | Sydney | 3 | All Maps","protocol":17,"map":"koth_viaduct","folder":"tf","game":"Team Fortress","app_id":440,"player_count":0,"max_players":24,"Bots":0,"server_type":"Dedicated","server_os":"Linux","password":true,"vac":true,"version":"7882260","steam_id":85568392925194467,"keywords":["cp","nocrits","nodmgspread","uncletopia"],"game_id":440,"stv_port":27036,"stv_name":"Uncletopia | Sydney | 3 | All Maps | STV","players":null},{"server_id":396,"name":"Uncletopia | Sydney | 4 | All Maps","name_short":"syd-4","host":"syd-1.au.uncletopia.com","port":27045,"enabled":true,"region":"au","cc":"au","latitude":-33.865143,"longitude":151.2099,"reserved":0,"last_update":"0001-01-01T00:00:00Z","name_a2s":"Uncletopia | Sydney | 4 | All Maps","protocol":17,"map":"koth_highpass","folder":"tf","game":"Team Fortress","app_id":440,"player_count":0,"max_players":24,"Bots":0,"server_type":"Dedicated","server_os":"Linux","password":true,"vac":true,"version":"7882260","steam_id":85568392925397958,"keywords":["cp","nocrits","nodmgspread","uncletopia"],"game_id":440,"stv_port":27046,"stv_name":"Uncletopia | Sydney | 4 | All Maps | STV","players":null},{"server_id":58,"name":"Uncletopia | Sydney | 5 | Stopwatch Beta","name_short":"syd-5","host":"syd-1.au.uncletopia.com","port":27055,"enabled":true,"region":"au","cc":"au","latitude":-33.865143,"longitude":151.2099,"reserved":0,"last_update":"0001-01-01T00:00:00Z","name_a2s":"Uncletopia | Sydney | 5 | Stopwatch Beta","protocol":17,"map":"workshop/koth_ramjam_rc1.ugc459778887","folder":"tf","game":"Team Fortress","app_id":440,"player_count":0,"max_players":24,"Bots":0,"server_type":"Dedicated","server_os":"Linux","password":true,"vac":true,"version":"7882260","steam_id":85568392925397959,"keywords":["cp","nocrits","nodmgspread","uncletopia"],"game_id":440,"stv_port":27056,"stv_name":"Uncletopia | Sydney | 5 | Stopwatch Beta | STV","players":null},{"server_id":59,"name":"Uncletopia | Sydney | 6 | Community","name_short":"syd-6","host":"syd-1.au.uncletopia.com","port":27065,"enabled":true,"region":"au","cc":"au","latitude":-33.865143,"longitude":151.2099,"reserved":0,"last_update":"0001-01-01T00:00:00Z","name_a2s":"Uncletopia | Sydney | 6 | Community","protocol":17,"map":"workshop/koth_synthetic_rc6a.ugc1549817316","folder":"tf","game":"Team Fortress","app_id":440,"player_count":1,"max_players":24,"Bots":0,"server_type":"Dedicated","server_os":"Linux","password":true,"vac":true,"version":"7882260","steam_id":85568392925397960,"keywords":["cp","nocrits","nodmgspread","uncletopia"],"game_id":440,"stv_port":27066,"stv_name":"Uncletopia | Sydney | 6 | Community | STV","players":[{"user_id":17,"name":"Yukari Yakumo","steam_id":76561199057899370,"connected_time":1000000000,"state":"spawning","ping":169}]},{"server_id":49,"name":"Uncletopia | Warsaw | 1 | All Maps","name_short":"waw-1","host":"waw-1.pl.uncletopia.com","port":27015,"enabled":true,"region":"eu","cc":"pl","latitude":52.2297,"longitude":21.017532,"reserved":0,"last_update":"0001-01-01T00:00:00Z","name_a2s":"","protocol":0,"map":"","folder":"","game":"","app_id":0,"player_count":0,"max_players":0,"Bots":0,"server_type":"","server_os":"","password":false,"vac":false,"version":"","steam_id":0,"keywords":null,"game_id":0,"stv_port":0,"stv_name":"","players":null},{"server_id":50,"name":"Uncletopia | Warsaw | 2 | All Maps","name_short":"waw-2","host":"waw-1.pl.uncletopia.com","port":27025,"enabled":true,"region":"eu","cc":"pl","latitude":52.2297,"longitude":21.017532,"reserved":0,"last_update":"0001-01-01T00:00:00Z","name_a2s":"Uncletopia | Warsaw | 2 | All Maps","protocol":17,"map":"koth_viaduct","folder":"tf","game":"Team Fortress","app_id":440,"player_count":0,"max_players":24,"Bots":0,"server_type":"Dedicated","server_os":"Linux","password":true,"vac":true,"version":"7882260","steam_id":85568392925397851,"keywords":["cp","nocrits","nodmgspread","uncletopia"],"game_id":440,"stv_port":27026,"stv_name":"Uncletopia | Warsaw | 2 | All Maps | STV","players":null},{"server_id":51,"name":"Uncletopia | Warsaw | 3 | All Maps","name_short":"waw-3","host":"waw-1.pl.uncletopia.com","port":27035,"enabled":true,"region":"eu","cc":"pl","latitude":52.2297,"longitude":21.017532,"reserved":0,"last_update":"0001-01-01T00:00:00Z","name_a2s":"Uncletopia | Warsaw | 3 | All Maps","protocol":17,"map":"pl_swiftwater_final1","folder":"tf","game":"Team Fortress","app_id":440,"player_count":0,"max_players":24,"Bots":0,"server_type":"Dedicated","server_os":"Linux","password":true,"vac":true,"version":"7882260","steam_id":85568392925397852,"keywords":["nocrits","nodmgspread","payload","uncletopia"],"game_id":440,"stv_port":27036,"stv_name":"Uncletopia | Warsaw | 3 | All Maps | STV","players":null},{"server_id":52,"name":"Uncletopia | Warsaw | 4 | All Maps","name_short":"waw-4","host":"waw-1.pl.uncletopia.com","port":27045,"enabled":true,"region":"eu","cc":"pl","latitude":52.2297,"longitude":21.017532,"reserved":0,"last_update":"0001-01-01T00:00:00Z","name_a2s":"Uncletopia | Warsaw | 4 | All Maps","protocol":17,"map":"koth_cascade","folder":"tf","game":"Team Fortress","app_id":440,"player_count":0,"max_players":24,"Bots":0,"server_type":"Dedicated","server_os":"Linux","password":true,"vac":true,"version":"7882260","steam_id":85568392925397853,"keywords":["cp","nocrits","nodmgspread","uncletopia"],"game_id":440,"stv_port":27046,"stv_name":"Uncletopia | Warsaw | 4 | All Maps | STV","players":null},{"server_id":53,"name":"Uncletopia | Warsaw | 5 | Stopwatch Beta","name_short":"waw-5","host":"waw-1.pl.uncletopia.com","port":27055,"enabled":true,"region":"eu","cc":"pl","latitude":52.2297,"longitude":21.017532,"reserved":0,"last_update":"0001-01-01T00:00:00Z","name_a2s":"Uncletopia | Warsaw | 5 | Stopwatch Beta","protocol":17,"map":"cp_dustbowl","folder":"tf","game":"Team Fortress","app_id":440,"player_count":0,"max_players":24,"Bots":0,"server_type":"Dedicated","server_os":"Linux","password":true,"vac":true,"version":"7882260","steam_id":85568392925397854,"keywords":["cp","nocrits","nodmgspread","uncletopia"],"game_id":440,"stv_port":27056,"stv_name":"Uncletopia | Warsaw | 5 | Stopwatch Beta | STV","players":null},{"server_id":54,"name":"Uncletopia | Warsaw | 6 | Community","name_short":"waw-6","host":"waw-1.pl.uncletopia.com","port":27065,"enabled":true,"region":"eu","cc":"pl","latitude":52.2297,"longitude":21.017532,"reserved":0,"last_update":"0001-01-01T00:00:00Z","name_a2s":"Uncletopia | Warsaw | 6 | Community","protocol":17,"map":"workshop/koth_bagel_rc6.ugc2514036946","folder":"tf","game":"Team Fortress","app_id":440,"player_count":0,"max_players":24,"Bots":0,"server_type":"Dedicated","server_os":"Linux","password":true,"vac":true,"version":"7882260","steam_id":85568392925397856,"keywords":["cp","nocrits","nodmgspread","uncletopia"],"game_id":440,"stv_port":27066,"stv_name":"Uncletopia | Warsaw | 6 | Community | STV","players":null}]}