{"status":true,"message":"","result":[{"server_id":9,"name":"Uncletopia | Atlanta | 1 | All Maps","name_short":"atl-1","host":"atl-1.us.uncletopia.com","port":27015,"enabled":true,"region":"us-east","cc":"us","latitude":33.753746,"longitude":-84.38633,"reserved":0,"last_update":"0001-01-01T00:00:00Z","name_a2s":"Uncletopia | Atlanta | 1 | All Maps","protocol":17,"map":"pl_snowycoast","folder":"tf","game":"Team Fortress","app_id":440,"player_count":24,"max_players":24,"Bots":0,"server_type":"Dedicated","server_os":"Linux","password":true,"vac":true,"version":"7723704","steam_id":85568392924469982,"keywords":["nocrits","nodmgspread","payload","uncletopia"],"game_id":440,"stv_port":27016,"stv_name":"Uncletopia | Atlanta | 1 | All Maps | STV","players":[{"user_id":62,"name":"Don Piccolo","steam_id":76561198118539302,"connected_time":862000000000,"state":"active","ping":77},{"user_id":6,"name":"Bunt","steam_id":76561198124477567,"connected_time":5398000000000,"state":"active","ping":37},{"user_id":44,"name":"*","steam_id":76561198289280906,"connected_time":4170000000000,"state":"active","ping":81},{"user_id":45,"name":"McCassidy","steam_id":76561198125292426,"connected_time":3530000000000,"state":"active","ping":60},{"user_id":64,"name":"Goob","steam_id":76561198326469586,"connected_time":820000000000,"state":"active","ping":86},{"user_id":46,"name":"Daksuki","steam_id":76561198084127751,"connected_time":3366000000000,"state":"active","ping":79},{"user_id":68,"name":"Try Gardening","steam_id":76561198120311340,"connected_time":745000000000,"state":"active","ping":66},{"user_id":78,"name":"Testosterone Dan","steam_id":76561197995058890,"connected_time":27000000000,"state":"active","ping":158},{"user_id":14,"name":"Nyle","steam_id":76561198045652639,"connected_time":5148000000000,"state":"active","ping":109},{"user_id":42,"name":"Uung","steam_id":76561198183956731,"connected_time":4179000000000,"state":"active","ping":46},{"user_id":66,"name":"Bartleby","steam_id":76561198028522711,"connected_time":776000000000,"state":"active","ping":58},{"user_id":69,"name":"Diggity","steam_id":76561198297157085,"connected_time":744000000000,"state":"active","ping":126},{"user_id":49,"name":"Mury","steam_id":76561198069743049,"connected_time":2812000000000,"state":"active","ping":91},{"user_id":52,"name":"3am Mail-in Ballot Dump","steam_id":76561198008531707,"connected_time":2765000000000,"state":"active","ping":52},{"user_id":71,"name":"DuckMann","steam_id":76561198197058638,"connected_time":580000000000,"state":"active","ping":61},{"user_id":72,"name":"corben.dallas06","steam_id":76561198123252829,"connected_time":572000000000,"state":"active","ping":157},{"user_id":77,"name":"mosnar","steam_id":76561199088864128,"connected_time":250000000000,"state":"active","ping":107},{"user_id":59,"name":"PH","steam_id":76561198019693197,"connected_time":1546000000000,"state":"active","ping":63},{"user_id":74,"name":"Atlas","steam_id":76561198127975050,"connected_time":472000000000,"state":"active","ping":52},{"user_id":75,"name":"ATL1 | J O V A","steam_id":76561198090333536,"connected_time":462000000000,"state":"active","ping":65},{"user_id":60,"name":"CaucasianShaq","steam_id":76561198351623516,"connected_time":1362000000000,"state":"active","ping":66},{"user_id":56,"name":"dedeagle(147)","steam_id":76561198093706934,"connected_time":2049000000000,"state":"active","ping":106},{"user_id":35,"name":"eredyn","steam_id":76561198868116439,"connected_time":4319000000000,"state":"active","ping":76},{"user_id":58,"name":"KRELLAH","steam_id":76561198287045069,"connected_time":1845000000000,"state":"active","ping":76}]},{"server_id":400,"name":"Uncletopia | Atlanta | 3 | All Maps","name_short":"atl-3","host":"atl-1.us.uncletopia.com","port":27035,"enabled":true,"region":"us-east","cc":"us","latitude":33.753746,"longitude":-84.38633,"reserved":0,"last_update":"0001-01-01T00:00:00Z","name_a2s":"Uncletopia | Atlanta | 3 | All Maps","protocol":17,"map":"cp_sunshine","folder":"tf","game":"Team Fortress","app_id":440,"player_count":0,"max_players":24,"Bots":0,"server_type":"Dedicated","server_os":"Linux","password":true,"vac":true,"version":"7723704","steam_id":85568392924515187,"keywords":["cp","nocrits","nodmgspread","uncletopia"],"game_id":440,"stv_port":27036,"stv_name":"Uncletopia | Atlanta | 3 | All Maps | STV","players":null},{"server_id":401,"name":"Uncletopia | Atlanta | 4 | No Payload","name_short":"atl-4","host":"atl-1.us.uncletopia.com","port":27045,"enabled":true,"region":"us-east","cc":"us","latitude":33.753746,"longitude":-84.38633,"reserved":0,"last_update":"0001-01-01T00:00:00Z","name_a2s":"Uncletopia | Atlanta | 4 | No Payload","protocol":17,"map":"cp_mercenarypark","folder":"tf","game":"Team Fortress","app_id":440,"player_count":0,"max_players":24,"Bots":0,"server_type":"Dedicated","server_os":"Linux","password":true,"vac":true,"version":"7723704","steam_id":85568392924515188,"keywords":["cp","nocrits","nodmgspread","uncletopia"],"game_id":440,"stv_port":27046,"stv_name":"Uncletopia | Atlanta | 4 | No Payload | STV","players":null},{"server_id":2,"name":"Uncletopia | Chicago | 1 | All Maps","name_short":"chi-1","host":"chi-1.us.uncletopia.com","port":27015,"enabled":true,"region":"us-central","cc":"us","latitude":41.881832,"longitude":-87.62318,"reserved":0,"last_update":"0001-01-01T00:00:00Z","name_a2s":"Uncletopia | Chicago | 1 | All Maps","protocol":17,"map":"pl_upward","folder":"tf","game":"Team Fortress","app_id":440,"player_count":24,"max_players":24,"Bots":0,"server_type":"Dedicated","server_os":"Linux","password":true,"vac":true,"version":"7723704","steam_id":85568392924469984,"keywords":["nocrits","nodmgspread","payload","uncletopia"],"game_id":440,"stv_port":27016,"stv_name":"Uncletopia | Chicago | 1 | All Maps | STV","players":[{"user_id":3,"name":"√íw√ì","steam_id":76561197997304387,"connected_time":20968000000000,"state":"active","ping":61},{"user_id":153,"name":"femboy beats","steam_id":76561199245717718,"connected_time":8214000000000,"state":"active","ping":52},{"user_id":230,"name":"raphyy\"","steam_id":76561197997207768,"connected_time":617000000000,"state":"active","ping":145},{"user_id":171,"name":"PupB","steam_id":76561198046951406,"connected_time":7105000000000,"state":"active","ping":53},{"user_id":231,"name":"peter griffin","steam_id":76561198091218772,"connected_time":604000000000,"state":"active","ping":127},{"user_id":229,"name":"Sylvaris","steam_id":76561198156678773,"connected_time":725000000000,"state":"active","ping":75},{"user_id":214,"name":"Shinu","steam_id":76561198243188782,"connected_time":1657000000000,"state":"active","ping":75},{"user_id":162,"name":"riley","steam_id":76561198133142520,"connected_time":7658000000000,"state":"active","ping":82},{"user_id":215,"name":"the hungry","steam_id":76561197979090955,"connected_time":1633000000000,"state":"active","ping":89},{"user_id":228,"name":"floppy muppet","steam_id":76561198003076261,"connected_time":787000000000,"state":"active","ping":83},{"user_id":196,"name":"Fitts1099","steam_id":76561198044986906,"connected_time":3357000000000,"state":"active","ping":47},{"user_id":222,"name":"Chezburgures","steam_id":76561198173043730,"connected_time":1372000000000,"state":"active","ping":109},{"user_id":223,"name":"tame","steam_id":76561198925005855,"connected_time":1170000000000,"state":"active","ping":192},{"user_id":216,"name":"Deborp","steam_id":76561198118868430,"connected_time":1627000000000,"state":"active","ping":107},{"user_id":221,"name":"Now I'm a Little Motivated","steam_id":76561198069580305,"connected_time":1429000000000,"state":"active","ping":53},{"user_id":186,"name":"Errrmmett","steam_id":76561198041314051,"connected_time":4930000000000,"state":"active","ping":59},{"user_id":213,"name":"Professor Shaggy","steam_id":76561198276926724,"connected_time":1668000000000,"state":"active","ping":57},{"user_id":161,"name":"Oak","steam_id":76561198092135570,"connected_time":7974000000000,"state":"active","ping":60},{"user_id":184,"name":"HalfEatenBurrito","steam_id":76561198091791089,"connected_time":5446000000000,"state":"active","ping":98},{"user_id":226,"name":"Frajer","steam_id":76561198059129680,"connected_time":849000000000,"state":"active","ping":80},{"user_id":232,"name":"Eins","steam_id":76561199030343810,"connected_time":483000000000,"state":"active","ping":54},{"user_id":177,"name":"walrus2","steam_id":76561199079614516,"connected_time":6693000000000,"state":"active","ping":50},{"user_id":164,"name":"Drachma","steam_id":76561198007310514,"connected_time":7414000000000,"state":"active","ping":54},{"user_id":200,"name":"Winter","steam_id":76561198312741335,"connected_time":3053000000000,"state":"active","ping":147}]},{"server_id":106,"name":"Uncletopia | Chicago | 2 | All Maps","name_short":"chi-2","host":"chi-1.us.uncletopia.com","port":27025,"enabled":true,"region":"us-central","cc":"us","latitude":41.881832,"longitude":-87.62318,"reserved":0,"last_update":"0001-01-01T00:00:00Z","name_a2s":"Uncletopia | Chicago | 2 | All Maps","protocol":17,"map":"koth_lakeside_final","folder":"tf","game":"Team Fortress","app_id":440,"player_count":0,"max_players":24,"Bots":0,"server_type":"Dedicated","server_os":"Linux","password":true,"vac":true,"version":"7723704","steam_id":85568392924469985,"keywords":["cp","nocrits","nodmgspread","uncletopia"],"game_id":440,"stv_port":27026,"stv_name":"Uncletopia | Chicago | 2 | All Maps | STV","players":null},{"server_id":402,"name":"Uncletopia | Chicago | 3 | All Maps","name_short":"chi-3","host":"chi-1.us.uncletopia.com","port":27035,"enabled":true,"region":"us-central","cc":"us","latitude":41.881832,"longitude":-87.62318,"reserved":0,"last_update":"0001-01-01T00:00:00Z","name_a2s":"Uncletopia | Chicago | 3 | All Maps","protocol":17,"map":"pl_upward","folder":"tf","game":"Team Fortress","app_id":440,"player_count":24,"max_players":24,"Bots":0,"server_type":"Dedicated","server_os":"Linux","password":true,"vac":true,"version":"7723704","steam_id":85568392924515191,"keywords":["nocrits","nodmgspread","payload","uncletopia"],"game_id":440,"stv_port":27036,"stv_name":"Uncletopia | Chicago | 3 | All Maps | STV","players":[{"user_id":18,"name":"DorkMuffin","steam_id":76561198306403258,"connected_time":3442000000000,"state":"active","ping":67},{"user_id":60,"name":"carrion goat","steam_id":76561198262064871,"connected_time":657000000000,"state":"active","ping":64},{"user_id":65,"name":"DualiTea","steam_id":76561198081733870,"connected_time":311000000000,"state":"active","ping":58},{"user_id":59,"name":"Elizabeth truss","steam_id":76561198058250979,"connected_time":678000000000,"state":"active","ping":62},{"user_id":70,"name":"Do Moose go Moo?","steam_id":76561198073550620,"connected_time":7000000000,"state":"spawning","ping":59},{"user_id":51,"name":"Pep Seeman","steam_id":76561198038393007,"connected_time":1580000000000,"state":"active","ping":45},{"user_id":66,"name":"fooly cooly","steam_id":76561198071271392,"connected_time":259000000000,"state":"active","ping":89},{"user_id":26,"name":"kametro4","steam_id":76561198835430429,"connected_time":2745000000000,"state":"active","ping":83},{"user_id":30,"name":"CJAIME01345","steam_id":76561199091599141,"connected_time":2026000000000,"state":"active","ping":130},{"user_id":31,"name":"Void","steam_id":76561198308290211,"connected_time":2018000000000,"state":"active","ping":136},{"user_id":64,"name":"Outermootmoot","steam_id":76561198987551326,"connected_time":477000000000,"state":"active","ping":76},{"user_id":69,"name":"vulture pupy","steam_id":76561198061963965,"connected_time":127000000000,"state":"active","ping":71},{"user_id":55,"name":"Crunchy","steam_id":76561198060342804,"connected_time":916000000000,"state":"active","ping":66},{"user_id":57,"name":"extinct111","steam_id":76561199013696367,"connected_time":779000000000,"state":"active","ping":60},{"user_id":36,"name":"Cooldude_15","steam_id":76561198346713382,"connected_time":1888000000000,"state":"active","ping":44},{"user_id":38,"name":"Winter the Witchie","steam_id":76561198151971178,"connected_time":1857000000000,"state":"active","ping":54},{"user_id":61,"name":"Pandamonia","steam_id":76561198237125154,"connected_time":641000000000,"state":"active","ping":82},{"user_id":48,"name":"Snowprah Run Wintertown","steam_id":76561198025165748,"connected_time":1693000000000,"state":"active","ping":60},{"user_id":62,"name":"taco","steam_id":76561198012442818,"connected_time":594000000000,"state":"active","ping":54},{"user_id":53,"name":"mobe","steam_id":76561198121633820,"connected_time":1112000000000,"state":"active","ping":102},{"user_id":67,"name":"Grape Juice","steam_id":76561198380337568,"connected_time":246000000000,"state":"active","ping":71},{"user_id":63,"name":"Vipo_Meneh","steam_id":76561199048263061,"connected_time":588000000000,"state":"active","ping":177},{"user_id":46,"name":"pie gaming","steam_id":76561198072592880,"connected_time":1738000000000,"state":"active","ping":40},{"user_id":68,"name":"D:\u003c","steam_id":76561198017121314,"connected_time":221000000000,"state":"active","ping":78}]},{"server_id":403,"name":"Uncletopia | Chicago | 4 | All Maps","name_short":"chi-4","host":"chi-1.us.uncletopia.com","port":27045,"enabled":true,"region":"us-central","cc":"us","latitude":41.881832,"longitude":-87.62318,"reserved":0,"last_update":"0001-01-01T00:00:00Z","name_a2s":"Uncletopia | Chicago | 4 | All Maps","protocol":17,"map":"pl_snowycoast","folder":"tf","game":"Team Fortress","app_id":440,"player_count":24,"max_players":24,"Bots":0,"server_type":"Dedicated","server_os":"Linux","password":true,"vac":true,"version":"7723704","steam_id":85568392924515193,"keywords":["nocrits","nodmgspread","payload","uncletopia"],"game_id":440,"stv_port":27046,"stv_name":"Uncletopia | Chicago | 4 | All Maps | STV","players":[{"user_id":337,"name":"CHI CHI","steam_id":76561198210322871,"connected_time":1494000000000,"state":"active","ping":108},{"user_id":351,"name":"rubb3r","steam_id":76561198096874230,"connected_time":516000000000,"state":"active","ping":68},{"user_id":325,"name":"Cuttle's Fish","steam_id":76561198280483257,"connected_time":1690000000000,"state":"active","ping":60},{"user_id":347,"name":"Tantichero50000","steam_id":76561199180777984,"connected_time":751000000000,"state":"active","ping":63},{"user_id":308,"name":"A Festive G J W","steam_id":76561198123359692,"connected_time":3183000000000,"state":"active","ping":51},{"user_id":326,"name":"Haydob13","steam_id":76561198110378191,"connected_time":1686000000000,"state":"active","ping":91},{"user_id":343,"name":"Pigzilla","steam_id":76561198373968267,"connected_time":838000000000,"state":"active","ping":61},{"user_id":321,"name":"Silvercoat's Stargazer","steam_id":76561198399525329,"connected_time":1789000000000,"state":"active","ping":73},{"user_id":335,"name":"silver","steam_id":76561198081906712,"connected_time":1560000000000,"state":"active","ping":41},{"user_id":352,"name":"TheFlyingTortis","steam_id":76561198071576016,"connected_time":398000000000,"state":"active","ping":56},{"user_id":282,"name":"Very Small Giant","steam_id":76561199187337967,"connected_time":5009000000000,"state":"active","ping":61},{"user_id":355,"name":"Keyboard Cat (stinky/smelly)","steam_id":76561198014593467,"connected_time":256000000000,"state":"active","ping":60},{"user_id":356,"name":"Samus","steam_id":76561198121933439,"connected_time":156000000000,"state":"active","ping":80},{"user_id":357,"name":"ArchmageF","steam_id":76561197992246851,"connected_time":150000000000,"state":"active","ping":93},{"user_id":330,"name":"toxicmage","steam_id":76561198105779659,"connected_time":1634000000000,"state":"active","ping":67},{"user_id":348,"name":"AstroHusky","steam_id":76561197965970648,"connected_time":738000000000,"state":"active","ping":140},{"user_id":345,"name":"TheNerdyPirate","steam_id":76561198185806923,"connected_time":800000000000,"state":"active","ping":60},{"user_id":341,"name":"spunk pap","steam_id":76561198202278895,"connected_time":1039000000000,"state":"active","ping":78},{"user_id":346,"name":"Splinto","steam_id":76561198111260488,"connected_time":798000000000,"state":"active","ping":50},{"user_id":267,"name":"Snake Handler","steam_id":76561198027198306,"connected_time":5982000000000,"state":"active","ping":60},{"user_id":349,"name":"Samurai Sam","steam_id":76561198274223636,"connected_time":736000000000,"state":"active","ping":79},{"user_id":302,"name":"ItsRoy","steam_id":76561198119525485,"connected_time":3477000000000,"state":"active","ping":62},{"user_id":350,"name":"toad","steam_id":76561197988729190,"connected_time":700000000000,"state":"active","ping":46},{"user_id":334,"name":"SirJellyRolls","steam_id":76561198119277244,"connected_time":1598000000000,"state":"active","ping":67}]},{"server_id":36,"name":"Uncletopia | Chicago | 5 | All Maps","name_short":"chi-5","host":"chi-2.us.uncletopia.com","port":27015,"enabled":true,"region":"us-central","cc":"us","latitude":41.881832,"longitude":-87.62318,"reserved":0,"last_update":"0001-01-01T00:00:00Z","name_a2s":"Uncletopia | Chicago | 5 | All Maps","protocol":17,"map":"koth_cascade","folder":"tf","game":"Team Fortress","app_id":440,"player_count":0,"max_players":24,"Bots":0,"server_type":"Dedicated","server_os":"Linux","password":true,"vac":true,"version":"7723704","steam_id":85568392924866362,"keywords":["cp","nocrits","nodmgspread","uncletopia"],"game_id":440,"stv_port":27016,"stv_name":"Uncletopia | Chicago | 5 | All Maps | STV","players":null},{"server_id":37,"name":"Uncletopia | Chicago | 6 | All Maps","name_short":"chi-6","host":"chi-2.us.uncletopia.com","port":27025,"enabled":true,"region":"us-central","cc":"us","latitude":41.881832,"longitude":-87.62318,"reserved":0,"last_update":"0001-01-01T00:00:00Z","name_a2s":"Uncletopia | Chicago | 6 | All Maps","protocol":17,"map":"cp_altitude","folder":"tf","game":"Team Fortress","app_id":440,"player_count":0,"max_players":24,"Bots":0,"server_type":"Dedicated","server_os":"Linux","password":true,"vac":true,"version":"7723704","steam_id":85568392924866363,"keywords":["cp","nocrits","nodmgspread","uncletopia"],"game_id":440,"stv_port":27026,"stv_name":"Uncletopia | Chicago | 6 | All Maps | STV","players":null},{"server_id":38,"name":"Uncletopia | Chicago | 7 | Stopwatch (test)","name_short":"chi-7","host":"chi-2.us.uncletopia.com","port":27035,"enabled":true,"region":"us-central","cc":"us","latitude":41.881832,"longitude":-87.62318,"reserved":0,"last_update":"0001-01-01T00:00:00Z","name_a2s":"Uncletopia | Chicago | 7 | Stopwatch (test)","protocol":17,"map":"cp_steel","folder":"tf","game":"Team Fortress","app_id":440,"player_count":2,"max_players":24,"Bots":0,"server_type":"Dedicated","server_os":"Linux","password":true,"vac":true,"version":"7723704","steam_id":85568392924866364,"keywords":["cp","nocrits","nodmgspread","uncletopia"],"game_id":440,"stv_port":27036,"stv_name":"Uncletopia | Chicago | 7 | Stopwatch (test) | STV","players":[{"user_id":4,"name":"Forgoten","steam_id":76561199008751525,"connected_time":1291000000000,"state":"active","ping":136},{"user_id":5,"name":"dawinsemin","steam_id":76561199114327345,"connected_time":1289000000000,"state":"active","ping":153}]},{"server_id":39,"name":"Uncletopia | Chicago | 8 | Community","name_short":"chi-8","host":"chi-2.us.uncletopia.com","port":27045,"enabled":true,"region":"us-central","cc":"us","latitude":41.881832,"longitude":-87.62318,"reserved":0,"last_update":"0001-01-01T00:00:00Z","name_a2s":"Uncletopia | Chicago | 8 | Community","protocol":17,"map":"pl_frontier_final","folder":"tf","game":"Team Fortress","app_id":440,"player_count":0,"max_players":24,"Bots":0,"server_type":"Dedicated","server_os":"Linux","password":true,"vac":true,"version":"7723704","steam_id":85568392924866365,"keywords":["nocrits","nodmgspread","payload","uncletopia"],"game_id":440,"stv_port":27046,"stv_name":"Uncletopia | Chicago | 8 | Community | STV","players":null},{"server_id":8,"name":"Uncletopia | Dallas | 1 | All Maps","name_short":"dal-1","host":"dal-1.us.uncletopia.com","port":27015,"enabled":true,"region":"us-central","cc":"us","latitude":32.779167,"longitude":-96.80889,"reserved":0,"last_update":"0001-01-01T00:00:00Z","name_a2s":"Uncletopia | Dallas | 1 | All Maps","protocol":17,"map":"pl_frontier_final","folder":"tf","game":"Team Fortress","app_id":440,"player_count":21,"max_players":24,"Bots":0,"server_type":"Dedicated","server_os":"Linux","password":true,"vac":true,"version":"7723704","steam_id":85568392924469986,"keywords":["nocrits","nodmgspread","payload","uncletopia"],"game_id":440,"stv_port":27016,"stv_name":"Uncletopia | Dallas | 1 | All Maps | STV","players":[{"user_id":42,"name":"IdiotSamich","steam_id":76561198888722251,"connected_time":11380000000000,"state":"active","ping":47},{"user_id":311,"name":"bomb","steam_id":76561198312179067,"connected_time":1207000000000,"state":"active","ping":82},{"user_id":316,"name":"Stran","steam_id":76561198143389308,"connected_time":1094000000000,"state":"active","ping":92},{"user_id":141,"name":"A Gamer [F2P]","steam_id":76561198138712892,"connected_time":6083000000000,"state":"active","ping":40},{"user_id":323,"name":"Cousin Balki","steam_id":76561198070496395,"connected_time":75000000000,"state":"active","ping":92},{"user_id":310,"name":"N0_J0K3","steam_id":76561198287102197,"connected_time":1210000000000,"state":"active","ping":108},{"user_id":284,"name":"Zelumie","steam_id":76561198147335801,"connected_time":2809000000000,"state":"active","ping":75},{"user_id":320,"name":"Kzjytsugn","steam_id":76561198130241974,"connected_time":681000000000,"state":"active","ping":96},{"user_id":303,"name":"Omni","steam_id":76561198035774007,"connected_time":1948000000000,"state":"active","ping":49},{"user_id":306,"name":"OKlWONT","steam_id":76561198060328407,"connected_time":1797000000000,"state":"active","ping":76},{"user_id":322,"name":"Serenue","steam_id":76561199040361250,"connected_time":443000000000,"state":"active","ping":105},{"user_id":319,"name":"the12xu","steam_id":76561198197086561,"connected_time":955000000000,"state":"active","ping":80},{"user_id":287,"name":"Lolxdloldx","steam_id":76561198136887125,"connected_time":2785000000000,"state":"active","ping":75},{"user_id":293,"name":"yolginmo","steam_id":76561198157985901,"connected_time":2507000000000,"state":"active","ping":91},{"user_id":321,"name":"zinnk","steam_id":76561198092081825,"connected_time":539000000000,"state":"active","ping":101},{"user_id":317,"name":"Berries","steam_id":76561198109312962,"connected_time":1086000000000,"state":"active","ping":89},{"user_id":314,"name":"Merry New Yuri","steam_id":76561199000920577,"connected_time":1160000000000,"state":"active","ping":51},{"user_id":305,"name":"idiot normie","steam_id":76561198397662124,"connected_time":1809000000000,"state":"active","ping":59},{"user_id":272,"name":"corbenis","steam_id":76561199012442511,"connected_time":3192000000000,"state":"active","ping":88},{"user_id":318,"name":"Heida","steam_id":76561198298468550,"connected_time":1051000000000,"state":"active","ping":72},{"user_id":308,"name":"Dealyo","steam_id":76561198282395338,"connected_time":1544000000000,"state":"active","ping":95}]},{"server_id":108,"name":"Uncletopia | Dallas | 2 | All Maps","name_short":"dal-2","host":"dal-1.us.uncletopia.com","port":27025,"enabled":true,"region":"us-central","cc":"us","latitude":32.779167,"longitude":-96.80889,"reserved":0,"last_update":"0001-01-01T00:00:00Z","name_a2s":"Uncletopia | Dallas | 2 | All Maps","protocol":17,"map":"cp_snakewater_final1","folder":"tf","game":"Team Fortress","app_id":440,"player_count":0,"max_players":24,"Bots":0,"server_type":"Dedicated","server_os":"Linux","password":true,"vac":true,"version":"7723704","steam_id":85568392924469988,"keywords":["cp","nocrits","nodmgspread","uncletopia"],"game_id":440,"stv_port":27026,"stv_name":"Uncletopia | Dallas | 2 | All Maps | STV","players":null},{"server_id":5,"name":"Uncletopia | Frankfurt | 1 | All Maps","name_short":"frk-1","host":"frk-1.de.uncletopia.com","port":27015,"enabled":true,"region":"eu","cc":"de","latitude":50.110924,"longitude":8.682127,"reserved":0,"last_update":"0001-01-01T00:00:00Z","name_a2s":"Uncletopia | Frankfurt | 1 | All Maps","protocol":17,"map":"pl_badwater","folder":"tf","game":"Team Fortress","app_id":440,"player_count":24,"max_players":24,"Bots":0,"server_type":"Dedicated","server_os":"Linux","password":true,"vac":true,"version":"7723704","steam_id":85568392924469989,"keywords":["nocrits","nodmgspread","payload","uncletopia"],"game_id":440,"stv_port":27016,"stv_name":"Uncletopia | Frankfurt | 1 | All Maps | STV","players":[{"user_id":311,"name":"Nick","steam_id":76561198036109469,"connected_time":650000000000,"state":"active","ping":90},{"user_id":265,"name":"After8","steam_id":76561198090750865,"connected_time":3509000000000,"state":"active","ping":60},{"user_id":325,"name":"Sylbar","steam_id":76561198065379590,"connected_time":80000000000,"state":"active","ping":59},{"user_id":279,"name":"[-[     ]|\\\\===//|[     ]-]","steam_id":76561198049687798,"connected_time":2677000000000,"state":"active","ping":54},{"user_id":321,"name":"luma","steam_id":76561198081649669,"connected_time":396000000000,"state":"active","ping":60},{"user_id":323,"name":"alvinulv","steam_id":76561198024487177,"connected_time":335000000000,"state":"active","ping":70},{"user_id":107,"name":"Ôº≤ ÔºØ Ôº¢ Ôº¢ Ôº• Ôº≤ Ôº¥","steam_id":76561198134404830,"connected_time":14198000000000,"state":"active","ping":129},{"user_id":315,"name":"Flint","steam_id":76561197995920776,"connected_time":577000000000,"state":"active","ping":45},{"user_id":324,"name":"Dangs","steam_id":76561198001548885,"connected_time":311000000000,"state":"active","ping":122},{"user_id":316,"name":"SkullBurner","steam_id":76561198357531846,"connected_time":577000000000,"state":"active","ping":72},{"user_id":313,"name":"Qatuk","steam_id":76561198857696199,"connected_time":631000000000,"state":"active","ping":65},{"user_id":314,"name":"TheCoCoNattree","steam_id":76561198886399580,"connected_time":618000000000,"state":"active","ping":59},{"user_id":310,"name":"firenickblood","steam_id":76561199302529256,"connected_time":919000000000,"state":"active","ping":73},{"user_id":317,"name":"aion","steam_id":76561198980665401,"connected_time":568000000000,"state":"active","ping":103},{"user_id":318,"name":"Belial","steam_id":76561199021513627,"connected_time":566000000000,"state":"active","ping":67},{"user_id":292,"name":"NALA","steam_id":76561198039806469,"connected_time":2229000000000,"state":"active","ping":72},{"user_id":305,"name":"washed up","steam_id":76561198275742101,"connected_time":1286000000000,"state":"active","ping":57},{"user_id":283,"name":"mazanec","steam_id":76561198965590155,"connected_time":2605000000000,"state":"active","ping":63},{"user_id":309,"name":"Hexagon","steam_id":76561198151205758,"connected_time":965000000000,"state":"active","ping":94},{"user_id":302,"name":"Duarte‚Ñ¢","steam_id":76561198131456324,"connected_time":1652000000000,"state":"active","ping":91},{"user_id":320,"name":"Maj. Gen. Bad Randolph","steam_id":76561197965874087,"connected_time":464000000000,"state":"active","ping":52},{"user_id":250,"name":"–ø–æ–ø–∫–∞ —Å–µ—Ä–≥–µ—è","steam_id":76561198154952759,"connected_time":4436000000000,"state":"active","ping":88},{"user_id":322,"name":"Shrimpeee","steam_id":76561199012689768,"connected_time":394000000000,"state":"active","ping":76},{"user_id":295,"name":"–ø—É–ø—Å–µ–Ω—å","steam_id":76561199037894293,"connected_time":2209000000000,"state":"active","ping":86}]},{"server_id":110,"name":"Uncletopia | Frankfurt | 2 | All Maps","name_short":"frk-2","host":"frk-1.de.uncletopia.com","port":27025,"enabled":true,"region":"eu","cc":"de","latitude":50.110924,"longitude":8.682127,"reserved":0,"last_update":"0001-01-01T00:00:00Z","name_a2s":"Uncletopia | Frankfurt | 2 | All Maps","protocol":17,"map":"pl_barnblitz","folder":"tf","game":"Team Fortress","app_id":440,"player_count":23,"max_players":24,"Bots":0,"server_type":"Dedicated","server_os":"Linux","password":true,"vac":true,"version":"7723704","steam_id":85568392924469990,"keywords":["nocrits","nodmgspread","payload","uncletopia"],"game_id":440,"stv_port":27026,"stv_name":"Uncletopia | Frankfurt | 2 | All Maps | STV","players":[{"user_id":570,"name":"Hoodiebud","steam_id":76561198335687042,"connected_time":453000000000,"state":"active","ping":76},{"user_id":575,"name":"Bacon","steam_id":76561198050165015,"connected_time":238000000000,"state":"active","ping":51},{"user_id":546,"name":"FreeZ","steam_id":76561199070093469,"connected_time":1972000000000,"state":"active","ping":68},{"user_id":565,"name":"Doctor__Mobius","steam_id":76561197971281806,"connected_time":961000000000,"state":"active","ping":64},{"user_id":581,"name":"Tea","steam_id":76561198799243030,"connected_time":10000000000,"state":"spawning","ping":60},{"user_id":576,"name":"advanced polish lifeform","steam_id":76561198062107879,"connected_time":200000000000,"state":"active","ping":85},{"user_id":582,"name":"loveless","steam_id":76561198142256651,"connected_time":0,"state":"spawning","ping":0},{"user_id":578,"name":"vicegeralsun","steam_id":76561198200751605,"connected_time":196000000000,"state":"active","ping":106},{"user_id":560,"name":"Diana Ball","steam_id":76561198382533813,"connected_time":1064000000000,"state":"active","ping":61},{"user_id":573,"name":"Command","steam_id":76561198339873745,"connected_time":331000000000,"state":"active","ping":89},{"user_id":569,"name":"gagalak","steam_id":76561198089979108,"connected_time":639000000000,"state":"active","ping":98},{"user_id":523,"name":"VK2124 :D","steam_id":76561198111130688,"connected_time":3470000000000,"state":"active","ping":50},{"user_id":564,"name":"Tregi","steam_id":76561198088808440,"connected_time":994000000000,"state":"active","ping":58},{"user_id":563,"name":"Trash Bandicoot","steam_id":76561198127596400,"connected_time":1011000000000,"state":"active","ping":60},{"user_id":579,"name":"snowii","steam_id":76561198836246326,"connected_time":128000000000,"state":"active","ping":70},{"user_id":543,"name":"kevin","steam_id":76561198363842731,"connected_time":2117000000000,"state":"active","ping":74},{"user_id":525,"name":"Klifton","steam_id":76561198803743443,"connected_time":3410000000000,"state":"active","ping":94},{"user_id":567,"name":"Gandalf","steam_id":76561199072668363,"connected_time":848000000000,"state":"active","ping":69},{"user_id":540,"name":"KFC Enjoyer","steam_id":76561198840259819,"connected_time":2383000000000,"state":"active","ping":44},{"user_id":554,"name":"Frog","steam_id":76561198043981067,"connected_time":1508000000000,"state":"active","ping":81},{"user_id":527,"name":"Newax","steam_id":76561198020758511,"connected_time":3344000000000,"state":"active","ping":74},{"user_id":552,"name":"Clitorina","steam_id":76561198077570815,"connected_time":1745000000000,"state":"active","ping":60},{"user_id":580,"name":"{ST} chunkyMerchant","steam_id":76561198318701494,"connected_time":27000000000,"state":"active","ping":133}]},{"server_id":308,"name":"Uncletopia | Frankfurt | 3 | All Maps","name_short":"frk-3","host":"frk-1.de.uncletopia.com","port":27035,"enabled":true,"region":"eu","cc":"de","latitude":50.110924,"longitude":8.682127,"reserved":0,"last_update":"0001-01-01T00:00:00Z","name_a2s":"Uncletopia | Frankfurt | 3 | All Maps","protocol":17,"map":"pl_swiftwater_final1","folder":"tf","game":"Team Fortress","app_id":440,"player_count":24,"max_players":24,"Bots":0,"server_type":"Dedicated","server_os":"Linux","password":true,"vac":true,"version":"7723704","steam_id":85568392924504274,"keywords":["nocrits","nodmgspread","payload","uncletopia"],"game_id":440,"stv_port":27036,"stv_name":"Uncletopia | Frankfurt | 3 | All Maps | STV","players":[{"user_id":428,"name":"Fluffy","steam_id":76561198084447725,"connected_time":764000000000,"state":"active","ping":57},{"user_id":401,"name":"Jyghc\u003c/3","steam_id":76561198405980575,"connected_time":3503000000000,"state":"active","ping":78},{"user_id":406,"name":"cazador","steam_id":76561198123096922,"connected_time":2810000000000,"state":"active","ping":95},{"user_id":444,"name":"a man with a spoon","steam_id":76561198180684423,"connected_time":54000000000,"state":"active","ping":69},{"user_id":440,"name":"skrimgxral","steam_id":76561198271936950,"connected_time":203000000000,"state":"active","ping":72},{"user_id":359,"name":"Graham","steam_id":76561198062668942,"connected_time":5483000000000,"state":"active","ping":54},{"user_id":435,"name":"Kili","steam_id":76561198138456346,"connected_time":552000000000,"state":"active","ping":58},{"user_id":437,"name":"mimi","steam_id":76561198060648946,"connected_time":343000000000,"state":"active","ping":61},{"user_id":397,"name":"Coyote29","steam_id":76561198344502070,"connected_time":3655000000000,"state":"active","ping":88},{"user_id":430,"name":"enxy","steam_id":76561198100469355,"connected_time":686000000000,"state":"active","ping":73},{"user_id":443,"name":"Sex defender","steam_id":76561198348896492,"connected_time":94000000000,"state":"active","ping":70},{"user_id":414,"name":"G6 sherlock","steam_id":76561198802967796,"connected_time":2155000000000,"state":"active","ping":119},{"user_id":438,"name":"Veile","steam_id":76561199007201531,"connected_time":322000000000,"state":"active","ping":100},{"user_id":404,"name":"Lord of the Lockerroom","steam_id":76561198080619697,"connected_time":3083000000000,"state":"active","ping":88},{"user_id":413,"name":"tuukka","steam_id":76561198890409949,"connected_time":2186000000000,"state":"active","ping":97},{"user_id":367,"name":"ùìë :)","steam_id":76561198072809789,"connected_time":5325000000000,"state":"active","ping":53},{"user_id":426,"name":"Octoblue64","steam_id":76561198388997283,"connected_time":884000000000,"state":"active","ping":61},{"user_id":394,"name":"CampMaster49","steam_id":76561198353096926,"connected_time":3764000000000,"state":"active","ping":85},{"user_id":432,"name":"JumJim","steam_id":76561198038099760,"connected_time":667000000000,"state":"active","ping":94},{"user_id":433,"name":"Valoxi","steam_id":76561197995042938,"connected_time":647000000000,"state":"active","ping":62},{"user_id":370,"name":"chachiply","steam_id":76561198316355509,"connected_time":5296000000000,"state":"active","ping":75},{"user_id":391,"name":"casual zyzz praiser","steam_id":76561198022382969,"connected_time":3842000000000,"state":"active","ping":85},{"user_id":408,"name":"Sweat Plantation","steam_id":76561198025086883,"connected_time":2780000000000,"state":"active","ping":86},{"user_id":442,"name":"Senator Armstrong","steam_id":76561198984346408,"connected_time":148000000000,"state":"active","ping":70}]},{"server_id":309,"name":"Uncletopia | Frankfurt | 4 | All Maps","name_short":"frk-4","host":"frk-1.de.uncletopia.com","port":27045,"enabled":true,"region":"eu","cc":"de","latitude":50.110924,"longitude":8.682127,"reserved":0,"last_update":"0001-01-01T00:00:00Z","name_a2s":"Uncletopia | Frankfurt | 4 | All Maps","protocol":17,"map":"pl_barnblitz","folder":"tf","game":"Team Fortress","app_id":440,"player_count":24,"max_players":24,"Bots":0,"server_type":"Dedicated","server_os":"Linux","password":true,"vac":true,"version":"7723704","steam_id":85568392924504275,"keywords":["nocrits","nodmgspread","payload","uncletopia"],"game_id":440,"stv_port":27046,"stv_name":"Uncletopia | Frankfurt | 4 | All Maps | STV","players":[{"user_id":126,"name":"S Ka Y","steam_id":76561197993423450,"connected_time":2047000000000,"state":"active","ping":51},{"user_id":157,"name":"Dominus.","steam_id":76561199065917088,"connected_time":181000000000,"state":"active","ping":69},{"user_id":127,"name":"scoutcasper","steam_id":76561199019266022,"connected_time":2040000000000,"state":"active","ping":51},{"user_id":137,"name":"gEyfrogsE","steam_id":76561199385772902,"connected_time":1629000000000,"state":"active","ping":66},{"user_id":100,"name":"Sanctified","steam_id":76561198057092208,"connected_time":3509000000000,"state":"active","ping":63},{"user_id":144,"name":"Dodoshka","steam_id":76561198093464840,"connected_time":910000000000,"state":"active","ping":92},{"user_id":101,"name":"Q3Q (She/Her)","steam_id":76561198952154873,"connected_time":3496000000000,"state":"active","ping":70},{"user_id":71,"name":"jo bidn' | ETLARTORM","steam_id":76561198869576262,"connected_time":5100000000000,"state":"active","ping":102},{"user_id":158,"name":"Michael","steam_id":76561198003146906,"connected_time":159000000000,"state":"active","ping":73},{"user_id":147,"name":"3igen3ggy","steam_id":76561197989548015,"connected_time":601000000000,"state":"active","ping":66},{"user_id":150,"name":"bulleyom","steam_id":76561199011928076,"connected_time":436000000000,"state":"active","ping":67},{"user_id":151,"name":"huge monster cock","steam_id":76561197994492154,"connected_time":429000000000,"state":"active","ping":74},{"user_id":152,"name":"Toast","steam_id":76561198278121752,"connected_time":421000000000,"state":"active","ping":95},{"user_id":118,"name":"Gver3113","steam_id":76561198118659012,"connected_time":2573000000000,"state":"active","ping":74},{"user_id":153,"name":"Bastard'Nick","steam_id":76561198044044651,"connected_time":415000000000,"state":"active","ping":76},{"user_id":145,"name":"megafon","steam_id":76561198143921841,"connected_time":685000000000,"state":"active","ping":88},{"user_id":121,"name":"Ged","steam_id":76561198079288943,"connected_time":2290000000000,"state":"active","ping":111},{"user_id":146,"name":"dafydd","steam_id":76561198052200325,"connected_time":669000000000,"state":"active","ping":80},{"user_id":139,"name":"gorgie","steam_id":76561199032591040,"connected_time":1446000000000,"state":"active","ping":84},{"user_id":154,"name":"Tonne","steam_id":76561197970856766,"connected_time":409000000000,"state":"active","ping":53},{"user_id":156,"name":"Montana","steam_id":76561198449437002,"connected_time":208000000000,"state":"active","ping":89},{"user_id":132,"name":"Birne","steam_id":76561198001335120,"connected_time":1957000000000,"state":"active","ping":63},{"user_id":120,"name":"Cave Johnson","steam_id":76561198070137469,"connected_time":2353000000000,"state":"active","ping":81},{"user_id":155,"name":"C0d3s","steam_id":76561198093907544,"connected_time":406000000000,"state":"active","ping":100}]},{"server_id":310,"name":"Uncletopia | Frankfurt | 5 | All Maps","name_short":"frk-5","host":"frk-1.de.uncletopia.com","port":27055,"enabled":true,"region":"eu","cc":"de","latitude":50.110924,"longitude":8.682127,"reserved":0,"last_update":"0001-01-01T00:00:00Z","name_a2s":"Uncletopia | Frankfurt | 5 | All Maps","protocol":17,"map":"cp_powerhouse","folder":"tf","game":"Team Fortress","app_id":440,"player_count":16,"max_players":24,"Bots":0,"server_type":"Dedicated","server_os":"Linux","password":true,"vac":true,"version":"7723704","steam_id":85568392924504277,"keywords":["cp","nocrits","nodmgspread","uncletopia"],"game_id":440,"stv_port":27056,"stv_name":"Uncletopia | Frankfurt | 5 | All Maps | STV","players":[{"user_id":342,"name":"it just ain't fair","steam_id":76561198418538887,"connected_time":556000000000,"state":"active","ping":91},{"user_id":353,"name":"Solymr ibn Wali Barad","steam_id":76561198044008976,"connected_time":245000000000,"state":"active","ping":66},{"user_id":307,"name":"Carrot Arc","steam_id":76561198164957006,"connected_time":1672000000000,"state":"active","ping":84},{"user_id":356,"name":"food","steam_id":76561198308341534,"connected_time":73000000000,"state":"active","ping":58},{"user_id":335,"name":"Andrea","steam_id":76561199350746762,"connected_time":974000000000,"state":"active","ping":76},{"user_id":332,"name":"mat","steam_id":76561198824697295,"connected_time":1018000000000,"state":"active","ping":64},{"user_id":346,"name":"PapaMaxy","steam_id":76561198256362726,"connected_time":358000000000,"state":"active","ping":83},{"user_id":352,"name":"Caliban","steam_id":76561197999696839,"connected_time":294000000000,"state":"active","ping":97},{"user_id":318,"name":"Hash.","steam_id":76561198858242352,"connected_time":1404000000000,"state":"active","ping":108},{"user_id":234,"name":"night.s","steam_id":76561198326287823,"connected_time":7126000000000,"state":"active","ping":88},{"user_id":269,"name":"Bancsli (Help me pls)","steam_id":76561198144783422,"connected_time":4064000000000,"state":"active","ping":66},{"user_id":321,"name":"Ross from F.R.I.E.N.D.S.","steam_id":76561198008511665,"connected_time":1343000000000,"state":"active","ping":61},{"user_id":213,"name":"Such XD","steam_id":76561198129454909,"connected_time":9338000000000,"state":"active","ping":71},{"user_id":324,"name":"you wouldn't gab a gool","steam_id":76561199190667642,"connected_time":1328000000000,"state":"active","ping":350},{"user_id":235,"name":"Big Coke","steam_id":76561198132644586,"connected_time":7119000000000,"state":"active","ping":85},{"user_id":325,"name":"Lux","steam_id":76561198060417740,"connected_time":1274000000000,"state":"active","ping":50}]},{"server_id":311,"name":"Uncletopia | Frankfurt | 6 | All Maps","name_short":"frk-6","host":"frk-1.de.uncletopia.com","port":27065,"enabled":true,"region":"eu","cc":"de","latitude":50.110924,"longitude":8.682127,"reserved":0,"last_update":"0001-01-01T00:00:00Z","name_a2s":"Uncletopia | Frankfurt | 6 | All Maps","protocol":17,"map":"pl_snowycoast","folder":"tf","game":"Team Fortress","app_id":440,"player_count":20,"max_players":24,"Bots":0,"server_type":"Dedicated","server_os":"Linux","password":true,"vac":true,"version":"7723704","steam_id":85568392924504278,"keywords":["nocrits","nodmgspread","payload","uncletopia"],"game_id":440,"stv_port":27066,"stv_name":"Uncletopia | Frankfurt | 6 | All Maps | STV","players":[{"user_id":246,"name":"BallinScout","steam_id":76561198152443697,"connected_time":339000000000,"state":"active","ping":64},{"user_id":223,"name":"linkinparkfan123","steam_id":76561199033782005,"connected_time":1330000000000,"state":"active","ping":87},{"user_id":236,"name":"Dr Sex","steam_id":76561198029044617,"connected_time":823000000000,"state":"active","ping":60},{"user_id":251,"name":"ZOGG FearLand","steam_id":76561198352683491,"connected_time":100000000000,"state":"active","ping":54},{"user_id":248,"name":"JoueurFran√ßais","steam_id":76561198108081068,"connected_time":231000000000,"state":"active","ping":53},{"user_id":240,"name":"Klaus","steam_id":76561198049591056,"connected_time":765000000000,"state":"active","ping":61},{"user_id":209,"name":"next gen f7ool","steam_id":76561198279952779,"connected_time":2022000000000,"state":"active","ping":171},{"user_id":243,"name":"Lepattaja","steam_id":76561198120743889,"connected_time":458000000000,"state":"active","ping":94},{"user_id":245,"name":"Vischan but worse","steam_id":76561199371650805,"connected_time":367000000000,"state":"active","ping":92},{"user_id":252,"name":"Aesthetic Alcoholism","steam_id":76561198044418968,"connected_time":89000000000,"state":"active","ping":45},{"user_id":225,"name":"Kurage","steam_id":76561198021221288,"connected_time":1249000000000,"state":"active","ping":60},{"user_id":253,"name":"cosmetical","steam_id":76561198444036574,"connected_time":49000000000,"state":"active","ping":74},{"user_id":235,"name":"Cereal Killer","steam_id":76561199084186097,"connected_time":927000000000,"state":"active","ping":74},{"user_id":228,"name":"Dr.Sees [F2P]","steam_id":76561199219233587,"connected_time":1202000000000,"state":"active","ping":82},{"user_id":229,"name":"Itai","steam_id":76561198804555329,"connected_time":1192000000000,"state":"active","ping":111},{"user_id":231,"name":"Chysa","steam_id":76561198131794145,"connected_time":1175000000000,"state":"active","ping":63},{"user_id":211,"name":"tHE wATCHER","steam_id":76561198826314938,"connected_time":2010000000000,"state":"active","ping":166},{"user_id":232,"name":"SpyCrab  Erik Twice","steam_id":76561198009710309,"connected_time":1154000000000,"state":"active","ping":64},{"user_id":242,"name":"Chameleongamer44","steam_id":76561198987167079,"connected_time":585000000000,"state":"active","ping":58},{"user_id":221,"name":"Grim the lemon","steam_id":76561199083433988,"connected_time":1487000000000,"state":"active","ping":64}]},{"server_id":23,"name":"Uncletopia | Frankfurt | 7 | No Payload","name_short":"frk-7","host":"frk-1.de.uncletopia.com","port":27075,"enabled":true,"region":"eu","cc":"de","latitude":50.110924,"longitude":8.682127,"reserved":0,"last_update":"0001-01-01T00:00:00Z","name_a2s":"Uncletopia | Frankfurt | 7 | No Payload","protocol":17,"map":"cp_mountainlab","folder":"tf","game":"Team Fortress","app_id":440,"player_count":0,"max_players":24,"Bots":0,"server_type":"Dedicated","server_os":"Linux","password":true,"vac":true,"version":"7723704","steam_id":85568392924742827,"keywords":["cp","nocrits","nodmgspread","uncletopia"],"game_id":440,"stv_port":27076,"stv_name":"Uncletopia | Frankfurt | 7 | No Payload | STV","players":null},{"server_id":24,"name":"Uncletopia | Frankfurt | 8 | Community","name_short":"frk-8","host":"frk-1.de.uncletopia.com","port":27085,"enabled":true,"region":"eu","cc":"de","latitude":50.110924,"longitude":8.682127,"reserved":0,"last_update":"0001-01-01T00:00:00Z","name_a2s":"Uncletopia | Frankfurt | 8 | Community","protocol":17,"map":"workshop/koth_slaughter_rc1.ugc1712845210","folder":"tf","game":"Team Fortress","app_id":440,"player_count":0,"max_players":24,"Bots":0,"server_type":"Dedicated","server_os":"Linux","password":true,"vac":true,"version":"7723704","steam_id":85568392924742828,"keywords":["cp","nocrits","nodmgspread","uncletopia"],"game_id":440,"stv_port":27086,"stv_name":"Uncletopia | Frankfurt | 8 | Community | STV","players":null},{"server_id":202,"name":"Uncletopia | Hong Kong | 1 | All Maps","name_short":"hgk-1","host":"hgk-1.hk.uncletopia.com","port":27015,"enabled":true,"region":"asia","cc":"hk","latitude":22.302711,"longitude":114.177216,"reserved":0,"last_update":"0001-01-01T00:00:00Z","name_a2s":"Uncletopia | Hong Kong | 1 | All Maps","protocol":17,"map":"koth_highpass","folder":"tf","game":"Team Fortress","app_id":440,"player_count":0,"max_players":24,"Bots":0,"server_type":"Dedicated","server_os":"Linux","password":true,"vac":true,"version":"7723704","steam_id":85568392924494504,"keywords":["cp","nocrits","nodmgspread","uncletopia"],"game_id":440,"stv_port":27016,"stv_name":"Uncletopia | Hong Kong | 1 | All Maps | STV","players":null},{"server_id":1,"name":"Uncletopia | Los Angeles | 1 | All Maps","name_short":"lax-1","host":"lax-1.us.uncletopia.com","port":27015,"enabled":true,"region":"us-west","cc":"us","latitude":33.94279,"longitude":-118.41004,"reserved":0,"last_update":"0001-01-01T00:00:00Z","name_a2s":"Uncletopia | Los Angeles | 1 | All Maps","protocol":17,"map":"pl_borneo","folder":"tf","game":"Team Fortress","app_id":440,"player_count":0,"max_players":24,"Bots":0,"server_type":"Dedicated","server_os":"Linux","password":true,"vac":true,"version":"7723704","steam_id":85568392924469991,"keywords":["nocrits","nodmgspread","payload","uncletopia"],"game_id":440,"stv_port":27016,"stv_name":"Uncletopia | Los Angeles | 1 | All Maps | STV","players":null},{"server_id":112,"name":"Uncletopia | Los Angeles | 2 | All Maps","name_short":"lax-2","host":"lax-1.us.uncletopia.com","port":27025,"enabled":true,"region":"us-west","cc":"us","latitude":33.94279,"longitude":-118.41004,"reserved":0,"last_update":"0001-01-01T00:00:00Z","name_a2s":"Uncletopia | Los Angeles | 2 | All Maps","protocol":17,"map":"pl_pier","folder":"tf","game":"Team Fortress","app_id":440,"player_count":0,"max_players":24,"Bots":0,"server_type":"Dedicated","server_os":"Linux","password":true,"vac":true,"version":"7723704","steam_id":85568392924469992,"keywords":["nocrits","nodmgspread","payload","uncletopia"],"game_id":440,"stv_port":27026,"stv_name":"Uncletopia | Los Angeles | 2 | All Maps | STV","players":null},{"server_id":324,"name":"Uncletopia | Los Angeles | 3 | All Maps","name_short":"lax-3","host":"lax-1.us.uncletopia.com","port":27035,"enabled":true,"region":"us-west","cc":"us","latitude":33.94279,"longitude":-118.41004,"reserved":0,"last_update":"0001-01-01T00:00:00Z","name_a2s":"Uncletopia | Los Angeles | 3 | All Maps","protocol":17,"map":"koth_highpass","folder":"tf","game":"Team Fortress","app_id":440,"player_count":0,"max_players":24,"Bots":0,"server_type":"Dedicated","server_os":"Linux","password":true,"vac":true,"version":"7723704","steam_id":85568392924510198,"keywords":["cp","nocrits","nodmgspread","uncletopia"],"game_id":440,"stv_port":27036,"stv_name":"Uncletopia | Los Angeles | 3 | All Maps | STV","players":null},{"server_id":25,"name":"Uncletopia | Los Angeles | 4 | No Payload","name_short":"lax-4","host":"lax-1.us.uncletopia.com","port":27045,"enabled":true,"region":"us-west","cc":"us","latitude":33.94279,"longitude":-118.41004,"reserved":0,"last_update":"0001-01-01T00:00:00Z","name_a2s":"Uncletopia | Los Angeles | 4 | No Payload","protocol":17,"map":"cp_mountainlab","folder":"tf","game":"Team Fortress","app_id":440,"player_count":0,"max_players":24,"Bots":0,"server_type":"Dedicated","server_os":"Linux","password":true,"vac":true,"version":"7723704","steam_id":85568392924510199,"keywords":["cp","nocrits","nodmgspread","uncletopia"],"game_id":440,"stv_port":27046,"stv_name":"Uncletopia | Los Angeles | 4 | No Payload | STV","players":null},{"server_id":11,"name":"Uncletopia | London | 1 | All Maps","name_short":"lon-1","host":"lon-1.uk.uncletopia.com","port":27015,"enabled":true,"region":"eu","cc":"gb","latitude":51.509865,"longitude":-0.118092,"reserved":0,"last_update":"0001-01-01T00:00:00Z","name_a2s":"Uncletopia | London | 1 | All Maps","protocol":17,"map":"pl_frontier_final","folder":"tf","game":"Team Fortress","app_id":440,"player_count":24,"max_players":24,"Bots":0,"server_type":"Dedicated","server_os":"Linux","password":true,"vac":true,"version":"7723704","steam_id":85568392924367362,"keywords":["nocrits","nodmgspread","payload","uncletopia"],"game_id":440,"stv_port":27016,"stv_name":"Uncletopia | London | 1 | All Maps | STV","players":[{"user_id":273,"name":"Bobo","steam_id":76561198052308399,"connected_time":2005000000000,"state":"active","ping":61},{"user_id":280,"name":"stonebum","steam_id":76561198057004606,"connected_time":740000000000,"state":"active","ping":54},{"user_id":263,"name":"mental","steam_id":76561198235959132,"connected_time":2804000000000,"state":"active","ping":76},{"user_id":268,"name":"Tedkon","steam_id":76561198034141061,"connected_time":2195000000000,"state":"active","ping":141},{"user_id":275,"name":"Rory","steam_id":76561198354037580,"connected_time":1586000000000,"state":"active","ping":39},{"user_id":282,"name":"crkligolub","steam_id":76561199431979190,"connected_time":680000000000,"state":"active","ping":69},{"user_id":281,"name":"Usend","steam_id":76561198332349224,"connected_time":696000000000,"state":"active","ping":73},{"user_id":288,"name":"Mango","steam_id":76561198139555709,"connected_time":64000000000,"state":"active","ping":60},{"user_id":284,"name":"twitch.tv/biofun_","steam_id":76561198170609049,"connected_time":674000000000,"state":"active","ping":61},{"user_id":265,"name":"'Tis but a scratch","steam_id":76561198118517671,"connected_time":2667000000000,"state":"active","ping":133},{"user_id":279,"name":"Asfreild","steam_id":76561198055901120,"connected_time":1027000000000,"state":"active","ping":72},{"user_id":277,"name":"„Äå‚óÜRaku‚Ä¢ „Äç","steam_id":76561198059283183,"connected_time":1119000000000,"state":"active","ping":85},{"user_id":287,"name":"shin","steam_id":76561198039757757,"connected_time":362000000000,"state":"active","ping":46},{"user_id":290,"name":"Cheshireycat","steam_id":76561198067204908,"connected_time":47000000000,"state":"active","ping":55},{"user_id":206,"name":"Jam","steam_id":76561198090409013,"connected_time":6698000000000,"state":"active","ping":91},{"user_id":271,"name":"nah.","steam_id":76561199069489046,"connected_time":2026000000000,"state":"active","ping":64},{"user_id":286,"name":"jingleboob","steam_id":76561198097507847,"connected_time":564000000000,"state":"active","ping":86},{"user_id":270,"name":"BreadBaubbles","steam_id":76561198174332826,"connected_time":2030000000000,"state":"active","ping":55},{"user_id":269,"name":"N.","steam_id":76561198017274851,"connected_time":2040000000000,"state":"active","ping":38},{"user_id":285,"name":"christmas eve","steam_id":76561197973182789,"connected_time":663000000000,"state":"active","ping":50},{"user_id":276,"name":"festive jones","steam_id":76561198073975078,"connected_time":1281000000000,"state":"active","ping":48},{"user_id":258,"name":"Bosnian Genocide 1992-1995","steam_id":76561199042202558,"connected_time":3558000000000,"state":"active","ping":60},{"user_id":259,"name":"Whyx","steam_id":76561198064909404,"connected_time":3507000000000,"state":"active","ping":63},{"user_id":266,"name":"xXx_Twink_Hunter_xXx","steam_id":76561198397024973,"connected_time":2663000000000,"state":"active","ping":42}]},{"server_id":114,"name":"Uncletopia | London | 2 | All Maps","name_short":"lon-2","host":"lon-1.uk.uncletopia.com","port":27025,"enabled":true,"region":"eu","cc":"gb","latitude":51.509865,"longitude":-0.118092,"reserved":0,"last_update":"0001-01-01T00:00:00Z","name_a2s":"Uncletopia | London | 2 | All Maps","protocol":17,"map":"koth_cascade","folder":"tf","game":"Team Fortress","app_id":440,"player_count":0,"max_players":24,"Bots":0,"server_type":"Dedicated","server_os":"Linux","password":true,"vac":true,"version":"7723704","steam_id":85568392924470941,"keywords":["cp","nocrits","nodmgspread","uncletopia"],"game_id":440,"stv_port":27026,"stv_name":"Uncletopia | London | 2 | All Maps | STV","players":null},{"server_id":320,"name":"Uncletopia | London | 3 | All Maps","name_short":"lon-3","host":"lon-1.uk.uncletopia.com","port":27035,"enabled":true,"region":"eu","cc":"gb","latitude":51.509865,"longitude":-0.118092,"reserved":0,"last_update":"0001-01-01T00:00:00Z","name_a2s":"Uncletopia | London | 3 | All Maps","protocol":17,"map":"pl_badwater","folder":"tf","game":"Team Fortress","app_id":440,"player_count":24,"max_players":24,"Bots":0,"server_type":"Dedicated","server_os":"Linux","password":true,"vac":true,"version":"7723704","steam_id":85568392924510192,"keywords":["nocrits","nodmgspread","payload","uncletopia"],"game_id":440,"stv_port":27036,"stv_name":"Uncletopia | London | 3 | All Maps | STV","players":[{"user_id":441,"name":"Moti","steam_id":76561198262250211,"connected_time":1318000000000,"state":"active","ping":80},{"user_id":448,"name":"jhash","steam_id":76561198081788477,"connected_time":383000000000,"state":"active","ping":53},{"user_id":424,"name":"SageistSage","steam_id":76561199438120787,"connected_time":2137000000000,"state":"active","ping":77},{"user_id":390,"name":"jacob?","steam_id":76561199025525354,"connected_time":4258000000000,"state":"active","ping":49},{"user_id":426,"name":"Krabs","steam_id":76561198161679477,"connected_time":1875000000000,"state":"active","ping":42},{"user_id":403,"name":"Kyeel_Smeel","steam_id":76561199164471622,"connected_time":3288000000000,"state":"active","ping":62},{"user_id":449,"name":"Mr. Hunts","steam_id":76561197981910397,"connected_time":344000000000,"state":"active","ping":61},{"user_id":427,"name":"Milosz52","steam_id":76561199060940204,"connected_time":1846000000000,"state":"active","ping":78},{"user_id":374,"name":"Faiismyfirstname","steam_id":76561199433150314,"connected_time":4639000000000,"state":"active","ping":48},{"user_id":436,"name":"Random Rock","steam_id":76561199013795985,"connected_time":1620000000000,"state":"active","ping":35},{"user_id":450,"name":"[aiming with a pencil] FLXY","steam_id":76561198254679263,"connected_time":322000000000,"state":"active","ping":47},{"user_id":451,"name":"aychar","steam_id":76561198033695429,"connected_time":287000000000,"state":"active","ping":44},{"user_id":430,"name":"dipigcookie","steam_id":76561198394235929,"connected_time":1823000000000,"state":"active","ping":97},{"user_id":431,"name":"WHUSSKEY","steam_id":76561198137827441,"connected_time":1812000000000,"state":"active","ping":73},{"user_id":452,"name":"Millero15","steam_id":76561198143105719,"connected_time":286000000000,"state":"active","ping":79},{"user_id":446,"name":"silicon based life form","steam_id":76561199127121346,"connected_time":1016000000000,"state":"active","ping":54},{"user_id":453,"name":"miev","steam_id":76561198078278737,"connected_time":286000000000,"state":"active","ping":64},{"user_id":386,"name":"i am bread","steam_id":76561199180277321,"connected_time":4343000000000,"state":"active","ping":53},{"user_id":387,"name":"KarlRanzeier","steam_id":76561198066281337,"connected_time":4330000000000,"state":"active","ping":63},{"user_id":447,"name":"order66.exe","steam_id":76561198057558449,"connected_time":423000000000,"state":"active","ping":52},{"user_id":433,"name":"Linus Mudrocket","steam_id":76561197979606110,"connected_time":1730000000000,"state":"active","ping":55},{"user_id":434,"name":"Karsapaali","steam_id":76561198322322739,"connected_time":1727000000000,"state":"active","ping":85},{"user_id":444,"name":"goblinninja110","steam_id":76561198269159354,"connected_time":1102000000000,"state":"active","ping":60},{"user_id":454,"name":"bAdmon","steam_id":76561197961785793,"connected_time":272000000000,"state":"active","ping":50}]},{"server_id":321,"name":"Uncletopia | London | 4 | All Maps","name_short":"lon-4","host":"lon-1.uk.uncletopia.com","port":27045,"enabled":true,"region":"eu","cc":"gb","latitude":51.509865,"longitude":-0.118092,"reserved":0,"last_update":"0001-01-01T00:00:00Z","name_a2s":"Uncletopia | London | 4 | All Maps","protocol":17,"map":"koth_highpass","folder":"tf","game":"Team Fortress","app_id":440,"player_count":0,"max_players":24,"Bots":0,"server_type":"Dedicated","server_os":"Linux","password":true,"vac":true,"version":"7723704","steam_id":85568392924510193,"keywords":["cp","nocrits","nodmgspread","uncletopia"],"game_id":440,"stv_port":27046,"stv_name":"Uncletopia | London | 4 | All Maps | STV","players":null},{"server_id":21,"name":"Uncletopia | London | 5 | All Maps","name_short":"lon-5","host":"lon-1.uk.uncletopia.com","port":27055,"enabled":true,"region":"eu","cc":"gb","latitude":51.509865,"longitude":-0.118092,"reserved":0,"last_update":"0001-01-01T00:00:00Z","name_a2s":"Uncletopia | London | 5 | All Maps","protocol":17,"map":"koth_lakeside_final","folder":"tf","game":"Team Fortress","app_id":440,"player_count":0,"max_players":24,"Bots":0,"server_type":"Dedicated","server_os":"Linux","password":true,"vac":true,"version":"7723704","steam_id":85568392924742829,"keywords":["cp","nocrits","nodmgspread","uncletopia"],"game_id":440,"stv_port":27056,"stv_name":"Uncletopia | London | 5 | All Maps | STV","players":null},{"server_id":22,"name":"Uncletopia | London | 6 | All Maps","name_short":"lon-6","host":"lon-1.uk.uncletopia.com","port":27065,"enabled":true,"region":"eu","cc":"gb","latitude":51.509865,"longitude":-0.118092,"reserved":0,"last_update":"0001-01-01T00:00:00Z","name_a2s":"Uncletopia | London | 6 | All Maps","protocol":17,"map":"cp_steel","folder":"tf","game":"Team Fortress","app_id":440,"player_count":24,"max_players":24,"Bots":0,"server_type":"Dedicated","server_os":"Linux","password":true,"vac":true,"version":"7723704","steam_id":85568392924742830,"keywords":["cp","nocrits","nodmgspread","uncletopia"],"game_id":440,"stv_port":27066,"stv_name":"Uncletopia | London | 6 | All Maps | STV","players":[{"user_id":71,"name":"Kokos","steam_id":76561198085501501,"connected_time":514000000000,"state":"active","ping":89},{"user_id":68,"name":"kogned","steam_id":76561198089285145,"connected_time":684000000000,"state":"active","ping":91},{"user_id":53,"name":"kritzspam harder better faster","steam_id":76561198378235611,"connected_time":1652000000000,"state":"active","ping":75},{"user_id":72,"name":"gorg","steam_id":76561198160285627,"connected_time":507000000000,"state":"active","ping":42},{"user_id":64,"name":"tob:ias","steam_id":76561198832146626,"connected_time":1157000000000,"state":"active","ping":59},{"user_id":78,"name":"Flump","steam_id":76561198106352373,"connected_time":84000000000,"state":"active","ping":44},{"user_id":79,"name":"Oak","steam_id":76561198067315672,"connected_time":72000000000,"state":"active","ping":44},{"user_id":80,"name":"pfffez","steam_id":76561199438438043,"connected_time":64000000000,"state":"active","ping":82},{"user_id":29,"name":"Kanny","steam_id":76561198058810184,"connected_time":2916000000000,"state":"active","ping":48},{"user_id":81,"name":"Equinox","steam_id":76561199055592635,"connected_time":31000000000,"state":"active","ping":74},{"user_id":69,"name":"alexander","steam_id":76561199244400875,"connected_time":682000000000,"state":"active","ping":60},{"user_id":55,"name":"MagusCubed","steam_id":76561198083973944,"connected_time":1616000000000,"state":"active","ping":45},{"user_id":24,"name":"JACALAX","steam_id":76561199110532262,"connected_time":2995000000000,"state":"active","ping":48},{"user_id":65,"name":"Micha≈Ç","steam_id":76561198320346362,"connected_time":1057000000000,"state":"active","ping":77},{"user_id":30,"name":"Warme Perle","steam_id":76561198020071321,"connected_time":2914000000000,"state":"active","ping":53},{"user_id":56,"name":"Rodia","steam_id":76561197968293161,"connected_time":1584000000000,"state":"active","ping":69},{"user_id":73,"name":"yeat W","steam_id":76561198335304615,"connected_time":491000000000,"state":"active","ping":75},{"user_id":57,"name":"wardex","steam_id":76561198058776834,"connected_time":1543000000000,"state":"active","ping":54},{"user_id":74,"name":"little-basket bun","steam_id":76561198197901062,"connected_time":474000000000,"state":"active","ping":53},{"user_id":59,"name":"jwesa","steam_id":76561198018330092,"connected_time":1479000000000,"state":"active","ping":78},{"user_id":60,"name":"Black Tom","steam_id":76561198211616811,"connected_time":1465000000000,"state":"active","ping":86},{"user_id":50,"name":"The creator of sex","steam_id":76561199213901239,"connected_time":1860000000000,"state":"active","ping":39},{"user_id":70,"name":"Defborn","steam_id":76561198009956136,"connected_time":672000000000,"state":"active","ping":47},{"user_id":62,"name":"OTP DynamoDM","steam_id":76561198150755391,"connected_time":1426000000000,"state":"active","ping":45}]},{"server_id":40,"name":"Uncletopia | London | 7 | No Payload","name_short":"lon-7","host":"lon-1.uk.uncletopia.com","port":27075,"enabled":true,"region":"eu","cc":"gb","latitude":51.509865,"longitude":-0.118092,"reserved":0,"last_update":"0001-01-01T00:00:00Z","name_a2s":"Uncletopia | London | 7 | No Payload","protocol":17,"map":"koth_cascade","folder":"tf","game":"Team Fortress","app_id":440,"player_count":0,"max_players":24,"Bots":0,"server_type":"Dedicated","server_os":"Linux","password":true,"vac":true,"version":"7723704","steam_id":85568392924964314,"keywords":["cp","nocrits","nodmgspread","uncletopia"],"game_id":440,"stv_port":27076,"stv_name":"Uncletopia | London | 7 | No Payload | STV","players":null},{"server_id":41,"name":"Uncletopia | London | 8 | Community","name_short":"lon-8","host":"lon-1.uk.uncletopia.com","port":27085,"enabled":true,"region":"eu","cc":"gb","latitude":51.509865,"longitude":-0.118092,"reserved":0,"last_update":"0001-01-01T00:00:00Z","name_a2s":"Uncletopia | London | 8 | Community","protocol":17,"map":"workshop/koth_ramjam_v2_b2.ugc2865676487","folder":"tf","game":"Team Fortress","app_id":440,"player_count":0,"max_players":24,"Bots":0,"server_type":"Dedicated","server_os":"Linux","password":true,"vac":true,"version":"7723704","steam_id":85568392924964315,"keywords":["cp","nocrits","nodmgspread","uncletopia"],"game_id":440,"stv_port":27086,"stv_name":"Uncletopia | London | 8 | Community | STV","players":null},{"server_id":300,"name":"Uncletopia | Montr√©al | 1 | All Maps","name_short":"mtl-1","host":"mtl-1.ca.uncletopia.com","port":27015,"enabled":true,"region":"us-east","cc":"ca","latitude":45.50889,"longitude":-73.56167,"reserved":0,"last_update":"0001-01-01T00:00:00Z","name_a2s":"Uncletopia | Montr√©al | 1 | All Maps","protocol":17,"map":"cp_mountainlab","folder":"tf","game":"Team Fortress","app_id":440,"player_count":0,"max_players":24,"Bots":0,"server_type":"Dedicated","server_os":"Linux","password":true,"vac":true,"version":"7723704","steam_id":85568392924500087,"keywords":["cp","nocrits","nodmgspread","uncletopia"],"game_id":440,"stv_port":27016,"stv_name":"Uncletopia | Montr√©al | 1 | All Maps | STV","players":null},{"server_id":301,"name":"Uncletopia | Montr√©al | 2 | All Maps","name_short":"mtl-2","host":"mtl-1.ca.uncletopia.com","port":27025,"enabled":true,"region":"us-east","cc":"ca","latitude":45.50889,"longitude":-73.56167,"reserved":0,"last_update":"0001-01-01T00:00:00Z","name_a2s":"Uncletopia | Montr√©al | 2 | All Maps","protocol":17,"map":"cp_sunshine","folder":"tf","game":"Team Fortress","app_id":440,"player_count":0,"max_players":24,"Bots":0,"server_type":"Dedicated","server_os":"Linux","password":true,"vac":true,"version":"7723704","steam_id":85568392924500088,"keywords":["cp","nocrits","nodmgspread","uncletopia"],"game_id":440,"stv_port":27026,"stv_name":"Uncletopia | Montr√©al | 2 | All Maps | STV","players":null},{"server_id":302,"name":"Uncletopia | Montr√©al | 3 | All Maps","name_short":"mtl-3","host":"mtl-1.ca.uncletopia.com","port":27035,"enabled":true,"region":"us-east","cc":"ca","latitude":45.50889,"longitude":-73.56167,"reserved":0,"last_update":"0001-01-01T00:00:00Z","name_a2s":"Uncletopia | Montr√©al | 3 | All Maps","protocol":17,"map":"cp_dustbowl","folder":"tf","game":"Team Fortress","app_id":440,"player_count":0,"max_players":24,"Bots":0,"server_type":"Dedicated","server_os":"Linux","password":true,"vac":true,"version":"7723704","steam_id":85568392924500089,"keywords":["cp","nocrits","nodmgspread","uncletopia"],"game_id":440,"stv_port":27036,"stv_name":"Uncletopia | Montr√©al | 3 | All Maps | STV","players":null},{"server_id":303,"name":"Uncletopia | Montr√©al | 4 | No Payload","name_short":"mtl-4","host":"mtl-1.ca.uncletopia.com","port":27045,"enabled":true,"region":"us-east","cc":"ca","latitude":45.50889,"longitude":-73.56167,"reserved":0,"last_update":"0001-01-01T00:00:00Z","name_a2s":"Uncletopia | Montr√©al | 4 | No Payload","protocol":17,"map":"koth_nucleus","folder":"tf","game":"Team Fortress","app_id":440,"player_count":0,"max_players":24,"Bots":0,"server_type":"Dedicated","server_os":"Linux","password":true,"vac":true,"version":"7723704","steam_id":85568392924500090,"keywords":["cp","nocrits","nodmgspread","uncletopia"],"game_id":440,"stv_port":27046,"stv_name":"Uncletopia | Montr√©al | 4 | No Payload | STV","players":null},{"server_id":13,"name":"Uncletopia | New York City | 1 | All Maps","name_short":"nyc-1","host":"nyc-1.us.uncletopia.com","port":27015,"enabled":true,"region":"us-east","cc":"us","latitude":40.73061,"longitude":-73.93524,"reserved":0,"last_update":"0001-01-01T00:00:00Z","name_a2s":"Uncletopia | New York City | 1 | All Maps","protocol":17,"map":"pl_pier","folder":"tf","game":"Team Fortress","app_id":440,"player_count":24,"max_players":24,"Bots":0,"server_type":"Dedicated","server_os":"Linux","password":true,"vac":true,"version":"7723704","steam_id":85568392924469993,"keywords":["nocrits","nodmgspread","payload","uncletopia"],"game_id":440,"stv_port":27016,"stv_name":"Uncletopia | New York City | 1 | All Maps | STV","players":[{"user_id":123,"name":"ToastyBish","steam_id":76561198185327309,"connected_time":2791000000000,"state":"active","ping":37},{"user_id":150,"name":"catgirl giantess in heat","steam_id":76561198439042583,"connected_time":660000000000,"state":"active","ping":100},{"user_id":133,"name":"a random memer 521","steam_id":76561199444229529,"connected_time":2194000000000,"state":"active","ping":144},{"user_id":157,"name":"t","steam_id":76561198175988929,"connected_time":187000000000,"state":"active","ping":108},{"user_id":149,"name":"local","steam_id":76561198069537437,"connected_time":735000000000,"state":"active","ping":115},{"user_id":151,"name":"walrusmash","steam_id":76561198117955845,"connected_time":582000000000,"state":"active","ping":75},{"user_id":144,"name":"basil","steam_id":76561198075758026,"connected_time":1148000000000,"state":"active","ping":78},{"user_id":115,"name":"Hipp-Dip","steam_id":76561199027874633,"connected_time":3587000000000,"state":"active","ping":44},{"user_id":116,"name":"Sergeant Joker #savetf2","steam_id":76561198854616604,"connected_time":3586000000000,"state":"active","ping":60},{"user_id":152,"name":"MK Ultra did NOT fail","steam_id":76561198269256066,"connected_time":520000000000,"state":"active","ping":45},{"user_id":137,"name":"BIG BOOBS!!","steam_id":76561198096334078,"connected_time":2120000000000,"state":"active","ping":54},{"user_id":117,"name":"MitcheyHD","steam_id":76561198066489645,"connected_time":3261000000000,"state":"active","ping":62},{"user_id":153,"name":"Great Value Rice Crispers","steam_id":76561198211512619,"connected_time":491000000000,"state":"active","ping":87},{"user_id":135,"name":"M.L.JEW","steam_id":76561198997375055,"connected_time":2173000000000,"state":"active","ping":84},{"user_id":138,"name":"Pennis the Menace","steam_id":76561198254878037,"connected_time":2049000000000,"state":"active","ping":78},{"user_id":155,"name":"-W3E- grim10465","steam_id":76561198045698581,"connected_time":355000000000,"state":"active","ping":44},{"user_id":98,"name":"A Random Guy","steam_id":76561198282519457,"connected_time":5529000000000,"state":"active","ping":105},{"user_id":145,"name":"Chaotic Rushu","steam_id":76561198170054407,"connected_time":1054000000000,"state":"active","ping":69},{"user_id":154,"name":"avengedsevenfold.fan_2012","steam_id":76561198210364561,"connected_time":445000000000,"state":"active","ping":59},{"user_id":156,"name":"LilFishy630","steam_id":76561198058657544,"connected_time":355000000000,"state":"active","ping":49},{"user_id":65,"name":"TheSnowGhost","steam_id":76561198271967286,"connected_time":8361000000000,"state":"active","ping":54},{"user_id":79,"name":"Ginger Powder","steam_id":76561198082650449,"connected_time":6397000000000,"state":"active","ping":77},{"user_id":131,"name":"tasty","steam_id":76561198083839061,"connected_time":2366000000000,"state":"active","ping":74},{"user_id":121,"name":"mineblast99","steam_id":76561199065648954,"connected_time":3211000000000,"state":"active","ping":88}]},{"server_id":14,"name":"Uncletopia | New York City | 2 | All Maps","name_short":"nyc-2","host":"nyc-1.us.uncletopia.com","port":27025,"enabled":true,"region":"us-east","cc":"us","latitude":40.73061,"longitude":-73.93524,"reserved":0,"last_update":"0001-01-01T00:00:00Z","name_a2s":"Uncletopia | New York City | 2 | All Maps","protocol":17,"map":"pl_snowycoast","folder":"tf","game":"Team Fortress","app_id":440,"player_count":0,"max_players":24,"Bots":0,"server_type":"Dedicated","server_os":"Linux","password":true,"vac":true,"version":"7723704","steam_id":85568392924469994,"keywords":["nocrits","nodmgspread","payload","uncletopia"],"game_id":440,"stv_port":27026,"stv_name":"Uncletopia | New York City | 2 | All Maps | STV","players":null},{"server_id":15,"name":"Uncletopia | New York City | 3 | All Maps","name_short":"nyc-3","host":"nyc-1.us.uncletopia.com","port":27035,"enabled":true,"region":"us-east","cc":"us","latitude":40.73061,"longitude":-73.93524,"reserved":0,"last_update":"0001-01-01T00:00:00Z","name_a2s":"Uncletopia | New York City | 3 | All Maps","protocol":17,"map":"cp_snakewater_final1","folder":"tf","game":"Team Fortress","app_id":440,"player_count":0,"max_players":24,"Bots":0,"server_type":"Dedicated","server_os":"Linux","password":true,"vac":true,"version":"7723704","steam_id":85568392924742820,"keywords":["cp","nocrits","nodmgspread","uncletopia"],"game_id":440,"stv_port":27036,"stv_name":"Uncletopia | New York City | 3 | All Maps | STV","players":null},{"server_id":16,"name":"Uncletopia | New York City | 4 | Community","name_short":"nyc-4","host":"nyc-1.us.uncletopia.com","port":27045,"enabled":true,"region":"us-east","cc":"us","latitude":40.73061,"longitude":-73.93524,"reserved":0,"last_update":"0001-01-01T00:00:00Z","name_a2s":"Uncletopia | New York City | 4 | Community","protocol":17,"map":"workshop/cp_sulfur_rc2.ugc619869471","folder":"tf","game":"Team Fortress","app_id":440,"player_count":6,"max_players":24,"Bots":0,"server_type":"Dedicated","server_os":"Linux","password":true,"vac":true,"version":"7723704","steam_id":85568392924742821,"keywords":["cp","nocrits","nodmgspread","uncletopia"],"game_id":440,"stv_port":27046,"stv_name":"Uncletopia | New York City | 4 | Community | STV","players":[{"user_id":3,"name":"Ricola102","steam_id":76561198119692259,"connected_time":3006000000000,"state":"active","ping":69},{"user_id":6,"name":"gnome \"kooky ass mf\" fan","steam_id":76561198148199120,"connected_time":1037000000000,"state":"active","ping":72},{"user_id":14,"name":"buag","steam_id":76561198123669519,"connected_time":194000000000,"state":"active","ping":49},{"user_id":7,"name":"Snilloc","steam_id":76561198072768192,"connected_time":990000000000,"state":"active","ping":53},{"user_id":11,"name":"Jay1214ramo","steam_id":76561198338524837,"connected_time":475000000000,"state":"active","ping":47},{"user_id":12,"name":"Caseyrox","steam_id":76561198259682315,"connected_time":459000000000,"state":"active","ping":107}]},{"server_id":142,"name":"Uncletopia | S√£o Paulo | 1 | All Maps","name_short":"sao-1","host":"sao-1.br.uncletopia.com","port":27015,"enabled":true,"region":"sa","cc":"br","latitude":-23.533773,"longitude":-46.62529,"reserved":0,"last_update":"0001-01-01T00:00:00Z","name_a2s":"Uncletopia | S√£o Paulo | 1 | All Maps","protocol":17,"map":"pl_barnblitz","folder":"tf","game":"Team Fortress","app_id":440,"player_count":0,"max_players":24,"Bots":0,"server_type":"Dedicated","server_os":"Linux","password":true,"vac":true,"version":"7723704","steam_id":85568392924469996,"keywords":["nocrits","nodmgspread","payload","uncletopia"],"game_id":440,"stv_port":27016,"stv_name":"Uncletopia | S√£o Paulo | 1 | All Maps | STV","players":null},{"server_id":143,"name":"Uncletopia | S√£o Paulo | 2 | All Maps","name_short":"sao-2","host":"sao-2.br.uncletopia.com","port":27015,"enabled":true,"region":"sa","cc":"br","latitude":-23.533773,"longitude":-46.62529,"reserved":0,"last_update":"0001-01-01T00:00:00Z","name_a2s":"Uncletopia | S√£o Paulo | 2 | All Maps","protocol":17,"map":"cp_mountainlab","folder":"tf","game":"Team Fortress","app_id":440,"player_count":0,"max_players":24,"Bots":0,"server_type":"Dedicated","server_os":"Linux","password":true,"vac":true,"version":"7723704","steam_id":85568392924485349,"keywords":["cp","nocrits","nodmgspread","uncletopia"],"game_id":440,"stv_port":27016,"stv_name":"Uncletopia | S√£o Paulo | 2 | All Maps | STV","players":null},{"server_id":7,"name":"Uncletopia | Seattle | 1 | All Maps","name_short":"sea-1","host":"sea-1.us.uncletopia.com","port":27015,"enabled":true,"region":"us-west","cc":"us","latitude":47.608013,"longitude":-122.33517,"reserved":0,"last_update":"0001-01-01T00:00:00Z","name_a2s":"Uncletopia | Seattle | 1 | All Maps","protocol":17,"map":"pl_pier","folder":"tf","game":"Team Fortress","app_id":440,"player_count":0,"max_players":24,"Bots":0,"server_type":"Dedicated","server_os":"Linux","password":true,"vac":true,"version":"7723704","steam_id":85568392924469997,"keywords":["nocrits","nodmgspread","payload","uncletopia"],"game_id":440,"stv_port":27016,"stv_name":"Uncletopia | Seattle | 1 | All Maps | STV","players":null},{"server_id":119,"name":"Uncletopia | Seattle | 2 | All Maps","name_short":"sea-2","host":"sea-1.us.uncletopia.com","port":27025,"enabled":true,"region":"us-west","cc":"us","latitude":47.608013,"longitude":-122.33517,"reserved":0,"last_update":"0001-01-01T00:00:00Z","name_a2s":"Uncletopia | Seattle | 2 | All Maps","protocol":17,"map":"cp_process_final","folder":"tf","game":"Team Fortress","app_id":440,"player_count":0,"max_players":24,"Bots":0,"server_type":"Dedicated","server_os":"Linux","password":true,"vac":true,"version":"7723704","steam_id":85568392924469998,"keywords":["cp","nocrits","nodmgspread","uncletopia"],"game_id":440,"stv_port":27026,"stv_name":"Uncletopia | Seattle | 2 | All Maps | STV","players":null},{"server_id":17,"name":"Uncletopia | San Francisco | 1 | All Maps","name_short":"sfo-1","host":"sfo-1.us.uncletopia.com","port":27015,"enabled":true,"region":"us-west","cc":"us","latitude":37.77397,"longitude":-122.4313,"reserved":0,"last_update":"0001-01-01T00:00:00Z","name_a2s":"Uncletopia | San Francisco | 1 | All Maps","protocol":17,"map":"koth_viaduct","folder":"tf","game":"Team Fortress","app_id":440,"player_count":0,"max_players":24,"Bots":0,"server_type":"Dedicated","server_os":"Linux","password":true,"vac":true,"version":"7723704","steam_id":85568392924469999,"keywords":["cp","nocrits","nodmgspread","uncletopia"],"game_id":440,"stv_port":27016,"stv_name":"Uncletopia | San Francisco | 1 | All Maps | STV","players":null},{"server_id":18,"name":"Uncletopia | San Francisco | 2 | All Maps","name_short":"sfo-2","host":"sfo-1.us.uncletopia.com","port":27025,"enabled":true,"region":"us-west","cc":"us","latitude":37.77397,"longitude":-122.4313,"reserved":0,"last_update":"0001-01-01T00:00:00Z","name_a2s":"Uncletopia | San Francisco | 2 | All Maps","protocol":17,"map":"cp_dustbowl","folder":"tf","game":"Team Fortress","app_id":440,"player_count":0,"max_players":24,"Bots":0,"server_type":"Dedicated","server_os":"Linux","password":true,"vac":true,"version":"7723704","steam_id":85568392924470000,"keywords":["cp","nocrits","nodmgspread","uncletopia"],"game_id":440,"stv_port":27026,"stv_name":"Uncletopia | San Francisco | 2 | All Maps | STV","players":null},{"server_id":19,"name":"Uncletopia | San Francisco | 3 | No Payload","name_short":"sfo-3","host":"sfo-1.us.uncletopia.com","port":27035,"enabled":true,"region":"us-west","cc":"us","latitude":37.77397,"longitude":-122.4313,"reserved":0,"last_update":"0001-01-01T00:00:00Z","name_a2s":"Uncletopia | San Francisco | 3 | No Payload","protocol":17,"map":"pl_snowycoast","folder":"tf","game":"Team Fortress","app_id":440,"player_count":0,"max_players":24,"Bots":0,"server_type":"Dedicated","server_os":"Linux","password":true,"vac":true,"version":"7723704","steam_id":85568392924742824,"keywords":["nocrits","nodmgspread","payload","uncletopia"],"game_id":440,"stv_port":27036,"stv_name":"Uncletopia | San Francisco | 3 | No Payload | STV","players":null},{"server_id":20,"name":"Uncletopia | San Francisco | 4 | Community","name_short":"sfo-4","host":"sfo-1.us.uncletopia.com","port":27045,"enabled":true,"region":"us-west","cc":"us","latitude":37.77397,"longitude":-122.4313,"reserved":0,"last_update":"0001-01-01T00:00:00Z","name_a2s":"Uncletopia | San Francisco | 4 | Community","protocol":17,"map":"workshop/cp_villa_b19.ugc2113052569","folder":"tf","game":"Team Fortress","app_id":440,"player_count":6,"max_players":24,"Bots":0,"server_type":"Dedicated","server_os":"Linux","password":true,"vac":true,"version":"7723704","steam_id":85568392924742826,"keywords":["cp","nocrits","nodmgspread","uncletopia"],"game_id":440,"stv_port":27046,"stv_name":"Uncletopia | San Francisco | 4 | Community | STV","players":[{"user_id":3,"name":"Goofy Goober","steam_id":76561198128299594,"connected_time":2285000000000,"state":"active","ping":59},{"user_id":4,"name":"autogynocelia","steam_id":76561198038995286,"connected_time":1484000000000,"state":"active","ping":126},{"user_id":5,"name":"Altruisticailuridae","steam_id":76561198335295596,"connected_time":1055000000000,"state":"active","ping":60},{"user_id":6,"name":"toodles","steam_id":76561198025463883,"connected_time":965000000000,"state":"active","ping":60},{"user_id":11,"name":"bigmonkay8","steam_id":76561199434161773,"connected_time":10000000000,"state":"spawning","ping":141},{"user_id":9,"name":"allie","steam_id":76561198200571310,"connected_time":507000000000,"state":"active","ping":59}]},{"server_id":141,"name":"Uncletopia | Sydney | 1 | All Maps","name_short":"syd-1","host":"syd-1.au.uncletopia.com","port":27015,"enabled":true,"region":"au","cc":"au","latitude":-33.865143,"longitude":151.2099,"reserved":0,"last_update":"0001-01-01T00:00:00Z","name_a2s":"Uncletopia | Sydney | 1 | All Maps","protocol":17,"map":"cp_process_final","folder":"tf","game":"Team Fortress","app_id":440,"player_count":0,"max_players":24,"Bots":0,"server_type":"Dedicated","server_os":"Linux","password":true,"vac":true,"version":"7723704","steam_id":85568392924470001,"keywords":["cp","nocrits","nodmgspread","uncletopia"],"game_id":440,"stv_port":27016,"stv_name":"Uncletopia | Sydney | 1 | All Maps | STV","players":null},{"server_id":123,"name":"Uncletopia | Sydney | 2 | All Maps","name_short":"syd-2","host":"syd-1.au.uncletopia.com","port":27025,"enabled":true,"region":"au","cc":"au","latitude":-33.865143,"longitude":151.2099,"reserved":0,"last_update":"0001-01-01T00:00:00Z","name_a2s":"Uncletopia | Sydney | 2 | All Maps","protocol":17,"map":"koth_cascade","folder":"tf","game":"Team Fortress","app_id":440,"player_count":0,"max_players":24,"Bots":0,"server_type":"Dedicated","server_os":"Linux","password":true,"vac":true,"version":"7723704","steam_id":85568392924470002,"keywords":["cp","nocrits","nodmgspread","uncletopia"],"game_id":440,"stv_port":27026,"stv_name":"Uncletopia | Sydney | 2 | All Maps | STV","players":null},{"server_id":395,"name":"Uncletopia | Sydney | 3 | All Maps","name_short":"syd-3","host":"syd-1.au.uncletopia.com","port":27035,"enabled":true,"region":"au","cc":"au","latitude":-33.865143,"longitude":151.2099,"reserved":0,"last_update":"0001-01-01T00:00:00Z","name_a2s":"Uncletopia | Sydney | 3 | All Maps","protocol":17,"map":"cp_dustbowl","folder":"tf","game":"Team Fortress","app_id":440,"player_count":0,"max_players":24,"Bots":0,"server_type":"Dedicated","server_os":"Linux","password":true,"vac":true,"version":"7723704","steam_id":85568392925194467,"keywords":["cp","nocrits","nodmgspread","uncletopia"],"game_id":440,"stv_port":27036,"stv_name":"Uncletopia | Sydney | 3 | All Maps | STV","players":null},{"server_id":396,"name":"Uncletopia | Sydney | 4 | All Maps","name_short":"syd-4","host":"syd-1.au.uncletopia.com","port":27045,"enabled":true,"region":"au","cc":"au","latitude":-33.865143,"longitude":151.2099,"reserved":0,"last_update":"0001-01-01T00:00:00Z","name_a2s":"Uncletopia | Sydney | 4 | All Maps","protocol":17,"map":"koth_viaduct","folder":"tf","game":"Team Fortress","app_id":440,"player_count":0,"max_players":24,"Bots":0,"server_type":"Dedicated","server_os":"Linux","password":true,"vac":true,"version":"7723704","steam_id":85568392925397958,"keywords":["cp","nocrits","nodmgspread","uncletopia"],"game_id":440,"stv_port":27046,"stv_name":"Uncletopia | Sydney | 4 | All Maps | STV","players":null},{"server_id":58,"name":"Uncletopia | Sydney | 5 | No Payload","name_short":"syd-5","host":"syd-1.au.uncletopia.com","port":27055,"enabled":true,"region":"au","cc":"au","latitude":-33.865143,"longitude":151.2099,"reserved":0,"last_update":"0001-01-01T00:00:00Z","name_a2s":"Uncletopia | Sydney | 5 | No Payload","protocol":17,"map":"cp_steel","folder":"tf","game":"Team Fortress","app_id":440,"player_count":0,"max_players":24,"Bots":0,"server_type":"Dedicated","server_os":"Linux","password":true,"vac":true,"version":"7723704","steam_id":85568392925397959,"keywords":["cp","nocrits","nodmgspread","uncletopia"],"game_id":440,"stv_port":27056,"stv_name":"Uncletopia | Sydney | 5 | No Payload | STV","players":null},{"server_id":59,"name":"Uncletopia | Sydney | 6 | Community","name_short":"syd-6","host":"syd-1.au.uncletopia.com","port":27065,"enabled":true,"region":"au","cc":"au","latitude":-33.865143,"longitude":151.2099,"reserved":0,"last_update":"0001-01-01T00:00:00Z","name_a2s":"Uncletopia | Sydney | 6 | Community","protocol":17,"map":"workshop/koth_ramjam_v2_b2.ugc2865676487","folder":"tf","game":"Team Fortress","app_id":440,"player_count":0,"max_players":24,"Bots":0,"server_type":"Dedicated","server_os":"Linux","password":true,"vac":true,"version":"7723704","steam_id":85568392925397960,"keywords":["cp","nocrits","nodmgspread","uncletopia"],"game_id":440,"stv_port":27066,"stv_name":"Uncletopia | Sydney | 6 | Community | STV","players":null},{"server_id":49,"name":"Uncletopia | Warsaw | 1 | All Maps","name_short":"waw-1","host":"waw-1.pl.uncletopia.com","port":27015,"enabled":true,"region":"eu","cc":"pl","latitude":52.2297,"longitude":21.017532,"reserved":0,"last_update":"0001-01-01T00:00:00Z","name_a2s":"Uncletopia | Warsaw | 1 | All Maps","protocol":17,"map":"pl_badwater","folder":"tf","game":"Team Fortress","app_id":440,"player_count":0,"max_players":24,"Bots":0,"server_type":"Dedicated","server_os":"Linux","password":true,"vac":true,"version":"7723704","steam_id":85568392925397850,"keywords":["nocrits","nodmgspread","payload","uncletopia"],"game_id":440,"stv_port":27016,"stv_name":"Uncletopia | Warsaw | 1 | All Maps | STV","players":null},{"server_id":50,"name":"Uncletopia | Warsaw | 2 | All Maps","name_short":"waw-2","host":"waw-1.pl.uncletopia.com","port":27025,"enabled":true,"region":"eu","cc":"pl","latitude":52.2297,"longitude":21.017532,"reserved":0,"last_update":"0001-01-01T00:00:00Z","name_a2s":"Uncletopia | Warsaw | 2 | All Maps","protocol":17,"map":"pl_frontier_final","folder":"tf","game":"Team Fortress","app_id":440,"player_count":0,"max_players":24,"Bots":0,"server_type":"Dedicated","server_os":"Linux","password":true,"vac":true,"version":"7723704","steam_id":85568392925397851,"keywords":["nocrits","nodmgspread","payload","uncletopia"],"game_id":440,"stv_port":27026,"stv_name":"Uncletopia | Warsaw | 2 | All Maps | STV","players":null},{"server_id":51,"name":"Uncletopia | Warsaw | 3 | All Maps","name_short":"waw-3","host":"waw-1.pl.uncletopia.com","port":27035,"enabled":true,"region":"eu","cc":"pl","latitude":52.2297,"longitude":21.017532,"reserved":0,"last_update":"0001-01-01T00:00:00Z","name_a2s":"Uncletopia | Warsaw | 3 | All Maps","protocol":17,"map":"koth_lakeside_final","folder":"tf","game":"Team Fortress","app_id":440,"player_count":0,"max_players":24,"Bots":0,"server_type":"Dedicated","server_os":"Linux","password":true,"vac":true,"version":"7723704","steam_id":85568392925397852,"keywords":["cp","nocrits","nodmgspread","uncletopia"],"game_id":440,"stv_port":27036,"stv_name":"Uncletopia | Warsaw | 3 | All Maps | STV","players":null},{"server_id":52,"name":"Uncletopia | Warsaw | 4 | All Maps","name_short":"waw-4","host":"waw-1.pl.uncletopia.com","port":27045,"enabled":true,"region":"eu","cc":"pl","latitude":52.2297,"longitude":21.017532,"reserved":0,"last_update":"0001-01-01T00:00:00Z","name_a2s":"Uncletopia | Warsaw | 4 | All Maps","protocol":17,"map":"pl_frontier_final","folder":"tf","game":"Team Fortress","app_id":440,"player_count":0,"max_players":24,"Bots":0,"server_type":"Dedicated","server_os":"Linux","password":true,"vac":true,"version":"7723704","steam_id":85568392925397853,"keywords":["nocrits","nodmgspread","payload","uncletopia"],"game_id":440,"stv_port":27046,"stv_name":"Uncletopia | Warsaw | 4 | All Maps | STV","players":null},{"server_id":53,"name":"Uncletopia | Warsaw | 5 | No Payload","name_short":"waw-5","host":"waw-1.pl.uncletopia.com","port":27055,"enabled":true,"region":"eu","cc":"pl","latitude":52.2297,"longitude":21.017532,"reserved":0,"last_update":"0001-01-01T00:00:00Z","name_a2s":"Uncletopia | Warsaw | 5 | No Payload","protocol":17,"map":"koth_highpass","folder":"tf","game":"Team Fortress","app_id":440,"player_count":0,"max_players":24,"Bots":0,"server_type":"Dedicated","server_os":"Linux","password":true,"vac":true,"version":"7723704","steam_id":85568392925397854,"keywords":["cp","nocrits","nodmgspread","uncletopia"],"game_id":440,"stv_port":27056,"stv_name":"Uncletopia | Warsaw | 5 | No Payload | STV","players":null},{"server_id":54,"name":"Uncletopia | Warsaw | 6 | Community","name_short":"waw-6","host":"waw-1.pl.uncletopia.com","port":27065,"enabled":true,"region":"eu","cc":"pl","latitude":52.2297,"longitude":21.017532,"reserved":0,"last_update":"0001-01-01T00:00:00Z","name_a2s":"Uncletopia | Warsaw | 6 | Community","protocol":17,"map":"koth_viaduct","folder":"tf","game":"Team Fortress","app_id":440,"player_count":0,"max_players":24,"Bots":0,"server_type":"Dedicated","server_os":"Linux","password":true,"vac":true,"version":"7723704","steam_id":85568392925397856,"keywords":["cp","nocrits","nodmgspread","uncletopia"],"game_id":440,"stv_port":27066,"stv_name":"Uncletopia | Warsaw | 6 | Community | STV","players":null}]}