{"status":true,"message":"","result":[{"server_id":9,"name":"Uncletopia | Atlanta | 1 | All Maps","name_short":"atl-1","host":"atl-1.us.uncletopia.com","port":27015,"enabled":true,"region":"us-east","cc":"us","latitude":33.753746,"longitude":-84.38633,"reserved":0,"last_update":"0001-01-01T00:00:00Z","name_a2s":"Uncletopia | Atlanta | 1 | All Maps","protocol":17,"map":"pl_barnblitz","folder":"tf","game":"Team Fortress","app_id":440,"player_count":24,"max_players":24,"Bots":0,"server_type":"Dedicated","server_os":"Linux","password":true,"vac":true,"version":"7742253","steam_id":85568392924469982,"keywords":["nocrits","nodmgspread","payload","uncletopia"],"game_id":440,"stv_port":27016,"stv_name":"Uncletopia | Atlanta | 1 | All Maps | STV","players":[{"user_id":340,"name":"Regi","steam_id":76561198271508598,"connected_time":2069000000000,"state":"active","ping":70},{"user_id":344,"name":"The Builder","steam_id":76561198093432863,"connected_time":1016000000000,"state":"active","ping":65},{"user_id":308,"name":"ash","steam_id":76561198127890645,"connected_time":4844000000000,"state":"active","ping":72},{"user_id":350,"name":"ATL1 | to4st","steam_id":76561198981009008,"connected_time":985000000000,"state":"active","ping":67},{"user_id":352,"name":"Giddy","steam_id":76561198103183739,"connected_time":959000000000,"state":"active","ping":74},{"user_id":348,"name":"‚ô•Ranman‚ô•Femboy‚ô•","steam_id":76561198042144492,"connected_time":999000000000,"state":"active","ping":52},{"user_id":330,"name":"will b. gaming","steam_id":76561198101707249,"connected_time":2525000000000,"state":"active","ping":54},{"user_id":347,"name":"Sparx","steam_id":76561198102182937,"connected_time":1002000000000,"state":"active","ping":56},{"user_id":312,"name":"Luucyf3r","steam_id":76561198141820085,"connected_time":4591000000000,"state":"active","ping":59},{"user_id":362,"name":"Alkivo","steam_id":76561198315999766,"connected_time":123000000000,"state":"active","ping":78},{"user_id":353,"name":"ATL1 | Psionic Box","steam_id":76561198151019322,"connected_time":958000000000,"state":"active","ping":75},{"user_id":320,"name":"AB24","steam_id":76561199080017254,"connected_time":3981000000000,"state":"active","ping":68},{"user_id":349,"name":"pnapl","steam_id":76561198065895995,"connected_time":996000000000,"state":"active","ping":75},{"user_id":358,"name":"Professional Femboy","steam_id":76561198162303472,"connected_time":339000000000,"state":"active","ping":61},{"user_id":354,"name":"26 feral animals","steam_id":76561198116741891,"connected_time":942000000000,"state":"active","ping":52},{"user_id":361,"name":"BORN IN GOOP RAISED IN POOP","steam_id":76561198095909397,"connected_time":134000000000,"state":"active","ping":58},{"user_id":331,"name":"Im High","steam_id":76561198049954886,"connected_time":2522000000000,"state":"active","ping":72},{"user_id":315,"name":"Angel","steam_id":76561198175654911,"connected_time":4303000000000,"state":"active","ping":75},{"user_id":258,"name":"floofy","steam_id":76561198389769098,"connected_time":10498000000000,"state":"active","ping":106},{"user_id":357,"name":"wads","steam_id":76561198873422077,"connected_time":827000000000,"state":"active","ping":77},{"user_id":360,"name":"„ÄåSK8TR„Äç","steam_id":76561199389089862,"connected_time":328000000000,"state":"active","ping":135},{"user_id":339,"name":"Erchius","steam_id":76561198256892300,"connected_time":2158000000000,"state":"active","ping":72},{"user_id":314,"name":"'the' professional","steam_id":76561199164971892,"connected_time":4315000000000,"state":"active","ping":114},{"user_id":343,"name":"Crescent","steam_id":76561198095124633,"connected_time":1073000000000,"state":"active","ping":56}]},{"server_id":400,"name":"Uncletopia | Atlanta | 3 | Stopwatch Beta","name_short":"atl-3","host":"atl-1.us.uncletopia.com","port":27035,"enabled":true,"region":"us-east","cc":"us","latitude":33.753746,"longitude":-84.38633,"reserved":0,"last_update":"0001-01-01T00:00:00Z","name_a2s":"Uncletopia | Atlanta | 3 | Stopwatch Beta","protocol":17,"map":"koth_highpass","folder":"tf","game":"Team Fortress","app_id":440,"player_count":0,"max_players":24,"Bots":0,"server_type":"Dedicated","server_os":"Linux","password":true,"vac":true,"version":"7742253","steam_id":85568392924515187,"keywords":["cp","nocrits","nodmgspread","uncletopia"],"game_id":440,"stv_port":27036,"stv_name":"Uncletopia | Atlanta | 3 | Stopwatch Beta | STV","players":null},{"server_id":401,"name":"Uncletopia | Atlanta | 4 | No Payload","name_short":"atl-4","host":"atl-1.us.uncletopia.com","port":27045,"enabled":true,"region":"us-east","cc":"us","latitude":33.753746,"longitude":-84.38633,"reserved":0,"last_update":"0001-01-01T00:00:00Z","name_a2s":"Uncletopia | Atlanta | 4 | No Payload","protocol":17,"map":"pl_pier","folder":"tf","game":"Team Fortress","app_id":440,"player_count":0,"max_players":24,"Bots":0,"server_type":"Dedicated","server_os":"Linux","password":true,"vac":true,"version":"7723704","steam_id":85568392924515188,"keywords":["nocrits","nodmgspread","payload","uncletopia"],"game_id":440,"stv_port":27046,"stv_name":"Uncletopia | Atlanta | 4 | No Payload | STV","players":null},{"server_id":2,"name":"Uncletopia | Chicago | 1 | All Maps","name_short":"chi-1","host":"chi-1.us.uncletopia.com","port":27015,"enabled":true,"region":"us-central","cc":"us","latitude":41.881832,"longitude":-87.62318,"reserved":0,"last_update":"0001-01-01T00:00:00Z","name_a2s":"Uncletopia | Chicago | 1 | All Maps","protocol":17,"map":"cp_snakewater_final1","folder":"tf","game":"Team Fortress","app_id":440,"player_count":25,"max_players":24,"Bots":0,"server_type":"Dedicated","server_os":"Linux","password":true,"vac":true,"version":"7742253","steam_id":85568392924469984,"keywords":["cp","nocrits","nodmgspread","uncletopia"],"game_id":440,"stv_port":27016,"stv_name":"Uncletopia | Chicago | 1 | All Maps | STV","players":[{"user_id":435,"name":"Iggy Dogg","steam_id":76561198059602545,"connected_time":212000000000,"state":"active","ping":48},{"user_id":333,"name":"lepel","steam_id":76561198021224745,"connected_time":1711000000000,"state":"active","ping":52},{"user_id":276,"name":"Jolly evil little man","steam_id":76561198311053471,"connected_time":6025000000000,"state":"active","ping":74},{"user_id":219,"name":"Argo","steam_id":76561198353725622,"connected_time":11252000000000,"state":"active","ping":76},{"user_id":335,"name":"Michiru Kagemori","steam_id":76561198257241799,"connected_time":1664000000000,"state":"active","ping":71},{"user_id":439,"name":"Big McThankies From McSpankies","steam_id":76561198020516880,"connected_time":117000000000,"state":"active","ping":95},{"user_id":375,"name":"33","steam_id":76561198894676484,"connected_time":1094000000000,"state":"active","ping":103},{"user_id":440,"name":"Birdhorse Of Course","steam_id":76561198038997485,"connected_time":66000000000,"state":"active","ping":62},{"user_id":327,"name":"Legion","steam_id":76561199036242643,"connected_time":1885000000000,"state":"active","ping":69},{"user_id":326,"name":"OwlTrowl","steam_id":76561198071179817,"connected_time":1989000000000,"state":"active","ping":57},{"user_id":241,"name":"the deadliest pyroshark","steam_id":76561198374227766,"connected_time":9071000000000,"state":"active","ping":77},{"user_id":263,"name":"Cleric","steam_id":76561198045887994,"connected_time":6888000000000,"state":"active","ping":48},{"user_id":436,"name":"SWISS!","steam_id":76561198271971252,"connected_time":196000000000,"state":"active","ping":73},{"user_id":434,"name":"NUt","steam_id":76561198031007966,"connected_time":221000000000,"state":"active","ping":60},{"user_id":442,"name":"6Dnine","steam_id":76561198955884070,"connected_time":16000000000,"state":"spawning","ping":916},{"user_id":426,"name":"DazzlingMaggot","steam_id":76561197972716928,"connected_time":350000000000,"state":"active","ping":74},{"user_id":295,"name":"det","steam_id":76561198170859755,"connected_time":4710000000000,"state":"active","ping":75},{"user_id":288,"name":"Elena Manetta","steam_id":76561197998344054,"connected_time":5302000000000,"state":"active","ping":57},{"user_id":289,"name":"high school art class","steam_id":76561198093829623,"connected_time":5302000000000,"state":"active","ping":89},{"user_id":362,"name":"dragon ball z durag","steam_id":76561198443298608,"connected_time":1298000000000,"state":"active","ping":59},{"user_id":330,"name":"mel0n","steam_id":76561198034817244,"connected_time":1867000000000,"state":"active","ping":59},{"user_id":292,"name":"catface","steam_id":76561198096347625,"connected_time":5286000000000,"state":"active","ping":90},{"user_id":352,"name":"Vex","steam_id":76561198182477649,"connected_time":1369000000000,"state":"active","ping":110},{"user_id":328,"name":"*M* Strike Force Lightning","steam_id":76561198271519776,"connected_time":1885000000000,"state":"active","ping":69},{"user_id":356,"name":"CAdaverOusPRophet","steam_id":76561198045304110,"connected_time":1325000000000,"state":"active","ping":46}]},{"server_id":106,"name":"Uncletopia | Chicago | 2 | All Maps","name_short":"chi-2","host":"chi-1.us.uncletopia.com","port":27025,"enabled":true,"region":"us-central","cc":"us","latitude":41.881832,"longitude":-87.62318,"reserved":0,"last_update":"0001-01-01T00:00:00Z","name_a2s":"Uncletopia | Chicago | 2 | All Maps","protocol":17,"map":"pl_upward","folder":"tf","game":"Team Fortress","app_id":440,"player_count":24,"max_players":24,"Bots":0,"server_type":"Dedicated","server_os":"Linux","password":true,"vac":true,"version":"7742253","steam_id":85568392924469985,"keywords":["nocrits","nodmgspread","payload","uncletopia"],"game_id":440,"stv_port":27026,"stv_name":"Uncletopia | Chicago | 2 | All Maps | STV","players":[{"user_id":260,"name":"TriHerdOmniFlow","steam_id":76561198088688531,"connected_time":529000000000,"state":"active","ping":75},{"user_id":263,"name":"-œÄ- BakaD","steam_id":76561197960559169,"connected_time":383000000000,"state":"active","ping":53},{"user_id":255,"name":"ladies and gentlemen","steam_id":76561198282764599,"connected_time":815000000000,"state":"active","ping":44},{"user_id":241,"name":"Mr.Pan","steam_id":76561198069030613,"connected_time":1935000000000,"state":"active","ping":76},{"user_id":269,"name":"kablong","steam_id":76561199094392047,"connected_time":61000000000,"state":"active","ping":154},{"user_id":270,"name":"Seal","steam_id":76561197970204043,"connected_time":54000000000,"state":"active","ping":75},{"user_id":258,"name":"Merchants of Misery","steam_id":76561199188142396,"connected_time":726000000000,"state":"active","ping":70},{"user_id":89,"name":"riri ·óú·¥ó·óú","steam_id":76561198055462404,"connected_time":11930000000000,"state":"active","ping":79},{"user_id":252,"name":"Fitts1099","steam_id":76561198044986906,"connected_time":1105000000000,"state":"active","ping":45},{"user_id":232,"name":"Godmode","steam_id":76561198076240365,"connected_time":2135000000000,"state":"active","ping":61},{"user_id":211,"name":"Arildis","steam_id":76561198123516977,"connected_time":2967000000000,"state":"active","ping":71},{"user_id":251,"name":"t.tv/ibbKitty ‚àë:3","steam_id":76561198110858518,"connected_time":1224000000000,"state":"active","ping":59},{"user_id":209,"name":"bought this cart for 15 dollars","steam_id":76561198253731826,"connected_time":3214000000000,"state":"active","ping":47},{"user_id":271,"name":"Milk","steam_id":76561198820644886,"connected_time":49000000000,"state":"active","ping":56},{"user_id":244,"name":"hydrochloric acid drinker","steam_id":76561198077272494,"connected_time":1872000000000,"state":"active","ping":52},{"user_id":266,"name":"mineblast99","steam_id":76561199065648954,"connected_time":293000000000,"state":"active","ping":77},{"user_id":202,"name":"Ikalpo","steam_id":76561198044686915,"connected_time":3600000000000,"state":"active","ping":110},{"user_id":253,"name":"Eviscerator","steam_id":76561197980073637,"connected_time":962000000000,"state":"active","ping":66},{"user_id":257,"name":"germba","steam_id":76561198421591995,"connected_time":788000000000,"state":"active","ping":75},{"user_id":272,"name":"Halo","steam_id":76561198144909435,"connected_time":26000000000,"state":"active","ping":107},{"user_id":273,"name":"floppy muppet","steam_id":76561198003076261,"connected_time":26000000000,"state":"active","ping":90},{"user_id":262,"name":"lwyr","steam_id":76561198007982579,"connected_time":475000000000,"state":"active","ping":61},{"user_id":238,"name":"Stressmelo","steam_id":76561199204445185,"connected_time":2006000000000,"state":"active","ping":78},{"user_id":259,"name":"boofgall319","steam_id":76561199122095813,"connected_time":605000000000,"state":"active","ping":72}]},{"server_id":402,"name":"Uncletopia | Chicago | 3 | All Maps","name_short":"chi-3","host":"chi-1.us.uncletopia.com","port":27035,"enabled":true,"region":"us-central","cc":"us","latitude":41.881832,"longitude":-87.62318,"reserved":0,"last_update":"0001-01-01T00:00:00Z","name_a2s":"Uncletopia | Chicago | 3 | All Maps","protocol":17,"map":"pl_snowycoast","folder":"tf","game":"Team Fortress","app_id":440,"player_count":24,"max_players":24,"Bots":0,"server_type":"Dedicated","server_os":"Linux","password":true,"vac":true,"version":"7742253","steam_id":85568392924515191,"keywords":["nocrits","nodmgspread","payload","uncletopia"],"game_id":440,"stv_port":27036,"stv_name":"Uncletopia | Chicago | 3 | All Maps | STV","players":[{"user_id":368,"name":"Redkiller","steam_id":76561199453655288,"connected_time":1513000000000,"state":"active","ping":77},{"user_id":174,"name":"[slug]","steam_id":76561197989592178,"connected_time":17306000000000,"state":"active","ping":66},{"user_id":377,"name":"cheese (?)","steam_id":76561198232500756,"connected_time":562000000000,"state":"active","ping":72},{"user_id":392,"name":"backflipping trans woman","steam_id":76561198100189571,"connected_time":17000000000,"state":"spawning","ping":62},{"user_id":340,"name":"Bread Baker","steam_id":76561198185335103,"connected_time":4024000000000,"state":"active","ping":66},{"user_id":379,"name":"Alberto2104","steam_id":76561198094968873,"connected_time":456000000000,"state":"active","ping":102},{"user_id":375,"name":"LASAD","steam_id":76561198035410427,"connected_time":571000000000,"state":"active","ping":93},{"user_id":376,"name":"Rex","steam_id":76561198138365053,"connected_time":570000000000,"state":"active","ping":124},{"user_id":390,"name":"Miner2495","steam_id":76561198445904523,"connected_time":106000000000,"state":"active","ping":73},{"user_id":373,"name":"Nerf Gun Survivor","steam_id":76561198036032168,"connected_time":733000000000,"state":"active","ping":54},{"user_id":381,"name":"TheNewGuyM8","steam_id":76561198304398330,"connected_time":425000000000,"state":"active","ping":115},{"user_id":382,"name":"Samsiel","steam_id":76561198094134951,"connected_time":392000000000,"state":"active","ping":89},{"user_id":388,"name":"impractical jokers gaming","steam_id":76561198068167915,"connected_time":285000000000,"state":"active","ping":63},{"user_id":374,"name":"DuckKey","steam_id":76561198904477889,"connected_time":651000000000,"state":"active","ping":61},{"user_id":383,"name":"F.B.I Doggo","steam_id":76561198376057993,"connected_time":366000000000,"state":"active","ping":99},{"user_id":296,"name":"Diesel","steam_id":76561198448815852,"connected_time":7207000000000,"state":"active","ping":87},{"user_id":345,"name":"Jill the Owl","steam_id":76561197999210583,"connected_time":3955000000000,"state":"active","ping":72},{"user_id":326,"name":"Snake Handler","steam_id":76561198027198306,"connected_time":4778000000000,"state":"active","ping":60},{"user_id":391,"name":"poey","steam_id":76561198865346767,"connected_time":68000000000,"state":"active","ping":98},{"user_id":385,"name":"beethan","steam_id":76561198148199120,"connected_time":361000000000,"state":"active","ping":75},{"user_id":370,"name":"Floppa_Of_Humorous_Proportions","steam_id":76561198277217782,"connected_time":1327000000000,"state":"active","ping":55},{"user_id":364,"name":"WastefulTrash","steam_id":76561198119003597,"connected_time":2469000000000,"state":"active","ping":67},{"user_id":351,"name":"RyInc","steam_id":76561198874261643,"connected_time":3609000000000,"state":"active","ping":44},{"user_id":386,"name":"meat-case","steam_id":76561198202183768,"connected_time":332000000000,"state":"active","ping":88}]},{"server_id":403,"name":"Uncletopia | Chicago | 4 | All Maps","name_short":"chi-4","host":"chi-1.us.uncletopia.com","port":27045,"enabled":true,"region":"us-central","cc":"us","latitude":41.881832,"longitude":-87.62318,"reserved":0,"last_update":"0001-01-01T00:00:00Z","name_a2s":"Uncletopia | Chicago | 4 | All Maps","protocol":17,"map":"pl_swiftwater_final1","folder":"tf","game":"Team Fortress","app_id":440,"player_count":23,"max_players":24,"Bots":0,"server_type":"Dedicated","server_os":"Linux","password":true,"vac":true,"version":"7742253","steam_id":85568392924515193,"keywords":["nocrits","nodmgspread","payload","uncletopia"],"game_id":440,"stv_port":27046,"stv_name":"Uncletopia | Chicago | 4 | All Maps | STV","players":[{"user_id":324,"name":"Gravee","steam_id":76561197999283582,"connected_time":930000000000,"state":"active","ping":46},{"user_id":288,"name":"SomeCozyKid","steam_id":76561198086113234,"connected_time":2975000000000,"state":"active","ping":59},{"user_id":339,"name":"Josh","steam_id":76561198155863376,"connected_time":151000000000,"state":"active","ping":64},{"user_id":287,"name":"TwizzlerNips","steam_id":76561198082853513,"connected_time":2982000000000,"state":"active","ping":77},{"user_id":336,"name":"Cheatcommando","steam_id":76561198034825735,"connected_time":462000000000,"state":"active","ping":46},{"user_id":333,"name":"Aspxts","steam_id":76561199125254746,"connected_time":634000000000,"state":"active","ping":55},{"user_id":310,"name":"Dorso","steam_id":76561198380590080,"connected_time":1629000000000,"state":"active","ping":88},{"user_id":327,"name":"Effie","steam_id":76561198261842068,"connected_time":885000000000,"state":"active","ping":90},{"user_id":297,"name":"Uncle","steam_id":76561197988647705,"connected_time":2613000000000,"state":"active","ping":55},{"user_id":304,"name":"IntravenusDeMilo","steam_id":76561197970629020,"connected_time":2182000000000,"state":"active","ping":89},{"user_id":332,"name":"Jrodmpeg","steam_id":76561198046574236,"connected_time":790000000000,"state":"active","ping":70},{"user_id":337,"name":"crippling fumo addiction","steam_id":76561198115874625,"connected_time":234000000000,"state":"active","ping":67},{"user_id":338,"name":"Protoshake","steam_id":76561198840276176,"connected_time":233000000000,"state":"active","ping":66},{"user_id":320,"name":"Alltrex","steam_id":76561198202254225,"connected_time":1314000000000,"state":"active","ping":94},{"user_id":330,"name":"jadecabbage","steam_id":76561198079338204,"connected_time":817000000000,"state":"active","ping":44},{"user_id":341,"name":"Diaper full of urine","steam_id":76561199366077042,"connected_time":13000000000,"state":"active","ping":105},{"user_id":305,"name":"peter griffin","steam_id":76561198079485096,"connected_time":2121000000000,"state":"active","ping":79},{"user_id":265,"name":"Ginger Powder","steam_id":76561198082650449,"connected_time":4963000000000,"state":"active","ping":51},{"user_id":334,"name":"The Hoagie Hero","steam_id":76561198057569298,"connected_time":632000000000,"state":"active","ping":86},{"user_id":335,"name":"no wtf not that","steam_id":76561198461518382,"connected_time":610000000000,"state":"active","ping":59},{"user_id":340,"name":"wyatt","steam_id":76561198035096199,"connected_time":23000000000,"state":"active","ping":82},{"user_id":319,"name":"‚òÇBliffenstimmers‚òÇ","steam_id":76561198059984896,"connected_time":1365000000000,"state":"active","ping":78},{"user_id":272,"name":"Blue Collar","steam_id":76561198354781722,"connected_time":4266000000000,"state":"active","ping":83}]},{"server_id":36,"name":"Uncletopia | Chicago | 5 | All Maps","name_short":"chi-5","host":"chi-2.us.uncletopia.com","port":27015,"enabled":true,"region":"us-central","cc":"us","latitude":41.881832,"longitude":-87.62318,"reserved":0,"last_update":"0001-01-01T00:00:00Z","name_a2s":"Uncletopia | Chicago | 5 | All Maps","protocol":17,"map":"pl_wutville_event","folder":"tf","game":"Team Fortress","app_id":440,"player_count":21,"max_players":24,"Bots":0,"server_type":"Dedicated","server_os":"Linux","password":true,"vac":true,"version":"7742253","steam_id":85568392924866362,"keywords":["nocrits","nodmgspread","payload","uncletopia"],"game_id":440,"stv_port":27016,"stv_name":"Uncletopia | Chicago | 5 | All Maps | STV","players":[{"user_id":181,"name":"weeb_whacker #Jenius","steam_id":76561198187098041,"connected_time":112000000000,"state":"active","ping":56},{"user_id":182,"name":"Rizz","steam_id":76561198255401336,"connected_time":39000000000,"state":"active","ping":61},{"user_id":166,"name":"Mastervandeisel","steam_id":76561198906089530,"connected_time":1218000000000,"state":"active","ping":115},{"user_id":144,"name":"rageheavy","steam_id":76561198053049210,"connected_time":2326000000000,"state":"active","ping":75},{"user_id":109,"name":"Crimmas","steam_id":76561198129326627,"connected_time":5828000000000,"state":"active","ping":72},{"user_id":153,"name":"three three","steam_id":76561198177354155,"connected_time":1966000000000,"state":"active","ping":50},{"user_id":132,"name":"Glungloid","steam_id":76561198272961376,"connected_time":4133000000000,"state":"active","ping":73},{"user_id":154,"name":"Drac0c4t","steam_id":76561199073871583,"connected_time":1911000000000,"state":"active","ping":67},{"user_id":180,"name":"RibRubz","steam_id":76561199024487700,"connected_time":249000000000,"state":"active","ping":73},{"user_id":100,"name":"deadly_gamer #!ganger!","steam_id":76561198311446636,"connected_time":6908000000000,"state":"active","ping":61},{"user_id":183,"name":"Post nut clarity","steam_id":76561198060246831,"connected_time":1000000000,"state":"spawning","ping":79},{"user_id":160,"name":"Backside540","steam_id":76561197960602545,"connected_time":1694000000000,"state":"active","ping":81},{"user_id":169,"name":"dwwojcik","steam_id":76561198084403136,"connected_time":1107000000000,"state":"active","ping":45},{"user_id":173,"name":"Pickleologest 2.0","steam_id":76561198125108090,"connected_time":937000000000,"state":"active","ping":62},{"user_id":176,"name":"The Beheaded","steam_id":76561199067788742,"connected_time":629000000000,"state":"active","ping":80},{"user_id":170,"name":"shrimperino","steam_id":76561198367735460,"connected_time":1101000000000,"state":"active","ping":76},{"user_id":163,"name":"Burning Monk","steam_id":76561198040700875,"connected_time":1608000000000,"state":"active","ping":70},{"user_id":149,"name":"sleepy gay puppygirl","steam_id":76561198128164970,"connected_time":2240000000000,"state":"active","ping":103},{"user_id":171,"name":"head crypto bioengineer analyst","steam_id":76561198070635731,"connected_time":1060000000000,"state":"active","ping":74},{"user_id":174,"name":"Knotics","steam_id":76561198148056101,"connected_time":921000000000,"state":"active","ping":73},{"user_id":152,"name":"best of gaslighting","steam_id":76561198410957728,"connected_time":2112000000000,"state":"active","ping":43}]},{"server_id":37,"name":"Uncletopia | Chicago | 6 | All Maps","name_short":"chi-6","host":"chi-2.us.uncletopia.com","port":27025,"enabled":true,"region":"us-central","cc":"us","latitude":41.881832,"longitude":-87.62318,"reserved":0,"last_update":"0001-01-01T00:00:00Z","name_a2s":"Uncletopia | Chicago | 6 | All Maps","protocol":17,"map":"cp_snakewater_final1","folder":"tf","game":"Team Fortress","app_id":440,"player_count":23,"max_players":24,"Bots":0,"server_type":"Dedicated","server_os":"Linux","password":true,"vac":true,"version":"7742253","steam_id":85568392924866363,"keywords":["cp","nocrits","nodmgspread","uncletopia"],"game_id":440,"stv_port":27026,"stv_name":"Uncletopia | Chicago | 6 | All Maps | STV","players":[{"user_id":92,"name":"murder.","steam_id":76561199119732540,"connected_time":707000000000,"state":"active","ping":56},{"user_id":93,"name":"klup","steam_id":76561198040334555,"connected_time":688000000000,"state":"active","ping":76},{"user_id":94,"name":"Spider13649","steam_id":76561198408436344,"connected_time":686000000000,"state":"active","ping":101},{"user_id":95,"name":"Dwaggy","steam_id":76561198027369555,"connected_time":644000000000,"state":"active","ping":69},{"user_id":69,"name":"Pugnemus","steam_id":76561199056407997,"connected_time":1793000000000,"state":"active","ping":74},{"user_id":70,"name":"Atlas00tarii","steam_id":76561199275191343,"connected_time":1782000000000,"state":"active","ping":181},{"user_id":109,"name":"Sp3ktrgfx","steam_id":76561198053070408,"connected_time":85000000000,"state":"active","ping":174},{"user_id":97,"name":"All Tomorrow's Parties","steam_id":76561197995936212,"connected_time":638000000000,"state":"active","ping":44},{"user_id":99,"name":"TypicalGiftigTTV","steam_id":76561198170372495,"connected_time":599000000000,"state":"active","ping":66},{"user_id":88,"name":"damp","steam_id":76561198281690779,"connected_time":831000000000,"state":"active","ping":70},{"user_id":73,"name":"klhun345","steam_id":76561199416605846,"connected_time":1755000000000,"state":"active","ping":87},{"user_id":74,"name":"Banana The Bold","steam_id":76561199072722993,"connected_time":1741000000000,"state":"active","ping":77},{"user_id":77,"name":"ImRoux","steam_id":76561197979630249,"connected_time":1488000000000,"state":"active","ping":77},{"user_id":79,"name":"blob","steam_id":76561198122375328,"connected_time":1271000000000,"state":"active","ping":55},{"user_id":100,"name":"Waffle Wannabe","steam_id":76561198064510650,"connected_time":570000000000,"state":"active","ping":65},{"user_id":83,"name":"CalebDOTexe","steam_id":76561198042071293,"connected_time":1030000000000,"state":"active","ping":63},{"user_id":84,"name":"Strang","steam_id":76561198046936399,"connected_time":1018000000000,"state":"active","ping":79},{"user_id":85,"name":"Spirosity","steam_id":76561198013485753,"connected_time":942000000000,"state":"active","ping":72},{"user_id":89,"name":"bashingbeans","steam_id":76561198296107421,"connected_time":790000000000,"state":"active","ping":66},{"user_id":106,"name":"4d4","steam_id":76561198402360789,"connected_time":340000000000,"state":"active","ping":62},{"user_id":102,"name":"Pandabare","steam_id":76561198446411056,"connected_time":538000000000,"state":"active","ping":85},{"user_id":103,"name":"Bearegard","steam_id":76561198061926542,"connected_time":518000000000,"state":"active","ping":52}]},{"server_id":38,"name":"Uncletopia | Chicago | 7 | Stopwatch Beta","name_short":"chi-7","host":"chi-2.us.uncletopia.com","port":27035,"enabled":true,"region":"us-central","cc":"us","latitude":41.881832,"longitude":-87.62318,"reserved":0,"last_update":"0001-01-01T00:00:00Z","name_a2s":"Uncletopia | Chicago | 7 | Stopwatch Beta","protocol":17,"map":"workshop/koth_bagel_rc5.ugc2514036946","folder":"tf","game":"Team Fortress","app_id":440,"player_count":0,"max_players":24,"Bots":0,"server_type":"Dedicated","server_os":"Linux","password":true,"vac":true,"version":"7742253","steam_id":85568392924866364,"keywords":["cp","nocrits","nodmgspread","uncletopia"],"game_id":440,"stv_port":27036,"stv_name":"Uncletopia | Chicago | 7 | Stopwatch Beta | STV","players":null},{"server_id":39,"name":"Uncletopia | Chicago | 8 | Community","name_short":"chi-8","host":"chi-2.us.uncletopia.com","port":27045,"enabled":true,"region":"us-central","cc":"us","latitude":41.881832,"longitude":-87.62318,"reserved":0,"last_update":"0001-01-01T00:00:00Z","name_a2s":"Uncletopia | Chicago | 8 | Community","protocol":17,"map":"workshop/koth_bagel_rc5.ugc2514036946","folder":"tf","game":"Team Fortress","app_id":440,"player_count":1,"max_players":24,"Bots":0,"server_type":"Dedicated","server_os":"Linux","password":true,"vac":true,"version":"7742253","steam_id":85568392924866365,"keywords":["cp","nocrits","nodmgspread","uncletopia"],"game_id":440,"stv_port":27046,"stv_name":"Uncletopia | Chicago | 8 | Community | STV","players":[{"user_id":107,"name":"mintongryphon","steam_id":76561199427146067,"connected_time":288000000000,"state":"active","ping":81}]},{"server_id":8,"name":"Uncletopia | Dallas | 1 | All Maps","name_short":"dal-1","host":"dal-1.us.uncletopia.com","port":27015,"enabled":true,"region":"us-central","cc":"us","latitude":32.779167,"longitude":-96.80889,"reserved":0,"last_update":"0001-01-01T00:00:00Z","name_a2s":"Uncletopia | Dallas | 1 | All Maps","protocol":17,"map":"cp_dustbowl","folder":"tf","game":"Team Fortress","app_id":440,"player_count":24,"max_players":24,"Bots":0,"server_type":"Dedicated","server_os":"Linux","password":true,"vac":true,"version":"7742253","steam_id":85568392924469986,"keywords":["cp","nocrits","nodmgspread","uncletopia"],"game_id":440,"stv_port":27016,"stv_name":"Uncletopia | Dallas | 1 | All Maps | STV","players":[{"user_id":469,"name":"HeroOfTime","steam_id":76561199096218001,"connected_time":3298000000000,"state":"active","ping":81},{"user_id":499,"name":"Lots0","steam_id":76561198043143145,"connected_time":364000000000,"state":"active","ping":56},{"user_id":482,"name":"Jaxonfogcap","steam_id":76561198327688357,"connected_time":2159000000000,"state":"active","ping":161},{"user_id":478,"name":"SmokeyGalaxy","steam_id":76561198118780516,"connected_time":2636000000000,"state":"active","ping":60},{"user_id":498,"name":"OwlOddity","steam_id":76561198389068053,"connected_time":403000000000,"state":"active","ping":49},{"user_id":476,"name":"Gromble","steam_id":76561198148876897,"connected_time":3027000000000,"state":"active","ping":97},{"user_id":509,"name":"‡∞ú‡±ç‡∞û‡∞æ‡∞ú‡±ç‡∞û‡∞æ","steam_id":76561198176618461,"connected_time":32000000000,"state":"active","ping":87},{"user_id":495,"name":"CrockettMann","steam_id":76561198286581911,"connected_time":472000000000,"state":"active","ping":100},{"user_id":500,"name":"SirArza","steam_id":76561198196214655,"connected_time":362000000000,"state":"active","ping":67},{"user_id":501,"name":"MasterDoge17","steam_id":76561198917443549,"connected_time":330000000000,"state":"active","ping":97},{"user_id":508,"name":"Riff","steam_id":76561198066921423,"connected_time":205000000000,"state":"active","ping":60},{"user_id":503,"name":"EXO","steam_id":76561198086286469,"connected_time":263000000000,"state":"active","ping":90},{"user_id":418,"name":"Zen Skye","steam_id":76561198114452552,"connected_time":6906000000000,"state":"active","ping":76},{"user_id":504,"name":"Clueless Denizen","steam_id":76561198118919233,"connected_time":254000000000,"state":"active","ping":81},{"user_id":494,"name":"Zo√©yyy‚ù§","steam_id":76561198368944263,"connected_time":915000000000,"state":"active","ping":81},{"user_id":467,"name":"Gengoron","steam_id":76561197994829919,"connected_time":3438000000000,"state":"active","ping":102},{"user_id":479,"name":"Pinetree w/ apples.","steam_id":76561198105411709,"connected_time":2592000000000,"state":"active","ping":107},{"user_id":457,"name":"El Camino","steam_id":76561197992848313,"connected_time":4432000000000,"state":"active","ping":80},{"user_id":487,"name":"The Announcer's Feet","steam_id":76561199443456893,"connected_time":1999000000000,"state":"active","ping":46},{"user_id":488,"name":"rico suave","steam_id":76561198093252989,"connected_time":1990000000000,"state":"active","ping":57},{"user_id":505,"name":"plutonium isotope","steam_id":76561198319442494,"connected_time":253000000000,"state":"active","ping":79},{"user_id":481,"name":"mbell1199","steam_id":76561198827517736,"connected_time":2327000000000,"state":"active","ping":63},{"user_id":453,"name":"FoamyPirate.h","steam_id":76561197970312151,"connected_time":4527000000000,"state":"active","ping":84},{"user_id":510,"name":"Weerk","steam_id":76561199209543551,"connected_time":12000000000,"state":"active","ping":95}]},{"server_id":108,"name":"Uncletopia | Dallas | 2 | All Maps","name_short":"dal-2","host":"dal-1.us.uncletopia.com","port":27025,"enabled":true,"region":"us-central","cc":"us","latitude":32.779167,"longitude":-96.80889,"reserved":0,"last_update":"0001-01-01T00:00:00Z","name_a2s":"Uncletopia | Dallas | 2 | All Maps","protocol":17,"map":"pl_hoodoo_final","folder":"tf","game":"Team Fortress","app_id":440,"player_count":18,"max_players":24,"Bots":0,"server_type":"Dedicated","server_os":"Linux","password":true,"vac":true,"version":"7742253","steam_id":85568392924469988,"keywords":["nocrits","nodmgspread","payload","uncletopia"],"game_id":440,"stv_port":27026,"stv_name":"Uncletopia | Dallas | 2 | All Maps | STV","players":[{"user_id":183,"name":"Sprucelass","steam_id":76561197998391724,"connected_time":219000000000,"state":"active","ping":74},{"user_id":176,"name":"potato pat","steam_id":76561198025489194,"connected_time":814000000000,"state":"active","ping":49},{"user_id":164,"name":"cup","steam_id":76561198121245586,"connected_time":1726000000000,"state":"active","ping":81},{"user_id":185,"name":"‚ô™","steam_id":76561198161403931,"connected_time":155000000000,"state":"active","ping":30},{"user_id":186,"name":"[LINUX] F2P=S*(M/B)+H || Spy!","steam_id":76561198093538786,"connected_time":107000000000,"state":"active","ping":44},{"user_id":179,"name":"Emperorsauce","steam_id":76561199212336335,"connected_time":578000000000,"state":"active","ping":67},{"user_id":184,"name":"Rhutebeer","steam_id":76561198018302761,"connected_time":210000000000,"state":"active","ping":67},{"user_id":189,"name":"dresh","steam_id":76561198028321347,"connected_time":14000000000,"state":"spawning","ping":193},{"user_id":180,"name":"CroutonCriminal","steam_id":76561198252145166,"connected_time":467000000000,"state":"active","ping":82},{"user_id":187,"name":"Nightfall","steam_id":76561198169718867,"connected_time":85000000000,"state":"active","ping":107},{"user_id":188,"name":"She's giving you a WUTVILLE??","steam_id":76561198172792271,"connected_time":22000000000,"state":"spawning","ping":89},{"user_id":158,"name":"TurtleThePugs","steam_id":76561198962814802,"connected_time":3209000000000,"state":"active","ping":73},{"user_id":172,"name":"Canob","steam_id":76561198910909677,"connected_time":1134000000000,"state":"active","ping":77},{"user_id":181,"name":"BrotherGrowly","steam_id":76561198086663043,"connected_time":264000000000,"state":"active","ping":93},{"user_id":132,"name":"Oshawott82","steam_id":76561198122783743,"connected_time":5071000000000,"state":"active","ping":69},{"user_id":160,"name":"spot (paradise edition)","steam_id":76561198151135298,"connected_time":2538000000000,"state":"active","ping":68},{"user_id":131,"name":"a bucket of chicken","steam_id":76561198023710042,"connected_time":5118000000000,"state":"active","ping":45},{"user_id":135,"name":"Sdehv2","steam_id":76561198067719497,"connected_time":4916000000000,"state":"active","ping":41}]},{"server_id":5,"name":"Uncletopia | Frankfurt | 1 | All Maps","name_short":"frk-1","host":"frk-1.de.uncletopia.com","port":27015,"enabled":true,"region":"eu","cc":"de","latitude":50.110924,"longitude":8.682127,"reserved":0,"last_update":"0001-01-01T00:00:00Z","name_a2s":"Uncletopia | Frankfurt | 1 | All Maps","protocol":17,"map":"cp_snakewater_final1","folder":"tf","game":"Team Fortress","app_id":440,"player_count":0,"max_players":24,"Bots":0,"server_type":"Dedicated","server_os":"Linux","password":true,"vac":true,"version":"7742253","steam_id":85568392924469989,"keywords":["cp","nocrits","nodmgspread","uncletopia"],"game_id":440,"stv_port":27016,"stv_name":"Uncletopia | Frankfurt | 1 | All Maps | STV","players":null},{"server_id":110,"name":"Uncletopia | Frankfurt | 2 | All Maps","name_short":"frk-2","host":"frk-1.de.uncletopia.com","port":27025,"enabled":true,"region":"eu","cc":"de","latitude":50.110924,"longitude":8.682127,"reserved":0,"last_update":"0001-01-01T00:00:00Z","name_a2s":"Uncletopia | Frankfurt | 2 | All Maps","protocol":17,"map":"pl_pier","folder":"tf","game":"Team Fortress","app_id":440,"player_count":23,"max_players":24,"Bots":0,"server_type":"Dedicated","server_os":"Linux","password":true,"vac":true,"version":"7742253","steam_id":85568392924469990,"keywords":["nocrits","nodmgspread","payload","uncletopia"],"game_id":440,"stv_port":27026,"stv_name":"Uncletopia | Frankfurt | 2 | All Maps | STV","players":[{"user_id":644,"name":"Xayir","steam_id":76561198079566786,"connected_time":993000000000,"state":"active","ping":60},{"user_id":596,"name":"Cappuccino","steam_id":76561199065155403,"connected_time":2199000000000,"state":"active","ping":58},{"user_id":593,"name":"Eskimo","steam_id":76561198154147392,"connected_time":2317000000000,"state":"active","ping":49},{"user_id":578,"name":"Volcyy","steam_id":76561198063979124,"connected_time":3095000000000,"state":"active","ping":44},{"user_id":587,"name":"historicalpoultry","steam_id":76561198148422688,"connected_time":2442000000000,"state":"active","ping":39},{"user_id":601,"name":"Dongus","steam_id":76561198042774930,"connected_time":2096000000000,"state":"active","ping":81},{"user_id":604,"name":"Kiska D","steam_id":76561198261377744,"connected_time":1974000000000,"state":"active","ping":92},{"user_id":646,"name":"Leviopterix","steam_id":76561198172397734,"connected_time":769000000000,"state":"active","ping":60},{"user_id":642,"name":"FLYING DWARF","steam_id":76561199048614286,"connected_time":1032000000000,"state":"active","ping":108},{"user_id":651,"name":"Oh and the BEANS","steam_id":76561198797329268,"connected_time":80000000000,"state":"active","ping":86},{"user_id":528,"name":"ÍßÅ‡ºíXenon‡ºíÍßÇ","steam_id":76561198120502313,"connected_time":5375000000000,"state":"active","ping":75},{"user_id":589,"name":"NayrMcDrd","steam_id":76561199013184576,"connected_time":2387000000000,"state":"active","ping":78},{"user_id":641,"name":"Schnappi Krokodil","steam_id":76561199046892970,"connected_time":1037000000000,"state":"active","ping":80},{"user_id":590,"name":"lodi","steam_id":76561198363762492,"connected_time":2380000000000,"state":"active","ping":168},{"user_id":650,"name":"espy01","steam_id":76561198411001603,"connected_time":93000000000,"state":"active","ping":73},{"user_id":571,"name":"Senator Armstrong","steam_id":76561198984346408,"connected_time":3618000000000,"state":"active","ping":66},{"user_id":647,"name":"Caelestis","steam_id":76561198170017997,"connected_time":695000000000,"state":"active","ping":87},{"user_id":652,"name":"Sir Thomas","steam_id":76561198055056903,"connected_time":68000000000,"state":"active","ping":147},{"user_id":492,"name":"Drunk gaming","steam_id":76561198356521260,"connected_time":8155000000000,"state":"active","ping":81},{"user_id":653,"name":"hawashin","steam_id":76561198061753448,"connected_time":52000000000,"state":"active","ping":230},{"user_id":540,"name":"DaveCallDrop","steam_id":76561198080394716,"connected_time":4911000000000,"state":"active","ping":74},{"user_id":608,"name":"Mirari","steam_id":76561198126889358,"connected_time":1908000000000,"state":"active","ping":150},{"user_id":531,"name":"Jyghc","steam_id":76561198405980575,"connected_time":5303000000000,"state":"active","ping":79}]},{"server_id":308,"name":"Uncletopia | Frankfurt | 3 | All Maps","name_short":"frk-3","host":"frk-1.de.uncletopia.com","port":27035,"enabled":true,"region":"eu","cc":"de","latitude":50.110924,"longitude":8.682127,"reserved":0,"last_update":"0001-01-01T00:00:00Z","name_a2s":"Uncletopia | Frankfurt | 3 | All Maps","protocol":17,"map":"koth_cascade","folder":"tf","game":"Team Fortress","app_id":440,"player_count":0,"max_players":24,"Bots":0,"server_type":"Dedicated","server_os":"Linux","password":true,"vac":true,"version":"7742253","steam_id":85568392924504274,"keywords":["cp","nocrits","nodmgspread","uncletopia"],"game_id":440,"stv_port":27036,"stv_name":"Uncletopia | Frankfurt | 3 | All Maps | STV","players":null},{"server_id":309,"name":"Uncletopia | Frankfurt | 4 | All Maps","name_short":"frk-4","host":"frk-1.de.uncletopia.com","port":27045,"enabled":true,"region":"eu","cc":"de","latitude":50.110924,"longitude":8.682127,"reserved":0,"last_update":"0001-01-01T00:00:00Z","name_a2s":"Uncletopia | Frankfurt | 4 | All Maps","protocol":17,"map":"pl_barnblitz","folder":"tf","game":"Team Fortress","app_id":440,"player_count":23,"max_players":24,"Bots":0,"server_type":"Dedicated","server_os":"Linux","password":true,"vac":true,"version":"7742253","steam_id":85568392924504275,"keywords":["nocrits","nodmgspread","payload","uncletopia"],"game_id":440,"stv_port":27046,"stv_name":"Uncletopia | Frankfurt | 4 | All Maps | STV","players":[{"user_id":508,"name":"mohemmedmokhter2005","steam_id":76561199197650506,"connected_time":1494000000000,"state":"active","ping":112},{"user_id":509,"name":"king251311","steam_id":76561199063310889,"connected_time":1475000000000,"state":"active","ping":65},{"user_id":516,"name":"Nemoest","steam_id":76561198094604892,"connected_time":1375000000000,"state":"active","ping":62},{"user_id":530,"name":"Kodutah","steam_id":76561198203405574,"connected_time":2000000000,"state":"spawning","ping":80},{"user_id":522,"name":"FORESKIN","steam_id":76561199068731584,"connected_time":761000000000,"state":"active","ping":58},{"user_id":520,"name":"Ostarr","steam_id":76561198200054489,"connected_time":825000000000,"state":"active","ping":64},{"user_id":526,"name":"arm","steam_id":76561198289650669,"connected_time":269000000000,"state":"active","ping":54},{"user_id":504,"name":"beefmilk","steam_id":76561197996149548,"connected_time":1966000000000,"state":"active","ping":65},{"user_id":527,"name":"ksg","steam_id":76561198042894236,"connected_time":176000000000,"state":"active","ping":65},{"user_id":441,"name":"dddd","steam_id":76561198120894372,"connected_time":6085000000000,"state":"active","ping":106},{"user_id":512,"name":"YeetusFeetus","steam_id":76561199043598948,"connected_time":1423000000000,"state":"active","ping":116},{"user_id":524,"name":"‚ô•MsVioletBlossom‚ô•","steam_id":76561198041855404,"connected_time":565000000000,"state":"active","ping":66},{"user_id":416,"name":"Welder","steam_id":76561198355300561,"connected_time":8340000000000,"state":"active","ping":65},{"user_id":528,"name":"BlueBlueFox","steam_id":76561198053817230,"connected_time":119000000000,"state":"active","ping":56},{"user_id":511,"name":"Spyoru","steam_id":76561199422949621,"connected_time":1441000000000,"state":"active","ping":59},{"user_id":513,"name":"ZOMBINŒ£","steam_id":76561198151057964,"connected_time":1412000000000,"state":"active","ping":82},{"user_id":523,"name":"galad.game","steam_id":76561198336324159,"connected_time":739000000000,"state":"active","ping":54},{"user_id":529,"name":"DarthPaul8181","steam_id":76561198373050455,"connected_time":82000000000,"state":"active","ping":56},{"user_id":517,"name":"[G.E.W.P.] | Gr0t0s","steam_id":76561198157368331,"connected_time":1263000000000,"state":"active","ping":66},{"user_id":521,"name":"Kelpy G gaming","steam_id":76561198056995633,"connected_time":819000000000,"state":"active","ping":51},{"user_id":519,"name":"‚ô´‚òÖXriasp‚òÖ‚ô´","steam_id":76561198104721321,"connected_time":1113000000000,"state":"active","ping":91},{"user_id":514,"name":"Pastely","steam_id":76561198167718627,"connected_time":1400000000000,"state":"active","ping":60},{"user_id":515,"name":"freemantel30","steam_id":76561198065669800,"connected_time":1384000000000,"state":"active","ping":49}]},{"server_id":310,"name":"Uncletopia | Frankfurt | 5 | All Maps","name_short":"frk-5","host":"frk-1.de.uncletopia.com","port":27055,"enabled":true,"region":"eu","cc":"de","latitude":50.110924,"longitude":8.682127,"reserved":0,"last_update":"0001-01-01T00:00:00Z","name_a2s":"Uncletopia | Frankfurt | 5 | All Maps","protocol":17,"map":"pl_barnblitz","folder":"tf","game":"Team Fortress","app_id":440,"player_count":22,"max_players":24,"Bots":0,"server_type":"Dedicated","server_os":"Linux","password":true,"vac":true,"version":"7742253","steam_id":85568392924504277,"keywords":["nocrits","nodmgspread","payload","uncletopia"],"game_id":440,"stv_port":27056,"stv_name":"Uncletopia | Frankfurt | 5 | All Maps | STV","players":[{"user_id":744,"name":"Charlie","steam_id":76561198091070593,"connected_time":106000000000,"state":"active","ping":54},{"user_id":743,"name":"Dolcelatte","steam_id":76561198038501770,"connected_time":146000000000,"state":"active","ping":55},{"user_id":724,"name":"Wardaddy","steam_id":76561198161316173,"connected_time":1593000000000,"state":"active","ping":69},{"user_id":742,"name":"PingouinPoilu","steam_id":76561198025089253,"connected_time":210000000000,"state":"active","ping":61},{"user_id":745,"name":"Jelly Kidd","steam_id":76561198069762831,"connected_time":89000000000,"state":"active","ping":66},{"user_id":739,"name":"Drovecz_Hun","steam_id":76561198054703214,"connected_time":508000000000,"state":"active","ping":70},{"user_id":746,"name":"mismatch","steam_id":76561198041993514,"connected_time":88000000000,"state":"active","ping":73},{"user_id":731,"name":":3 :3 :3","steam_id":76561198067990185,"connected_time":1304000000000,"state":"active","ping":68},{"user_id":726,"name":"telecaster cowboy","steam_id":76561198030155915,"connected_time":1558000000000,"state":"active","ping":73},{"user_id":727,"name":"squo -pivzavod-","steam_id":76561198324357479,"connected_time":1555000000000,"state":"active","ping":61},{"user_id":728,"name":"Balls","steam_id":76561198086400484,"connected_time":1547000000000,"state":"active","ping":64},{"user_id":747,"name":"The Hunky Squirrel","steam_id":76561198013295577,"connected_time":46000000000,"state":"active","ping":85},{"user_id":704,"name":"Accident","steam_id":76561198115160396,"connected_time":2655000000000,"state":"active","ping":74},{"user_id":716,"name":"Soerlssoelss√∂en","steam_id":76561197993060585,"connected_time":2023000000000,"state":"active","ping":70},{"user_id":748,"name":"Sneaky L√∂g","steam_id":76561198990438917,"connected_time":22000000000,"state":"active","ping":69},{"user_id":623,"name":"FluiDCobRa‚Ñ¢","steam_id":76561198142461723,"connected_time":7764000000000,"state":"active","ping":93},{"user_id":741,"name":"Proofmean","steam_id":76561198878552103,"connected_time":353000000000,"state":"active","ping":57},{"user_id":628,"name":"Goblin (level-5)","steam_id":76561198058211873,"connected_time":7670000000000,"state":"active","ping":47},{"user_id":685,"name":"Efeca","steam_id":76561198018923829,"connected_time":3943000000000,"state":"active","ping":66},{"user_id":591,"name":"Carry Krypl","steam_id":76561198136938121,"connected_time":10085000000000,"state":"active","ping":53},{"user_id":722,"name":"MGA","steam_id":76561198006762849,"connected_time":1675000000000,"state":"active","ping":47},{"user_id":718,"name":"marsel","steam_id":76561198116168271,"connected_time":2008000000000,"state":"active","ping":74}]},{"server_id":311,"name":"Uncletopia | Frankfurt | 6 | All Maps","name_short":"frk-6","host":"frk-1.de.uncletopia.com","port":27065,"enabled":true,"region":"eu","cc":"de","latitude":50.110924,"longitude":8.682127,"reserved":0,"last_update":"0001-01-01T00:00:00Z","name_a2s":"Uncletopia | Frankfurt | 6 | All Maps","protocol":17,"map":"cp_dustbowl","folder":"tf","game":"Team Fortress","app_id":440,"player_count":22,"max_players":24,"Bots":0,"server_type":"Dedicated","server_os":"Linux","password":true,"vac":true,"version":"7742253","steam_id":85568392924504278,"keywords":["cp","nocrits","nodmgspread","uncletopia"],"game_id":440,"stv_port":27066,"stv_name":"Uncletopia | Frankfurt | 6 | All Maps | STV","players":[{"user_id":456,"name":"Dikkover","steam_id":76561199237000545,"connected_time":1252000000000,"state":"active","ping":137},{"user_id":439,"name":"üå≠ Arentrir KING.LBJ.6","steam_id":76561198334126785,"connected_time":2469000000000,"state":"active","ping":70},{"user_id":445,"name":"SirTaxEvasion","steam_id":76561199117781098,"connected_time":1554000000000,"state":"active","ping":180},{"user_id":464,"name":"Rockfire","steam_id":76561198014117679,"connected_time":75000000000,"state":"active","ping":49},{"user_id":459,"name":"joona","steam_id":76561198156305446,"connected_time":407000000000,"state":"active","ping":137},{"user_id":441,"name":"Ducky[WADZ]üê§","steam_id":76561198060341245,"connected_time":2024000000000,"state":"active","ping":40},{"user_id":433,"name":"–î—è–¥—è –ì–µ–π–º–µ—Ä","steam_id":76561198053440057,"connected_time":3409000000000,"state":"active","ping":75},{"user_id":461,"name":"MegaFox.not","steam_id":76561198036158737,"connected_time":255000000000,"state":"active","ping":53},{"user_id":458,"name":"Ecton","steam_id":76561198025103720,"connected_time":679000000000,"state":"active","ping":62},{"user_id":460,"name":"boo_thefeared","steam_id":76561198127967685,"connected_time":349000000000,"state":"active","ping":60},{"user_id":435,"name":"T.A.G.","steam_id":76561198086638189,"connected_time":3247000000000,"state":"active","ping":74},{"user_id":427,"name":"I was good before.","steam_id":76561198187045217,"connected_time":3588000000000,"state":"active","ping":76},{"user_id":455,"name":"Frost","steam_id":76561199228878812,"connected_time":1300000000000,"state":"active","ping":137},{"user_id":343,"name":"Penis Contortionist","steam_id":76561198073663784,"connected_time":9524000000000,"state":"active","ping":48},{"user_id":386,"name":"the stealer of signs and weapon","steam_id":76561199233664005,"connected_time":6821000000000,"state":"active","ping":106},{"user_id":450,"name":"i heal gay people","steam_id":76561198032167311,"connected_time":1468000000000,"state":"active","ping":68},{"user_id":451,"name":"69Ruby","steam_id":76561198076230407,"connected_time":1458000000000,"state":"active","ping":82},{"user_id":429,"name":"annoying garry","steam_id":76561198019078145,"connected_time":3464000000000,"state":"active","ping":75},{"user_id":437,"name":"Eeshie","steam_id":76561198054816169,"connected_time":3187000000000,"state":"active","ping":83},{"user_id":443,"name":"a fresh pan of lemon squares","steam_id":76561197984071376,"connected_time":1971000000000,"state":"active","ping":70},{"user_id":402,"name":"fishska","steam_id":76561198051166015,"connected_time":5872000000000,"state":"active","ping":66},{"user_id":352,"name":"–∏–≤–∞–Ω","steam_id":76561198072730591,"connected_time":9180000000000,"state":"active","ping":76}]},{"server_id":23,"name":"Uncletopia | Frankfurt | 7 | Stopwatch Beta","name_short":"frk-7","host":"frk-1.de.uncletopia.com","port":27075,"enabled":true,"region":"eu","cc":"de","latitude":50.110924,"longitude":8.682127,"reserved":0,"last_update":"0001-01-01T00:00:00Z","name_a2s":"Uncletopia | Frankfurt | 7 | Stopwatch Beta","protocol":17,"map":"workshop/pl_summercoast_rc8e.ugc1761528829","folder":"tf","game":"Team Fortress","app_id":440,"player_count":0,"max_players":24,"Bots":0,"server_type":"Dedicated","server_os":"Linux","password":true,"vac":true,"version":"7742253","steam_id":85568392924742827,"keywords":["nocrits","nodmgspread","payload","uncletopia"],"game_id":440,"stv_port":27076,"stv_name":"Uncletopia | Frankfurt | 7 | Stopwatch Beta | STV","players":null},{"server_id":24,"name":"Uncletopia | Frankfurt | 8 | Community","name_short":"frk-8","host":"frk-1.de.uncletopia.com","port":27085,"enabled":true,"region":"eu","cc":"de","latitude":50.110924,"longitude":8.682127,"reserved":0,"last_update":"0001-01-01T00:00:00Z","name_a2s":"Uncletopia | Frankfurt | 8 | Community","protocol":17,"map":"workshop/koth_synthetic_rc6a.ugc1549817316","folder":"tf","game":"Team Fortress","app_id":440,"player_count":0,"max_players":24,"Bots":0,"server_type":"Dedicated","server_os":"Linux","password":true,"vac":true,"version":"7742253","steam_id":85568392924742828,"keywords":["cp","nocrits","nodmgspread","uncletopia"],"game_id":440,"stv_port":27086,"stv_name":"Uncletopia | Frankfurt | 8 | Community | STV","players":null},{"server_id":202,"name":"Uncletopia | Hong Kong | 1 | All Maps","name_short":"hgk-1","host":"hgk-1.hk.uncletopia.com","port":27015,"enabled":true,"region":"asia","cc":"hk","latitude":22.302711,"longitude":114.177216,"reserved":0,"last_update":"0001-01-01T00:00:00Z","name_a2s":"Uncletopia | Hong Kong | 1 | All Maps","protocol":17,"map":"pl_badwater","folder":"tf","game":"Team Fortress","app_id":440,"player_count":0,"max_players":24,"Bots":0,"server_type":"Dedicated","server_os":"Linux","password":true,"vac":true,"version":"7742253","steam_id":85568392924494504,"keywords":["nocrits","nodmgspread","payload","uncletopia"],"game_id":440,"stv_port":27016,"stv_name":"Uncletopia | Hong Kong | 1 | All Maps | STV","players":null},{"server_id":1,"name":"Uncletopia | Los Angeles | 1 | All Maps","name_short":"lax-1","host":"lax-1.us.uncletopia.com","port":27015,"enabled":true,"region":"us-west","cc":"us","latitude":33.94279,"longitude":-118.41004,"reserved":0,"last_update":"0001-01-01T00:00:00Z","name_a2s":"Uncletopia | Los Angeles | 1 | All Maps","protocol":17,"map":"cp_mountainlab","folder":"tf","game":"Team Fortress","app_id":440,"player_count":0,"max_players":24,"Bots":0,"server_type":"Dedicated","server_os":"Linux","password":true,"vac":true,"version":"7742253","steam_id":85568392924469991,"keywords":["cp","nocrits","nodmgspread","uncletopia"],"game_id":440,"stv_port":27016,"stv_name":"Uncletopia | Los Angeles | 1 | All Maps | STV","players":null},{"server_id":112,"name":"Uncletopia | Los Angeles | 2 | All Maps","name_short":"lax-2","host":"lax-1.us.uncletopia.com","port":27025,"enabled":true,"region":"us-west","cc":"us","latitude":33.94279,"longitude":-118.41004,"reserved":0,"last_update":"0001-01-01T00:00:00Z","name_a2s":"Uncletopia | Los Angeles | 2 | All Maps","protocol":17,"map":"koth_lakeside_final","folder":"tf","game":"Team Fortress","app_id":440,"player_count":0,"max_players":24,"Bots":0,"server_type":"Dedicated","server_os":"Linux","password":true,"vac":true,"version":"7742253","steam_id":85568392924469992,"keywords":["cp","nocrits","nodmgspread","uncletopia"],"game_id":440,"stv_port":27026,"stv_name":"Uncletopia | Los Angeles | 2 | All Maps | STV","players":null},{"server_id":324,"name":"Uncletopia | Los Angeles | 3 | All Maps","name_short":"lax-3","host":"lax-1.us.uncletopia.com","port":27035,"enabled":true,"region":"us-west","cc":"us","latitude":33.94279,"longitude":-118.41004,"reserved":0,"last_update":"0001-01-01T00:00:00Z","name_a2s":"Uncletopia | Los Angeles | 3 | All Maps","protocol":17,"map":"cp_altitude","folder":"tf","game":"Team Fortress","app_id":440,"player_count":0,"max_players":24,"Bots":0,"server_type":"Dedicated","server_os":"Linux","password":true,"vac":true,"version":"7742253","steam_id":85568392924510198,"keywords":["cp","nocrits","nodmgspread","uncletopia"],"game_id":440,"stv_port":27036,"stv_name":"Uncletopia | Los Angeles | 3 | All Maps | STV","players":null},{"server_id":25,"name":"Uncletopia | Los Angeles | 4 | Stopwatch Beta","name_short":"lax-4","host":"lax-1.us.uncletopia.com","port":27045,"enabled":true,"region":"us-west","cc":"us","latitude":33.94279,"longitude":-118.41004,"reserved":0,"last_update":"0001-01-01T00:00:00Z","name_a2s":"Uncletopia | Los Angeles | 4 | Stopwatch Beta","protocol":17,"map":"cp_granary","folder":"tf","game":"Team Fortress","app_id":440,"player_count":0,"max_players":24,"Bots":0,"server_type":"Dedicated","server_os":"Linux","password":true,"vac":true,"version":"7742253","steam_id":85568392924510199,"keywords":["cp","nocrits","nodmgspread","uncletopia"],"game_id":440,"stv_port":27046,"stv_name":"Uncletopia | Los Angeles | 4 | Stopwatch Beta | STV","players":null},{"server_id":11,"name":"Uncletopia | London | 1 | All Maps","name_short":"lon-1","host":"lon-1.uk.uncletopia.com","port":27015,"enabled":true,"region":"eu","cc":"gb","latitude":51.509865,"longitude":-0.118092,"reserved":0,"last_update":"0001-01-01T00:00:00Z","name_a2s":"Uncletopia | London | 1 | All Maps","protocol":17,"map":"koth_harvest_final","folder":"tf","game":"Team Fortress","app_id":440,"player_count":24,"max_players":24,"Bots":0,"server_type":"Dedicated","server_os":"Linux","password":true,"vac":true,"version":"7742253","steam_id":85568392924367362,"keywords":["cp","nocrits","nodmgspread","uncletopia"],"game_id":440,"stv_port":27016,"stv_name":"Uncletopia | London | 1 | All Maps | STV","players":[{"user_id":550,"name":"most sane mentalist","steam_id":76561198310095220,"connected_time":3871000000000,"state":"active","ping":34},{"user_id":555,"name":"Fred","steam_id":76561198107137362,"connected_time":3302000000000,"state":"active","ping":51},{"user_id":529,"name":"sniffin out trouble","steam_id":76561198259668029,"connected_time":6329000000000,"state":"active","ping":204},{"user_id":567,"name":"MrXtr","steam_id":76561198966247397,"connected_time":2344000000000,"state":"active","ping":57},{"user_id":575,"name":"Mero","steam_id":76561198397289130,"connected_time":1513000000000,"state":"active","ping":76},{"user_id":572,"name":"when the imp","steam_id":76561198941142018,"connected_time":1655000000000,"state":"active","ping":62},{"user_id":603,"name":"eggslut","steam_id":76561198010752241,"connected_time":29000000000,"state":"active","ping":65},{"user_id":601,"name":"jonesy","steam_id":76561198073975078,"connected_time":271000000000,"state":"active","ping":45},{"user_id":498,"name":"nudjura","steam_id":76561198281986139,"connected_time":9665000000000,"state":"active","ping":43},{"user_id":524,"name":"SOPHIIEE","steam_id":76561198443798981,"connected_time":7748000000000,"state":"active","ping":53},{"user_id":518,"name":"Hermitcrack","steam_id":76561198149216441,"connected_time":8188000000000,"state":"active","ping":75},{"user_id":545,"name":"RaptorParkowsky","steam_id":76561198110823696,"connected_time":4064000000000,"state":"active","ping":91},{"user_id":562,"name":"Simbax","steam_id":76561198012920375,"connected_time":2877000000000,"state":"active","ping":96},{"user_id":475,"name":"Emxx52","steam_id":76561198059374194,"connected_time":11331000000000,"state":"active","ping":74},{"user_id":571,"name":"PROJ","steam_id":76561197996737046,"connected_time":1884000000000,"state":"active","ping":119},{"user_id":564,"name":"Fat Pigeon","steam_id":76561198817940142,"connected_time":2460000000000,"state":"active","ping":46},{"user_id":537,"name":"chrissy","steam_id":76561198096547662,"connected_time":6195000000000,"state":"active","ping":54},{"user_id":568,"name":"Nooblington","steam_id":76561198053695699,"connected_time":2154000000000,"state":"active","ping":46},{"user_id":576,"name":"N0tzz","steam_id":76561198391025653,"connected_time":908000000000,"state":"active","ping":64},{"user_id":548,"name":"–æ–Ω–∞ —Å–∫–æ—Ä–æ –∑–∞–±—É–¥–µ\ufffd","steam_id":76561199042470246,"connected_time":4007000000000,"state":"active","ping":67},{"user_id":577,"name":"JimTheMagicJumper","steam_id":76561197996773886,"connected_time":724000000000,"state":"active","ping":41},{"user_id":596,"name":"X-tis","steam_id":76561198043837480,"connected_time":332000000000,"state":"active","ping":75},{"user_id":557,"name":"ciliorkun18","steam_id":76561198228942500,"connected_time":3276000000000,"state":"active","ping":97},{"user_id":560,"name":"‚ô•‡∂ûlily‡∂û‚ô•","steam_id":76561198049840460,"connected_time":3050000000000,"state":"active","ping":53}]},{"server_id":114,"name":"Uncletopia | London | 2 | All Maps","name_short":"lon-2","host":"lon-1.uk.uncletopia.com","port":27025,"enabled":true,"region":"eu","cc":"gb","latitude":51.509865,"longitude":-0.118092,"reserved":0,"last_update":"0001-01-01T00:00:00Z","name_a2s":"Uncletopia | London | 2 | All Maps","protocol":17,"map":"pl_borneo","folder":"tf","game":"Team Fortress","app_id":440,"player_count":24,"max_players":24,"Bots":0,"server_type":"Dedicated","server_os":"Linux","password":true,"vac":true,"version":"7742253","steam_id":85568392924470941,"keywords":["nocrits","nodmgspread","payload","uncletopia"],"game_id":440,"stv_port":27026,"stv_name":"Uncletopia | London | 2 | All Maps | STV","players":[{"user_id":827,"name":"SausageRoll","steam_id":76561197994072622,"connected_time":404000000000,"state":"active","ping":43},{"user_id":828,"name":"Breadcrab","steam_id":76561198015924039,"connected_time":393000000000,"state":"active","ping":57},{"user_id":829,"name":"KierUK |","steam_id":76561198119447994,"connected_time":384000000000,"state":"active","ping":48},{"user_id":810,"name":"Spas","steam_id":76561199206966500,"connected_time":2137000000000,"state":"active","ping":65},{"user_id":816,"name":"FishNachoz","steam_id":76561198026519426,"connected_time":1585000000000,"state":"active","ping":45},{"user_id":766,"name":"Paul Moment","steam_id":76561197977122134,"connected_time":5538000000000,"state":"active","ping":60},{"user_id":821,"name":"gorg","steam_id":76561198160285627,"connected_time":1244000000000,"state":"active","ping":39},{"user_id":820,"name":"14","steam_id":76561198104197507,"connected_time":1258000000000,"state":"active","ping":118},{"user_id":822,"name":"Baba","steam_id":76561198434089142,"connected_time":1244000000000,"state":"active","ping":60},{"user_id":765,"name":"Yangus","steam_id":76561198147796010,"connected_time":5588000000000,"state":"active","ping":54},{"user_id":817,"name":"EchoRunner","steam_id":76561198076649110,"connected_time":1499000000000,"state":"active","ping":55},{"user_id":826,"name":"‚úß Luigi Time ‚úß","steam_id":76561198026903673,"connected_time":886000000000,"state":"active","ping":70},{"user_id":814,"name":"Geab","steam_id":76561198198998973,"connected_time":1966000000000,"state":"active","ping":85},{"user_id":763,"name":"Vershal Smershal","steam_id":76561198116223995,"connected_time":5757000000000,"state":"active","ping":53},{"user_id":699,"name":"Noodle","steam_id":76561197997208006,"connected_time":9637000000000,"state":"active","ping":68},{"user_id":835,"name":"Badger","steam_id":76561198155481888,"connected_time":75000000000,"state":"active","ping":62},{"user_id":796,"name":"Zhong Xina","steam_id":76561198228064312,"connected_time":3545000000000,"state":"active","ping":73},{"user_id":834,"name":"ChilledIron | Twitch","steam_id":76561198122669215,"connected_time":265000000000,"state":"active","ping":184},{"user_id":811,"name":"IKARUS","steam_id":76561198850898422,"connected_time":2113000000000,"state":"active","ping":73},{"user_id":819,"name":"New Year, New Mimi","steam_id":76561198366512256,"connected_time":1284000000000,"state":"active","ping":50},{"user_id":733,"name":"paradise punch lemonade","steam_id":76561198058012525,"connected_time":8314000000000,"state":"active","ping":89},{"user_id":824,"name":"GazerBazer","steam_id":76561198879107565,"connected_time":1194000000000,"state":"active","ping":89},{"user_id":825,"name":"triangle","steam_id":76561198046838168,"connected_time":1188000000000,"state":"active","ping":60},{"user_id":832,"name":"Korza64","steam_id":76561199000877587,"connected_time":369000000000,"state":"active","ping":139}]},{"server_id":320,"name":"Uncletopia | London | 3 | All Maps","name_short":"lon-3","host":"lon-1.uk.uncletopia.com","port":27035,"enabled":true,"region":"eu","cc":"gb","latitude":51.509865,"longitude":-0.118092,"reserved":0,"last_update":"0001-01-01T00:00:00Z","name_a2s":"Uncletopia | London | 3 | All Maps","protocol":17,"map":"pl_frontier_final","folder":"tf","game":"Team Fortress","app_id":440,"player_count":24,"max_players":24,"Bots":0,"server_type":"Dedicated","server_os":"Linux","password":true,"vac":true,"version":"7742253","steam_id":85568392924510192,"keywords":["nocrits","nodmgspread","payload","uncletopia"],"game_id":440,"stv_port":27036,"stv_name":"Uncletopia | London | 3 | All Maps | STV","players":[{"user_id":563,"name":"nedilya","steam_id":76561198039692077,"connected_time":960000000000,"state":"active","ping":65},{"user_id":544,"name":"LOLNUT","steam_id":76561198045713218,"connected_time":2806000000000,"state":"active","ping":78},{"user_id":519,"name":"deez nuts","steam_id":76561198170609049,"connected_time":4871000000000,"state":"active","ping":91},{"user_id":516,"name":"jun","steam_id":76561198055283295,"connected_time":5326000000000,"state":"active","ping":59},{"user_id":530,"name":"Nex","steam_id":76561199223747483,"connected_time":4127000000000,"state":"active","ping":56},{"user_id":566,"name":"Fluffy","steam_id":76561198084447725,"connected_time":532000000000,"state":"active","ping":55},{"user_id":485,"name":"anna","steam_id":76561197994492154,"connected_time":7426000000000,"state":"active","ping":77},{"user_id":546,"name":"B4R10N","steam_id":76561198047167954,"connected_time":2713000000000,"state":"active","ping":43},{"user_id":439,"name":"rat performance","steam_id":76561198065854668,"connected_time":10215000000000,"state":"active","ping":45},{"user_id":550,"name":"New Years Paper","steam_id":76561199037749675,"connected_time":2485000000000,"state":"active","ping":39},{"user_id":557,"name":"Kahvi","steam_id":76561198723244199,"connected_time":2346000000000,"state":"active","ping":75},{"user_id":505,"name":"Jofiah/TTV","steam_id":76561197977233962,"connected_time":6065000000000,"state":"active","ping":42},{"user_id":554,"name":"Dr Ludwig","steam_id":76561198426522902,"connected_time":2449000000000,"state":"active","ping":55},{"user_id":568,"name":"Frigidaire","steam_id":76561198849587677,"connected_time":328000000000,"state":"active","ping":55},{"user_id":555,"name":"Homicidal Tendencies","steam_id":76561198828681043,"connected_time":2441000000000,"state":"active","ping":39},{"user_id":558,"name":"Julez","steam_id":76561198045505082,"connected_time":1822000000000,"state":"active","ping":78},{"user_id":569,"name":"Videogamer","steam_id":76561198106012909,"connected_time":303000000000,"state":"active","ping":72},{"user_id":506,"name":"jingleboob","steam_id":76561198097507847,"connected_time":6047000000000,"state":"active","ping":85},{"user_id":481,"name":"Merc","steam_id":76561198044864067,"connected_time":7478000000000,"state":"active","ping":83},{"user_id":570,"name":"Reast","steam_id":76561198022796927,"connected_time":270000000000,"state":"active","ping":96},{"user_id":508,"name":"Jingleboob's Elf","steam_id":76561198067204908,"connected_time":6033000000000,"state":"active","ping":56},{"user_id":562,"name":"PWizard","steam_id":76561198026458489,"connected_time":1315000000000,"state":"active","ping":90},{"user_id":541,"name":"---","steam_id":76561198027463207,"connected_time":2960000000000,"state":"active","ping":62},{"user_id":565,"name":"hook owl","steam_id":76561198872013525,"connected_time":612000000000,"state":"active","ping":99}]},{"server_id":321,"name":"Uncletopia | London | 4 | All Maps","name_short":"lon-4","host":"lon-1.uk.uncletopia.com","port":27045,"enabled":true,"region":"eu","cc":"gb","latitude":51.509865,"longitude":-0.118092,"reserved":0,"last_update":"0001-01-01T00:00:00Z","name_a2s":"Uncletopia | London | 4 | All Maps","protocol":17,"map":"koth_highpass","folder":"tf","game":"Team Fortress","app_id":440,"player_count":4,"max_players":24,"Bots":0,"server_type":"Dedicated","server_os":"Linux","password":true,"vac":true,"version":"7742253","steam_id":85568392924510193,"keywords":["cp","nocrits","nodmgspread","uncletopia"],"game_id":440,"stv_port":27046,"stv_name":"Uncletopia | London | 4 | All Maps | STV","players":[{"user_id":29,"name":"Dizzyformula","steam_id":76561198177347521,"connected_time":522000000000,"state":"active","ping":47},{"user_id":28,"name":"arcSolver","steam_id":76561198212013944,"connected_time":583000000000,"state":"active","ping":50},{"user_id":31,"name":"HAPPY NEW YEAR!! station 3","steam_id":76561198885548458,"connected_time":404000000000,"state":"active","ping":116},{"user_id":34,"name":"nop 21","steam_id":76561198331641220,"connected_time":290000000000,"state":"active","ping":45}]},{"server_id":21,"name":"Uncletopia | London | 5 | All Maps","name_short":"lon-5","host":"lon-1.uk.uncletopia.com","port":27055,"enabled":true,"region":"eu","cc":"gb","latitude":51.509865,"longitude":-0.118092,"reserved":0,"last_update":"0001-01-01T00:00:00Z","name_a2s":"Uncletopia | London | 5 | All Maps","protocol":17,"map":"pl_barnblitz","folder":"tf","game":"Team Fortress","app_id":440,"player_count":22,"max_players":24,"Bots":0,"server_type":"Dedicated","server_os":"Linux","password":true,"vac":true,"version":"7742253","steam_id":85568392924742829,"keywords":["nocrits","nodmgspread","payload","uncletopia"],"game_id":440,"stv_port":27056,"stv_name":"Uncletopia | London | 5 | All Maps | STV","players":[{"user_id":441,"name":"wd-39","steam_id":76561198023211417,"connected_time":2412000000000,"state":"active","ping":47},{"user_id":443,"name":"Hood","steam_id":76561199229682408,"connected_time":2273000000000,"state":"active","ping":36},{"user_id":467,"name":"chgivan","steam_id":76561198060010064,"connected_time":556000000000,"state":"active","ping":85},{"user_id":434,"name":"Pinroe","steam_id":76561198968160899,"connected_time":2581000000000,"state":"active","ping":59},{"user_id":466,"name":"Anzu","steam_id":76561198043953503,"connected_time":570000000000,"state":"active","ping":75},{"user_id":463,"name":"chicanery","steam_id":76561198130794936,"connected_time":679000000000,"state":"active","ping":92},{"user_id":472,"name":"Joe Many Liberals","steam_id":76561198334042273,"connected_time":88000000000,"state":"active","ping":80},{"user_id":442,"name":"tm","steam_id":76561198256619964,"connected_time":2343000000000,"state":"active","ping":75},{"user_id":462,"name":"cslevi","steam_id":76561198142858923,"connected_time":871000000000,"state":"active","ping":71},{"user_id":437,"name":"·óúÀ∞·óú","steam_id":76561198148074472,"connected_time":2541000000000,"state":"active","ping":53},{"user_id":435,"name":"Spyke","steam_id":76561198042419361,"connected_time":2564000000000,"state":"active","ping":62},{"user_id":454,"name":"wolfgang","steam_id":76561199111818670,"connected_time":1557000000000,"state":"active","ping":99},{"user_id":469,"name":"Yony","steam_id":76561199070569941,"connected_time":423000000000,"state":"active","ping":67},{"user_id":391,"name":"Hkitchen","steam_id":76561198194779526,"connected_time":5024000000000,"state":"active","ping":42},{"user_id":385,"name":"Borat","steam_id":76561198122226417,"connected_time":5497000000000,"state":"active","ping":45},{"user_id":468,"name":"Nuuskis","steam_id":76561198084042012,"connected_time":555000000000,"state":"active","ping":84},{"user_id":439,"name":"raz","steam_id":76561198147277460,"connected_time":2534000000000,"state":"active","ping":60},{"user_id":409,"name":"Yaire","steam_id":76561198017343510,"connected_time":4248000000000,"state":"active","ping":52},{"user_id":456,"name":"Avitz","steam_id":76561197986150359,"connected_time":1523000000000,"state":"active","ping":46},{"user_id":430,"name":"Medieval Doktor","steam_id":76561198075373362,"connected_time":2687000000000,"state":"active","ping":42},{"user_id":459,"name":"lord infamous","steam_id":76561198273358760,"connected_time":1166000000000,"state":"active","ping":72},{"user_id":446,"name":"Echo of Abyss","steam_id":76561198981841782,"connected_time":1977000000000,"state":"active","ping":67}]},{"server_id":22,"name":"Uncletopia | London | 6 | All Maps","name_short":"lon-6","host":"lon-1.uk.uncletopia.com","port":27065,"enabled":true,"region":"eu","cc":"gb","latitude":51.509865,"longitude":-0.118092,"reserved":0,"last_update":"0001-01-01T00:00:00Z","name_a2s":"Uncletopia | London | 6 | All Maps","protocol":17,"map":"koth_highpass","folder":"tf","game":"Team Fortress","app_id":440,"player_count":0,"max_players":24,"Bots":0,"server_type":"Dedicated","server_os":"Linux","password":true,"vac":true,"version":"7742253","steam_id":85568392924742830,"keywords":["cp","nocrits","nodmgspread","uncletopia"],"game_id":440,"stv_port":27066,"stv_name":"Uncletopia | London | 6 | All Maps | STV","players":null},{"server_id":40,"name":"Uncletopia | London | 7 | No Payload","name_short":"lon-7","host":"lon-1.uk.uncletopia.com","port":27075,"enabled":true,"region":"eu","cc":"gb","latitude":51.509865,"longitude":-0.118092,"reserved":0,"last_update":"0001-01-01T00:00:00Z","name_a2s":"Uncletopia | London | 7 | No Payload","protocol":17,"map":"koth_harvest_final","folder":"tf","game":"Team Fortress","app_id":440,"player_count":0,"max_players":24,"Bots":0,"server_type":"Dedicated","server_os":"Linux","password":true,"vac":true,"version":"7742253","steam_id":85568392924964314,"keywords":["cp","nocrits","nodmgspread","uncletopia"],"game_id":440,"stv_port":27076,"stv_name":"Uncletopia | London | 7 | No Payload | STV","players":null},{"server_id":41,"name":"Uncletopia | London | 8 | Community","name_short":"lon-8","host":"lon-1.uk.uncletopia.com","port":27085,"enabled":true,"region":"eu","cc":"gb","latitude":51.509865,"longitude":-0.118092,"reserved":0,"last_update":"0001-01-01T00:00:00Z","name_a2s":"Uncletopia | London | 8 | Community","protocol":17,"map":"workshop/koth_ashville_final.ugc2130459942","folder":"tf","game":"Team Fortress","app_id":440,"player_count":0,"max_players":24,"Bots":0,"server_type":"Dedicated","server_os":"Linux","password":true,"vac":true,"version":"7742253","steam_id":85568392924964315,"keywords":["cp","nocrits","nodmgspread","uncletopia"],"game_id":440,"stv_port":27086,"stv_name":"Uncletopia | London | 8 | Community | STV","players":null},{"server_id":300,"name":"Uncletopia | Montr√©al | 1 | All Maps","name_short":"mtl-1","host":"mtl-1.ca.uncletopia.com","port":27015,"enabled":true,"region":"us-east","cc":"ca","latitude":45.50889,"longitude":-73.56167,"reserved":0,"last_update":"0001-01-01T00:00:00Z","name_a2s":"Uncletopia | Montr√©al | 1 | All Maps","protocol":17,"map":"cp_altitude","folder":"tf","game":"Team Fortress","app_id":440,"player_count":0,"max_players":24,"Bots":0,"server_type":"Dedicated","server_os":"Linux","password":true,"vac":true,"version":"7742253","steam_id":85568392924500087,"keywords":["cp","nocrits","nodmgspread","uncletopia"],"game_id":440,"stv_port":27016,"stv_name":"Uncletopia | Montr√©al | 1 | All Maps | STV","players":null},{"server_id":301,"name":"Uncletopia | Montr√©al | 2 | All Maps","name_short":"mtl-2","host":"mtl-1.ca.uncletopia.com","port":27025,"enabled":true,"region":"us-east","cc":"ca","latitude":45.50889,"longitude":-73.56167,"reserved":0,"last_update":"0001-01-01T00:00:00Z","name_a2s":"Uncletopia | Montr√©al | 2 | All Maps","protocol":17,"map":"koth_highpass","folder":"tf","game":"Team Fortress","app_id":440,"player_count":0,"max_players":24,"Bots":0,"server_type":"Dedicated","server_os":"Linux","password":true,"vac":true,"version":"7742253","steam_id":85568392924500088,"keywords":["cp","nocrits","nodmgspread","uncletopia"],"game_id":440,"stv_port":27026,"stv_name":"Uncletopia | Montr√©al | 2 | All Maps | STV","players":null},{"server_id":302,"name":"Uncletopia | Montr√©al | 3 | All Maps","name_short":"mtl-3","host":"mtl-1.ca.uncletopia.com","port":27035,"enabled":true,"region":"us-east","cc":"ca","latitude":45.50889,"longitude":-73.56167,"reserved":0,"last_update":"0001-01-01T00:00:00Z","name_a2s":"Uncletopia | Montr√©al | 3 | All Maps","protocol":17,"map":"cp_snakewater_final1","folder":"tf","game":"Team Fortress","app_id":440,"player_count":0,"max_players":24,"Bots":0,"server_type":"Dedicated","server_os":"Linux","password":true,"vac":true,"version":"7742253","steam_id":85568392924500089,"keywords":["cp","nocrits","nodmgspread","uncletopia"],"game_id":440,"stv_port":27036,"stv_name":"Uncletopia | Montr√©al | 3 | All Maps | STV","players":null},{"server_id":303,"name":"Uncletopia | Montr√©al | 4 | No Payload","name_short":"mtl-4","host":"mtl-1.ca.uncletopia.com","port":27045,"enabled":true,"region":"us-east","cc":"ca","latitude":45.50889,"longitude":-73.56167,"reserved":0,"last_update":"0001-01-01T00:00:00Z","name_a2s":"Uncletopia | Montr√©al | 4 | No Payload","protocol":17,"map":"cp_process_final","folder":"tf","game":"Team Fortress","app_id":440,"player_count":0,"max_players":24,"Bots":0,"server_type":"Dedicated","server_os":"Linux","password":true,"vac":true,"version":"7742253","steam_id":85568392924500090,"keywords":["cp","nocrits","nodmgspread","uncletopia"],"game_id":440,"stv_port":27046,"stv_name":"Uncletopia | Montr√©al | 4 | No Payload | STV","players":null},{"server_id":13,"name":"Uncletopia | New York City | 1 | All Maps","name_short":"nyc-1","host":"nyc-1.us.uncletopia.com","port":27015,"enabled":true,"region":"us-east","cc":"us","latitude":40.73061,"longitude":-73.93524,"reserved":0,"last_update":"0001-01-01T00:00:00Z","name_a2s":"Uncletopia | New York City | 1 | All Maps","protocol":17,"map":"pl_borneo","folder":"tf","game":"Team Fortress","app_id":440,"player_count":24,"max_players":24,"Bots":0,"server_type":"Dedicated","server_os":"Linux","password":true,"vac":true,"version":"7742253","steam_id":85568392924469993,"keywords":["nocrits","nodmgspread","payload","uncletopia"],"game_id":440,"stv_port":27016,"stv_name":"Uncletopia | New York City | 1 | All Maps | STV","players":[{"user_id":235,"name":"Griffin.","steam_id":76561197994750414,"connected_time":2640000000000,"state":"active","ping":117},{"user_id":153,"name":"Fat Man","steam_id":76561198118957055,"connected_time":8802000000000,"state":"active","ping":39},{"user_id":221,"name":"John Eldenring","steam_id":76561198082038794,"connected_time":3455000000000,"state":"active","ping":69},{"user_id":258,"name":"AOkScrump","steam_id":76561198996230924,"connected_time":377000000000,"state":"active","ping":74},{"user_id":261,"name":"TravelerFinis","steam_id":76561199181244690,"connected_time":296000000000,"state":"active","ping":109},{"user_id":254,"name":"Goon Event #3349 (5hrs 22mins)","steam_id":76561198062410522,"connected_time":569000000000,"state":"active","ping":43},{"user_id":241,"name":"Vagineer Gaming","steam_id":76561198276179693,"connected_time":2202000000000,"state":"active","ping":66},{"user_id":250,"name":"JoCaleb02","steam_id":76561198272389829,"connected_time":1526000000000,"state":"active","ping":73},{"user_id":237,"name":"KatyAnna","steam_id":76561197992684543,"connected_time":2507000000000,"state":"active","ping":44},{"user_id":238,"name":"PzVIIIMaus","steam_id":76561198346559365,"connected_time":2495000000000,"state":"active","ping":61},{"user_id":257,"name":"ShaqtusHD","steam_id":76561199138286233,"connected_time":419000000000,"state":"active","ping":56},{"user_id":226,"name":"-‚ë®- Moon Rabbit","steam_id":76561197995815558,"connected_time":3227000000000,"state":"active","ping":68},{"user_id":242,"name":"srv","steam_id":76561198026589960,"connected_time":2161000000000,"state":"active","ping":76},{"user_id":163,"name":"Shiba","steam_id":76561198076604234,"connected_time":8267000000000,"state":"active","ping":60},{"user_id":171,"name":"Nebula","steam_id":76561199035756710,"connected_time":7262000000000,"state":"active","ping":78},{"user_id":177,"name":"Nerdygamer1","steam_id":76561198032130615,"connected_time":6928000000000,"state":"active","ping":46},{"user_id":239,"name":"Merconium","steam_id":76561197960551851,"connected_time":2425000000000,"state":"active","ping":49},{"user_id":253,"name":"[T.H.W.U] Juggernaut","steam_id":76561198306730124,"connected_time":1290000000000,"state":"active","ping":75},{"user_id":263,"name":"|WS| Don't_Taze_Me_Bro","steam_id":76561198043289495,"connected_time":34000000000,"state":"active","ping":84},{"user_id":209,"name":"Karma","steam_id":76561198030565234,"connected_time":4380000000000,"state":"active","ping":49},{"user_id":255,"name":"Season's Beatings","steam_id":76561199031172409,"connected_time":568000000000,"state":"active","ping":79},{"user_id":251,"name":"Amphetamine Gun","steam_id":76561199029189825,"connected_time":1513000000000,"state":"active","ping":56},{"user_id":248,"name":"–ì–¥–µ –º–æ—Ä–µ?","steam_id":76561197979625544,"connected_time":1598000000000,"state":"active","ping":152},{"user_id":262,"name":"Wengatang","steam_id":76561198021747059,"connected_time":294000000000,"state":"active","ping":61}]},{"server_id":14,"name":"Uncletopia | New York City | 2 | All Maps","name_short":"nyc-2","host":"nyc-1.us.uncletopia.com","port":27025,"enabled":true,"region":"us-east","cc":"us","latitude":40.73061,"longitude":-73.93524,"reserved":0,"last_update":"0001-01-01T00:00:00Z","name_a2s":"Uncletopia | New York City | 2 | All Maps","protocol":17,"map":"pl_barnblitz","folder":"tf","game":"Team Fortress","app_id":440,"player_count":24,"max_players":24,"Bots":0,"server_type":"Dedicated","server_os":"Linux","password":true,"vac":true,"version":"7742253","steam_id":85568392924469994,"keywords":["nocrits","nodmgspread","payload","uncletopia"],"game_id":440,"stv_port":27026,"stv_name":"Uncletopia | New York City | 2 | All Maps | STV","players":[{"user_id":98,"name":"-InternalDeath-","steam_id":76561198866009351,"connected_time":2606000000000,"state":"active","ping":53},{"user_id":119,"name":"futmaus","steam_id":76561199063130278,"connected_time":1197000000000,"state":"active","ping":116},{"user_id":107,"name":"joegoob","steam_id":76561198208906529,"connected_time":2400000000000,"state":"active","ping":58},{"user_id":127,"name":"anxiety","steam_id":76561198107071834,"connected_time":850000000000,"state":"active","ping":51},{"user_id":99,"name":"brn","steam_id":76561198118211523,"connected_time":2606000000000,"state":"active","ping":46},{"user_id":128,"name":"King Sans","steam_id":76561198294198517,"connected_time":716000000000,"state":"active","ping":45},{"user_id":114,"name":"Alfonso Molestro","steam_id":76561197998677099,"connected_time":1721000000000,"state":"active","ping":70},{"user_id":111,"name":"a zephyr","steam_id":76561198182506001,"connected_time":1852000000000,"state":"active","ping":53},{"user_id":109,"name":"Stimm","steam_id":76561198119033986,"connected_time":2074000000000,"state":"active","ping":45},{"user_id":120,"name":"Dullahan","steam_id":76561198119668908,"connected_time":1180000000000,"state":"active","ping":117},{"user_id":41,"name":"Samuel Adams Miller Lite","steam_id":76561198112188509,"connected_time":5215000000000,"state":"active","ping":72},{"user_id":118,"name":"Flickxi","steam_id":76561199013558457,"connected_time":1207000000000,"state":"active","ping":49},{"user_id":43,"name":"CBTgaeming","steam_id":76561199089290128,"connected_time":5180000000000,"state":"active","ping":136},{"user_id":44,"name":"Mist3rSucc","steam_id":76561198124059020,"connected_time":5180000000000,"state":"active","ping":99},{"user_id":122,"name":"Lost (15)","steam_id":76561198093713427,"connected_time":1094000000000,"state":"active","ping":79},{"user_id":117,"name":"you should recycle","steam_id":76561198119478199,"connected_time":1278000000000,"state":"active","ping":38},{"user_id":121,"name":"GreenApples","steam_id":76561198120559543,"connected_time":1174000000000,"state":"active","ping":117},{"user_id":130,"name":"hooley","steam_id":76561198041923067,"connected_time":196000000000,"state":"active","ping":57},{"user_id":85,"name":"Brahan","steam_id":76561198024629210,"connected_time":3595000000000,"state":"active","ping":107},{"user_id":112,"name":"Michaelpc1","steam_id":76561198088365519,"connected_time":1848000000000,"state":"active","ping":60},{"user_id":124,"name":"Hell's Reindeer","steam_id":76561198065310364,"connected_time":1036000000000,"state":"active","ping":71},{"user_id":126,"name":"BazicPerzanity | #SaveTF2","steam_id":76561198307843713,"connected_time":980000000000,"state":"active","ping":61},{"user_id":108,"name":"Jimbo Woyevodsk","steam_id":76561198068766153,"connected_time":2223000000000,"state":"active","ping":48},{"user_id":116,"name":"ashley","steam_id":76561198448551449,"connected_time":1695000000000,"state":"active","ping":107}]},{"server_id":15,"name":"Uncletopia | New York City | 3 | Stopwatch Beta","name_short":"nyc-3","host":"nyc-1.us.uncletopia.com","port":27035,"enabled":true,"region":"us-east","cc":"us","latitude":40.73061,"longitude":-73.93524,"reserved":0,"last_update":"0001-01-01T00:00:00Z","name_a2s":"Uncletopia | New York City | 3 | Stopwatch Beta","protocol":17,"map":"pl_pier","folder":"tf","game":"Team Fortress","app_id":440,"player_count":0,"max_players":24,"Bots":0,"server_type":"Dedicated","server_os":"Linux","password":true,"vac":true,"version":"7742253","steam_id":85568392924742820,"keywords":["nocrits","nodmgspread","payload","uncletopia"],"game_id":440,"stv_port":27036,"stv_name":"Uncletopia | New York City | 3 | Stopwatch Beta | STV","players":null},{"server_id":16,"name":"Uncletopia | New York City | 4 | Community","name_short":"nyc-4","host":"nyc-1.us.uncletopia.com","port":27045,"enabled":true,"region":"us-east","cc":"us","latitude":40.73061,"longitude":-73.93524,"reserved":0,"last_update":"0001-01-01T00:00:00Z","name_a2s":"Uncletopia | New York City | 4 | Community","protocol":17,"map":"workshop/cp_overgrown_rc7b.ugc503939302","folder":"tf","game":"Team Fortress","app_id":440,"player_count":12,"max_players":24,"Bots":0,"server_type":"Dedicated","server_os":"Linux","password":true,"vac":true,"version":"7742253","steam_id":85568392924742821,"keywords":["cp","nocrits","nodmgspread","uncletopia"],"game_id":440,"stv_port":27046,"stv_name":"Uncletopia | New York City | 4 | Community | STV","players":[{"user_id":66,"name":"H\u0026SM","steam_id":76561198236008378,"connected_time":638000000000,"state":"active","ping":51},{"user_id":40,"name":"Siliker","steam_id":76561198190117023,"connected_time":3580000000000,"state":"active","ping":80},{"user_id":22,"name":"ProbablyCyan (tf2 nerd)","steam_id":76561198430871842,"connected_time":4492000000000,"state":"active","ping":42},{"user_id":68,"name":"vinny6","steam_id":76561198386735728,"connected_time":416000000000,"state":"active","ping":44},{"user_id":63,"name":"Lemur2016","steam_id":76561198194372906,"connected_time":847000000000,"state":"active","ping":51},{"user_id":64,"name":"PSYCHEDELICZ;)","steam_id":76561198393974335,"connected_time":811000000000,"state":"active","ping":74},{"user_id":69,"name":"go big or go gnome","steam_id":76561199075099223,"connected_time":358000000000,"state":"active","ping":86},{"user_id":32,"name":"engineer is engi here","steam_id":76561198307309264,"connected_time":4063000000000,"state":"active","ping":44},{"user_id":73,"name":"(not so) festive raph","steam_id":76561199074852635,"connected_time":15000000000,"state":"spawning","ping":94},{"user_id":72,"name":"illious","steam_id":76561198169925494,"connected_time":42000000000,"state":"active","ping":69},{"user_id":59,"name":"Nic0","steam_id":76561198305690218,"connected_time":1524000000000,"state":"active","ping":58},{"user_id":42,"name":"oX_Animal_Xo","steam_id":76561198083027488,"connected_time":3565000000000,"state":"active","ping":81}]},{"server_id":142,"name":"Uncletopia | S√£o Paulo | 1 | All Maps","name_short":"sao-1","host":"sao-1.br.uncletopia.com","port":27015,"enabled":true,"region":"sa","cc":"br","latitude":-23.533773,"longitude":-46.62529,"reserved":0,"last_update":"0001-01-01T00:00:00Z","name_a2s":"Uncletopia | S√£o Paulo | 1 | All Maps","protocol":17,"map":"pl_upward","folder":"tf","game":"Team Fortress","app_id":440,"player_count":0,"max_players":24,"Bots":0,"server_type":"Dedicated","server_os":"Linux","password":true,"vac":true,"version":"7742253","steam_id":85568392924469996,"keywords":["nocrits","nodmgspread","payload","uncletopia"],"game_id":440,"stv_port":27016,"stv_name":"Uncletopia | S√£o Paulo | 1 | All Maps | STV","players":null},{"server_id":143,"name":"Uncletopia | S√£o Paulo | 2 | All Maps","name_short":"sao-2","host":"sao-2.br.uncletopia.com","port":27015,"enabled":true,"region":"sa","cc":"br","latitude":-23.533773,"longitude":-46.62529,"reserved":0,"last_update":"0001-01-01T00:00:00Z","name_a2s":"Uncletopia | S√£o Paulo | 2 | All Maps","protocol":17,"map":"koth_harvest_final","folder":"tf","game":"Team Fortress","app_id":440,"player_count":0,"max_players":24,"Bots":0,"server_type":"Dedicated","server_os":"Linux","password":true,"vac":true,"version":"7742253","steam_id":85568392924485349,"keywords":["cp","nocrits","nodmgspread","uncletopia"],"game_id":440,"stv_port":27016,"stv_name":"Uncletopia | S√£o Paulo | 2 | All Maps | STV","players":null},{"server_id":7,"name":"Uncletopia | Seattle | 1 | All Maps","name_short":"sea-1","host":"sea-1.us.uncletopia.com","port":27015,"enabled":true,"region":"us-west","cc":"us","latitude":47.608013,"longitude":-122.33517,"reserved":0,"last_update":"0001-01-01T00:00:00Z","name_a2s":"Uncletopia | Seattle | 1 | All Maps","protocol":17,"map":"pl_pier","folder":"tf","game":"Team Fortress","app_id":440,"player_count":24,"max_players":24,"Bots":0,"server_type":"Dedicated","server_os":"Linux","password":true,"vac":true,"version":"7742253","steam_id":85568392924469997,"keywords":["nocrits","nodmgspread","payload","uncletopia"],"game_id":440,"stv_port":27016,"stv_name":"Uncletopia | Seattle | 1 | All Maps | STV","players":[{"user_id":75,"name":"dust","steam_id":76561198045218909,"connected_time":4340000000000,"state":"active","ping":39},{"user_id":83,"name":"Arbiter Soul","steam_id":76561198067798973,"connected_time":3532000000000,"state":"active","ping":86},{"user_id":131,"name":"Greskrendtregk","steam_id":76561197969553142,"connected_time":365000000000,"state":"active","ping":58},{"user_id":85,"name":"Jadus","steam_id":76561199091462938,"connected_time":3483000000000,"state":"active","ping":88},{"user_id":121,"name":"pcplace","steam_id":76561198097987387,"connected_time":918000000000,"state":"active","ping":42},{"user_id":125,"name":"butt3r_ LFT","steam_id":76561198156374792,"connected_time":763000000000,"state":"active","ping":45},{"user_id":111,"name":"‚ùÑ Alice ‚ô•","steam_id":76561198869945051,"connected_time":2117000000000,"state":"active","ping":95},{"user_id":95,"name":"RubyTheLesbean","steam_id":76561198046130536,"connected_time":3119000000000,"state":"active","ping":129},{"user_id":78,"name":"Tom H.A.N.X","steam_id":76561198061064737,"connected_time":4271000000000,"state":"active","ping":52},{"user_id":118,"name":"jungus","steam_id":76561198129862008,"connected_time":1609000000000,"state":"active","ping":84},{"user_id":74,"name":"jacix3 [gay wolfgirl]{she/it}","steam_id":76561198205004165,"connected_time":4366000000000,"state":"active","ping":54},{"user_id":63,"name":"trackpad gaming | f2p","steam_id":76561198840414371,"connected_time":5622000000000,"state":"active","ping":168},{"user_id":113,"name":"- xXdinorabbitXx -","steam_id":76561199120171464,"connected_time":2072000000000,"state":"active","ping":92},{"user_id":94,"name":"twitch.tv/EmiTV","steam_id":76561198041201321,"connected_time":3128000000000,"state":"active","ping":134},{"user_id":127,"name":"Sgt. whiskers","steam_id":76561198136996779,"connected_time":728000000000,"state":"active","ping":53},{"user_id":124,"name":"G. Howard Dee","steam_id":76561198058382812,"connected_time":835000000000,"state":"active","ping":89},{"user_id":134,"name":"victordead121","steam_id":76561199180843121,"connected_time":68000000000,"state":"active","ping":121},{"user_id":106,"name":"Agent","steam_id":76561199389584938,"connected_time":2488000000000,"state":"active","ping":44},{"user_id":115,"name":"HO MY GOD HELP ME","steam_id":76561198119150842,"connected_time":1980000000000,"state":"active","ping":63},{"user_id":128,"name":"MisterManne","steam_id":76561198106598600,"connected_time":394000000000,"state":"active","ping":55},{"user_id":132,"name":"ORANGE","steam_id":76561198000401769,"connected_time":253000000000,"state":"active","ping":55},{"user_id":133,"name":"Samiho","steam_id":76561198984374561,"connected_time":130000000000,"state":"active","ping":51},{"user_id":104,"name":"Mignyanne :3","steam_id":76561198048754056,"connected_time":2744000000000,"state":"active","ping":73},{"user_id":122,"name":"–≥—Ä—É—Å—Ç–Ω—ã–π","steam_id":76561198274550638,"connected_time":917000000000,"state":"active","ping":106}]},{"server_id":119,"name":"Uncletopia | Seattle | 2 | All Maps","name_short":"sea-2","host":"sea-1.us.uncletopia.com","port":27025,"enabled":true,"region":"us-west","cc":"us","latitude":47.608013,"longitude":-122.33517,"reserved":0,"last_update":"0001-01-01T00:00:00Z","name_a2s":"Uncletopia | Seattle | 2 | All Maps","protocol":17,"map":"pl_snowycoast","folder":"tf","game":"Team Fortress","app_id":440,"player_count":23,"max_players":24,"Bots":0,"server_type":"Dedicated","server_os":"Linux","password":true,"vac":true,"version":"7742253","steam_id":85568392924469998,"keywords":["nocrits","nodmgspread","payload","uncletopia"],"game_id":440,"stv_port":27026,"stv_name":"Uncletopia | Seattle | 2 | All Maps | STV","players":[{"user_id":382,"name":"resh","steam_id":76561198239598834,"connected_time":1044000000000,"state":"active","ping":125},{"user_id":393,"name":"Buttsteak123","steam_id":76561198166558900,"connected_time":84000000000,"state":"active","ping":93},{"user_id":394,"name":"fruit brute fiend","steam_id":76561198811500361,"connected_time":43000000000,"state":"active","ping":49},{"user_id":369,"name":"BlajGomeB0ss","steam_id":76561199039825099,"connected_time":1945000000000,"state":"active","ping":51},{"user_id":385,"name":"Dali","steam_id":76561198077593486,"connected_time":857000000000,"state":"active","ping":86},{"user_id":340,"name":"Master Of Whales","steam_id":76561198349104889,"connected_time":3875000000000,"state":"active","ping":70},{"user_id":384,"name":"Rusty","steam_id":76561198055585129,"connected_time":898000000000,"state":"active","ping":45},{"user_id":306,"name":"Jack\u0026Coke","steam_id":76561198045199164,"connected_time":4974000000000,"state":"active","ping":45},{"user_id":383,"name":"SomeGuyWhoLikesPotatoes","steam_id":76561198110276797,"connected_time":1033000000000,"state":"active","ping":55},{"user_id":363,"name":"Amateur Glaswegian","steam_id":76561198030851956,"connected_time":2460000000000,"state":"active","ping":51},{"user_id":376,"name":"Drilly22","steam_id":76561198068838338,"connected_time":1233000000000,"state":"active","ping":116},{"user_id":323,"name":"Knock on the sky and listen","steam_id":76561198077597130,"connected_time":4668000000000,"state":"active","ping":68},{"user_id":362,"name":"--_Cook_--","steam_id":76561198080855748,"connected_time":2486000000000,"state":"active","ping":121},{"user_id":372,"name":"a homeless cat","steam_id":76561198058388903,"connected_time":1556000000000,"state":"active","ping":47},{"user_id":334,"name":"A 7/10","steam_id":76561198075814864,"connected_time":4285000000000,"state":"active","ping":149},{"user_id":312,"name":"\\m/ Cyfun","steam_id":76561197960882221,"connected_time":4908000000000,"state":"active","ping":93},{"user_id":356,"name":"penguinlord30","steam_id":76561198437116566,"connected_time":3009000000000,"state":"active","ping":58},{"user_id":381,"name":"Pyromaniac Love Potion","steam_id":76561198288696308,"connected_time":1188000000000,"state":"active","ping":137},{"user_id":388,"name":"Groat","steam_id":76561199134713204,"connected_time":735000000000,"state":"active","ping":59},{"user_id":368,"name":"Dimple","steam_id":76561198980324190,"connected_time":2164000000000,"state":"active","ping":50},{"user_id":354,"name":"Kramer","steam_id":76561197972528737,"connected_time":3219000000000,"state":"active","ping":48},{"user_id":380,"name":"Seriously Bruh","steam_id":76561198070408485,"connected_time":1193000000000,"state":"active","ping":63},{"user_id":390,"name":"Seagoll","steam_id":76561198017953606,"connected_time":655000000000,"state":"active","ping":63}]},{"server_id":406,"name":"Uncletopia | Seattle | 3 | Stopwatch Beta","name_short":"sea-3","host":"sea-1.us.uncletopia.com","port":27035,"enabled":true,"region":"us-west","cc":"us","latitude":47.608013,"longitude":-122.33517,"reserved":0,"last_update":"0001-01-01T00:00:00Z","name_a2s":"Uncletopia | Seattle | 3 | Stopwatch Beta","protocol":17,"map":"koth_highpass","folder":"tf","game":"Team Fortress","app_id":440,"player_count":1,"max_players":24,"Bots":0,"server_type":"Dedicated","server_os":"Linux","password":true,"vac":true,"version":"7742253","steam_id":85568392924515217,"keywords":["cp","nocrits","nodmgspread","uncletopia"],"game_id":440,"stv_port":27036,"stv_name":"Uncletopia | Seattle | 3 | Stopwatch Beta | STV","players":[{"user_id":15,"name":"Fey","steam_id":76561198119191002,"connected_time":192000000000,"state":"active","ping":86}]},{"server_id":17,"name":"Uncletopia | San Francisco | 1 | All Maps","name_short":"sfo-1","host":"sfo-1.us.uncletopia.com","port":27015,"enabled":true,"region":"us-west","cc":"us","latitude":37.77397,"longitude":-122.4313,"reserved":0,"last_update":"0001-01-01T00:00:00Z","name_a2s":"Uncletopia | San Francisco | 1 | All Maps","protocol":17,"map":"pl_upward","folder":"tf","game":"Team Fortress","app_id":440,"player_count":23,"max_players":24,"Bots":0,"server_type":"Dedicated","server_os":"Linux","password":true,"vac":true,"version":"7742253","steam_id":85568392924469999,"keywords":["nocrits","nodmgspread","payload","uncletopia"],"game_id":440,"stv_port":27016,"stv_name":"Uncletopia | San Francisco | 1 | All Maps | STV","players":[{"user_id":8,"name":"Kdoubldizz","steam_id":76561199074741602,"connected_time":4797000000000,"state":"active","ping":61},{"user_id":47,"name":"Grungus","steam_id":76561198047700230,"connected_time":680000000000,"state":"active","ping":45},{"user_id":49,"name":"Dezzithediscoduck","steam_id":76561198037043489,"connected_time":544000000000,"state":"active","ping":47},{"user_id":44,"name":"eat hot chip","steam_id":76561198034162886,"connected_time":718000000000,"state":"active","ping":49},{"user_id":45,"name":"Delimeat","steam_id":76561198043824595,"connected_time":701000000000,"state":"active","ping":52},{"user_id":16,"name":"Redbows22","steam_id":76561199452479390,"connected_time":2379000000000,"state":"active","ping":114},{"user_id":17,"name":"scout","steam_id":76561198204027320,"connected_time":2352000000000,"state":"active","ping":56},{"user_id":18,"name":"cookypuss","steam_id":76561197961275239,"connected_time":2217000000000,"state":"active","ping":58},{"user_id":54,"name":"Kilometer","steam_id":76561198093314891,"connected_time":81000000000,"state":"active","ping":83},{"user_id":21,"name":"everest","steam_id":76561198004481006,"connected_time":1849000000000,"state":"active","ping":57},{"user_id":26,"name":"TurboRaspberry","steam_id":76561199215360629,"connected_time":1600000000000,"state":"active","ping":55},{"user_id":24,"name":"BasedGod","steam_id":76561198061177973,"connected_time":1666000000000,"state":"active","ping":45},{"user_id":28,"name":"moron, son of boron","steam_id":76561198081681647,"connected_time":1565000000000,"state":"active","ping":76},{"user_id":51,"name":"Player0x01","steam_id":76561197979240996,"connected_time":468000000000,"state":"active","ping":60},{"user_id":50,"name":"Gimmick","steam_id":76561198065873462,"connected_time":543000000000,"state":"active","ping":53},{"user_id":34,"name":"{·¥õ Ä_·¥Ñ·¥á Ä·¥ò} shullers","steam_id":76561198889997809,"connected_time":1410000000000,"state":"active","ping":67},{"user_id":43,"name":"sink","steam_id":76561198114149536,"connected_time":899000000000,"state":"active","ping":106},{"user_id":38,"name":"Mediocre_Artist (SMN)","steam_id":76561198364139603,"connected_time":1229000000000,"state":"active","ping":101},{"user_id":39,"name":"Peanut Butter Enthusiast","steam_id":76561198260351932,"connected_time":1216000000000,"state":"active","ping":118},{"user_id":40,"name":"jelderjr","steam_id":76561198208862897,"connected_time":1207000000000,"state":"active","ping":60},{"user_id":41,"name":"Luigiminer8","steam_id":76561198803438732,"connected_time":1197000000000,"state":"active","ping":65},{"user_id":42,"name":"green goblin","steam_id":76561198074500319,"connected_time":1195000000000,"state":"active","ping":117},{"user_id":46,"name":"Frazzer","steam_id":76561198088679707,"connected_time":701000000000,"state":"active","ping":46}]},{"server_id":18,"name":"Uncletopia | San Francisco | 2 | All Maps","name_short":"sfo-2","host":"sfo-1.us.uncletopia.com","port":27025,"enabled":true,"region":"us-west","cc":"us","latitude":37.77397,"longitude":-122.4313,"reserved":0,"last_update":"0001-01-01T00:00:00Z","name_a2s":"Uncletopia | San Francisco | 2 | All Maps","protocol":17,"map":"pl_frontier_final","folder":"tf","game":"Team Fortress","app_id":440,"player_count":0,"max_players":24,"Bots":0,"server_type":"Dedicated","server_os":"Linux","password":true,"vac":true,"version":"7742253","steam_id":85568392924470000,"keywords":["nocrits","nodmgspread","payload","uncletopia"],"game_id":440,"stv_port":27026,"stv_name":"Uncletopia | San Francisco | 2 | All Maps | STV","players":null},{"server_id":19,"name":"Uncletopia | San Francisco | 3 | Stopwatch Beta","name_short":"sfo-3","host":"sfo-1.us.uncletopia.com","port":27035,"enabled":true,"region":"us-west","cc":"us","latitude":37.77397,"longitude":-122.4313,"reserved":0,"last_update":"0001-01-01T00:00:00Z","name_a2s":"Uncletopia | San Francisco | 3 | Stopwatch Beta","protocol":17,"map":"workshop/koth_clearcut_b15.ugc2107050255","folder":"tf","game":"Team Fortress","app_id":440,"player_count":0,"max_players":24,"Bots":0,"server_type":"Dedicated","server_os":"Linux","password":true,"vac":true,"version":"7742253","steam_id":85568392924742824,"keywords":["cp","nocrits","nodmgspread","uncletopia"],"game_id":440,"stv_port":27036,"stv_name":"Uncletopia | San Francisco | 3 | Stopwatch Beta | STV","players":null},{"server_id":20,"name":"Uncletopia | San Francisco | 4 | Community","name_short":"sfo-4","host":"sfo-1.us.uncletopia.com","port":27045,"enabled":true,"region":"us-west","cc":"us","latitude":37.77397,"longitude":-122.4313,"reserved":0,"last_update":"0001-01-01T00:00:00Z","name_a2s":"Uncletopia | San Francisco | 4 | Community","protocol":17,"map":"cp_dustbowl","folder":"tf","game":"Team Fortress","app_id":440,"player_count":0,"max_players":24,"Bots":0,"server_type":"Dedicated","server_os":"Linux","password":true,"vac":true,"version":"7742253","steam_id":85568392924742826,"keywords":["cp","nocrits","nodmgspread","uncletopia"],"game_id":440,"stv_port":27046,"stv_name":"Uncletopia | San Francisco | 4 | Community | STV","players":null},{"server_id":141,"name":"Uncletopia | Sydney | 1 | All Maps","name_short":"syd-1","host":"syd-1.au.uncletopia.com","port":27015,"enabled":true,"region":"au","cc":"au","latitude":-33.865143,"longitude":151.2099,"reserved":0,"last_update":"0001-01-01T00:00:00Z","name_a2s":"Uncletopia | Sydney | 1 | All Maps","protocol":17,"map":"pl_snowycoast","folder":"tf","game":"Team Fortress","app_id":440,"player_count":0,"max_players":24,"Bots":0,"server_type":"Dedicated","server_os":"Linux","password":true,"vac":true,"version":"7742253","steam_id":85568392924470001,"keywords":["nocrits","nodmgspread","payload","uncletopia"],"game_id":440,"stv_port":27016,"stv_name":"Uncletopia | Sydney | 1 | All Maps | STV","players":null},{"server_id":123,"name":"Uncletopia | Sydney | 2 | All Maps","name_short":"syd-2","host":"syd-1.au.uncletopia.com","port":27025,"enabled":true,"region":"au","cc":"au","latitude":-33.865143,"longitude":151.2099,"reserved":0,"last_update":"0001-01-01T00:00:00Z","name_a2s":"Uncletopia | Sydney | 2 | All Maps","protocol":17,"map":"pl_borneo","folder":"tf","game":"Team Fortress","app_id":440,"player_count":2,"max_players":24,"Bots":0,"server_type":"Dedicated","server_os":"Linux","password":true,"vac":true,"version":"7742253","steam_id":85568392924470002,"keywords":["nocrits","nodmgspread","payload","uncletopia"],"game_id":440,"stv_port":27026,"stv_name":"Uncletopia | Sydney | 2 | All Maps | STV","players":[{"user_id":8,"name":"ChickenHatMan","steam_id":76561198119527347,"connected_time":294000000000,"state":"active","ping":150},{"user_id":9,"name":"Mission","steam_id":76561199218935728,"connected_time":197000000000,"state":"active","ping":60}]},{"server_id":395,"name":"Uncletopia | Sydney | 3 | All Maps","name_short":"syd-3","host":"syd-1.au.uncletopia.com","port":27035,"enabled":true,"region":"au","cc":"au","latitude":-33.865143,"longitude":151.2099,"reserved":0,"last_update":"0001-01-01T00:00:00Z","name_a2s":"Uncletopia | Sydney | 3 | All Maps","protocol":17,"map":"koth_viaduct","folder":"tf","game":"Team Fortress","app_id":440,"player_count":0,"max_players":24,"Bots":0,"server_type":"Dedicated","server_os":"Linux","password":true,"vac":true,"version":"7742253","steam_id":85568392925194467,"keywords":["cp","nocrits","nodmgspread","uncletopia"],"game_id":440,"stv_port":27036,"stv_name":"Uncletopia | Sydney | 3 | All Maps | STV","players":null},{"server_id":396,"name":"Uncletopia | Sydney | 4 | All Maps","name_short":"syd-4","host":"syd-1.au.uncletopia.com","port":27045,"enabled":true,"region":"au","cc":"au","latitude":-33.865143,"longitude":151.2099,"reserved":0,"last_update":"0001-01-01T00:00:00Z","name_a2s":"Uncletopia | Sydney | 4 | All Maps","protocol":17,"map":"pl_frontier_final","folder":"tf","game":"Team Fortress","app_id":440,"player_count":0,"max_players":24,"Bots":0,"server_type":"Dedicated","server_os":"Linux","password":true,"vac":true,"version":"7742253","steam_id":85568392925397958,"keywords":["nocrits","nodmgspread","payload","uncletopia"],"game_id":440,"stv_port":27046,"stv_name":"Uncletopia | Sydney | 4 | All Maps | STV","players":null},{"server_id":58,"name":"Uncletopia | Sydney | 5 | Stopwatch Beta","name_short":"syd-5","host":"syd-1.au.uncletopia.com","port":27055,"enabled":true,"region":"au","cc":"au","latitude":-33.865143,"longitude":151.2099,"reserved":0,"last_update":"0001-01-01T00:00:00Z","name_a2s":"Uncletopia | Sydney | 5 | Stopwatch Beta","protocol":17,"map":"koth_highpass","folder":"tf","game":"Team Fortress","app_id":440,"player_count":0,"max_players":24,"Bots":0,"server_type":"Dedicated","server_os":"Linux","password":true,"vac":true,"version":"7742253","steam_id":85568392925397959,"keywords":["cp","nocrits","nodmgspread","uncletopia"],"game_id":440,"stv_port":27056,"stv_name":"Uncletopia | Sydney | 5 | Stopwatch Beta | STV","players":null},{"server_id":59,"name":"Uncletopia | Sydney | 6 | Community","name_short":"syd-6","host":"syd-1.au.uncletopia.com","port":27065,"enabled":true,"region":"au","cc":"au","latitude":-33.865143,"longitude":151.2099,"reserved":0,"last_update":"0001-01-01T00:00:00Z","name_a2s":"Uncletopia | Sydney | 6 | Community","protocol":17,"map":"workshop/cp_villa_b19.ugc2113052569","folder":"tf","game":"Team Fortress","app_id":440,"player_count":0,"max_players":24,"Bots":0,"server_type":"Dedicated","server_os":"Linux","password":true,"vac":true,"version":"7742253","steam_id":85568392925397960,"keywords":["cp","nocrits","nodmgspread","uncletopia"],"game_id":440,"stv_port":27066,"stv_name":"Uncletopia | Sydney | 6 | Community | STV","players":null},{"server_id":49,"name":"Uncletopia | Warsaw | 1 | All Maps","name_short":"waw-1","host":"waw-1.pl.uncletopia.com","port":27015,"enabled":true,"region":"eu","cc":"pl","latitude":52.2297,"longitude":21.017532,"reserved":0,"last_update":"0001-01-01T00:00:00Z","name_a2s":"","protocol":0,"map":"","folder":"","game":"","app_id":0,"player_count":0,"max_players":0,"Bots":0,"server_type":"","server_os":"","password":false,"vac":false,"version":"","steam_id":0,"keywords":null,"game_id":0,"stv_port":0,"stv_name":"","players":null},{"server_id":50,"name":"Uncletopia | Warsaw | 2 | All Maps","name_short":"waw-2","host":"waw-1.pl.uncletopia.com","port":27025,"enabled":true,"region":"eu","cc":"pl","latitude":52.2297,"longitude":21.017532,"reserved":0,"last_update":"0001-01-01T00:00:00Z","name_a2s":"Uncletopia | Warsaw | 2 | All Maps","protocol":17,"map":"pl_borneo","folder":"tf","game":"Team Fortress","app_id":440,"player_count":2,"max_players":24,"Bots":0,"server_type":"Dedicated","server_os":"Linux","password":true,"vac":true,"version":"7742253","steam_id":85568392925397851,"keywords":["nocrits","nodmgspread","payload","uncletopia"],"game_id":440,"stv_port":27026,"stv_name":"Uncletopia | Warsaw | 2 | All Maps | STV","players":[{"user_id":32,"name":"prosto vovan 1234","steam_id":76561199249375529,"connected_time":844000000000,"state":"active","ping":58},{"user_id":33,"name":"Karacuk000","steam_id":76561199394242591,"connected_time":672000000000,"state":"active","ping":73}]},{"server_id":51,"name":"Uncletopia | Warsaw | 3 | All Maps","name_short":"waw-3","host":"waw-1.pl.uncletopia.com","port":27035,"enabled":true,"region":"eu","cc":"pl","latitude":52.2297,"longitude":21.017532,"reserved":0,"last_update":"0001-01-01T00:00:00Z","name_a2s":"Uncletopia | Warsaw | 3 | All Maps","protocol":17,"map":"koth_cascade","folder":"tf","game":"Team Fortress","app_id":440,"player_count":0,"max_players":24,"Bots":0,"server_type":"Dedicated","server_os":"Linux","password":true,"vac":true,"version":"7742253","steam_id":85568392925397852,"keywords":["cp","nocrits","nodmgspread","uncletopia"],"game_id":440,"stv_port":27036,"stv_name":"Uncletopia | Warsaw | 3 | All Maps | STV","players":null},{"server_id":52,"name":"Uncletopia | Warsaw | 4 | All Maps","name_short":"waw-4","host":"waw-1.pl.uncletopia.com","port":27045,"enabled":true,"region":"eu","cc":"pl","latitude":52.2297,"longitude":21.017532,"reserved":0,"last_update":"0001-01-01T00:00:00Z","name_a2s":"Uncletopia | Warsaw | 4 | All Maps","protocol":17,"map":"koth_highpass","folder":"tf","game":"Team Fortress","app_id":440,"player_count":0,"max_players":24,"Bots":0,"server_type":"Dedicated","server_os":"Linux","password":true,"vac":true,"version":"7742253","steam_id":85568392925397853,"keywords":["cp","nocrits","nodmgspread","uncletopia"],"game_id":440,"stv_port":27046,"stv_name":"Uncletopia | Warsaw | 4 | All Maps | STV","players":null},{"server_id":53,"name":"Uncletopia | Warsaw | 5 | Stopwatch Beta","name_short":"waw-5","host":"waw-1.pl.uncletopia.com","port":27055,"enabled":true,"region":"eu","cc":"pl","latitude":52.2297,"longitude":21.017532,"reserved":0,"last_update":"0001-01-01T00:00:00Z","name_a2s":"Uncletopia | Warsaw | 5 | Stopwatch Beta","protocol":17,"map":"pl_swiftwater_final1","folder":"tf","game":"Team Fortress","app_id":440,"player_count":0,"max_players":24,"Bots":0,"server_type":"Dedicated","server_os":"Linux","password":true,"vac":true,"version":"7742253","steam_id":85568392925397854,"keywords":["nocrits","nodmgspread","payload","uncletopia"],"game_id":440,"stv_port":27056,"stv_name":"Uncletopia | Warsaw | 5 | Stopwatch Beta | STV","players":null},{"server_id":54,"name":"Uncletopia | Warsaw | 6 | Community","name_short":"waw-6","host":"waw-1.pl.uncletopia.com","port":27065,"enabled":true,"region":"eu","cc":"pl","latitude":52.2297,"longitude":21.017532,"reserved":0,"last_update":"0001-01-01T00:00:00Z","name_a2s":"Uncletopia | Warsaw | 6 | Community","protocol":17,"map":"workshop/koth_slaughter_rc1.ugc1712845210","folder":"tf","game":"Team Fortress","app_id":440,"player_count":0,"max_players":24,"Bots":0,"server_type":"Dedicated","server_os":"Linux","password":true,"vac":true,"version":"7742253","steam_id":85568392925397856,"keywords":["cp","nocrits","nodmgspread","uncletopia"],"game_id":440,"stv_port":27066,"stv_name":"Uncletopia | Warsaw | 6 | Community | STV","players":null}]}