{"status":true,"message":"","result":[{"server_id":9,"name":"Uncletopia | Atlanta | 1 | All Maps","name_short":"atl-1","host":"atl-1.us.uncletopia.com","port":27015,"enabled":true,"region":"us-east","cc":"us","latitude":33.753746,"longitude":-84.38633,"reserved":0,"last_update":"0001-01-01T00:00:00Z","name_a2s":"Uncletopia | Atlanta | 1 | All Maps","protocol":17,"map":"pl_swiftwater_final1","folder":"tf","game":"Team Fortress","app_id":440,"player_count":24,"max_players":24,"Bots":0,"server_type":"Dedicated","server_os":"Linux","password":true,"vac":true,"version":"7757534","steam_id":85568392924469982,"keywords":["nocrits","nodmgspread","payload","uncletopia"],"game_id":440,"stv_port":27016,"stv_name":"Uncletopia | Atlanta | 1 | All Maps | STV","players":[{"user_id":403,"name":"Wiggee","steam_id":76561197972792989,"connected_time":464000000000,"state":"active","ping":58},{"user_id":319,"name":"alcohol","steam_id":76561198328109873,"connected_time":6830000000000,"state":"active","ping":60},{"user_id":360,"name":"Kitt(eh) ‚àë:3","steam_id":76561198110858518,"connected_time":5236000000000,"state":"active","ping":75},{"user_id":382,"name":"fortnite.jimmy.2014","steam_id":76561199177672325,"connected_time":2836000000000,"state":"active","ping":39},{"user_id":368,"name":"O'Keearns","steam_id":76561198042213797,"connected_time":4189000000000,"state":"active","ping":45},{"user_id":412,"name":"oklama","steam_id":76561198397009880,"connected_time":131000000000,"state":"active","ping":51},{"user_id":383,"name":"butterbutt!","steam_id":76561198038160740,"connected_time":2825000000000,"state":"active","ping":47},{"user_id":372,"name":"BIG HOG","steam_id":76561198079923652,"connected_time":3820000000000,"state":"active","ping":75},{"user_id":401,"name":"‚úØAgent √Ü120‚úØ","steam_id":76561198202370363,"connected_time":534000000000,"state":"active","ping":64},{"user_id":410,"name":"Shame","steam_id":76561198100490994,"connected_time":260000000000,"state":"active","ping":59},{"user_id":350,"name":"ATLS 1 | Krissy","steam_id":76561197960848174,"connected_time":5884000000000,"state":"active","ping":73},{"user_id":395,"name":"eish","steam_id":76561198089463603,"connected_time":1045000000000,"state":"active","ping":119},{"user_id":409,"name":"‚ô•Noble‚ô•","steam_id":76561198427370124,"connected_time":413000000000,"state":"active","ping":90},{"user_id":392,"name":"mm2 woodman","steam_id":76561198432036026,"connected_time":2461000000000,"state":"active","ping":46},{"user_id":411,"name":"BambuBabyPackRunner","steam_id":76561198320866421,"connected_time":145000000000,"state":"active","ping":54},{"user_id":405,"name":"Gheeotine","steam_id":76561198010181698,"connected_time":433000000000,"state":"active","ping":87},{"user_id":413,"name":"Raptorria","steam_id":76561198105613110,"connected_time":129000000000,"state":"active","ping":74},{"user_id":414,"name":"hatchetax","steam_id":76561199013337543,"connected_time":81000000000,"state":"active","ping":47},{"user_id":373,"name":"billy8yearsold@yahoo.com","steam_id":76561198054070811,"connected_time":3818000000000,"state":"active","ping":114},{"user_id":402,"name":"atl1icyy","steam_id":76561198968001329,"connected_time":527000000000,"state":"active","ping":48},{"user_id":397,"name":".superjeuse","steam_id":76561198077652094,"connected_time":1011000000000,"state":"active","ping":89},{"user_id":370,"name":"Lilith","steam_id":76561198125102885,"connected_time":4186000000000,"state":"active","ping":69},{"user_id":408,"name":"Vladikr1","steam_id":76561198401495362,"connected_time":429000000000,"state":"active","ping":87},{"user_id":379,"name":"lil hog","steam_id":76561199230929836,"connected_time":2991000000000,"state":"active","ping":87}]},{"server_id":400,"name":"Uncletopia | Atlanta | 3 | Community","name_short":"atl-3","host":"atl-1.us.uncletopia.com","port":27035,"enabled":true,"region":"us-east","cc":"us","latitude":33.753746,"longitude":-84.38633,"reserved":0,"last_update":"0001-01-01T00:00:00Z","name_a2s":"Uncletopia | Atlanta | 3 | Community","protocol":17,"map":"workshop/cp_overgrown_rc7b.ugc503939302","folder":"tf","game":"Team Fortress","app_id":440,"player_count":3,"max_players":24,"Bots":0,"server_type":"Dedicated","server_os":"Linux","password":true,"vac":true,"version":"7757534","steam_id":85568392924515187,"keywords":["cp","nocrits","nodmgspread","uncletopia"],"game_id":440,"stv_port":27036,"stv_name":"Uncletopia | Atlanta | 3 | Community | STV","players":[{"user_id":62,"name":"king_nebblit","steam_id":76561199183321935,"connected_time":254000000000,"state":"active","ping":90},{"user_id":63,"name":"Zatore","steam_id":76561198048410794,"connected_time":203000000000,"state":"active","ping":74},{"user_id":66,"name":"Code","steam_id":76561198121528534,"connected_time":107000000000,"state":"active","ping":82}]},{"server_id":401,"name":"Uncletopia | Atlanta | 4 | No Payload","name_short":"atl-4","host":"atl-1.us.uncletopia.com","port":27045,"enabled":true,"region":"us-east","cc":"us","latitude":33.753746,"longitude":-84.38633,"reserved":0,"last_update":"0001-01-01T00:00:00Z","name_a2s":"","protocol":0,"map":"","folder":"","game":"","app_id":0,"player_count":0,"max_players":0,"Bots":0,"server_type":"","server_os":"","password":false,"vac":false,"version":"","steam_id":0,"keywords":null,"game_id":0,"stv_port":0,"stv_name":"","players":null},{"server_id":2,"name":"Uncletopia | Chicago | 1 | All Maps","name_short":"chi-1","host":"chi-1.us.uncletopia.com","port":27015,"enabled":true,"region":"us-central","cc":"us","latitude":41.881832,"longitude":-87.62318,"reserved":0,"last_update":"0001-01-01T00:00:00Z","name_a2s":"Uncletopia | Chicago | 1 | All Maps","protocol":17,"map":"pl_goldrush","folder":"tf","game":"Team Fortress","app_id":440,"player_count":24,"max_players":24,"Bots":0,"server_type":"Dedicated","server_os":"Linux","password":true,"vac":true,"version":"7757534","steam_id":85568392924469984,"keywords":["nocrits","nodmgspread","payload","uncletopia"],"game_id":440,"stv_port":27016,"stv_name":"Uncletopia | Chicago | 1 | All Maps | STV","players":[{"user_id":552,"name":"boob","steam_id":76561198117256239,"connected_time":4301000000000,"state":"active","ping":46},{"user_id":582,"name":"SanitysEdge","steam_id":76561198130732813,"connected_time":2438000000000,"state":"active","ping":103},{"user_id":600,"name":"radiohead enjoyer","steam_id":76561198397662124,"connected_time":190000000000,"state":"active","ping":93},{"user_id":574,"name":"Purplest","steam_id":76561198093523277,"connected_time":3300000000000,"state":"active","ping":48},{"user_id":594,"name":"Space-E","steam_id":76561198799417313,"connected_time":1387000000000,"state":"active","ping":73},{"user_id":561,"name":"FlippinShoes","steam_id":76561198028266858,"connected_time":3943000000000,"state":"active","ping":60},{"user_id":585,"name":"Gigabars","steam_id":76561198119267479,"connected_time":2050000000000,"state":"active","ping":68},{"user_id":543,"name":"Jak(i)","steam_id":76561198076823144,"connected_time":5605000000000,"state":"active","ping":64},{"user_id":569,"name":"eloressa","steam_id":76561198120330867,"connected_time":3619000000000,"state":"active","ping":51},{"user_id":601,"name":"Angela Lynn","steam_id":76561198046293501,"connected_time":185000000000,"state":"active","ping":73},{"user_id":526,"name":"Fig","steam_id":76561198203889013,"connected_time":7051000000000,"state":"active","ping":83},{"user_id":591,"name":"b√ºddeh","steam_id":76561198070735936,"connected_time":1687000000000,"state":"active","ping":59},{"user_id":577,"name":"dudeyougotadell24","steam_id":76561198881039861,"connected_time":2893000000000,"state":"active","ping":50},{"user_id":590,"name":"DocLucky","steam_id":76561199093899249,"connected_time":1725000000000,"state":"active","ping":164},{"user_id":599,"name":"AOTFB | Eminem Fortnite","steam_id":76561198064631314,"connected_time":416000000000,"state":"active","ping":69},{"user_id":581,"name":"Habba","steam_id":76561197986096340,"connected_time":2538000000000,"state":"active","ping":76},{"user_id":602,"name":"Rec","steam_id":76561198022813906,"connected_time":136000000000,"state":"active","ping":55},{"user_id":592,"name":"unchmiri","steam_id":76561199181659125,"connected_time":1678000000000,"state":"active","ping":78},{"user_id":597,"name":"Vox Vulpera","steam_id":76561198796227041,"connected_time":442000000000,"state":"active","ping":67},{"user_id":563,"name":"Prec1sioN","steam_id":76561198931137867,"connected_time":3889000000000,"state":"active","ping":55},{"user_id":457,"name":"hi","steam_id":76561198809577048,"connected_time":12237000000000,"state":"active","ping":108},{"user_id":572,"name":"neeK","steam_id":76561198106571410,"connected_time":3583000000000,"state":"active","ping":88},{"user_id":491,"name":"Lia_Rein","steam_id":76561198151569597,"connected_time":9230000000000,"state":"active","ping":160},{"user_id":589,"name":"Anthid","steam_id":76561198074493797,"connected_time":1903000000000,"state":"active","ping":74}]},{"server_id":106,"name":"Uncletopia | Chicago | 2 | All Maps","name_short":"chi-2","host":"chi-1.us.uncletopia.com","port":27025,"enabled":true,"region":"us-central","cc":"us","latitude":41.881832,"longitude":-87.62318,"reserved":0,"last_update":"0001-01-01T00:00:00Z","name_a2s":"Uncletopia | Chicago | 2 | All Maps","protocol":17,"map":"pl_upward","folder":"tf","game":"Team Fortress","app_id":440,"player_count":23,"max_players":24,"Bots":0,"server_type":"Dedicated","server_os":"Linux","password":true,"vac":true,"version":"7757534","steam_id":85568392924469985,"keywords":["nocrits","nodmgspread","payload","uncletopia"],"game_id":440,"stv_port":27026,"stv_name":"Uncletopia | Chicago | 2 | All Maps | STV","players":[{"user_id":569,"name":"Goku","steam_id":76561198064143198,"connected_time":440000000000,"state":"active","ping":53},{"user_id":562,"name":"mothsprings","steam_id":76561198928604937,"connected_time":1276000000000,"state":"active","ping":82},{"user_id":549,"name":"cpg","steam_id":76561198853515541,"connected_time":2163000000000,"state":"active","ping":90},{"user_id":538,"name":"CHEWSDAY","steam_id":76561198839930170,"connected_time":3341000000000,"state":"active","ping":89},{"user_id":554,"name":"HomesliceHobbes","steam_id":76561198042770895,"connected_time":1616000000000,"state":"active","ping":85},{"user_id":535,"name":"StarCopper","steam_id":76561198024890295,"connected_time":3585000000000,"state":"active","ping":87},{"user_id":412,"name":"Hindmost","steam_id":76561199081837220,"connected_time":13220000000000,"state":"active","ping":78},{"user_id":539,"name":"The Horselords and Animal Gods","steam_id":76561197975094050,"connected_time":3277000000000,"state":"active","ping":116},{"user_id":552,"name":"Zero","steam_id":76561199383267408,"connected_time":1637000000000,"state":"active","ping":81},{"user_id":570,"name":"meatBALL sub lova 38 (meatball)","steam_id":76561198965781031,"connected_time":429000000000,"state":"active","ping":73},{"user_id":547,"name":"FrostStorm","steam_id":76561198142685151,"connected_time":2505000000000,"state":"active","ping":69},{"user_id":553,"name":"el muchacho","steam_id":76561198282632562,"connected_time":1632000000000,"state":"active","ping":92},{"user_id":571,"name":"Goober","steam_id":76561198988863807,"connected_time":395000000000,"state":"active","ping":77},{"user_id":551,"name":"THEDINKY","steam_id":76561198190077399,"connected_time":1922000000000,"state":"active","ping":58},{"user_id":514,"name":"Cuttle's Fish","steam_id":76561198280483257,"connected_time":5301000000000,"state":"active","ping":59},{"user_id":558,"name":"Insect Abdomen Appreciator","steam_id":76561198980062131,"connected_time":1514000000000,"state":"active","ping":73},{"user_id":559,"name":"Phaze @buglan23","steam_id":76561198025267071,"connected_time":1513000000000,"state":"active","ping":61},{"user_id":566,"name":"sagejay","steam_id":76561198118149530,"connected_time":986000000000,"state":"active","ping":60},{"user_id":531,"name":"ktaeoh -fg","steam_id":76561198300888156,"connected_time":4396000000000,"state":"active","ping":54},{"user_id":556,"name":"VioletSpecs","steam_id":76561198089366466,"connected_time":1606000000000,"state":"active","ping":71},{"user_id":494,"name":"LunarrD","steam_id":76561198811220107,"connected_time":6697000000000,"state":"active","ping":81},{"user_id":560,"name":"Cyber Cylon","steam_id":76561198048972781,"connected_time":1512000000000,"state":"active","ping":57},{"user_id":568,"name":"whitneyscience1","steam_id":76561199405650048,"connected_time":525000000000,"state":"active","ping":143}]},{"server_id":402,"name":"Uncletopia | Chicago | 3 | All Maps","name_short":"chi-3","host":"chi-1.us.uncletopia.com","port":27035,"enabled":true,"region":"us-central","cc":"us","latitude":41.881832,"longitude":-87.62318,"reserved":0,"last_update":"0001-01-01T00:00:00Z","name_a2s":"Uncletopia | Chicago | 3 | All Maps","protocol":17,"map":"pl_upward","folder":"tf","game":"Team Fortress","app_id":440,"player_count":24,"max_players":24,"Bots":0,"server_type":"Dedicated","server_os":"Linux","password":true,"vac":true,"version":"7757534","steam_id":85568392924515191,"keywords":["nocrits","nodmgspread","payload","uncletopia"],"game_id":440,"stv_port":27036,"stv_name":"Uncletopia | Chicago | 3 | All Maps | STV","players":[{"user_id":464,"name":"RockMan","steam_id":76561199228684720,"connected_time":2108000000000,"state":"active","ping":79},{"user_id":479,"name":"FUSION","steam_id":76561197972659738,"connected_time":1370000000000,"state":"active","ping":59},{"user_id":470,"name":"Mayor McCheese","steam_id":76561198055417680,"connected_time":1566000000000,"state":"active","ping":95},{"user_id":455,"name":"FROYO donovin","steam_id":76561198045679387,"connected_time":2658000000000,"state":"active","ping":51},{"user_id":468,"name":"Sebi","steam_id":76561198182090858,"connected_time":1766000000000,"state":"active","ping":39},{"user_id":493,"name":"theeyeofsauronmc","steam_id":76561199157250663,"connected_time":544000000000,"state":"active","ping":81},{"user_id":456,"name":"itchylol742 (1v1 me in tetris)","steam_id":76561198044917402,"connected_time":2652000000000,"state":"active","ping":57},{"user_id":490,"name":"igotmail","steam_id":76561198070631899,"connected_time":718000000000,"state":"active","ping":72},{"user_id":494,"name":"ShadyPun","steam_id":76561198044125968,"connected_time":536000000000,"state":"active","ping":51},{"user_id":449,"name":"apparition","steam_id":76561198196769297,"connected_time":3030000000000,"state":"active","ping":58},{"user_id":463,"name":"Tallyden","steam_id":76561197998572962,"connected_time":2226000000000,"state":"active","ping":67},{"user_id":483,"name":"CamSoup","steam_id":76561198202483168,"connected_time":980000000000,"state":"active","ping":70},{"user_id":492,"name":"prestige worldwide (wide)","steam_id":76561198045655893,"connected_time":649000000000,"state":"active","ping":58},{"user_id":478,"name":"tabasco","steam_id":76561198355094896,"connected_time":1408000000000,"state":"active","ping":69},{"user_id":481,"name":"Juanelo","steam_id":76561199096390505,"connected_time":1294000000000,"state":"active","ping":104},{"user_id":484,"name":"GC.Packer","steam_id":76561198053967778,"connected_time":975000000000,"state":"active","ping":67},{"user_id":485,"name":"RokkitFrog","steam_id":76561198046465850,"connected_time":966000000000,"state":"active","ping":74},{"user_id":475,"name":"GREG","steam_id":76561198073021168,"connected_time":1467000000000,"state":"active","ping":72},{"user_id":447,"name":"Wild_Rumpus","steam_id":76561198066393719,"connected_time":3094000000000,"state":"active","ping":45},{"user_id":459,"name":"HighJingo","steam_id":76561198846814390,"connected_time":2641000000000,"state":"active","ping":68},{"user_id":491,"name":"stevemarshall","steam_id":76561198405982285,"connected_time":714000000000,"state":"active","ping":47},{"user_id":487,"name":"swag money","steam_id":76561199076063272,"connected_time":943000000000,"state":"active","ping":86},{"user_id":460,"name":"Íï§","steam_id":76561198427743234,"connected_time":2635000000000,"state":"active","ping":71},{"user_id":489,"name":"raven thesatanictemple.com","steam_id":76561198146255593,"connected_time":763000000000,"state":"active","ping":75}]},{"server_id":403,"name":"Uncletopia | Chicago | 4 | All Maps","name_short":"chi-4","host":"chi-1.us.uncletopia.com","port":27045,"enabled":true,"region":"us-central","cc":"us","latitude":41.881832,"longitude":-87.62318,"reserved":0,"last_update":"0001-01-01T00:00:00Z","name_a2s":"Uncletopia | Chicago | 4 | All Maps","protocol":17,"map":"koth_highpass","folder":"tf","game":"Team Fortress","app_id":440,"player_count":23,"max_players":24,"Bots":0,"server_type":"Dedicated","server_os":"Linux","password":true,"vac":true,"version":"7757534","steam_id":85568392924515193,"keywords":["cp","nocrits","nodmgspread","uncletopia"],"game_id":440,"stv_port":27046,"stv_name":"Uncletopia | Chicago | 4 | All Maps | STV","players":[{"user_id":376,"name":"Spectre","steam_id":76561198025652246,"connected_time":1858000000000,"state":"active","ping":31},{"user_id":396,"name":"Markiplier 2","steam_id":76561198284630916,"connected_time":450000000000,"state":"active","ping":69},{"user_id":339,"name":"Cinnifox","steam_id":76561198068773971,"connected_time":4338000000000,"state":"active","ping":74},{"user_id":400,"name":"Ike Yard","steam_id":76561197998954523,"connected_time":50000000000,"state":"active","ping":64},{"user_id":381,"name":"rach9411","steam_id":76561198256535721,"connected_time":1600000000000,"state":"active","ping":131},{"user_id":375,"name":"Death By SNU SNU","steam_id":76561198022988035,"connected_time":1930000000000,"state":"active","ping":283},{"user_id":399,"name":"Wizops","steam_id":76561198907030448,"connected_time":60000000000,"state":"active","ping":75},{"user_id":384,"name":"Aegis","steam_id":76561198272052750,"connected_time":1425000000000,"state":"active","ping":77},{"user_id":401,"name":"Gilgachad","steam_id":76561198055638231,"connected_time":46000000000,"state":"active","ping":62},{"user_id":358,"name":"B.","steam_id":76561198040445907,"connected_time":3632000000000,"state":"active","ping":69},{"user_id":402,"name":"lag","steam_id":76561197963872739,"connected_time":13000000000,"state":"active","ping":79},{"user_id":403,"name":"Dzhoshua","steam_id":76561198071915251,"connected_time":1000000000,"state":"spawning","ping":26},{"user_id":393,"name":"quacked!","steam_id":76561198970819395,"connected_time":580000000000,"state":"active","ping":77},{"user_id":374,"name":"fallin","steam_id":76561198205386960,"connected_time":2101000000000,"state":"active","ping":61},{"user_id":394,"name":"puppygirl gaming","steam_id":76561198044363630,"connected_time":571000000000,"state":"active","ping":58},{"user_id":380,"name":"NUt","steam_id":76561198031007966,"connected_time":1834000000000,"state":"active","ping":72},{"user_id":398,"name":"ESS Jet","steam_id":76561198098130891,"connected_time":63000000000,"state":"active","ping":72},{"user_id":341,"name":"Sprucelass","steam_id":76561197998391724,"connected_time":4289000000000,"state":"active","ping":47},{"user_id":388,"name":"fablet","steam_id":76561198069600113,"connected_time":796000000000,"state":"active","ping":51},{"user_id":364,"name":"Rockcrusher","steam_id":76561199012666353,"connected_time":2722000000000,"state":"active","ping":55},{"user_id":397,"name":"Piss Champion","steam_id":76561198059362878,"connected_time":70000000000,"state":"active","ping":44},{"user_id":367,"name":"Stan","steam_id":76561198209150708,"connected_time":2529000000000,"state":"active","ping":70},{"user_id":349,"name":"Moshi Man","steam_id":76561198038249762,"connected_time":4056000000000,"state":"active","ping":58}]},{"server_id":36,"name":"Uncletopia | Chicago | 5 | All Maps","name_short":"chi-5","host":"chi-2.us.uncletopia.com","port":27015,"enabled":true,"region":"us-central","cc":"us","latitude":41.881832,"longitude":-87.62318,"reserved":0,"last_update":"0001-01-01T00:00:00Z","name_a2s":"Uncletopia | Chicago | 5 | All Maps","protocol":17,"map":"pl_pier","folder":"tf","game":"Team Fortress","app_id":440,"player_count":24,"max_players":24,"Bots":0,"server_type":"Dedicated","server_os":"Linux","password":true,"vac":true,"version":"7757534","steam_id":85568392924866362,"keywords":["nocrits","nodmgspread","payload","uncletopia"],"game_id":440,"stv_port":27016,"stv_name":"Uncletopia | Chicago | 5 | All Maps | STV","players":[{"user_id":393,"name":"Kindagoodplayer","steam_id":76561198814625843,"connected_time":829000000000,"state":"active","ping":73},{"user_id":410,"name":"BasicPeaches","steam_id":76561198190890150,"connected_time":446000000000,"state":"active","ping":83},{"user_id":330,"name":"gonk","steam_id":76561198061206732,"connected_time":5610000000000,"state":"active","ping":80},{"user_id":397,"name":"Apple Zoo","steam_id":76561198013732450,"connected_time":804000000000,"state":"active","ping":54},{"user_id":379,"name":"vv","steam_id":76561198134813102,"connected_time":2516000000000,"state":"active","ping":58},{"user_id":405,"name":"Thequirka","steam_id":76561198968058652,"connected_time":620000000000,"state":"active","ping":97},{"user_id":411,"name":"Aifx #ForQuirka","steam_id":76561198398268649,"connected_time":443000000000,"state":"active","ping":78},{"user_id":396,"name":"Transbian mommy GF","steam_id":76561198153233822,"connected_time":811000000000,"state":"active","ping":66},{"user_id":380,"name":"Su1tCas3","steam_id":76561198035989471,"connected_time":2503000000000,"state":"active","ping":97},{"user_id":402,"name":"CEOlifestyle","steam_id":76561198025747866,"connected_time":693000000000,"state":"active","ping":100},{"user_id":399,"name":"Chrys","steam_id":76561198371208774,"connected_time":742000000000,"state":"active","ping":84},{"user_id":366,"name":"mcjuice","steam_id":76561198087730829,"connected_time":2799000000000,"state":"active","ping":73},{"user_id":401,"name":"Ladoger","steam_id":76561198251164340,"connected_time":724000000000,"state":"active","ping":71},{"user_id":403,"name":"apple_fritter_fan_2009","steam_id":76561199475883264,"connected_time":689000000000,"state":"active","ping":65},{"user_id":333,"name":"sheep girl \u003c3","steam_id":76561198068189558,"connected_time":5569000000000,"state":"active","ping":101},{"user_id":307,"name":"Dokkibai","steam_id":76561198355935693,"connected_time":6525000000000,"state":"active","ping":53},{"user_id":382,"name":"Molamola","steam_id":76561198285903609,"connected_time":2468000000000,"state":"active","ping":76},{"user_id":350,"name":"The Big Iron","steam_id":76561198117276391,"connected_time":3912000000000,"state":"active","ping":79},{"user_id":414,"name":"Comfy Monkey","steam_id":76561197998434936,"connected_time":263000000000,"state":"active","ping":59},{"user_id":409,"name":"potty trained","steam_id":76561198141557766,"connected_time":462000000000,"state":"active","ping":86},{"user_id":406,"name":"creeeeeee","steam_id":76561198392539722,"connected_time":593000000000,"state":"active","ping":84},{"user_id":354,"name":"R√∂ntgen","steam_id":76561197993492325,"connected_time":3594000000000,"state":"active","ping":104},{"user_id":407,"name":"HanakoToast","steam_id":76561198045233131,"connected_time":562000000000,"state":"active","ping":101},{"user_id":413,"name":"Furrio","steam_id":76561198174104607,"connected_time":280000000000,"state":"active","ping":79}]},{"server_id":37,"name":"Uncletopia | Chicago | 6 | All Maps","name_short":"chi-6","host":"chi-2.us.uncletopia.com","port":27025,"enabled":true,"region":"us-central","cc":"us","latitude":41.881832,"longitude":-87.62318,"reserved":0,"last_update":"0001-01-01T00:00:00Z","name_a2s":"Uncletopia | Chicago | 6 | All Maps","protocol":17,"map":"pl_barnblitz","folder":"tf","game":"Team Fortress","app_id":440,"player_count":23,"max_players":24,"Bots":0,"server_type":"Dedicated","server_os":"Linux","password":true,"vac":true,"version":"7757534","steam_id":85568392924866363,"keywords":["nocrits","nodmgspread","payload","uncletopia"],"game_id":440,"stv_port":27026,"stv_name":"Uncletopia | Chicago | 6 | All Maps | STV","players":[{"user_id":450,"name":"[BBW] Justario","steam_id":76561198016095410,"connected_time":5323000000000,"state":"active","ping":61},{"user_id":528,"name":"AverageGloop","steam_id":76561198243395378,"connected_time":279000000000,"state":"active","ping":61},{"user_id":521,"name":"PileofPolygons","steam_id":76561199321343460,"connected_time":1488000000000,"state":"active","ping":72},{"user_id":495,"name":"Point then Click","steam_id":76561198076133259,"connected_time":3035000000000,"state":"active","ping":115},{"user_id":527,"name":"Tony Hawk (real)","steam_id":76561198218771440,"connected_time":496000000000,"state":"active","ping":91},{"user_id":518,"name":"blank","steam_id":76561198105529673,"connected_time":1550000000000,"state":"active","ping":102},{"user_id":523,"name":".jpg","steam_id":76561198137237377,"connected_time":1003000000000,"state":"active","ping":65},{"user_id":503,"name":"jeremimi","steam_id":76561198818225102,"connected_time":2641000000000,"state":"active","ping":131},{"user_id":511,"name":"blossom","steam_id":76561198211308328,"connected_time":2263000000000,"state":"active","ping":61},{"user_id":519,"name":"‚Ö£ Melon","steam_id":76561198041266286,"connected_time":1539000000000,"state":"active","ping":95},{"user_id":524,"name":"cyborgor","steam_id":76561198040782513,"connected_time":564000000000,"state":"active","ping":90},{"user_id":515,"name":"Barry","steam_id":76561198371953939,"connected_time":2128000000000,"state":"active","ping":84},{"user_id":516,"name":"no trouble at all","steam_id":76561198138221795,"connected_time":1766000000000,"state":"active","ping":74},{"user_id":497,"name":"nut e","steam_id":76561198082210257,"connected_time":2883000000000,"state":"active","ping":63},{"user_id":498,"name":"b0nes_____________WANG","steam_id":76561198120312532,"connected_time":2856000000000,"state":"active","ping":59},{"user_id":496,"name":"DEADHORSE","steam_id":76561198066342171,"connected_time":3030000000000,"state":"active","ping":115},{"user_id":500,"name":"SalTev","steam_id":76561198350069373,"connected_time":2812000000000,"state":"active","ping":90},{"user_id":522,"name":"kina*:„ÉªÔæü‚úß","steam_id":76561198109783729,"connected_time":1034000000000,"state":"active","ping":60},{"user_id":520,"name":"Thicc Boi","steam_id":76561199163799116,"connected_time":1534000000000,"state":"active","ping":118},{"user_id":471,"name":"ReeferRacketeer27","steam_id":76561198305740611,"connected_time":4144000000000,"state":"active","ping":71},{"user_id":344,"name":"dairy","steam_id":76561198117033273,"connected_time":12317000000000,"state":"active","ping":147},{"user_id":507,"name":"Gian","steam_id":76561198041434512,"connected_time":2538000000000,"state":"active","ping":114},{"user_id":514,"name":"saturn","steam_id":76561197962607364,"connected_time":2245000000000,"state":"active","ping":74}]},{"server_id":38,"name":"Uncletopia | Chicago | 7 | Stopwatch Beta","name_short":"chi-7","host":"chi-2.us.uncletopia.com","port":27035,"enabled":true,"region":"us-central","cc":"us","latitude":41.881832,"longitude":-87.62318,"reserved":0,"last_update":"0001-01-01T00:00:00Z","name_a2s":"Uncletopia | Chicago | 7 | Stopwatch Beta","protocol":17,"map":"cp_sunshine","folder":"tf","game":"Team Fortress","app_id":440,"player_count":24,"max_players":24,"Bots":0,"server_type":"Dedicated","server_os":"Linux","password":true,"vac":true,"version":"7757534","steam_id":85568392924866364,"keywords":["cp","nocrits","nodmgspread","uncletopia"],"game_id":440,"stv_port":27036,"stv_name":"Uncletopia | Chicago | 7 | Stopwatch Beta | STV","players":[{"user_id":65,"name":"Stair Constructor","steam_id":76561198246812566,"connected_time":3259000000000,"state":"active","ping":59},{"user_id":120,"name":"serenaya333","steam_id":76561199417104574,"connected_time":422000000000,"state":"active","ping":84},{"user_id":67,"name":"stick man with ray gun","steam_id":76561198799666244,"connected_time":3254000000000,"state":"active","ping":62},{"user_id":69,"name":"Vinny","steam_id":76561198168291108,"connected_time":3243000000000,"state":"active","ping":77},{"user_id":71,"name":"LemonLimeSoda","steam_id":76561198287682469,"connected_time":3126000000000,"state":"active","ping":75},{"user_id":108,"name":"goofy gus","steam_id":76561198234581744,"connected_time":1136000000000,"state":"active","ping":118},{"user_id":111,"name":"Pourpel","steam_id":76561198059125470,"connected_time":899000000000,"state":"active","ping":69},{"user_id":84,"name":"Transformer6000","steam_id":76561199261627100,"connected_time":2226000000000,"state":"active","ping":78},{"user_id":85,"name":"Yeehaw Cousin","steam_id":76561198010819049,"connected_time":2159000000000,"state":"active","ping":92},{"user_id":104,"name":"Birrd","steam_id":76561198409096300,"connected_time":1305000000000,"state":"active","ping":70},{"user_id":77,"name":"Caoticaos","steam_id":76561198114800227,"connected_time":2798000000000,"state":"active","ping":158},{"user_id":116,"name":"Cartoonishly Evil","steam_id":76561198311587575,"connected_time":515000000000,"state":"active","ping":165},{"user_id":122,"name":"Hi, I'm Jesus","steam_id":76561198015327152,"connected_time":238000000000,"state":"active","ping":66},{"user_id":117,"name":"MayKaye","steam_id":76561199016092265,"connected_time":509000000000,"state":"active","ping":98},{"user_id":90,"name":"NatCracken","steam_id":76561198103461530,"connected_time":2003000000000,"state":"active","ping":72},{"user_id":101,"name":"Mr_Frosty","steam_id":76561199380389079,"connected_time":1628000000000,"state":"active","ping":98},{"user_id":118,"name":"GotYourNose","steam_id":76561198803527852,"connected_time":492000000000,"state":"active","ping":63},{"user_id":103,"name":"De_pressed","steam_id":76561198154619174,"connected_time":1447000000000,"state":"active","ping":88},{"user_id":95,"name":"k3ramb1t","steam_id":76561198097880352,"connected_time":1913000000000,"state":"active","ping":72},{"user_id":96,"name":"Juan Pablo Gonzalez 2023","steam_id":76561199197961413,"connected_time":1876000000000,"state":"active","ping":67},{"user_id":105,"name":"Marshmellow","steam_id":76561198052843770,"connected_time":1282000000000,"state":"active","ping":67},{"user_id":106,"name":"barbara","steam_id":76561198072417792,"connected_time":1233000000000,"state":"active","ping":124},{"user_id":121,"name":"MrMan","steam_id":76561198029343598,"connected_time":246000000000,"state":"active","ping":60},{"user_id":123,"name":"Ascended SoS","steam_id":76561198123441203,"connected_time":213000000000,"state":"active","ping":73}]},{"server_id":39,"name":"Uncletopia | Chicago | 8 | Community","name_short":"chi-8","host":"chi-2.us.uncletopia.com","port":27045,"enabled":true,"region":"us-central","cc":"us","latitude":41.881832,"longitude":-87.62318,"reserved":0,"last_update":"0001-01-01T00:00:00Z","name_a2s":"Uncletopia | Chicago | 8 | Community","protocol":17,"map":"workshop/pl_eruption_b9a.ugc2807898013","folder":"tf","game":"Team Fortress","app_id":440,"player_count":0,"max_players":24,"Bots":0,"server_type":"Dedicated","server_os":"Linux","password":true,"vac":true,"version":"7757534","steam_id":85568392924866365,"keywords":["nocrits","nodmgspread","payload","uncletopia"],"game_id":440,"stv_port":27046,"stv_name":"Uncletopia | Chicago | 8 | Community | STV","players":null},{"server_id":8,"name":"Uncletopia | Dallas | 1 | All Maps","name_short":"dal-1","host":"dal-1.us.uncletopia.com","port":27015,"enabled":true,"region":"us-central","cc":"us","latitude":32.779167,"longitude":-96.80889,"reserved":0,"last_update":"0001-01-01T00:00:00Z","name_a2s":"Uncletopia | Dallas | 1 | All Maps","protocol":17,"map":"ctf_sawmill","folder":"tf","game":"Team Fortress","app_id":440,"player_count":24,"max_players":24,"Bots":0,"server_type":"Dedicated","server_os":"Linux","password":true,"vac":true,"version":"7757534","steam_id":85568392924469986,"keywords":["ctf","nocrits","nodmgspread","uncletopia"],"game_id":440,"stv_port":27016,"stv_name":"Uncletopia | Dallas | 1 | All Maps | STV","players":[{"user_id":465,"name":"The Transcendentalist","steam_id":76561198073086893,"connected_time":7000000000,"state":"active","ping":129},{"user_id":427,"name":"The Robot Menace","steam_id":76561198043390413,"connected_time":2300000000000,"state":"active","ping":53},{"user_id":458,"name":"FragAlicious","steam_id":76561197970523822,"connected_time":268000000000,"state":"active","ping":130},{"user_id":460,"name":"Alpharius","steam_id":76561197996284353,"connected_time":168000000000,"state":"active","ping":119},{"user_id":456,"name":"Fercho Mo","steam_id":76561198168935077,"connected_time":338000000000,"state":"active","ping":70},{"user_id":454,"name":"Sailor Sodium","steam_id":76561198808205021,"connected_time":615000000000,"state":"active","ping":80},{"user_id":431,"name":"nules","steam_id":76561198076167867,"connected_time":1803000000000,"state":"active","ping":48},{"user_id":417,"name":"big balls but only 2","steam_id":76561199001464827,"connected_time":3035000000000,"state":"active","ping":54},{"user_id":372,"name":"Whoops!","steam_id":76561198151315898,"connected_time":4877000000000,"state":"active","ping":57},{"user_id":398,"name":"Darentmotion","steam_id":76561198161628971,"connected_time":4005000000000,"state":"active","ping":73},{"user_id":433,"name":"Red","steam_id":76561198031865869,"connected_time":1591000000000,"state":"active","ping":60},{"user_id":459,"name":"(Benito simps for me) but shit","steam_id":76561198203952392,"connected_time":256000000000,"state":"active","ping":88},{"user_id":373,"name":"Imrgrim","steam_id":76561198135866481,"connected_time":4865000000000,"state":"active","ping":62},{"user_id":405,"name":"Training Arc","steam_id":76561198038832034,"connected_time":3564000000000,"state":"active","ping":105},{"user_id":440,"name":"Big Yoshi","steam_id":76561199160576376,"connected_time":1473000000000,"state":"active","ping":105},{"user_id":415,"name":"carrot cake","steam_id":76561198055174915,"connected_time":3103000000000,"state":"active","ping":85},{"user_id":406,"name":"Le0901","steam_id":76561198372891244,"connected_time":3512000000000,"state":"active","ping":71},{"user_id":463,"name":"Gaming123","steam_id":76561198801780168,"connected_time":13000000000,"state":"active","ping":93},{"user_id":462,"name":"micah (forma de beyblade)","steam_id":76561198155872356,"connected_time":54000000000,"state":"active","ping":75},{"user_id":395,"name":"Œª","steam_id":76561198120426683,"connected_time":4190000000000,"state":"active","ping":118},{"user_id":421,"name":"Mitty","steam_id":76561198014177684,"connected_time":2746000000000,"state":"active","ping":82},{"user_id":441,"name":"Niceguy72","steam_id":76561198201157723,"connected_time":1469000000000,"state":"active","ping":97},{"user_id":426,"name":"Flubzy1","steam_id":76561198379456004,"connected_time":2393000000000,"state":"active","ping":43},{"user_id":444,"name":"HeroOfTime","steam_id":76561199096218001,"connected_time":1350000000000,"state":"active","ping":86}]},{"server_id":108,"name":"Uncletopia | Dallas | 2 | All Maps","name_short":"dal-2","host":"dal-1.us.uncletopia.com","port":27025,"enabled":true,"region":"us-central","cc":"us","latitude":32.779167,"longitude":-96.80889,"reserved":0,"last_update":"0001-01-01T00:00:00Z","name_a2s":"Uncletopia | Dallas | 2 | All Maps","protocol":17,"map":"pl_barnblitz","folder":"tf","game":"Team Fortress","app_id":440,"player_count":24,"max_players":24,"Bots":0,"server_type":"Dedicated","server_os":"Linux","password":true,"vac":true,"version":"7757534","steam_id":85568392924469988,"keywords":["nocrits","nodmgspread","payload","uncletopia"],"game_id":440,"stv_port":27026,"stv_name":"Uncletopia | Dallas | 2 | All Maps | STV","players":[{"user_id":222,"name":"asian","steam_id":76561198082561695,"connected_time":159000000000,"state":"active","ping":75},{"user_id":212,"name":"b10dragon","steam_id":76561198374314985,"connected_time":748000000000,"state":"active","ping":173},{"user_id":219,"name":"Enron Hubbard","steam_id":76561198012951411,"connected_time":381000000000,"state":"active","ping":78},{"user_id":204,"name":"MEATBALL","steam_id":76561198028499312,"connected_time":1670000000000,"state":"active","ping":74},{"user_id":164,"name":"Darth Phrogg","steam_id":76561198150844229,"connected_time":3680000000000,"state":"active","ping":47},{"user_id":180,"name":"momb","steam_id":76561198142234038,"connected_time":2531000000000,"state":"active","ping":85},{"user_id":153,"name":"nach","steam_id":76561198040640135,"connected_time":4124000000000,"state":"active","ping":87},{"user_id":201,"name":"Stu_Strib","steam_id":76561197970588300,"connected_time":1864000000000,"state":"active","ping":51},{"user_id":176,"name":"tie dye die guy","steam_id":76561198049845337,"connected_time":2723000000000,"state":"active","ping":74},{"user_id":198,"name":"anoobis","steam_id":76561199120731573,"connected_time":1887000000000,"state":"active","ping":70},{"user_id":184,"name":"Yuhh","steam_id":76561199112894955,"connected_time":2260000000000,"state":"active","ping":71},{"user_id":107,"name":"jzplr üé∑üêõ","steam_id":76561198091901520,"connected_time":9428000000000,"state":"active","ping":76},{"user_id":208,"name":"Corn","steam_id":76561198290751647,"connected_time":1398000000000,"state":"active","ping":66},{"user_id":216,"name":"phone","steam_id":76561198029268743,"connected_time":498000000000,"state":"active","ping":68},{"user_id":217,"name":"Bane","steam_id":76561199229178323,"connected_time":403000000000,"state":"active","ping":57},{"user_id":113,"name":"‚ù§ Ashley ‚ù§","steam_id":76561198056428303,"connected_time":8869000000000,"state":"active","ping":75},{"user_id":203,"name":"Deus Vult","steam_id":76561198019645926,"connected_time":1743000000000,"state":"active","ping":99},{"user_id":220,"name":"Sableye","steam_id":76561198061247147,"connected_time":293000000000,"state":"active","ping":75},{"user_id":145,"name":"Gocel","steam_id":76561198071467515,"connected_time":4898000000000,"state":"active","ping":86},{"user_id":206,"name":"[VP]PurplePaladin","steam_id":76561198017011129,"connected_time":1560000000000,"state":"active","ping":83},{"user_id":44,"name":"Treeckogeek","steam_id":76561198453328078,"connected_time":13582000000000,"state":"active","ping":74},{"user_id":166,"name":"Snorty","steam_id":76561198114304454,"connected_time":3556000000000,"state":"active","ping":87},{"user_id":221,"name":"Derply","steam_id":76561198871211642,"connected_time":241000000000,"state":"active","ping":85},{"user_id":195,"name":"FunGi","steam_id":76561198881418662,"connected_time":2133000000000,"state":"active","ping":77}]},{"server_id":5,"name":"Uncletopia | Frankfurt | 1 | All Maps","name_short":"frk-1","host":"frk-1.de.uncletopia.com","port":27015,"enabled":true,"region":"eu","cc":"de","latitude":50.110924,"longitude":8.682127,"reserved":0,"last_update":"0001-01-01T00:00:00Z","name_a2s":"Uncletopia | Frankfurt | 1 | All Maps","protocol":17,"map":"pl_badwater","folder":"tf","game":"Team Fortress","app_id":440,"player_count":24,"max_players":24,"Bots":0,"server_type":"Dedicated","server_os":"Linux","password":true,"vac":true,"version":"7757534","steam_id":85568392924469989,"keywords":["nocrits","nodmgspread","payload","uncletopia"],"game_id":440,"stv_port":27016,"stv_name":"Uncletopia | Frankfurt | 1 | All Maps | STV","players":[{"user_id":855,"name":"Fletcher","steam_id":76561198108604934,"connected_time":245000000000,"state":"active","ping":62},{"user_id":860,"name":"Noob_with_source","steam_id":76561198870362103,"connected_time":144000000000,"state":"active","ping":58},{"user_id":797,"name":"luigidiabotical8362m1grand","steam_id":76561198055264447,"connected_time":5293000000000,"state":"active","ping":74},{"user_id":835,"name":"aph","steam_id":76561198057722639,"connected_time":2389000000000,"state":"active","ping":69},{"user_id":861,"name":".Ô±ûÔ±ûÔ±ûrÔ±ûÔ±ûÔ±ûrÔ±ûÔ±ûÔ±û ","steam_id":76561198256821358,"connected_time":109000000000,"state":"active","ping":60},{"user_id":842,"name":"disc0rd","steam_id":76561197985965776,"connected_time":1595000000000,"state":"active","ping":60},{"user_id":856,"name":"BlazeHX","steam_id":76561198827408017,"connected_time":237000000000,"state":"active","ping":191},{"user_id":853,"name":"Karahu","steam_id":76561198060426885,"connected_time":561000000000,"state":"active","ping":75},{"user_id":831,"name":"annoying bot","steam_id":76561198049312442,"connected_time":2845000000000,"state":"active","ping":59},{"user_id":840,"name":"puck_panzer","steam_id":76561198121260981,"connected_time":1842000000000,"state":"active","ping":46},{"user_id":796,"name":"Vershal Smershal","steam_id":76561198116223995,"connected_time":5535000000000,"state":"active","ping":60},{"user_id":846,"name":"≈Åyku","steam_id":76561198299149372,"connected_time":1271000000000,"state":"active","ping":72},{"user_id":837,"name":"GFI_Plumber","steam_id":76561198011354006,"connected_time":2151000000000,"state":"active","ping":158},{"user_id":862,"name":"cat soup","steam_id":76561198868196506,"connected_time":92000000000,"state":"active","ping":120},{"user_id":863,"name":"Mean Green Peen","steam_id":76561198228455736,"connected_time":80000000000,"state":"active","ping":69},{"user_id":830,"name":"Zonts","steam_id":76561198850176432,"connected_time":2877000000000,"state":"active","ping":86},{"user_id":857,"name":"Tomhet The Coca-Cola Driver","steam_id":76561198405980983,"connected_time":230000000000,"state":"active","ping":65},{"user_id":847,"name":"Garoiop","steam_id":76561198082326459,"connected_time":1196000000000,"state":"active","ping":48},{"user_id":864,"name":"a dollop of bird","steam_id":76561198089003514,"connected_time":75000000000,"state":"active","ping":48},{"user_id":807,"name":"=^_^=","steam_id":76561198076494034,"connected_time":4830000000000,"state":"active","ping":58},{"user_id":848,"name":"Hitreg","steam_id":76561198067949491,"connected_time":1089000000000,"state":"active","ping":67},{"user_id":849,"name":"Grey","steam_id":76561198187190267,"connected_time":1008000000000,"state":"active","ping":56},{"user_id":868,"name":"RIFT","steam_id":76561198991622379,"connected_time":30000000000,"state":"active","ping":58},{"user_id":866,"name":"Steen","steam_id":76561198122992510,"connected_time":54000000000,"state":"active","ping":46}]},{"server_id":110,"name":"Uncletopia | Frankfurt | 2 | All Maps","name_short":"frk-2","host":"frk-1.de.uncletopia.com","port":27025,"enabled":true,"region":"eu","cc":"de","latitude":50.110924,"longitude":8.682127,"reserved":0,"last_update":"0001-01-01T00:00:00Z","name_a2s":"Uncletopia | Frankfurt | 2 | All Maps","protocol":17,"map":"pl_snowycoast","folder":"tf","game":"Team Fortress","app_id":440,"player_count":0,"max_players":24,"Bots":0,"server_type":"Dedicated","server_os":"Linux","password":true,"vac":true,"version":"7757534","steam_id":85568392924469990,"keywords":["nocrits","nodmgspread","payload","uncletopia"],"game_id":440,"stv_port":27026,"stv_name":"Uncletopia | Frankfurt | 2 | All Maps | STV","players":null},{"server_id":308,"name":"Uncletopia | Frankfurt | 3 | All Maps","name_short":"frk-3","host":"frk-1.de.uncletopia.com","port":27035,"enabled":true,"region":"eu","cc":"de","latitude":50.110924,"longitude":8.682127,"reserved":0,"last_update":"0001-01-01T00:00:00Z","name_a2s":"Uncletopia | Frankfurt | 3 | All Maps","protocol":17,"map":"pl_frontier_final","folder":"tf","game":"Team Fortress","app_id":440,"player_count":24,"max_players":24,"Bots":0,"server_type":"Dedicated","server_os":"Linux","password":true,"vac":true,"version":"7757534","steam_id":85568392924504274,"keywords":["nocrits","nodmgspread","payload","uncletopia"],"game_id":440,"stv_port":27036,"stv_name":"Uncletopia | Frankfurt | 3 | All Maps | STV","players":[{"user_id":409,"name":"Mumble","steam_id":76561198386885092,"connected_time":887000000000,"state":"active","ping":76},{"user_id":422,"name":"B1nd S B1nd","steam_id":76561198057607142,"connected_time":284000000000,"state":"active","ping":96},{"user_id":410,"name":"Princess Fuzz","steam_id":76561198025783000,"connected_time":879000000000,"state":"active","ping":49},{"user_id":401,"name":"hmmmst","steam_id":76561198121837435,"connected_time":1339000000000,"state":"active","ping":96},{"user_id":387,"name":"Spectre","steam_id":76561198163819482,"connected_time":2112000000000,"state":"active","ping":62},{"user_id":411,"name":"Ecton","steam_id":76561198025103720,"connected_time":726000000000,"state":"active","ping":60},{"user_id":402,"name":"Mode = iNsaNia","steam_id":76561198029781802,"connected_time":1332000000000,"state":"active","ping":54},{"user_id":388,"name":"Banatical Bean","steam_id":76561198122356617,"connected_time":2111000000000,"state":"active","ping":67},{"user_id":412,"name":"[DE] Blitz","steam_id":76561199382652744,"connected_time":694000000000,"state":"active","ping":46},{"user_id":423,"name":"myon","steam_id":76561197992528570,"connected_time":233000000000,"state":"active","ping":69},{"user_id":406,"name":"Raine","steam_id":76561198098860903,"connected_time":1059000000000,"state":"active","ping":62},{"user_id":392,"name":"Kenpachi","steam_id":76561198365750503,"connected_time":1966000000000,"state":"active","ping":59},{"user_id":417,"name":"legossi","steam_id":76561199030821525,"connected_time":521000000000,"state":"active","ping":69},{"user_id":393,"name":"rz-/Atomic Punch","steam_id":76561199195508541,"connected_time":1946000000000,"state":"active","ping":79},{"user_id":414,"name":"let me cook","steam_id":76561198010380786,"connected_time":619000000000,"state":"active","ping":61},{"user_id":419,"name":"permed ball hair gaming","steam_id":76561198294857933,"connected_time":464000000000,"state":"active","ping":72},{"user_id":416,"name":"Yellow Shell","steam_id":76561198078611813,"connected_time":542000000000,"state":"active","ping":74},{"user_id":418,"name":"Syllvian","steam_id":76561198108800206,"connected_time":519000000000,"state":"active","ping":66},{"user_id":399,"name":"Dragul","steam_id":76561198032885938,"connected_time":1828000000000,"state":"active","ping":60},{"user_id":370,"name":"igorka5.exe","steam_id":76561198868156703,"connected_time":4114000000000,"state":"active","ping":109},{"user_id":421,"name":"Gernhardt Reinlunzen #savetf2","steam_id":76561198147571688,"connected_time":419000000000,"state":"active","ping":48},{"user_id":407,"name":"Quill","steam_id":76561198348124998,"connected_time":1044000000000,"state":"active","ping":70},{"user_id":424,"name":"2BCD","steam_id":76561198178254946,"connected_time":195000000000,"state":"active","ping":66},{"user_id":246,"name":"CumbustiblePunda","steam_id":76561197974274677,"connected_time":12098000000000,"state":"active","ping":49}]},{"server_id":309,"name":"Uncletopia | Frankfurt | 4 | All Maps","name_short":"frk-4","host":"frk-1.de.uncletopia.com","port":27045,"enabled":true,"region":"eu","cc":"de","latitude":50.110924,"longitude":8.682127,"reserved":0,"last_update":"0001-01-01T00:00:00Z","name_a2s":"Uncletopia | Frankfurt | 4 | All Maps","protocol":17,"map":"pl_pier","folder":"tf","game":"Team Fortress","app_id":440,"player_count":0,"max_players":24,"Bots":0,"server_type":"Dedicated","server_os":"Linux","password":true,"vac":true,"version":"7757534","steam_id":85568392924504275,"keywords":["nocrits","nodmgspread","payload","uncletopia"],"game_id":440,"stv_port":27046,"stv_name":"Uncletopia | Frankfurt | 4 | All Maps | STV","players":null},{"server_id":310,"name":"Uncletopia | Frankfurt | 5 | All Maps","name_short":"frk-5","host":"frk-1.de.uncletopia.com","port":27055,"enabled":true,"region":"eu","cc":"de","latitude":50.110924,"longitude":8.682127,"reserved":0,"last_update":"0001-01-01T00:00:00Z","name_a2s":"Uncletopia | Frankfurt | 5 | All Maps","protocol":17,"map":"pl_upward","folder":"tf","game":"Team Fortress","app_id":440,"player_count":0,"max_players":24,"Bots":0,"server_type":"Dedicated","server_os":"Linux","password":true,"vac":true,"version":"7757534","steam_id":85568392924504277,"keywords":["nocrits","nodmgspread","payload","uncletopia"],"game_id":440,"stv_port":27056,"stv_name":"Uncletopia | Frankfurt | 5 | All Maps | STV","players":null},{"server_id":311,"name":"Uncletopia | Frankfurt | 6 | All Maps","name_short":"frk-6","host":"frk-1.de.uncletopia.com","port":27065,"enabled":true,"region":"eu","cc":"de","latitude":50.110924,"longitude":8.682127,"reserved":0,"last_update":"0001-01-01T00:00:00Z","name_a2s":"Uncletopia | Frankfurt | 6 | All Maps","protocol":17,"map":"plr_nightfall_final","folder":"tf","game":"Team Fortress","app_id":440,"player_count":0,"max_players":24,"Bots":0,"server_type":"Dedicated","server_os":"Linux","password":true,"vac":true,"version":"7757534","steam_id":85568392924504278,"keywords":["nocrits","nodmgspread","payload","uncletopia"],"game_id":440,"stv_port":27066,"stv_name":"Uncletopia | Frankfurt | 6 | All Maps | STV","players":null},{"server_id":23,"name":"Uncletopia | Frankfurt | 7 | Stopwatch Beta","name_short":"frk-7","host":"frk-1.de.uncletopia.com","port":27075,"enabled":true,"region":"eu","cc":"de","latitude":50.110924,"longitude":8.682127,"reserved":0,"last_update":"0001-01-01T00:00:00Z","name_a2s":"Uncletopia | Frankfurt | 7 | Stopwatch Beta","protocol":17,"map":"workshop/koth_ramjam_rc1.ugc459778887","folder":"tf","game":"Team Fortress","app_id":440,"player_count":0,"max_players":24,"Bots":0,"server_type":"Dedicated","server_os":"Linux","password":true,"vac":true,"version":"7757534","steam_id":85568392924742827,"keywords":["cp","nocrits","nodmgspread","uncletopia"],"game_id":440,"stv_port":27076,"stv_name":"Uncletopia | Frankfurt | 7 | Stopwatch Beta | STV","players":null},{"server_id":24,"name":"Uncletopia | Frankfurt | 8 | Community","name_short":"frk-8","host":"frk-1.de.uncletopia.com","port":27085,"enabled":true,"region":"eu","cc":"de","latitude":50.110924,"longitude":8.682127,"reserved":0,"last_update":"0001-01-01T00:00:00Z","name_a2s":"Uncletopia | Frankfurt | 8 | Community","protocol":17,"map":"workshop/koth_product_final.ugc454272353","folder":"tf","game":"Team Fortress","app_id":440,"player_count":0,"max_players":24,"Bots":0,"server_type":"Dedicated","server_os":"Linux","password":true,"vac":true,"version":"7757534","steam_id":85568392924742828,"keywords":["cp","nocrits","nodmgspread","uncletopia"],"game_id":440,"stv_port":27086,"stv_name":"Uncletopia | Frankfurt | 8 | Community | STV","players":null},{"server_id":202,"name":"Uncletopia | Hong Kong | 1 | All Maps","name_short":"hgk-1","host":"hgk-1.hk.uncletopia.com","port":27015,"enabled":true,"region":"asia","cc":"hk","latitude":22.302711,"longitude":114.177216,"reserved":0,"last_update":"0001-01-01T00:00:00Z","name_a2s":"Uncletopia | Hong Kong | 1 | All Maps","protocol":17,"map":"pl_frontier_final","folder":"tf","game":"Team Fortress","app_id":440,"player_count":0,"max_players":24,"Bots":0,"server_type":"Dedicated","server_os":"Linux","password":true,"vac":true,"version":"7757534","steam_id":85568392924494504,"keywords":["nocrits","nodmgspread","payload","uncletopia"],"game_id":440,"stv_port":27016,"stv_name":"Uncletopia | Hong Kong | 1 | All Maps | STV","players":null},{"server_id":1,"name":"Uncletopia | Los Angeles | 1 | All Maps","name_short":"lax-1","host":"lax-1.us.uncletopia.com","port":27015,"enabled":true,"region":"us-west","cc":"us","latitude":33.94279,"longitude":-118.41004,"reserved":0,"last_update":"0001-01-01T00:00:00Z","name_a2s":"Uncletopia | Los Angeles | 1 | All Maps","protocol":17,"map":"pl_borneo","folder":"tf","game":"Team Fortress","app_id":440,"player_count":24,"max_players":24,"Bots":0,"server_type":"Dedicated","server_os":"Linux","password":true,"vac":true,"version":"7757534","steam_id":85568392924469991,"keywords":["nocrits","nodmgspread","payload","uncletopia"],"game_id":440,"stv_port":27016,"stv_name":"Uncletopia | Los Angeles | 1 | All Maps | STV","players":[{"user_id":190,"name":"Azazel CLAP","steam_id":76561198319603787,"connected_time":4418000000000,"state":"active","ping":130},{"user_id":225,"name":"a chicken","steam_id":76561198313121580,"connected_time":760000000000,"state":"active","ping":48},{"user_id":202,"name":"Naughty Prove Thyself","steam_id":76561198066050575,"connected_time":3155000000000,"state":"active","ping":105},{"user_id":207,"name":"Dreamzapp","steam_id":76561199084936632,"connected_time":2735000000000,"state":"active","ping":70},{"user_id":94,"name":"BucketofIce","steam_id":76561199108563726,"connected_time":10853000000000,"state":"active","ping":56},{"user_id":216,"name":"Five","steam_id":76561198026640473,"connected_time":2244000000000,"state":"active","ping":60},{"user_id":218,"name":"Mr. Blubber","steam_id":76561198338906916,"connected_time":1473000000000,"state":"active","ping":46},{"user_id":188,"name":"zapato","steam_id":76561198142278437,"connected_time":4465000000000,"state":"active","ping":103},{"user_id":208,"name":"retro 7","steam_id":76561198285265582,"connected_time":2728000000000,"state":"active","ping":44},{"user_id":217,"name":"Edboi","steam_id":76561198117849098,"connected_time":2232000000000,"state":"active","ping":69},{"user_id":131,"name":"Nibotshooter","steam_id":76561199284825579,"connected_time":8786000000000,"state":"active","ping":60},{"user_id":198,"name":"Batso","steam_id":76561198106589452,"connected_time":3758000000000,"state":"active","ping":47},{"user_id":221,"name":"VicLoL","steam_id":76561198045580784,"connected_time":1211000000000,"state":"active","ping":55},{"user_id":192,"name":"Manx","steam_id":76561197977134062,"connected_time":4197000000000,"state":"active","ping":76},{"user_id":194,"name":"Skullgirls enjoyer","steam_id":76561198077811162,"connected_time":3991000000000,"state":"active","ping":55},{"user_id":215,"name":"sqwig","steam_id":76561199087353191,"connected_time":2345000000000,"state":"active","ping":80},{"user_id":227,"name":"groovetomanny","steam_id":76561198371660675,"connected_time":332000000000,"state":"active","ping":55},{"user_id":168,"name":"Furious George","steam_id":76561198405111646,"connected_time":5742000000000,"state":"active","ping":66},{"user_id":213,"name":"meep912","steam_id":76561198411945534,"connected_time":2606000000000,"state":"active","ping":55},{"user_id":219,"name":"TeCon","steam_id":76561198049127236,"connected_time":1240000000000,"state":"active","ping":57},{"user_id":214,"name":"Bomb Squirtle‚Ñ¢","steam_id":76561197998931145,"connected_time":2594000000000,"state":"active","ping":130},{"user_id":199,"name":"Fajita Master","steam_id":76561198329150962,"connected_time":3654000000000,"state":"active","ping":105},{"user_id":186,"name":"spencstar123","steam_id":76561198145310464,"connected_time":4562000000000,"state":"active","ping":73},{"user_id":224,"name":"Gamehero637","steam_id":76561198880355236,"connected_time":884000000000,"state":"active","ping":54}]},{"server_id":112,"name":"Uncletopia | Los Angeles | 2 | All Maps","name_short":"lax-2","host":"lax-1.us.uncletopia.com","port":27025,"enabled":true,"region":"us-west","cc":"us","latitude":33.94279,"longitude":-118.41004,"reserved":0,"last_update":"0001-01-01T00:00:00Z","name_a2s":"Uncletopia | Los Angeles | 2 | All Maps","protocol":17,"map":"pl_thundermountain","folder":"tf","game":"Team Fortress","app_id":440,"player_count":24,"max_players":24,"Bots":0,"server_type":"Dedicated","server_os":"Linux","password":true,"vac":true,"version":"7757534","steam_id":85568392924469992,"keywords":["nocrits","nodmgspread","payload","uncletopia"],"game_id":440,"stv_port":27026,"stv_name":"Uncletopia | Los Angeles | 2 | All Maps | STV","players":[{"user_id":222,"name":"Penne","steam_id":76561198982393756,"connected_time":194000000000,"state":"active","ping":151},{"user_id":197,"name":"Granlet","steam_id":76561199244312225,"connected_time":1233000000000,"state":"active","ping":58},{"user_id":224,"name":"Gazelle","steam_id":76561198336397088,"connected_time":153000000000,"state":"active","ping":53},{"user_id":191,"name":"Leftshadows","steam_id":76561199089515791,"connected_time":1501000000000,"state":"active","ping":64},{"user_id":207,"name":"Tyronebone","steam_id":76561198343523302,"connected_time":396000000000,"state":"active","ping":137},{"user_id":208,"name":"Surgicalsubset","steam_id":76561198983418107,"connected_time":344000000000,"state":"active","ping":121},{"user_id":209,"name":"Sticky","steam_id":76561198031581547,"connected_time":333000000000,"state":"active","ping":36},{"user_id":201,"name":"Frazzer","steam_id":76561198088679707,"connected_time":836000000000,"state":"active","ping":44},{"user_id":202,"name":"Delimeat","steam_id":76561198043824595,"connected_time":830000000000,"state":"active","ping":46},{"user_id":143,"name":"chesterwnimitz","steam_id":76561198062664377,"connected_time":3853000000000,"state":"active","ping":94},{"user_id":210,"name":"YellowBABE","steam_id":76561198805259721,"connected_time":333000000000,"state":"active","ping":131},{"user_id":188,"name":"blue drink","steam_id":76561199260739414,"connected_time":1710000000000,"state":"active","ping":82},{"user_id":211,"name":"Robogineer","steam_id":76561198026994739,"connected_time":322000000000,"state":"active","ping":38},{"user_id":212,"name":"Phlogging Solly","steam_id":76561198020580071,"connected_time":322000000000,"state":"active","ping":51},{"user_id":223,"name":"Reyloko","steam_id":76561198172480913,"connected_time":191000000000,"state":"active","ping":110},{"user_id":214,"name":"Jorbama","steam_id":76561198104539101,"connected_time":306000000000,"state":"active","ping":121},{"user_id":215,"name":"Insert_User_","steam_id":76561199229663997,"connected_time":257000000000,"state":"active","ping":85},{"user_id":216,"name":"CFG Ponder","steam_id":76561198127039453,"connected_time":252000000000,"state":"active","ping":102},{"user_id":217,"name":"bruhmanguy42","steam_id":76561198156309042,"connected_time":242000000000,"state":"active","ping":121},{"user_id":179,"name":"Mr. Luggy","steam_id":76561198072723392,"connected_time":2086000000000,"state":"active","ping":46},{"user_id":218,"name":"DrSealJr","steam_id":76561198134107936,"connected_time":237000000000,"state":"active","ping":87},{"user_id":219,"name":"Black Legionnaire","steam_id":76561198249840840,"connected_time":219000000000,"state":"active","ping":69},{"user_id":220,"name":"Nestad","steam_id":76561198077436359,"connected_time":208000000000,"state":"active","ping":99},{"user_id":221,"name":"glogge","steam_id":76561198086008437,"connected_time":206000000000,"state":"active","ping":85}]},{"server_id":324,"name":"Uncletopia | Los Angeles | 3 | All Maps","name_short":"lax-3","host":"lax-1.us.uncletopia.com","port":27035,"enabled":true,"region":"us-west","cc":"us","latitude":33.94279,"longitude":-118.41004,"reserved":0,"last_update":"0001-01-01T00:00:00Z","name_a2s":"Uncletopia | Los Angeles | 3 | All Maps","protocol":17,"map":"pl_swiftwater_final1","folder":"tf","game":"Team Fortress","app_id":440,"player_count":1,"max_players":24,"Bots":0,"server_type":"Dedicated","server_os":"Linux","password":true,"vac":true,"version":"7757534","steam_id":85568392924510198,"keywords":["nocrits","nodmgspread","payload","uncletopia"],"game_id":440,"stv_port":27036,"stv_name":"Uncletopia | Los Angeles | 3 | All Maps | STV","players":[{"user_id":12,"name":"Birdman743","steam_id":76561198799636748,"connected_time":1975000000000,"state":"active","ping":80}]},{"server_id":25,"name":"Uncletopia | Los Angeles | 4 | Stopwatch Beta","name_short":"lax-4","host":"lax-1.us.uncletopia.com","port":27045,"enabled":true,"region":"us-west","cc":"us","latitude":33.94279,"longitude":-118.41004,"reserved":0,"last_update":"0001-01-01T00:00:00Z","name_a2s":"Uncletopia | Los Angeles | 4 | Stopwatch Beta","protocol":17,"map":"workshop/cp_reckoner_rc6.ugc674719999","folder":"tf","game":"Team Fortress","app_id":440,"player_count":0,"max_players":24,"Bots":0,"server_type":"Dedicated","server_os":"Linux","password":true,"vac":true,"version":"7757534","steam_id":85568392924510199,"keywords":["cp","nocrits","nodmgspread","uncletopia"],"game_id":440,"stv_port":27046,"stv_name":"Uncletopia | Los Angeles | 4 | Stopwatch Beta | STV","players":null},{"server_id":11,"name":"Uncletopia | London | 1 | All Maps","name_short":"lon-1","host":"lon-1.uk.uncletopia.com","port":27015,"enabled":true,"region":"eu","cc":"gb","latitude":51.509865,"longitude":-0.118092,"reserved":0,"last_update":"0001-01-01T00:00:00Z","name_a2s":"Uncletopia | London | 1 | All Maps","protocol":17,"map":"cp_dustbowl","folder":"tf","game":"Team Fortress","app_id":440,"player_count":6,"max_players":24,"Bots":0,"server_type":"Dedicated","server_os":"Linux","password":true,"vac":true,"version":"7757534","steam_id":85568392924367362,"keywords":["cp","nocrits","nodmgspread","uncletopia"],"game_id":440,"stv_port":27016,"stv_name":"Uncletopia | London | 1 | All Maps | STV","players":[{"user_id":635,"name":"mush","steam_id":76561198310089797,"connected_time":128000000000,"state":"active","ping":159},{"user_id":622,"name":"Aaron","steam_id":76561197990046953,"connected_time":851000000000,"state":"active","ping":67},{"user_id":631,"name":"EverZz","steam_id":76561197962575060,"connected_time":564000000000,"state":"active","ping":54},{"user_id":625,"name":"Jonten","steam_id":76561198012757253,"connected_time":756000000000,"state":"active","ping":59},{"user_id":628,"name":"Klice","steam_id":76561197966458352,"connected_time":652000000000,"state":"active","ping":54},{"user_id":632,"name":"Norbert Hallelujah","steam_id":76561198137876982,"connected_time":516000000000,"state":"active","ping":71}]},{"server_id":114,"name":"Uncletopia | London | 2 | All Maps","name_short":"lon-2","host":"lon-1.uk.uncletopia.com","port":27025,"enabled":true,"region":"eu","cc":"gb","latitude":51.509865,"longitude":-0.118092,"reserved":0,"last_update":"0001-01-01T00:00:00Z","name_a2s":"Uncletopia | London | 2 | All Maps","protocol":17,"map":"cp_mountainlab","folder":"tf","game":"Team Fortress","app_id":440,"player_count":24,"max_players":24,"Bots":0,"server_type":"Dedicated","server_os":"Linux","password":true,"vac":true,"version":"7757534","steam_id":85568392924470941,"keywords":["cp","nocrits","nodmgspread","uncletopia"],"game_id":440,"stv_port":27026,"stv_name":"Uncletopia | London | 2 | All Maps | STV","players":[{"user_id":272,"name":"lark","steam_id":76561198091724522,"connected_time":8823000000000,"state":"active","ping":54},{"user_id":392,"name":"BeefHammer","steam_id":76561198078426223,"connected_time":660000000000,"state":"active","ping":86},{"user_id":373,"name":"grmtwtr","steam_id":76561198263260743,"connected_time":1589000000000,"state":"active","ping":105},{"user_id":375,"name":"Jovy Kujoh","steam_id":76561198410598772,"connected_time":1516000000000,"state":"active","ping":54},{"user_id":396,"name":"R0mulone","steam_id":76561198352513792,"connected_time":571000000000,"state":"active","ping":62},{"user_id":377,"name":"bushman","steam_id":76561197996548146,"connected_time":1302000000000,"state":"active","ping":157},{"user_id":393,"name":"frosty","steam_id":76561198094560834,"connected_time":654000000000,"state":"active","ping":48},{"user_id":397,"name":"oscail","steam_id":76561198180640198,"connected_time":556000000000,"state":"active","ping":71},{"user_id":398,"name":"R A S M U S","steam_id":76561198279799226,"connected_time":523000000000,"state":"active","ping":56},{"user_id":399,"name":"true","steam_id":76561198031145243,"connected_time":514000000000,"state":"active","ping":75},{"user_id":381,"name":"Kaptin Badrukk","steam_id":76561198048011649,"connected_time":1095000000000,"state":"active","ping":59},{"user_id":382,"name":"Hudson Hornet","steam_id":76561198084705501,"connected_time":1086000000000,"state":"active","ping":87},{"user_id":324,"name":"Femboy Gaming","steam_id":76561198174108515,"connected_time":5112000000000,"state":"active","ping":55},{"user_id":383,"name":"Kekwaction (GER)","steam_id":76561199100852943,"connected_time":1084000000000,"state":"active","ping":70},{"user_id":362,"name":"fshfkr","steam_id":76561198095979282,"connected_time":3250000000000,"state":"active","ping":42},{"user_id":352,"name":"Renard pos4","steam_id":76561197998908594,"connected_time":3622000000000,"state":"active","ping":66},{"user_id":369,"name":"I Wish I Could Unsee That","steam_id":76561198353316299,"connected_time":2071000000000,"state":"active","ping":129},{"user_id":291,"name":"cropping","steam_id":76561198026586456,"connected_time":8046000000000,"state":"active","ping":58},{"user_id":403,"name":"STiNGHAN","steam_id":76561198023989090,"connected_time":17000000000,"state":"active","ping":79},{"user_id":394,"name":"StealthyLlama24","steam_id":76561198045551474,"connected_time":653000000000,"state":"active","ping":153},{"user_id":395,"name":"i AM the medic gf","steam_id":76561198247284680,"connected_time":630000000000,"state":"active","ping":75},{"user_id":400,"name":"Bob D","steam_id":76561198026375630,"connected_time":502000000000,"state":"active","ping":50},{"user_id":401,"name":"Thanks babe","steam_id":76561198091969871,"connected_time":486000000000,"state":"active","ping":83},{"user_id":402,"name":"midlpsyzl47","steam_id":76561199475972637,"connected_time":378000000000,"state":"active","ping":63}]},{"server_id":320,"name":"Uncletopia | London | 3 | All Maps","name_short":"lon-3","host":"lon-1.uk.uncletopia.com","port":27035,"enabled":true,"region":"eu","cc":"gb","latitude":51.509865,"longitude":-0.118092,"reserved":0,"last_update":"0001-01-01T00:00:00Z","name_a2s":"Uncletopia | London | 3 | All Maps","protocol":17,"map":"cp_dustbowl","folder":"tf","game":"Team Fortress","app_id":440,"player_count":17,"max_players":24,"Bots":0,"server_type":"Dedicated","server_os":"Linux","password":true,"vac":true,"version":"7757534","steam_id":85568392924510192,"keywords":["cp","nocrits","nodmgspread","uncletopia"],"game_id":440,"stv_port":27036,"stv_name":"Uncletopia | London | 3 | All Maps | STV","players":[{"user_id":980,"name":"BreadLoaph","steam_id":76561198076570733,"connected_time":1683000000000,"state":"active","ping":93},{"user_id":982,"name":"nick murphy","steam_id":76561198086592534,"connected_time":1526000000000,"state":"active","ping":49},{"user_id":983,"name":"mmm delicious bullets","steam_id":76561198254664484,"connected_time":1399000000000,"state":"active","ping":56},{"user_id":984,"name":"el cassimiro","steam_id":76561198087864054,"connected_time":1229000000000,"state":"active","ping":88},{"user_id":986,"name":"Never √úber Me","steam_id":76561198140522687,"connected_time":1141000000000,"state":"active","ping":89},{"user_id":987,"name":"Swede1291","steam_id":76561198067175500,"connected_time":1122000000000,"state":"active","ping":69},{"user_id":988,"name":"Bluecat11","steam_id":76561198062566771,"connected_time":1111000000000,"state":"active","ping":138},{"user_id":989,"name":"2C-B","steam_id":76561198413860689,"connected_time":1091000000000,"state":"active","ping":57},{"user_id":990,"name":"Klaides123","steam_id":76561198083185985,"connected_time":1075000000000,"state":"active","ping":71},{"user_id":991,"name":"Zedd","steam_id":76561198118472567,"connected_time":1049000000000,"state":"active","ping":57},{"user_id":992,"name":"Oolong","steam_id":76561198324811898,"connected_time":839000000000,"state":"active","ping":148},{"user_id":1001,"name":"Hahus3","steam_id":76561199060118481,"connected_time":43000000000,"state":"active","ping":112},{"user_id":994,"name":"Marl Karx","steam_id":76561198396797516,"connected_time":557000000000,"state":"active","ping":68},{"user_id":977,"name":"courage the cowardly dog","steam_id":76561198128348941,"connected_time":2366000000000,"state":"active","ping":70},{"user_id":1002,"name":"Tommy Wright III","steam_id":76561197974720148,"connected_time":1000000000,"state":"spawning","ping":31},{"user_id":998,"name":"Sh3ba Spaniel","steam_id":76561198047412394,"connected_time":221000000000,"state":"active","ping":158},{"user_id":970,"name":"LittleZerg","steam_id":76561198194709303,"connected_time":2660000000000,"state":"active","ping":74}]},{"server_id":321,"name":"Uncletopia | London | 4 | All Maps","name_short":"lon-4","host":"lon-1.uk.uncletopia.com","port":27045,"enabled":true,"region":"eu","cc":"gb","latitude":51.509865,"longitude":-0.118092,"reserved":0,"last_update":"0001-01-01T00:00:00Z","name_a2s":"Uncletopia | London | 4 | All Maps","protocol":17,"map":"cp_sunshine","folder":"tf","game":"Team Fortress","app_id":440,"player_count":23,"max_players":24,"Bots":0,"server_type":"Dedicated","server_os":"Linux","password":true,"vac":true,"version":"7757534","steam_id":85568392924510193,"keywords":["cp","nocrits","nodmgspread","uncletopia"],"game_id":440,"stv_port":27046,"stv_name":"Uncletopia | London | 4 | All Maps | STV","players":[{"user_id":549,"name":"Valfezant","steam_id":76561199063983797,"connected_time":578000000000,"state":"active","ping":76},{"user_id":525,"name":"Windows Vista Home Basic","steam_id":76561198195789498,"connected_time":2184000000000,"state":"active","ping":78},{"user_id":529,"name":"LuCroGi","steam_id":76561198057283891,"connected_time":2016000000000,"state":"active","ping":56},{"user_id":512,"name":"born to eat forced to shit","steam_id":76561198072956430,"connected_time":2654000000000,"state":"active","ping":124},{"user_id":528,"name":"jump_power_rc3","steam_id":76561197970114051,"connected_time":2039000000000,"state":"active","ping":42},{"user_id":451,"name":"Who?","steam_id":76561198271901063,"connected_time":7507000000000,"state":"active","ping":57},{"user_id":550,"name":"Butt Hurling","steam_id":76561198093229786,"connected_time":523000000000,"state":"active","ping":85},{"user_id":555,"name":"Souris Marine","steam_id":76561199143334415,"connected_time":111000000000,"state":"active","ping":47},{"user_id":545,"name":"speedylagoz","steam_id":76561199475596186,"connected_time":731000000000,"state":"active","ping":117},{"user_id":547,"name":"Harri Lalies","steam_id":76561198194420078,"connected_time":644000000000,"state":"active","ping":72},{"user_id":554,"name":"lettuce at 58p","steam_id":76561199401283123,"connected_time":152000000000,"state":"active","ping":41},{"user_id":537,"name":"Emma ‚ù§","steam_id":76561198046796406,"connected_time":1755000000000,"state":"active","ping":51},{"user_id":443,"name":"Dlaf'rferg (she/her)","steam_id":76561198284744735,"connected_time":8227000000000,"state":"active","ping":56},{"user_id":494,"name":"Scout Sex","steam_id":76561199074844829,"connected_time":4905000000000,"state":"active","ping":68},{"user_id":517,"name":"SparklyCherries","steam_id":76561198102969924,"connected_time":2459000000000,"state":"active","ping":52},{"user_id":465,"name":"transgender e-girl","steam_id":76561198168589809,"connected_time":6867000000000,"state":"active","ping":44},{"user_id":544,"name":"jar","steam_id":76561198156384007,"connected_time":984000000000,"state":"active","ping":53},{"user_id":531,"name":"Barb√Ätrou","steam_id":76561199439141531,"connected_time":1987000000000,"state":"active","ping":47},{"user_id":532,"name":"Femboy with the wrong pronouns","steam_id":76561198072320671,"connected_time":1971000000000,"state":"active","ping":34},{"user_id":556,"name":"Captain123","steam_id":76561198123995666,"connected_time":49000000000,"state":"active","ping":97},{"user_id":541,"name":"Quimnhentos","steam_id":76561198059110841,"connected_time":1226000000000,"state":"active","ping":82},{"user_id":542,"name":"Slimmmnut","steam_id":76561198070390257,"connected_time":1207000000000,"state":"active","ping":56},{"user_id":552,"name":"Darkmaen","steam_id":76561198060543390,"connected_time":445000000000,"state":"active","ping":51}]},{"server_id":21,"name":"Uncletopia | London | 5 | All Maps","name_short":"lon-5","host":"lon-1.uk.uncletopia.com","port":27055,"enabled":true,"region":"eu","cc":"gb","latitude":51.509865,"longitude":-0.118092,"reserved":0,"last_update":"0001-01-01T00:00:00Z","name_a2s":"Uncletopia | London | 5 | All Maps","protocol":17,"map":"koth_nucleus","folder":"tf","game":"Team Fortress","app_id":440,"player_count":0,"max_players":24,"Bots":0,"server_type":"Dedicated","server_os":"Linux","password":true,"vac":true,"version":"7757534","steam_id":85568392924742829,"keywords":["cp","nocrits","nodmgspread","uncletopia"],"game_id":440,"stv_port":27056,"stv_name":"Uncletopia | London | 5 | All Maps | STV","players":null},{"server_id":22,"name":"Uncletopia | London | 6 | All Maps","name_short":"lon-6","host":"lon-1.uk.uncletopia.com","port":27065,"enabled":true,"region":"eu","cc":"gb","latitude":51.509865,"longitude":-0.118092,"reserved":0,"last_update":"0001-01-01T00:00:00Z","name_a2s":"Uncletopia | London | 6 | All Maps","protocol":17,"map":"koth_cascade","folder":"tf","game":"Team Fortress","app_id":440,"player_count":0,"max_players":24,"Bots":0,"server_type":"Dedicated","server_os":"Linux","password":true,"vac":true,"version":"7757534","steam_id":85568392924742830,"keywords":["cp","nocrits","nodmgspread","uncletopia"],"game_id":440,"stv_port":27066,"stv_name":"Uncletopia | London | 6 | All Maps | STV","players":null},{"server_id":40,"name":"Uncletopia | London | 7 | No Payload","name_short":"lon-7","host":"lon-1.uk.uncletopia.com","port":27075,"enabled":true,"region":"eu","cc":"gb","latitude":51.509865,"longitude":-0.118092,"reserved":0,"last_update":"0001-01-01T00:00:00Z","name_a2s":"Uncletopia | London | 7 | No Payload","protocol":17,"map":"koth_harvest_final","folder":"tf","game":"Team Fortress","app_id":440,"player_count":7,"max_players":24,"Bots":0,"server_type":"Dedicated","server_os":"Linux","password":true,"vac":true,"version":"7757534","steam_id":85568392924964314,"keywords":["cp","nocrits","nodmgspread","uncletopia"],"game_id":440,"stv_port":27076,"stv_name":"Uncletopia | London | 7 | No Payload | STV","players":[{"user_id":844,"name":"nalezinik","steam_id":76561198030026119,"connected_time":1100000000000,"state":"active","ping":135},{"user_id":840,"name":"you died to a spy main","steam_id":76561198400125220,"connected_time":1648000000000,"state":"active","ping":62},{"user_id":841,"name":"miss paulings bitch","steam_id":76561199403298146,"connected_time":1639000000000,"state":"active","ping":56},{"user_id":842,"name":"quickfix gaming","steam_id":76561198410955546,"connected_time":1626000000000,"state":"active","ping":73},{"user_id":847,"name":"The Fresh Meat","steam_id":76561199443064206,"connected_time":252000000000,"state":"active","ping":74},{"user_id":846,"name":"PinkKong","steam_id":76561197993950694,"connected_time":853000000000,"state":"active","ping":84},{"user_id":849,"name":"Hilldog","steam_id":76561198082209322,"connected_time":54000000000,"state":"active","ping":80}]},{"server_id":41,"name":"Uncletopia | London | 8 | Community","name_short":"lon-8","host":"lon-1.uk.uncletopia.com","port":27085,"enabled":true,"region":"eu","cc":"gb","latitude":51.509865,"longitude":-0.118092,"reserved":0,"last_update":"0001-01-01T00:00:00Z","name_a2s":"Uncletopia | London | 8 | Community","protocol":17,"map":"workshop/koth_slaughter_rc1.ugc1712845210","folder":"tf","game":"Team Fortress","app_id":440,"player_count":0,"max_players":24,"Bots":0,"server_type":"Dedicated","server_os":"Linux","password":true,"vac":true,"version":"7757534","steam_id":85568392924964315,"keywords":["cp","nocrits","nodmgspread","uncletopia"],"game_id":440,"stv_port":27086,"stv_name":"Uncletopia | London | 8 | Community | STV","players":null},{"server_id":300,"name":"Uncletopia | Montr√©al | 1 | All Maps","name_short":"mtl-1","host":"mtl-1.ca.uncletopia.com","port":27015,"enabled":true,"region":"us-east","cc":"ca","latitude":45.50889,"longitude":-73.56167,"reserved":0,"last_update":"0001-01-01T00:00:00Z","name_a2s":"Uncletopia | Montr√©al | 1 | All Maps","protocol":17,"map":"koth_cascade","folder":"tf","game":"Team Fortress","app_id":440,"player_count":0,"max_players":24,"Bots":0,"server_type":"Dedicated","server_os":"Linux","password":true,"vac":true,"version":"7757534","steam_id":85568392924500087,"keywords":["cp","nocrits","nodmgspread","uncletopia"],"game_id":440,"stv_port":27016,"stv_name":"Uncletopia | Montr√©al | 1 | All Maps | STV","players":null},{"server_id":301,"name":"Uncletopia | Montr√©al | 2 | All Maps","name_short":"mtl-2","host":"mtl-1.ca.uncletopia.com","port":27025,"enabled":true,"region":"us-east","cc":"ca","latitude":45.50889,"longitude":-73.56167,"reserved":0,"last_update":"0001-01-01T00:00:00Z","name_a2s":"Uncletopia | Montr√©al | 2 | All Maps","protocol":17,"map":"cp_process_final","folder":"tf","game":"Team Fortress","app_id":440,"player_count":0,"max_players":24,"Bots":0,"server_type":"Dedicated","server_os":"Linux","password":true,"vac":true,"version":"7757534","steam_id":85568392924500088,"keywords":["cp","nocrits","nodmgspread","uncletopia"],"game_id":440,"stv_port":27026,"stv_name":"Uncletopia | Montr√©al | 2 | All Maps | STV","players":null},{"server_id":302,"name":"Uncletopia | Montr√©al | 3 | All Maps","name_short":"mtl-3","host":"mtl-1.ca.uncletopia.com","port":27035,"enabled":true,"region":"us-east","cc":"ca","latitude":45.50889,"longitude":-73.56167,"reserved":0,"last_update":"0001-01-01T00:00:00Z","name_a2s":"Uncletopia | Montr√©al | 3 | All Maps","protocol":17,"map":"pl_borneo","folder":"tf","game":"Team Fortress","app_id":440,"player_count":0,"max_players":24,"Bots":0,"server_type":"Dedicated","server_os":"Linux","password":true,"vac":true,"version":"7757534","steam_id":85568392924500089,"keywords":["nocrits","nodmgspread","payload","uncletopia"],"game_id":440,"stv_port":27036,"stv_name":"Uncletopia | Montr√©al | 3 | All Maps | STV","players":null},{"server_id":303,"name":"Uncletopia | Montr√©al | 4 | No Payload","name_short":"mtl-4","host":"mtl-1.ca.uncletopia.com","port":27045,"enabled":true,"region":"us-east","cc":"ca","latitude":45.50889,"longitude":-73.56167,"reserved":0,"last_update":"0001-01-01T00:00:00Z","name_a2s":"Uncletopia | Montr√©al | 4 | No Payload","protocol":17,"map":"koth_sawmill","folder":"tf","game":"Team Fortress","app_id":440,"player_count":0,"max_players":24,"Bots":0,"server_type":"Dedicated","server_os":"Linux","password":true,"vac":true,"version":"7757534","steam_id":85568392924500090,"keywords":["cp","nocrits","nodmgspread","uncletopia"],"game_id":440,"stv_port":27046,"stv_name":"Uncletopia | Montr√©al | 4 | No Payload | STV","players":null},{"server_id":13,"name":"Uncletopia | New York City | 1 | All Maps","name_short":"nyc-1","host":"nyc-1.us.uncletopia.com","port":27015,"enabled":true,"region":"us-east","cc":"us","latitude":40.73061,"longitude":-73.93524,"reserved":0,"last_update":"0001-01-01T00:00:00Z","name_a2s":"Uncletopia | New York City | 1 | All Maps","protocol":17,"map":"koth_harvest_final","folder":"tf","game":"Team Fortress","app_id":440,"player_count":20,"max_players":24,"Bots":0,"server_type":"Dedicated","server_os":"Linux","password":true,"vac":true,"version":"7757534","steam_id":85568392924469993,"keywords":["cp","nocrits","nodmgspread","uncletopia"],"game_id":440,"stv_port":27016,"stv_name":"Uncletopia | New York City | 1 | All Maps | STV","players":[{"user_id":721,"name":"ChebJeb","steam_id":76561198981377081,"connected_time":1790000000000,"state":"active","ping":57},{"user_id":743,"name":"rive","steam_id":76561198216487540,"connected_time":20000000000,"state":"active","ping":111},{"user_id":732,"name":"Jonny4Balls","steam_id":76561198979333994,"connected_time":1160000000000,"state":"spawning","ping":98},{"user_id":737,"name":"PeopleLikeStuff","steam_id":76561198053416567,"connected_time":451000000000,"state":"active","ping":231},{"user_id":720,"name":"LazyKoala99","steam_id":76561199183623672,"connected_time":1821000000000,"state":"active","ping":49},{"user_id":719,"name":"gghfgfgfg","steam_id":76561198064823861,"connected_time":1848000000000,"state":"active","ping":51},{"user_id":680,"name":"g00bur","steam_id":76561197993622520,"connected_time":4409000000000,"state":"active","ping":54},{"user_id":722,"name":"TinySuperion","steam_id":76561198917460128,"connected_time":1781000000000,"state":"active","ping":50},{"user_id":714,"name":"gibby garglenuts","steam_id":76561198970800897,"connected_time":2184000000000,"state":"active","ping":83},{"user_id":741,"name":"Huevo Frito","steam_id":76561198896811394,"connected_time":62000000000,"state":"active","ping":32},{"user_id":742,"name":"Spy that laughs at 2Fort sink","steam_id":76561199016285746,"connected_time":45000000000,"state":"active","ping":91},{"user_id":733,"name":"Pig","steam_id":76561198276179693,"connected_time":793000000000,"state":"active","ping":66},{"user_id":710,"name":"aether","steam_id":76561198178293861,"connected_time":2779000000000,"state":"active","ping":72},{"user_id":740,"name":"Roni1213","steam_id":76561198408533295,"connected_time":210000000000,"state":"active","ping":117},{"user_id":715,"name":"MILF Gaming","steam_id":76561198155378170,"connected_time":1929000000000,"state":"active","ping":34},{"user_id":729,"name":"Kurt Biscuitmaker","steam_id":76561198331701823,"connected_time":1456000000000,"state":"active","ping":57},{"user_id":738,"name":"Bubz","steam_id":76561199013499631,"connected_time":354000000000,"state":"active","ping":76},{"user_id":735,"name":"Saristan","steam_id":76561198093346048,"connected_time":688000000000,"state":"active","ping":37},{"user_id":717,"name":"jimbo","steam_id":76561198046059770,"connected_time":1854000000000,"state":"active","ping":46},{"user_id":739,"name":"you forgot the sauce","steam_id":76561198387016713,"connected_time":247000000000,"state":"active","ping":60}]},{"server_id":14,"name":"Uncletopia | New York City | 2 | All Maps","name_short":"nyc-2","host":"nyc-1.us.uncletopia.com","port":27025,"enabled":true,"region":"us-east","cc":"us","latitude":40.73061,"longitude":-73.93524,"reserved":0,"last_update":"0001-01-01T00:00:00Z","name_a2s":"Uncletopia | New York City | 2 | All Maps","protocol":17,"map":"cp_steel","folder":"tf","game":"Team Fortress","app_id":440,"player_count":24,"max_players":24,"Bots":0,"server_type":"Dedicated","server_os":"Linux","password":true,"vac":true,"version":"7757534","steam_id":85568392924469994,"keywords":["cp","nocrits","nodmgspread","uncletopia"],"game_id":440,"stv_port":27026,"stv_name":"Uncletopia | New York City | 2 | All Maps | STV","players":[{"user_id":467,"name":"Naugs¬≤","steam_id":76561198014273132,"connected_time":700000000000,"state":"active","ping":59},{"user_id":441,"name":"chroma","steam_id":76561198050188632,"connected_time":3427000000000,"state":"active","ping":48},{"user_id":447,"name":"Propaniac Gaming ‚òë","steam_id":76561198133963270,"connected_time":2548000000000,"state":"active","ping":60},{"user_id":471,"name":"snipe_fuck2003","steam_id":76561198015445848,"connected_time":146000000000,"state":"active","ping":78},{"user_id":475,"name":"1 Great Wooden Dad","steam_id":76561198377126974,"connected_time":121000000000,"state":"active","ping":87},{"user_id":474,"name":"nixcamic - W+M1 Engie","steam_id":76561198021230723,"connected_time":125000000000,"state":"active","ping":137},{"user_id":482,"name":"Geloman","steam_id":76561198005501322,"connected_time":40000000000,"state":"active","ping":59},{"user_id":483,"name":"Dehydrated lft","steam_id":76561198970587989,"connected_time":29000000000,"state":"active","ping":152},{"user_id":469,"name":"Epiknezz","steam_id":76561198040397776,"connected_time":158000000000,"state":"active","ping":113},{"user_id":472,"name":"yomo","steam_id":76561198063175935,"connected_time":138000000000,"state":"active","ping":71},{"user_id":434,"name":"Fazer","steam_id":76561197979461186,"connected_time":4042000000000,"state":"active","ping":116},{"user_id":437,"name":"monkey squirts","steam_id":76561197983101644,"connected_time":3689000000000,"state":"active","ping":112},{"user_id":473,"name":"demoknight tf2","steam_id":76561198070393998,"connected_time":137000000000,"state":"active","ping":76},{"user_id":454,"name":"f1sk","steam_id":76561197971551305,"connected_time":2416000000000,"state":"active","ping":137},{"user_id":476,"name":"Malex","steam_id":76561198012216805,"connected_time":119000000000,"state":"active","ping":71},{"user_id":477,"name":"neet","steam_id":76561197968115168,"connected_time":100000000000,"state":"active","ping":45},{"user_id":478,"name":"Clubs","steam_id":76561198059235131,"connected_time":100000000000,"state":"active","ping":73},{"user_id":480,"name":"Little Green Man, Clayton","steam_id":76561198038945235,"connected_time":86000000000,"state":"active","ping":82},{"user_id":466,"name":"Redninka","steam_id":76561198426721366,"connected_time":739000000000,"state":"active","ping":65},{"user_id":460,"name":"Forge","steam_id":76561198042751067,"connected_time":2191000000000,"state":"active","ping":55},{"user_id":440,"name":"Big Sauce","steam_id":76561198046654750,"connected_time":3488000000000,"state":"active","ping":54},{"user_id":464,"name":"John Darksoul","steam_id":76561198999712284,"connected_time":1092000000000,"state":"active","ping":86},{"user_id":445,"name":"PISSF****T","steam_id":76561199062570438,"connected_time":2657000000000,"state":"active","ping":64},{"user_id":484,"name":"BlueDevi1","steam_id":76561199373746545,"connected_time":19000000000,"state":"spawning","ping":94}]},{"server_id":15,"name":"Uncletopia | New York City | 3 | Stopwatch Beta","name_short":"nyc-3","host":"nyc-1.us.uncletopia.com","port":27035,"enabled":true,"region":"us-east","cc":"us","latitude":40.73061,"longitude":-73.93524,"reserved":0,"last_update":"0001-01-01T00:00:00Z","name_a2s":"Uncletopia | New York City | 3 | Stopwatch Beta","protocol":17,"map":"pl_upward","folder":"tf","game":"Team Fortress","app_id":440,"player_count":0,"max_players":24,"Bots":0,"server_type":"Dedicated","server_os":"Linux","password":true,"vac":true,"version":"7757534","steam_id":85568392924742820,"keywords":["nocrits","nodmgspread","payload","uncletopia"],"game_id":440,"stv_port":27036,"stv_name":"Uncletopia | New York City | 3 | Stopwatch Beta | STV","players":null},{"server_id":16,"name":"Uncletopia | New York City | 4 | Community","name_short":"nyc-4","host":"nyc-1.us.uncletopia.com","port":27045,"enabled":true,"region":"us-east","cc":"us","latitude":40.73061,"longitude":-73.93524,"reserved":0,"last_update":"0001-01-01T00:00:00Z","name_a2s":"Uncletopia | New York City | 4 | Community","protocol":17,"map":"workshop/rd_asteroid_redux_b1.ugc2154902912","folder":"tf","game":"Team Fortress","app_id":440,"player_count":0,"max_players":24,"Bots":0,"server_type":"Dedicated","server_os":"Linux","password":true,"vac":true,"version":"7757534","steam_id":85568392924742821,"keywords":["beta","nocrits","nodmgspread","rd","uncletopia"],"game_id":440,"stv_port":27046,"stv_name":"Uncletopia | New York City | 4 | Community | STV","players":null},{"server_id":142,"name":"Uncletopia | S√£o Paulo | 1 | All Maps","name_short":"sao-1","host":"sao-1.br.uncletopia.com","port":27015,"enabled":true,"region":"sa","cc":"br","latitude":-23.533773,"longitude":-46.62529,"reserved":0,"last_update":"0001-01-01T00:00:00Z","name_a2s":"Uncletopia | S√£o Paulo | 1 | All Maps","protocol":17,"map":"koth_highpass","folder":"tf","game":"Team Fortress","app_id":440,"player_count":0,"max_players":24,"Bots":0,"server_type":"Dedicated","server_os":"Linux","password":true,"vac":true,"version":"7757534","steam_id":85568392924469996,"keywords":["cp","nocrits","nodmgspread","uncletopia"],"game_id":440,"stv_port":27016,"stv_name":"Uncletopia | S√£o Paulo | 1 | All Maps | STV","players":null},{"server_id":143,"name":"Uncletopia | S√£o Paulo | 2 | All Maps","name_short":"sao-2","host":"sao-2.br.uncletopia.com","port":27015,"enabled":true,"region":"sa","cc":"br","latitude":-23.533773,"longitude":-46.62529,"reserved":0,"last_update":"0001-01-01T00:00:00Z","name_a2s":"Uncletopia | S√£o Paulo | 2 | All Maps","protocol":17,"map":"pl_barnblitz","folder":"tf","game":"Team Fortress","app_id":440,"player_count":0,"max_players":24,"Bots":0,"server_type":"Dedicated","server_os":"Linux","password":true,"vac":true,"version":"7757534","steam_id":85568392924485349,"keywords":["nocrits","nodmgspread","payload","uncletopia"],"game_id":440,"stv_port":27016,"stv_name":"Uncletopia | S√£o Paulo | 2 | All Maps | STV","players":null},{"server_id":7,"name":"Uncletopia | Seattle | 1 | All Maps","name_short":"sea-1","host":"sea-1.us.uncletopia.com","port":27015,"enabled":true,"region":"us-west","cc":"us","latitude":47.608013,"longitude":-122.33517,"reserved":0,"last_update":"0001-01-01T00:00:00Z","name_a2s":"Uncletopia | Seattle | 1 | All Maps","protocol":17,"map":"pl_upward","folder":"tf","game":"Team Fortress","app_id":440,"player_count":24,"max_players":24,"Bots":0,"server_type":"Dedicated","server_os":"Linux","password":true,"vac":true,"version":"7757534","steam_id":85568392924469997,"keywords":["nocrits","nodmgspread","payload","uncletopia"],"game_id":440,"stv_port":27016,"stv_name":"Uncletopia | Seattle | 1 | All Maps | STV","players":[{"user_id":515,"name":"beam dreamer","steam_id":76561198131166135,"connected_time":2385000000000,"state":"active","ping":32},{"user_id":495,"name":"corbenis","steam_id":76561199012442511,"connected_time":3663000000000,"state":"active","ping":90},{"user_id":387,"name":"Level 99 Mudcrab","steam_id":76561198077452771,"connected_time":10893000000000,"state":"active","ping":55},{"user_id":516,"name":"weed","steam_id":76561198115242460,"connected_time":2347000000000,"state":"active","ping":58},{"user_id":487,"name":"Moth","steam_id":76561198170253694,"connected_time":3874000000000,"state":"active","ping":68},{"user_id":509,"name":"Xida","steam_id":76561198273471095,"connected_time":2603000000000,"state":"active","ping":46},{"user_id":510,"name":"Combustionaut","steam_id":76561198164877813,"connected_time":2572000000000,"state":"active","ping":55},{"user_id":526,"name":"Amadeus","steam_id":76561198160047173,"connected_time":1102000000000,"state":"active","ping":34},{"user_id":534,"name":"mac_cheese","steam_id":76561198071334162,"connected_time":245000000000,"state":"active","ping":87},{"user_id":511,"name":"Tibetan Pop Star","steam_id":76561198844903984,"connected_time":2569000000000,"state":"active","ping":92},{"user_id":505,"name":"amoeber","steam_id":76561198081564767,"connected_time":2836000000000,"state":"active","ping":59},{"user_id":519,"name":"Mr. bob (Real)","steam_id":76561198854485605,"connected_time":1852000000000,"state":"active","ping":118},{"user_id":523,"name":"Agent86","steam_id":76561198046794593,"connected_time":1393000000000,"state":"active","ping":123},{"user_id":527,"name":"sleepy","steam_id":76561198288663776,"connected_time":1045000000000,"state":"active","ping":55},{"user_id":497,"name":"Honeybunch","steam_id":76561198014850580,"connected_time":3600000000000,"state":"active","ping":44},{"user_id":535,"name":"potato pat","steam_id":76561198025489194,"connected_time":77000000000,"state":"active","ping":104},{"user_id":528,"name":"Sheppy","steam_id":76561198295126940,"connected_time":1034000000000,"state":"active","ping":112},{"user_id":532,"name":"That Guy","steam_id":76561198851266251,"connected_time":339000000000,"state":"active","ping":51},{"user_id":508,"name":"dust | she/it","steam_id":76561198045218909,"connected_time":2615000000000,"state":"active","ping":42},{"user_id":490,"name":"LILIUM","steam_id":76561198086591493,"connected_time":3836000000000,"state":"active","ping":86},{"user_id":520,"name":"Thanks Ants","steam_id":76561197966221018,"connected_time":1810000000000,"state":"active","ping":55},{"user_id":491,"name":"Nen","steam_id":76561198893347370,"connected_time":3805000000000,"state":"active","ping":81},{"user_id":492,"name":"SomeGuyWhoLikesPotatoes","steam_id":76561198110276797,"connected_time":3798000000000,"state":"active","ping":46},{"user_id":531,"name":"Flickerr","steam_id":76561198080190967,"connected_time":463000000000,"state":"active","ping":60}]},{"server_id":119,"name":"Uncletopia | Seattle | 2 | All Maps","name_short":"sea-2","host":"sea-1.us.uncletopia.com","port":27025,"enabled":true,"region":"us-west","cc":"us","latitude":47.608013,"longitude":-122.33517,"reserved":0,"last_update":"0001-01-01T00:00:00Z","name_a2s":"Uncletopia | Seattle | 2 | All Maps","protocol":17,"map":"pl_frontier_final","folder":"tf","game":"Team Fortress","app_id":440,"player_count":24,"max_players":24,"Bots":0,"server_type":"Dedicated","server_os":"Linux","password":true,"vac":true,"version":"7757534","steam_id":85568392924469998,"keywords":["nocrits","nodmgspread","payload","uncletopia"],"game_id":440,"stv_port":27026,"stv_name":"Uncletopia | Seattle | 2 | All Maps | STV","players":[{"user_id":426,"name":"North","steam_id":76561199173696836,"connected_time":257000000000,"state":"active","ping":70},{"user_id":423,"name":"Duncle Frazzle","steam_id":76561198145596626,"connected_time":383000000000,"state":"active","ping":82},{"user_id":375,"name":"Gary, 40, soul sucking 9-5","steam_id":76561198073812888,"connected_time":4032000000000,"state":"active","ping":38},{"user_id":421,"name":"Painkiller","steam_id":76561198049787400,"connected_time":494000000000,"state":"active","ping":82},{"user_id":427,"name":"StatesideSnake","steam_id":76561198272957048,"connected_time":177000000000,"state":"active","ping":124},{"user_id":400,"name":"Eraser cat","steam_id":76561199045570463,"connected_time":2040000000000,"state":"active","ping":46},{"user_id":408,"name":"TheMoltenKnight","steam_id":76561198967874421,"connected_time":1349000000000,"state":"active","ping":83},{"user_id":409,"name":"Zomwashroomz","steam_id":76561198131316167,"connected_time":1335000000000,"state":"active","ping":40},{"user_id":418,"name":"player 2 role","steam_id":76561198173860681,"connected_time":1045000000000,"state":"active","ping":89},{"user_id":378,"name":"Adobe Photoshop","steam_id":76561198840524987,"connected_time":3663000000000,"state":"active","ping":112},{"user_id":332,"name":"PiolaCat","steam_id":76561199100535345,"connected_time":8738000000000,"state":"active","ping":119},{"user_id":368,"name":"exephur","steam_id":76561198135763234,"connected_time":4498000000000,"state":"active","ping":71},{"user_id":410,"name":"antoniov00gaming","steam_id":76561198364632073,"connected_time":1325000000000,"state":"active","ping":135},{"user_id":391,"name":"A Duck With Socks","steam_id":76561198018844227,"connected_time":2839000000000,"state":"active","ping":62},{"user_id":428,"name":"Pneumo.","steam_id":76561197987911883,"connected_time":59000000000,"state":"active","ping":72},{"user_id":413,"name":"ulti_fd","steam_id":76561198050926014,"connected_time":1226000000000,"state":"active","ping":120},{"user_id":382,"name":"Keamy","steam_id":76561199471434875,"connected_time":3458000000000,"state":"active","ping":38},{"user_id":422,"name":"Bigpoo","steam_id":76561198425027856,"connected_time":399000000000,"state":"active","ping":66},{"user_id":385,"name":"The dreaded jar","steam_id":76561199087010656,"connected_time":3441000000000,"state":"active","ping":58},{"user_id":386,"name":"Callahan","steam_id":76561197976928457,"connected_time":3435000000000,"state":"active","ping":50},{"user_id":425,"name":"OrangeLuigi (#saveTF2)","steam_id":76561198408581975,"connected_time":333000000000,"state":"active","ping":61},{"user_id":415,"name":"the meat man","steam_id":76561198037921140,"connected_time":1205000000000,"state":"active","ping":62},{"user_id":419,"name":"The Sydney Sleeper Itself","steam_id":76561198180251763,"connected_time":1005000000000,"state":"active","ping":98},{"user_id":294,"name":"mooney","steam_id":76561199110622484,"connected_time":11379000000000,"state":"active","ping":69}]},{"server_id":406,"name":"Uncletopia | Seattle | 3 | Stopwatch Beta","name_short":"sea-3","host":"sea-1.us.uncletopia.com","port":27035,"enabled":true,"region":"us-west","cc":"us","latitude":47.608013,"longitude":-122.33517,"reserved":0,"last_update":"0001-01-01T00:00:00Z","name_a2s":"Uncletopia | Seattle | 3 | Stopwatch Beta","protocol":17,"map":"workshop/koth_ashville_final.ugc2130459942","folder":"tf","game":"Team Fortress","app_id":440,"player_count":0,"max_players":24,"Bots":0,"server_type":"Dedicated","server_os":"Linux","password":true,"vac":true,"version":"7757534","steam_id":85568392924515217,"keywords":["cp","nocrits","nodmgspread","uncletopia"],"game_id":440,"stv_port":27036,"stv_name":"Uncletopia | Seattle | 3 | Stopwatch Beta | STV","players":null},{"server_id":17,"name":"Uncletopia | San Francisco | 1 | All Maps","name_short":"sfo-1","host":"sfo-1.us.uncletopia.com","port":27015,"enabled":true,"region":"us-west","cc":"us","latitude":37.77397,"longitude":-122.4313,"reserved":0,"last_update":"0001-01-01T00:00:00Z","name_a2s":"Uncletopia | San Francisco | 1 | All Maps","protocol":17,"map":"pl_upward","folder":"tf","game":"Team Fortress","app_id":440,"player_count":0,"max_players":24,"Bots":0,"server_type":"Dedicated","server_os":"Linux","password":true,"vac":true,"version":"7757534","steam_id":85568392924469999,"keywords":["nocrits","nodmgspread","payload","uncletopia"],"game_id":440,"stv_port":27016,"stv_name":"Uncletopia | San Francisco | 1 | All Maps | STV","players":null},{"server_id":18,"name":"Uncletopia | San Francisco | 2 | All Maps","name_short":"sfo-2","host":"sfo-1.us.uncletopia.com","port":27025,"enabled":true,"region":"us-west","cc":"us","latitude":37.77397,"longitude":-122.4313,"reserved":0,"last_update":"0001-01-01T00:00:00Z","name_a2s":"Uncletopia | San Francisco | 2 | All Maps","protocol":17,"map":"pl_barnblitz","folder":"tf","game":"Team Fortress","app_id":440,"player_count":24,"max_players":24,"Bots":0,"server_type":"Dedicated","server_os":"Linux","password":true,"vac":true,"version":"7757534","steam_id":85568392924470000,"keywords":["nocrits","nodmgspread","payload","uncletopia"],"game_id":440,"stv_port":27026,"stv_name":"Uncletopia | San Francisco | 2 | All Maps | STV","players":[{"user_id":329,"name":"Lane","steam_id":76561197965828506,"connected_time":1475000000000,"state":"active","ping":90},{"user_id":336,"name":"The Bone Zone","steam_id":76561199110815433,"connected_time":231000000000,"state":"active","ping":82},{"user_id":298,"name":"great1photo","steam_id":76561198085481933,"connected_time":3395000000000,"state":"active","ping":116},{"user_id":317,"name":"[ibb‚Ñ¢]Shadow20X6-ENGI","steam_id":76561198019292755,"connected_time":2420000000000,"state":"active","ping":66},{"user_id":323,"name":"Woodstock","steam_id":76561198041442667,"connected_time":1632000000000,"state":"active","ping":66},{"user_id":307,"name":"Orange Toaster","steam_id":76561198013397599,"connected_time":2829000000000,"state":"active","ping":62},{"user_id":322,"name":"iamoctopii","steam_id":76561198876901076,"connected_time":1671000000000,"state":"active","ping":165},{"user_id":321,"name":"pedrix","steam_id":76561198062792699,"connected_time":1678000000000,"state":"active","ping":36},{"user_id":333,"name":"p9 delight","steam_id":76561197980280272,"connected_time":489000000000,"state":"active","ping":61},{"user_id":161,"name":"ScoutSecoTF2","steam_id":76561198366212156,"connected_time":9937000000000,"state":"active","ping":114},{"user_id":337,"name":"Cam","steam_id":76561198139174433,"connected_time":25000000000,"state":"active","ping":64},{"user_id":312,"name":"Discourse","steam_id":76561198984286678,"connected_time":2550000000000,"state":"active","ping":108},{"user_id":324,"name":"twin","steam_id":76561198055626638,"connected_time":1625000000000,"state":"active","ping":151},{"user_id":332,"name":"nescoceo","steam_id":76561198040801160,"connected_time":501000000000,"state":"active","ping":59},{"user_id":306,"name":"ronald","steam_id":76561197960691622,"connected_time":2902000000000,"state":"active","ping":54},{"user_id":326,"name":"eek","steam_id":76561198332896682,"connected_time":1607000000000,"state":"active","ping":70},{"user_id":334,"name":"Da Heatmaker","steam_id":76561198084307623,"connected_time":468000000000,"state":"active","ping":132},{"user_id":316,"name":"'Oddo","steam_id":76561198090866900,"connected_time":2492000000000,"state":"active","ping":105},{"user_id":305,"name":"Dilbert Garfunkel","steam_id":76561198088318184,"connected_time":2928000000000,"state":"active","ping":66},{"user_id":331,"name":"Ayyyy","steam_id":76561198121729211,"connected_time":600000000000,"state":"active","ping":51},{"user_id":328,"name":"[Bandit]","steam_id":76561197986919852,"connected_time":1588000000000,"state":"active","ping":66},{"user_id":335,"name":"Nanners","steam_id":76561198378587138,"connected_time":434000000000,"state":"active","ping":49},{"user_id":286,"name":"freyja","steam_id":76561198012480197,"connected_time":4131000000000,"state":"active","ping":39},{"user_id":163,"name":"DemoLiberTF2","steam_id":76561198095378689,"connected_time":9819000000000,"state":"active","ping":91}]},{"server_id":19,"name":"Uncletopia | San Francisco | 3 | Stopwatch Beta","name_short":"sfo-3","host":"sfo-1.us.uncletopia.com","port":27035,"enabled":true,"region":"us-west","cc":"us","latitude":37.77397,"longitude":-122.4313,"reserved":0,"last_update":"0001-01-01T00:00:00Z","name_a2s":"Uncletopia | San Francisco | 3 | Stopwatch Beta","protocol":17,"map":"workshop/koth_bagel_rc6.ugc2514036946","folder":"tf","game":"Team Fortress","app_id":440,"player_count":0,"max_players":24,"Bots":0,"server_type":"Dedicated","server_os":"Linux","password":true,"vac":true,"version":"7757534","steam_id":85568392924742824,"keywords":["cp","nocrits","nodmgspread","uncletopia"],"game_id":440,"stv_port":27036,"stv_name":"Uncletopia | San Francisco | 3 | Stopwatch Beta | STV","players":null},{"server_id":20,"name":"Uncletopia | San Francisco | 4 | Community","name_short":"sfo-4","host":"sfo-1.us.uncletopia.com","port":27045,"enabled":true,"region":"us-west","cc":"us","latitude":37.77397,"longitude":-122.4313,"reserved":0,"last_update":"0001-01-01T00:00:00Z","name_a2s":"Uncletopia | San Francisco | 4 | Community","protocol":17,"map":"workshop/cp_bruhstbowl_b5.ugc2878604990","folder":"tf","game":"Team Fortress","app_id":440,"player_count":24,"max_players":24,"Bots":0,"server_type":"Dedicated","server_os":"Linux","password":true,"vac":true,"version":"7757534","steam_id":85568392924742826,"keywords":["cp","nocrits","nodmgspread","uncletopia"],"game_id":440,"stv_port":27046,"stv_name":"Uncletopia | San Francisco | 4 | Community | STV","players":[{"user_id":368,"name":"selling rice","steam_id":76561198063357023,"connected_time":37000000000,"state":"active","ping":45},{"user_id":278,"name":"SolarusD","steam_id":76561198029279861,"connected_time":5929000000000,"state":"active","ping":47},{"user_id":226,"name":"chambersgrp2","steam_id":76561199444495336,"connected_time":8550000000000,"state":"active","ping":75},{"user_id":367,"name":"Lavernius41","steam_id":76561198807274102,"connected_time":81000000000,"state":"active","ping":80},{"user_id":333,"name":"Villchip","steam_id":76561198198599982,"connected_time":2034000000000,"state":"active","ping":66},{"user_id":369,"name":"jj874181","steam_id":76561199455124144,"connected_time":29000000000,"state":"spawning","ping":175},{"user_id":363,"name":"WannaSeeA","steam_id":76561198097701042,"connected_time":129000000000,"state":"active","ping":85},{"user_id":350,"name":"Meepster","steam_id":76561198146305159,"connected_time":799000000000,"state":"active","ping":52},{"user_id":360,"name":"PKTHunderous64","steam_id":76561199071347280,"connected_time":180000000000,"state":"active","ping":120},{"user_id":234,"name":"AtomSQRRL","steam_id":76561199151951364,"connected_time":7789000000000,"state":"active","ping":48},{"user_id":364,"name":"I just did a \"Gaming\"","steam_id":76561198153836761,"connected_time":126000000000,"state":"active","ping":50},{"user_id":346,"name":"Lambchop","steam_id":76561198043900363,"connected_time":1142000000000,"state":"active","ping":57},{"user_id":326,"name":"Garbage Lord","steam_id":76561198022094928,"connected_time":2449000000000,"state":"active","ping":47},{"user_id":366,"name":"Steve Jobs' cousin Hand Jobs","steam_id":76561198282766831,"connected_time":114000000000,"state":"active","ping":106},{"user_id":345,"name":"redredgreengreen","steam_id":76561198035660801,"connected_time":1244000000000,"state":"active","ping":84},{"user_id":347,"name":"red dragon","steam_id":76561199003231134,"connected_time":1112000000000,"state":"active","ping":127},{"user_id":354,"name":"Noob-a-tron","steam_id":76561197970555113,"connected_time":403000000000,"state":"active","ping":58},{"user_id":355,"name":"Chimpanzee","steam_id":76561198850387282,"connected_time":385000000000,"state":"active","ping":106},{"user_id":349,"name":"MF Johno","steam_id":76561199231993886,"connected_time":811000000000,"state":"active","ping":58},{"user_id":370,"name":"Twink covered in slurry","steam_id":76561198156906497,"connected_time":22000000000,"state":"active","ping":199},{"user_id":351,"name":"JOHN WICK","steam_id":76561198091877422,"connected_time":743000000000,"state":"active","ping":89},{"user_id":276,"name":"Sprektomegankai","steam_id":76561197999275711,"connected_time":6133000000000,"state":"active","ping":85},{"user_id":353,"name":"Ghee Buttersnaps","steam_id":76561199225708271,"connected_time":658000000000,"state":"active","ping":85},{"user_id":323,"name":"Phil Collins","steam_id":76561198068868644,"connected_time":2943000000000,"state":"active","ping":62}]},{"server_id":141,"name":"Uncletopia | Sydney | 1 | All Maps","name_short":"syd-1","host":"syd-1.au.uncletopia.com","port":27015,"enabled":true,"region":"au","cc":"au","latitude":-33.865143,"longitude":151.2099,"reserved":0,"last_update":"0001-01-01T00:00:00Z","name_a2s":"Uncletopia | Sydney | 1 | All Maps","protocol":17,"map":"pl_badwater","folder":"tf","game":"Team Fortress","app_id":440,"player_count":24,"max_players":24,"Bots":0,"server_type":"Dedicated","server_os":"Linux","password":true,"vac":true,"version":"7757534","steam_id":85568392924470001,"keywords":["nocrits","nodmgspread","payload","uncletopia"],"game_id":440,"stv_port":27016,"stv_name":"Uncletopia | Sydney | 1 | All Maps | STV","players":[{"user_id":15,"name":"frostproto","steam_id":76561198911697195,"connected_time":4021000000000,"state":"active","ping":93},{"user_id":62,"name":"Van","steam_id":76561198027324852,"connected_time":1147000000000,"state":"active","ping":84},{"user_id":18,"name":"Bob Ross","steam_id":76561198081686896,"connected_time":3103000000000,"state":"active","ping":57},{"user_id":75,"name":"BLORZINGUS","steam_id":76561198063481761,"connected_time":263000000000,"state":"active","ping":45},{"user_id":20,"name":"beans","steam_id":76561198202908888,"connected_time":2952000000000,"state":"active","ping":62},{"user_id":76,"name":"bison","steam_id":76561198183851230,"connected_time":24000000000,"state":"active","ping":58},{"user_id":22,"name":"calculusfish","steam_id":76561198067205959,"connected_time":2838000000000,"state":"active","ping":67},{"user_id":69,"name":"Shimmel","steam_id":76561198343050242,"connected_time":633000000000,"state":"active","ping":65},{"user_id":26,"name":"DKC","steam_id":76561198313578155,"connected_time":2599000000000,"state":"active","ping":31},{"user_id":74,"name":"Dragonite","steam_id":76561199185507683,"connected_time":288000000000,"state":"active","ping":40},{"user_id":61,"name":"SUSHIMAN","steam_id":76561199089989428,"connected_time":1172000000000,"state":"active","ping":92},{"user_id":72,"name":"Tasman","steam_id":76561198041224384,"connected_time":422000000000,"state":"active","ping":38},{"user_id":47,"name":"ljpaters","steam_id":76561198094354484,"connected_time":1750000000000,"state":"active","ping":60},{"user_id":70,"name":"Zort","steam_id":76561198056414289,"connected_time":582000000000,"state":"active","ping":65},{"user_id":32,"name":"Mud","steam_id":76561198025524712,"connected_time":2150000000000,"state":"active","ping":47},{"user_id":33,"name":"lavanderpumpernickle","steam_id":76561199093611800,"connected_time":2103000000000,"state":"active","ping":62},{"user_id":36,"name":"Balsamic Vinegar","steam_id":76561198260148888,"connected_time":2026000000000,"state":"active","ping":52},{"user_id":49,"name":"james16","steam_id":76561198362678073,"connected_time":1723000000000,"state":"active","ping":31},{"user_id":68,"name":"Beehive","steam_id":76561199436707447,"connected_time":833000000000,"state":"active","ping":50},{"user_id":39,"name":"kenjikenjikenji","steam_id":76561198120942479,"connected_time":1999000000000,"state":"active","ping":59},{"user_id":64,"name":"Jamescool8123","steam_id":76561199182497642,"connected_time":1031000000000,"state":"active","ping":57},{"user_id":45,"name":"Mr Inconsistent","steam_id":76561198189663681,"connected_time":1948000000000,"state":"active","ping":60},{"user_id":67,"name":"Corn O' Cob","steam_id":76561198066033339,"connected_time":863000000000,"state":"active","ping":51},{"user_id":59,"name":"Xelly","steam_id":76561198093250305,"connected_time":1379000000000,"state":"active","ping":75}]},{"server_id":123,"name":"Uncletopia | Sydney | 2 | All Maps","name_short":"syd-2","host":"syd-1.au.uncletopia.com","port":27025,"enabled":true,"region":"au","cc":"au","latitude":-33.865143,"longitude":151.2099,"reserved":0,"last_update":"0001-01-01T00:00:00Z","name_a2s":"Uncletopia | Sydney | 2 | All Maps","protocol":17,"map":"koth_viaduct","folder":"tf","game":"Team Fortress","app_id":440,"player_count":0,"max_players":24,"Bots":0,"server_type":"Dedicated","server_os":"Linux","password":true,"vac":true,"version":"7757534","steam_id":85568392924470002,"keywords":["cp","nocrits","nodmgspread","uncletopia"],"game_id":440,"stv_port":27026,"stv_name":"Uncletopia | Sydney | 2 | All Maps | STV","players":null},{"server_id":395,"name":"Uncletopia | Sydney | 3 | All Maps","name_short":"syd-3","host":"syd-1.au.uncletopia.com","port":27035,"enabled":true,"region":"au","cc":"au","latitude":-33.865143,"longitude":151.2099,"reserved":0,"last_update":"0001-01-01T00:00:00Z","name_a2s":"Uncletopia | Sydney | 3 | All Maps","protocol":17,"map":"pl_borneo","folder":"tf","game":"Team Fortress","app_id":440,"player_count":0,"max_players":24,"Bots":0,"server_type":"Dedicated","server_os":"Linux","password":true,"vac":true,"version":"7757534","steam_id":85568392925194467,"keywords":["nocrits","nodmgspread","payload","uncletopia"],"game_id":440,"stv_port":27036,"stv_name":"Uncletopia | Sydney | 3 | All Maps | STV","players":null},{"server_id":396,"name":"Uncletopia | Sydney | 4 | All Maps","name_short":"syd-4","host":"syd-1.au.uncletopia.com","port":27045,"enabled":true,"region":"au","cc":"au","latitude":-33.865143,"longitude":151.2099,"reserved":0,"last_update":"0001-01-01T00:00:00Z","name_a2s":"Uncletopia | Sydney | 4 | All Maps","protocol":17,"map":"cp_process_final","folder":"tf","game":"Team Fortress","app_id":440,"player_count":0,"max_players":24,"Bots":0,"server_type":"Dedicated","server_os":"Linux","password":true,"vac":true,"version":"7757534","steam_id":85568392925397958,"keywords":["cp","nocrits","nodmgspread","uncletopia"],"game_id":440,"stv_port":27046,"stv_name":"Uncletopia | Sydney | 4 | All Maps | STV","players":null},{"server_id":58,"name":"Uncletopia | Sydney | 5 | Stopwatch Beta","name_short":"syd-5","host":"syd-1.au.uncletopia.com","port":27055,"enabled":true,"region":"au","cc":"au","latitude":-33.865143,"longitude":151.2099,"reserved":0,"last_update":"0001-01-01T00:00:00Z","name_a2s":"Uncletopia | Sydney | 5 | Stopwatch Beta","protocol":17,"map":"cp_sunshine","folder":"tf","game":"Team Fortress","app_id":440,"player_count":0,"max_players":24,"Bots":0,"server_type":"Dedicated","server_os":"Linux","password":true,"vac":true,"version":"7757534","steam_id":85568392925397959,"keywords":["cp","nocrits","nodmgspread","uncletopia"],"game_id":440,"stv_port":27056,"stv_name":"Uncletopia | Sydney | 5 | Stopwatch Beta | STV","players":null},{"server_id":59,"name":"Uncletopia | Sydney | 6 | Community","name_short":"syd-6","host":"syd-1.au.uncletopia.com","port":27065,"enabled":true,"region":"au","cc":"au","latitude":-33.865143,"longitude":151.2099,"reserved":0,"last_update":"0001-01-01T00:00:00Z","name_a2s":"Uncletopia | Sydney | 6 | Community","protocol":17,"map":"workshop/pl_divulgence_b4b.ugc2884808746","folder":"tf","game":"Team Fortress","app_id":440,"player_count":0,"max_players":24,"Bots":0,"server_type":"Dedicated","server_os":"Linux","password":true,"vac":true,"version":"7757534","steam_id":85568392925397960,"keywords":["nocrits","nodmgspread","payload","uncletopia"],"game_id":440,"stv_port":27066,"stv_name":"Uncletopia | Sydney | 6 | Community | STV","players":null},{"server_id":49,"name":"Uncletopia | Warsaw | 1 | All Maps","name_short":"waw-1","host":"waw-1.pl.uncletopia.com","port":27015,"enabled":true,"region":"eu","cc":"pl","latitude":52.2297,"longitude":21.017532,"reserved":0,"last_update":"0001-01-01T00:00:00Z","name_a2s":"","protocol":0,"map":"","folder":"","game":"","app_id":0,"player_count":0,"max_players":0,"Bots":0,"server_type":"","server_os":"","password":false,"vac":false,"version":"","steam_id":0,"keywords":null,"game_id":0,"stv_port":0,"stv_name":"","players":null},{"server_id":50,"name":"Uncletopia | Warsaw | 2 | All Maps","name_short":"waw-2","host":"waw-1.pl.uncletopia.com","port":27025,"enabled":true,"region":"eu","cc":"pl","latitude":52.2297,"longitude":21.017532,"reserved":0,"last_update":"0001-01-01T00:00:00Z","name_a2s":"Uncletopia | Warsaw | 2 | All Maps","protocol":17,"map":"cp_mountainlab","folder":"tf","game":"Team Fortress","app_id":440,"player_count":0,"max_players":24,"Bots":0,"server_type":"Dedicated","server_os":"Linux","password":true,"vac":true,"version":"7757534","steam_id":85568392925397851,"keywords":["cp","nocrits","nodmgspread","uncletopia"],"game_id":440,"stv_port":27026,"stv_name":"Uncletopia | Warsaw | 2 | All Maps | STV","players":null},{"server_id":51,"name":"Uncletopia | Warsaw | 3 | All Maps","name_short":"waw-3","host":"waw-1.pl.uncletopia.com","port":27035,"enabled":true,"region":"eu","cc":"pl","latitude":52.2297,"longitude":21.017532,"reserved":0,"last_update":"0001-01-01T00:00:00Z","name_a2s":"Uncletopia | Warsaw | 3 | All Maps","protocol":17,"map":"pl_swiftwater_final1","folder":"tf","game":"Team Fortress","app_id":440,"player_count":0,"max_players":24,"Bots":0,"server_type":"Dedicated","server_os":"Linux","password":true,"vac":true,"version":"7757534","steam_id":85568392925397852,"keywords":["nocrits","nodmgspread","payload","uncletopia"],"game_id":440,"stv_port":27036,"stv_name":"Uncletopia | Warsaw | 3 | All Maps | STV","players":null},{"server_id":52,"name":"Uncletopia | Warsaw | 4 | All Maps","name_short":"waw-4","host":"waw-1.pl.uncletopia.com","port":27045,"enabled":true,"region":"eu","cc":"pl","latitude":52.2297,"longitude":21.017532,"reserved":0,"last_update":"0001-01-01T00:00:00Z","name_a2s":"Uncletopia | Warsaw | 4 | All Maps","protocol":17,"map":"pl_pier","folder":"tf","game":"Team Fortress","app_id":440,"player_count":0,"max_players":24,"Bots":0,"server_type":"Dedicated","server_os":"Linux","password":true,"vac":true,"version":"7757534","steam_id":85568392925397853,"keywords":["nocrits","nodmgspread","payload","uncletopia"],"game_id":440,"stv_port":27046,"stv_name":"Uncletopia | Warsaw | 4 | All Maps | STV","players":null},{"server_id":53,"name":"Uncletopia | Warsaw | 5 | Stopwatch Beta","name_short":"waw-5","host":"waw-1.pl.uncletopia.com","port":27055,"enabled":true,"region":"eu","cc":"pl","latitude":52.2297,"longitude":21.017532,"reserved":0,"last_update":"0001-01-01T00:00:00Z","name_a2s":"Uncletopia | Warsaw | 5 | Stopwatch Beta","protocol":17,"map":"workshop/koth_bagel_rc6.ugc2514036946","folder":"tf","game":"Team Fortress","app_id":440,"player_count":0,"max_players":24,"Bots":0,"server_type":"Dedicated","server_os":"Linux","password":true,"vac":true,"version":"7757534","steam_id":85568392925397854,"keywords":["cp","nocrits","nodmgspread","uncletopia"],"game_id":440,"stv_port":27056,"stv_name":"Uncletopia | Warsaw | 5 | Stopwatch Beta | STV","players":null},{"server_id":54,"name":"Uncletopia | Warsaw | 6 | Community","name_short":"waw-6","host":"waw-1.pl.uncletopia.com","port":27065,"enabled":true,"region":"eu","cc":"pl","latitude":52.2297,"longitude":21.017532,"reserved":0,"last_update":"0001-01-01T00:00:00Z","name_a2s":"Uncletopia | Warsaw | 6 | Community","protocol":17,"map":"workshop/pl_divulgence_b4b.ugc2884808746","folder":"tf","game":"Team Fortress","app_id":440,"player_count":0,"max_players":24,"Bots":0,"server_type":"Dedicated","server_os":"Linux","password":true,"vac":true,"version":"7757534","steam_id":85568392925397856,"keywords":["nocrits","nodmgspread","payload","uncletopia"],"game_id":440,"stv_port":27066,"stv_name":"Uncletopia | Warsaw | 6 | Community | STV","players":null}]}