{"status":true,"message":"","result":[{"server_id":9,"name":"Uncletopia | Atlanta | 1 | All Maps","name_short":"atl-1","host":"atl-1.us.uncletopia.com","port":27015,"enabled":true,"region":"us-east","cc":"us","latitude":33.753746,"longitude":-84.38633,"reserved":0,"last_update":"0001-01-01T00:00:00Z","name_a2s":"Uncletopia | Atlanta | 1 | All Maps","protocol":17,"map":"cp_dustbowl","folder":"tf","game":"Team Fortress","app_id":440,"player_count":24,"max_players":24,"Bots":0,"server_type":"Dedicated","server_os":"Linux","password":true,"vac":true,"version":"7961495","steam_id":85568392924469982,"keywords":["cp","nocrits","nodmgspread","uncletopia"],"game_id":440,"stv_port":27016,"stv_name":"Uncletopia | Atlanta | 1 | All Maps | STV","players":null},{"server_id":104,"name":"Uncletopia | Atlanta | 2 | All Maps","name_short":"atl-2","host":"atl-1.us.uncletopia.com","port":27025,"enabled":true,"region":"us-east","cc":"us","latitude":33.753746,"longitude":-84.38633,"reserved":0,"last_update":"0001-01-01T00:00:00Z","name_a2s":"Uncletopia | Atlanta | 2 | All Maps","protocol":17,"map":"pl_snowycoast","folder":"tf","game":"Team Fortress","app_id":440,"player_count":19,"max_players":24,"Bots":0,"server_type":"Dedicated","server_os":"Linux","password":true,"vac":true,"version":"7961495","steam_id":85568392924469983,"keywords":["nocrits","nodmgspread","payload","uncletopia"],"game_id":440,"stv_port":27026,"stv_name":"Uncletopia | Atlanta | 2 | All Maps | STV","players":null},{"server_id":400,"name":"Uncletopia | Atlanta | 3 | Stopwatch","name_short":"atl-3","host":"atl-1.us.uncletopia.com","port":27035,"enabled":true,"region":"us-east","cc":"us","latitude":33.753746,"longitude":-84.38633,"reserved":0,"last_update":"0001-01-01T00:00:00Z","name_a2s":"Uncletopia | Atlanta | 3 | Stopwatch","protocol":17,"map":"koth_clearcut_b15","folder":"tf","game":"Team Fortress","app_id":440,"player_count":0,"max_players":24,"Bots":0,"server_type":"Dedicated","server_os":"Linux","password":true,"vac":true,"version":"7961495","steam_id":85568392924515187,"keywords":["cp","nocrits","nodmgspread","uncletopia"],"game_id":440,"stv_port":27036,"stv_name":"Uncletopia | Atlanta | 3 | Stopwatch | STV","players":null},{"server_id":401,"name":"Uncletopia | Atlanta | 4 | Community","name_short":"atl-4","host":"atl-1.us.uncletopia.com","port":27045,"enabled":true,"region":"us-east","cc":"us","latitude":33.753746,"longitude":-84.38633,"reserved":0,"last_update":"0001-01-01T00:00:00Z","name_a2s":"Uncletopia | Atlanta | 4 | Community","protocol":17,"map":"cp_glacier_rc6","folder":"tf","game":"Team Fortress","app_id":440,"player_count":0,"max_players":24,"Bots":0,"server_type":"Dedicated","server_os":"Linux","password":true,"vac":true,"version":"7961495","steam_id":85568392924515188,"keywords":["cp","nocrits","nodmgspread","uncletopia"],"game_id":440,"stv_port":27046,"stv_name":"Uncletopia | Atlanta | 4 | Community | STV","players":null},{"server_id":2,"name":"Uncletopia | Chicago | 1 | All Maps","name_short":"chi-1","host":"chi-1.us.uncletopia.com","port":27015,"enabled":true,"region":"us-central","cc":"us","latitude":41.881832,"longitude":-87.62318,"reserved":0,"last_update":"0001-01-01T00:00:00Z","name_a2s":"Uncletopia | Chicago | 1 | All Maps","protocol":17,"map":"pl_barnblitz","folder":"tf","game":"Team Fortress","app_id":440,"player_count":24,"max_players":24,"Bots":0,"server_type":"Dedicated","server_os":"Linux","password":true,"vac":true,"version":"7961495","steam_id":85568392924469984,"keywords":["nocrits","nodmgspread","payload","uncletopia"],"game_id":440,"stv_port":27016,"stv_name":"Uncletopia | Chicago | 1 | All Maps | STV","players":[{"user_id":343,"name":"Wan Shi Tong","steam_id":76561198076441225,"connected_time":161000000000,"state":"active","ping":64},{"user_id":344,"name":"Hardcore Anal Destruction","steam_id":76561198282276932,"connected_time":152000000000,"state":"active","ping":63},{"user_id":336,"name":"NeonBean","steam_id":76561198088335827,"connected_time":657000000000,"state":"active","ping":88},{"user_id":341,"name":"genius of love","steam_id":76561198282764599,"connected_time":317000000000,"state":"active","ping":55},{"user_id":335,"name":"ReDiculous22","steam_id":76561198038391383,"connected_time":915000000000,"state":"active","ping":60},{"user_id":287,"name":"Hydroxianchaos","steam_id":76561198043786828,"connected_time":4424000000000,"state":"active","ping":85},{"user_id":282,"name":"CORGI.EXE","steam_id":76561198077093432,"connected_time":4636000000000,"state":"active","ping":65},{"user_id":345,"name":"BuncusBeffer","steam_id":76561198285936616,"connected_time":139000000000,"state":"active","ping":106},{"user_id":333,"name":"honch :3","steam_id":76561198832647822,"connected_time":1126000000000,"state":"active","ping":73},{"user_id":305,"name":"Wolf Hat","steam_id":76561198099996051,"connected_time":3686000000000,"state":"active","ping":67},{"user_id":214,"name":"King Crust of Crustmus","steam_id":76561198160930421,"connected_time":10878000000000,"state":"active","ping":92},{"user_id":292,"name":"Method Mon Mothma","steam_id":76561197976110189,"connected_time":4076000000000,"state":"active","ping":64},{"user_id":311,"name":"Dick Grimes","steam_id":76561198157414556,"connected_time":3514000000000,"state":"active","ping":88},{"user_id":342,"name":"Trigger 2.0","steam_id":76561198257570683,"connected_time":317000000000,"state":"active","ping":113},{"user_id":330,"name":"Dean Fricks Them Beans","steam_id":76561198244269142,"connected_time":1504000000000,"state":"active","ping":86},{"user_id":334,"name":"Praise_to_the_Flashlight!","steam_id":76561199001728789,"connected_time":946000000000,"state":"active","ping":52},{"user_id":307,"name":"Pain Elemental","steam_id":76561198433044023,"connected_time":3646000000000,"state":"active","ping":54},{"user_id":338,"name":"Deni Jems","steam_id":76561198147707286,"connected_time":637000000000,"state":"active","ping":71},{"user_id":347,"name":"Raccoon Wizard","steam_id":76561198072562591,"connected_time":106000000000,"state":"active","ping":109},{"user_id":314,"name":"leaving lunar orbit","steam_id":76561199085974120,"connected_time":3224000000000,"state":"active","ping":79},{"user_id":291,"name":"PocketTieAMPLFY","steam_id":76561199080485881,"connected_time":4149000000000,"state":"active","ping":113},{"user_id":328,"name":"eat Pant","steam_id":76561197974965536,"connected_time":1671000000000,"state":"active","ping":65},{"user_id":337,"name":"fish scout ‚óè","steam_id":76561198999217575,"connected_time":656000000000,"state":"active","ping":70},{"user_id":331,"name":"moongoose","steam_id":76561198045089347,"connected_time":1484000000000,"state":"active","ping":59}]},{"server_id":106,"name":"Uncletopia | Chicago | 2 | All Maps","name_short":"chi-2","host":"chi-1.us.uncletopia.com","port":27025,"enabled":true,"region":"us-central","cc":"us","latitude":41.881832,"longitude":-87.62318,"reserved":0,"last_update":"0001-01-01T00:00:00Z","name_a2s":"Uncletopia | Chicago | 2 | All Maps","protocol":17,"map":"pl_pier","folder":"tf","game":"Team Fortress","app_id":440,"player_count":24,"max_players":24,"Bots":0,"server_type":"Dedicated","server_os":"Linux","password":true,"vac":true,"version":"7961495","steam_id":85568392924469985,"keywords":["nocrits","nodmgspread","payload","uncletopia"],"game_id":440,"stv_port":27026,"stv_name":"Uncletopia | Chicago | 2 | All Maps | STV","players":[{"user_id":661,"name":"Omegaman","steam_id":76561198034579579,"connected_time":530000000000,"state":"active","ping":89},{"user_id":647,"name":"Satori Komeiji","steam_id":76561198158211423,"connected_time":1951000000000,"state":"active","ping":106},{"user_id":630,"name":"goth witch appreciator","steam_id":76561198069605283,"connected_time":2207000000000,"state":"active","ping":93},{"user_id":652,"name":"City City The City City","steam_id":76561198046942778,"connected_time":1047000000000,"state":"active","ping":396},{"user_id":649,"name":"Daperlin (The Lion King)","steam_id":76561198091299113,"connected_time":1711000000000,"state":"active","ping":86},{"user_id":596,"name":"JxyGREED","steam_id":76561198345026653,"connected_time":5155000000000,"state":"active","ping":69},{"user_id":574,"name":"Six Piece Chicken McNobody","steam_id":76561198129848222,"connected_time":5986000000000,"state":"active","ping":67},{"user_id":660,"name":"dash","steam_id":76561198043889548,"connected_time":607000000000,"state":"active","ping":100},{"user_id":631,"name":"Soggy Zogg","steam_id":76561198836316052,"connected_time":2204000000000,"state":"active","ping":108},{"user_id":632,"name":"Spy Main","steam_id":76561198154715380,"connected_time":2201000000000,"state":"active","ping":111},{"user_id":662,"name":"GruntRule","steam_id":76561198039987143,"connected_time":515000000000,"state":"active","ping":81},{"user_id":655,"name":"Goat","steam_id":76561198068447650,"connected_time":937000000000,"state":"active","ping":63},{"user_id":656,"name":"RainboomCrash","steam_id":76561198065612273,"connected_time":900000000000,"state":"active","ping":101},{"user_id":648,"name":"Facehurt","steam_id":76561198028504034,"connected_time":1936000000000,"state":"active","ping":101},{"user_id":663,"name":"loser","steam_id":76561198259380127,"connected_time":501000000000,"state":"active","ping":59},{"user_id":614,"name":"Draco","steam_id":76561198031226933,"connected_time":3468000000000,"state":"active","ping":149},{"user_id":658,"name":"Mustapha Lemieux","steam_id":76561198151666102,"connected_time":857000000000,"state":"active","ping":94},{"user_id":621,"name":"AnnieM","steam_id":76561199435467297,"connected_time":3126000000000,"state":"active","ping":82},{"user_id":659,"name":"SpiderString (She/She++)","steam_id":76561198092409181,"connected_time":856000000000,"state":"active","ping":129},{"user_id":616,"name":"Vix The Vulpix","steam_id":76561198292181452,"connected_time":3448000000000,"state":"active","ping":68},{"user_id":622,"name":"Truffleoil","steam_id":76561198114689041,"connected_time":2653000000000,"state":"active","ping":74},{"user_id":640,"name":"frank","steam_id":76561198137777483,"connected_time":2122000000000,"state":"active","ping":72},{"user_id":664,"name":"BeefStewLover13","steam_id":76561198076207585,"connected_time":382000000000,"state":"active","ping":93},{"user_id":624,"name":"shnowshner","steam_id":76561198066450438,"connected_time":2491000000000,"state":"active","ping":83}]},{"server_id":402,"name":"Uncletopia | Chicago | 3 | All Maps","name_short":"chi-3","host":"chi-1.us.uncletopia.com","port":27035,"enabled":true,"region":"us-central","cc":"us","latitude":41.881832,"longitude":-87.62318,"reserved":0,"last_update":"0001-01-01T00:00:00Z","name_a2s":"Uncletopia | Chicago | 3 | All Maps","protocol":17,"map":"cp_mountainlab","folder":"tf","game":"Team Fortress","app_id":440,"player_count":21,"max_players":24,"Bots":0,"server_type":"Dedicated","server_os":"Linux","password":true,"vac":true,"version":"7961495","steam_id":85568392924515191,"keywords":["cp","nocrits","nodmgspread","uncletopia"],"game_id":440,"stv_port":27036,"stv_name":"Uncletopia | Chicago | 3 | All Maps | STV","players":[{"user_id":914,"name":"stinker","steam_id":76561198295640486,"connected_time":17000000000,"state":"spawning","ping":100},{"user_id":902,"name":"Salixiola","steam_id":76561198042177809,"connected_time":1281000000000,"state":"active","ping":64},{"user_id":884,"name":"Marrome","steam_id":76561198860680189,"connected_time":2025000000000,"state":"active","ping":100},{"user_id":883,"name":"Team Fartpiss Poo","steam_id":76561199163591880,"connected_time":2074000000000,"state":"active","ping":87},{"user_id":758,"name":"NukaTheRabbit {Fur}","steam_id":76561198058692928,"connected_time":11493000000000,"state":"active","ping":46},{"user_id":853,"name":"chesterwnimitz","steam_id":76561198062664377,"connected_time":4724000000000,"state":"active","ping":88},{"user_id":872,"name":"xXx_Eg0_d3aTh_419_xXx (ironic)","steam_id":76561198077551754,"connected_time":3353000000000,"state":"active","ping":76},{"user_id":814,"name":"PyroEagle","steam_id":76561198296434231,"connected_time":8396000000000,"state":"active","ping":69},{"user_id":794,"name":"A Puppy","steam_id":76561198828184456,"connected_time":8836000000000,"state":"active","ping":60},{"user_id":836,"name":"NvAka","steam_id":76561199044781490,"connected_time":6467000000000,"state":"active","ping":60},{"user_id":903,"name":"Rango","steam_id":76561198104086771,"connected_time":1063000000000,"state":"active","ping":104},{"user_id":901,"name":"Doggie Wannabe","steam_id":76561198009261645,"connected_time":1428000000000,"state":"active","ping":105},{"user_id":908,"name":"H2OBourne","steam_id":76561198396293109,"connected_time":450000000000,"state":"active","ping":89},{"user_id":913,"name":"slime","steam_id":76561198986041100,"connected_time":36000000000,"state":"active","ping":67},{"user_id":889,"name":"[‚ù§] A Red Folfo","steam_id":76561198291724249,"connected_time":1903000000000,"state":"active","ping":97},{"user_id":890,"name":"[‚ù§] Pringles¬© yedo","steam_id":76561198864544549,"connected_time":1846000000000,"state":"active","ping":116},{"user_id":909,"name":"ChErrY","steam_id":76561198045614766,"connected_time":380000000000,"state":"active","ping":105},{"user_id":894,"name":"[‚ù§] Musky Foxy","steam_id":76561198283723338,"connected_time":1748000000000,"state":"active","ping":96},{"user_id":899,"name":"Domo","steam_id":76561198006738859,"connected_time":1564000000000,"state":"active","ping":72},{"user_id":900,"name":"mn","steam_id":76561198042357436,"connected_time":1495000000000,"state":"active","ping":76},{"user_id":870,"name":"The Wave","steam_id":76561198268225109,"connected_time":3791000000000,"state":"active","ping":99}]},{"server_id":403,"name":"Uncletopia | Chicago | 4 | All Maps","name_short":"chi-4","host":"chi-1.us.uncletopia.com","port":27045,"enabled":true,"region":"us-central","cc":"us","latitude":41.881832,"longitude":-87.62318,"reserved":0,"last_update":"0001-01-01T00:00:00Z","name_a2s":"Uncletopia | Chicago | 4 | All Maps","protocol":17,"map":"pl_snowycoast","folder":"tf","game":"Team Fortress","app_id":440,"player_count":24,"max_players":24,"Bots":0,"server_type":"Dedicated","server_os":"Linux","password":true,"vac":true,"version":"7961495","steam_id":85568392924515193,"keywords":["nocrits","nodmgspread","payload","uncletopia"],"game_id":440,"stv_port":27046,"stv_name":"Uncletopia | Chicago | 4 | All Maps | STV","players":[{"user_id":589,"name":"Nipperman","steam_id":76561198001767499,"connected_time":1335000000000,"state":"active","ping":41},{"user_id":582,"name":"TeCon","steam_id":76561198049127236,"connected_time":2253000000000,"state":"active","ping":105},{"user_id":566,"name":"mersaults","steam_id":76561198079927127,"connected_time":3098000000000,"state":"active","ping":39},{"user_id":597,"name":"Mr RocknRoll","steam_id":76561198067495035,"connected_time":440000000000,"state":"active","ping":46},{"user_id":506,"name":"r1bbit","steam_id":76561198149212502,"connected_time":8019000000000,"state":"active","ping":69},{"user_id":585,"name":"e doctor","steam_id":76561198081851446,"connected_time":1398000000000,"state":"active","ping":45},{"user_id":587,"name":"R3S0LVE_","steam_id":76561198389201130,"connected_time":1368000000000,"state":"active","ping":112},{"user_id":574,"name":"Induce Salt","steam_id":76561198116645978,"connected_time":2971000000000,"state":"active","ping":53},{"user_id":580,"name":"Thunder","steam_id":76561198097721532,"connected_time":2507000000000,"state":"active","ping":104},{"user_id":548,"name":"oof aim small brain","steam_id":76561198079925551,"connected_time":4791000000000,"state":"active","ping":61},{"user_id":522,"name":"Menstruation Hater 35","steam_id":76561199060544031,"connected_time":6736000000000,"state":"active","ping":98},{"user_id":596,"name":"100thfail","steam_id":76561198247749308,"connected_time":1054000000000,"state":"active","ping":97},{"user_id":588,"name":"SmileOneTwoThree","steam_id":76561198045624336,"connected_time":1365000000000,"state":"active","ping":56},{"user_id":591,"name":"theBOOST","steam_id":76561197988466013,"connected_time":1248000000000,"state":"active","ping":57},{"user_id":579,"name":"FilipeLuk","steam_id":76561198150675438,"connected_time":2545000000000,"state":"active","ping":134},{"user_id":571,"name":"Duncan Idaho","steam_id":76561197988963861,"connected_time":3028000000000,"state":"active","ping":73},{"user_id":599,"name":"Tri_Hunter","steam_id":76561198108176706,"connected_time":37000000000,"state":"active","ping":59},{"user_id":563,"name":"vuredel","steam_id":76561197999542711,"connected_time":3444000000000,"state":"active","ping":109},{"user_id":583,"name":"RipHunter77","steam_id":76561198272973014,"connected_time":2009000000000,"state":"active","ping":86},{"user_id":598,"name":"King of Ping","steam_id":76561198278737470,"connected_time":426000000000,"state":"active","ping":71},{"user_id":556,"name":"Zorlovo","steam_id":76561198006443283,"connected_time":4450000000000,"state":"active","ping":80},{"user_id":576,"name":"Danmar33","steam_id":76561198056453091,"connected_time":2759000000000,"state":"active","ping":52},{"user_id":595,"name":"Det | Frost Estep | K-102","steam_id":76561198354626554,"connected_time":1128000000000,"state":"active","ping":90},{"user_id":575,"name":"nomis","steam_id":76561198115367704,"connected_time":2964000000000,"state":"active","ping":74}]},{"server_id":36,"name":"Uncletopia | Chicago | 5 | All Maps","name_short":"chi-5","host":"chi-2.us.uncletopia.com","port":27015,"enabled":true,"region":"us-central","cc":"us","latitude":41.881832,"longitude":-87.62318,"reserved":0,"last_update":"0001-01-01T00:00:00Z","name_a2s":"Uncletopia | Chicago | 5 | All Maps","protocol":17,"map":"cp_snakewater_final1","folder":"tf","game":"Team Fortress","app_id":440,"player_count":0,"max_players":24,"Bots":0,"server_type":"Dedicated","server_os":"Linux","password":true,"vac":true,"version":"7961495","steam_id":85568392924866362,"keywords":["cp","nocrits","nodmgspread","uncletopia"],"game_id":440,"stv_port":27016,"stv_name":"Uncletopia | Chicago | 5 | All Maps | STV","players":null},{"server_id":37,"name":"Uncletopia | Chicago | 6 | All Maps","name_short":"chi-6","host":"chi-2.us.uncletopia.com","port":27025,"enabled":true,"region":"us-central","cc":"us","latitude":41.881832,"longitude":-87.62318,"reserved":0,"last_update":"0001-01-01T00:00:00Z","name_a2s":"Uncletopia | Chicago | 6 | All Maps","protocol":17,"map":"plr_pipeline","folder":"tf","game":"Team Fortress","app_id":440,"player_count":16,"max_players":24,"Bots":0,"server_type":"Dedicated","server_os":"Linux","password":true,"vac":true,"version":"7961495","steam_id":85568392924866363,"keywords":["nocrits","nodmgspread","payload","uncletopia"],"game_id":440,"stv_port":27026,"stv_name":"Uncletopia | Chicago | 6 | All Maps | STV","players":[{"user_id":396,"name":"Mattatatta","steam_id":76561198082107818,"connected_time":473000000000,"state":"active","ping":30},{"user_id":354,"name":"RagingRoosevelt","steam_id":76561197985483153,"connected_time":3598000000000,"state":"active","ping":86},{"user_id":337,"name":"Ask me about my bad aim","steam_id":76561198027487285,"connected_time":4315000000000,"state":"active","ping":90},{"user_id":397,"name":"Sindri","steam_id":76561198018654146,"connected_time":328000000000,"state":"active","ping":73},{"user_id":339,"name":"Medicinal Significant Other","steam_id":76561198239771532,"connected_time":4167000000000,"state":"active","ping":80},{"user_id":376,"name":"√êŒπ—è—Ç—É B…ÑŒ≤bl—î","steam_id":76561198382555244,"connected_time":1929000000000,"state":"active","ping":73},{"user_id":398,"name":"SavageJacky","steam_id":76561198056465430,"connected_time":315000000000,"state":"active","ping":75},{"user_id":399,"name":"miriam","steam_id":76561198069679357,"connected_time":140000000000,"state":"active","ping":62},{"user_id":390,"name":"remanedur","steam_id":76561198059459507,"connected_time":1004000000000,"state":"active","ping":83},{"user_id":391,"name":"Toasterr","steam_id":76561197990169748,"connected_time":990000000000,"state":"active","ping":115},{"user_id":379,"name":"Eric4bz","steam_id":76561198054439606,"connected_time":1785000000000,"state":"active","ping":115},{"user_id":392,"name":"Wren","steam_id":76561198012067451,"connected_time":968000000000,"state":"active","ping":62},{"user_id":393,"name":"Fray","steam_id":76561198030141282,"connected_time":967000000000,"state":"active","ping":83},{"user_id":349,"name":"Major_Pippy","steam_id":76561198004482878,"connected_time":3668000000000,"state":"active","ping":99},{"user_id":368,"name":"Egg","steam_id":76561198028157625,"connected_time":3146000000000,"state":"active","ping":119},{"user_id":387,"name":"bubby626","steam_id":76561198183438069,"connected_time":1358000000000,"state":"active","ping":65}]},{"server_id":38,"name":"Uncletopia | Chicago | 7 | Stopwatch","name_short":"chi-7","host":"chi-2.us.uncletopia.com","port":27035,"enabled":true,"region":"us-central","cc":"us","latitude":41.881832,"longitude":-87.62318,"reserved":0,"last_update":"0001-01-01T00:00:00Z","name_a2s":"Uncletopia | Chicago | 7 | Stopwatch","protocol":17,"map":"workshop/koth_product_final.ugc454272353","folder":"tf","game":"Team Fortress","app_id":440,"player_count":0,"max_players":24,"Bots":0,"server_type":"Dedicated","server_os":"Linux","password":true,"vac":true,"version":"7961495","steam_id":85568392924866364,"keywords":["cp","nocrits","nodmgspread","uncletopia"],"game_id":440,"stv_port":27036,"stv_name":"Uncletopia | Chicago | 7 | Stopwatch | STV","players":null},{"server_id":39,"name":"Uncletopia | Chicago | 8 | Community","name_short":"chi-8","host":"chi-2.us.uncletopia.com","port":27045,"enabled":true,"region":"us-central","cc":"us","latitude":41.881832,"longitude":-87.62318,"reserved":0,"last_update":"0001-01-01T00:00:00Z","name_a2s":"Uncletopia | Chicago | 8 | Community","protocol":17,"map":"workshop/pl_badwater_pro_v12.ugc2142942074","folder":"tf","game":"Team Fortress","app_id":440,"player_count":0,"max_players":24,"Bots":0,"server_type":"Dedicated","server_os":"Linux","password":true,"vac":true,"version":"7961495","steam_id":85568392924866365,"keywords":["nocrits","nodmgspread","payload","uncletopia"],"game_id":440,"stv_port":27046,"stv_name":"Uncletopia | Chicago | 8 | Community | STV","players":null},{"server_id":8,"name":"Uncletopia | Dallas | 1 | All Maps","name_short":"dal-1","host":"dal-1.us.uncletopia.com","port":27015,"enabled":true,"region":"us-central","cc":"us","latitude":32.779167,"longitude":-96.80889,"reserved":0,"last_update":"0001-01-01T00:00:00Z","name_a2s":"Uncletopia | Dallas | 1 | All Maps","protocol":17,"map":"ctf_2fort","folder":"tf","game":"Team Fortress","app_id":440,"player_count":15,"max_players":24,"Bots":0,"server_type":"Dedicated","server_os":"Linux","password":true,"vac":true,"version":"7961495","steam_id":85568392924469986,"keywords":["ctf","nocrits","nodmgspread","uncletopia"],"game_id":440,"stv_port":27016,"stv_name":"Uncletopia | Dallas | 1 | All Maps | STV","players":[{"user_id":635,"name":"Fyish","steam_id":76561198127303751,"connected_time":271000000000,"state":"active","ping":32},{"user_id":624,"name":"IMM0RTAL","steam_id":76561198013747901,"connected_time":1155000000000,"state":"active","ping":61},{"user_id":636,"name":"FormalCheese","steam_id":76561198068636715,"connected_time":271000000000,"state":"active","ping":71},{"user_id":604,"name":"storyboard","steam_id":76561199088496817,"connected_time":2582000000000,"state":"active","ping":59},{"user_id":613,"name":"Wahaha hee","steam_id":76561198098017157,"connected_time":1599000000000,"state":"active","ping":62},{"user_id":610,"name":"shitass (Reaping and Sowing)","steam_id":76561198210572481,"connected_time":1695000000000,"state":"active","ping":60},{"user_id":590,"name":"Greg Boberton 2012","steam_id":76561198983566026,"connected_time":3820000000000,"state":"active","ping":88},{"user_id":637,"name":"ryancozy","steam_id":76561198074536192,"connected_time":271000000000,"state":"active","ping":50},{"user_id":614,"name":"PhattyPhlop","steam_id":76561198153349473,"connected_time":1594000000000,"state":"active","ping":68},{"user_id":619,"name":"banan team fortes","steam_id":76561199073621650,"connected_time":1471000000000,"state":"active","ping":82},{"user_id":615,"name":"Church","steam_id":76561198079862937,"connected_time":1574000000000,"state":"active","ping":63},{"user_id":616,"name":"Dragorf2010","steam_id":76561199238402270,"connected_time":1520000000000,"state":"active","ping":90},{"user_id":633,"name":"Jombi","steam_id":76561198427813097,"connected_time":528000000000,"state":"active","ping":72},{"user_id":621,"name":"Decuplets","steam_id":76561198080661586,"connected_time":1458000000000,"state":"active","ping":111},{"user_id":605,"name":"ThePirateKenway","steam_id":76561198115156181,"connected_time":2571000000000,"state":"active","ping":51}]},{"server_id":108,"name":"Uncletopia | Dallas | 2 | All Maps","name_short":"dal-2","host":"dal-1.us.uncletopia.com","port":27025,"enabled":true,"region":"us-central","cc":"us","latitude":32.779167,"longitude":-96.80889,"reserved":0,"last_update":"0001-01-01T00:00:00Z","name_a2s":"Uncletopia | Dallas | 2 | All Maps","protocol":17,"map":"pl_borneo","folder":"tf","game":"Team Fortress","app_id":440,"player_count":24,"max_players":24,"Bots":0,"server_type":"Dedicated","server_os":"Linux","password":true,"vac":true,"version":"7961495","steam_id":85568392924469988,"keywords":["nocrits","nodmgspread","payload","uncletopia"],"game_id":440,"stv_port":27026,"stv_name":"Uncletopia | Dallas | 2 | All Maps | STV","players":[{"user_id":877,"name":"a singular cactus","steam_id":76561198162041422,"connected_time":2263000000000,"state":"active","ping":64},{"user_id":897,"name":"Rearranging furniture","steam_id":76561199054971009,"connected_time":841000000000,"state":"active","ping":50},{"user_id":899,"name":"Coup de Grass","steam_id":76561198011643226,"connected_time":798000000000,"state":"active","ping":105},{"user_id":900,"name":"apple","steam_id":76561198384320638,"connected_time":765000000000,"state":"active","ping":70},{"user_id":907,"name":"Mr. Bubs","steam_id":76561198125947844,"connected_time":367000000000,"state":"active","ping":90},{"user_id":919,"name":"Pie","steam_id":76561198054721133,"connected_time":4000000000,"state":"spawning","ping":65},{"user_id":902,"name":"Jill","steam_id":76561198097398193,"connected_time":523000000000,"state":"active","ping":81},{"user_id":903,"name":"Thrall","steam_id":76561198116304709,"connected_time":519000000000,"state":"active","ping":91},{"user_id":852,"name":"Wizard02","steam_id":76561198178293623,"connected_time":4361000000000,"state":"active","ping":62},{"user_id":914,"name":"iLordy","steam_id":76561198084357623,"connected_time":140000000000,"state":"active","ping":81},{"user_id":904,"name":"Hans","steam_id":76561198029373733,"connected_time":518000000000,"state":"active","ping":98},{"user_id":905,"name":"CEO of blowing stuff up","steam_id":76561198874140296,"connected_time":516000000000,"state":"active","ping":106},{"user_id":906,"name":"Jag_Samurott","steam_id":76561198262036126,"connected_time":486000000000,"state":"active","ping":76},{"user_id":909,"name":"cool, low-key kinda guy","steam_id":76561198123475433,"connected_time":355000000000,"state":"active","ping":118},{"user_id":915,"name":"CreativeName","steam_id":76561198853344895,"connected_time":133000000000,"state":"active","ping":97},{"user_id":911,"name":"cypherzero","steam_id":76561199182960322,"connected_time":279000000000,"state":"active","ping":48},{"user_id":912,"name":"logos","steam_id":76561198038080028,"connected_time":208000000000,"state":"active","ping":87},{"user_id":913,"name":"IS THAT A RACCOON","steam_id":76561198353456379,"connected_time":207000000000,"state":"active","ping":63},{"user_id":916,"name":"[chef] iron","steam_id":76561197970888616,"connected_time":109000000000,"state":"active","ping":60},{"user_id":917,"name":"wfair","steam_id":76561198202139366,"connected_time":58000000000,"state":"active","ping":72},{"user_id":874,"name":"Father Jon","steam_id":76561198324730919,"connected_time":2402000000000,"state":"active","ping":66},{"user_id":860,"name":"hforce11","steam_id":76561198087647130,"connected_time":3476000000000,"state":"active","ping":91},{"user_id":875,"name":"Trumpetspyman59","steam_id":76561198048989561,"connected_time":2395000000000,"state":"active","ping":73},{"user_id":918,"name":"Koko","steam_id":76561198055961077,"connected_time":56000000000,"state":"active","ping":61}]},{"server_id":404,"name":"Uncletopia | Dallas | 3 | All Maps","name_short":"dal-3","host":"dal-1.us.uncletopia.com","port":27035,"enabled":true,"region":"us-central","cc":"us","latitude":32.779167,"longitude":-96.80889,"reserved":0,"last_update":"0001-01-01T00:00:00Z","name_a2s":"Uncletopia | Dallas | 3 | All Maps","protocol":17,"map":"pl_upward","folder":"tf","game":"Team Fortress","app_id":440,"player_count":15,"max_players":24,"Bots":0,"server_type":"Dedicated","server_os":"Linux","password":true,"vac":true,"version":"7961495","steam_id":85568392924515219,"keywords":["nocrits","nodmgspread","payload","uncletopia"],"game_id":440,"stv_port":27036,"stv_name":"Uncletopia | Dallas | 3 | All Maps | STV","players":[{"user_id":408,"name":"feed lips","steam_id":76561197971152439,"connected_time":854000000000,"state":"active","ping":75},{"user_id":413,"name":"french","steam_id":76561198099308185,"connected_time":59000000000,"state":"active","ping":45},{"user_id":393,"name":"jebs strognest soljer","steam_id":76561198056622157,"connected_time":2996000000000,"state":"active","ping":90},{"user_id":414,"name":"Skip Hop Doo Bop","steam_id":76561199161571849,"connected_time":21000000000,"state":"active","ping":89},{"user_id":392,"name":"slad","steam_id":76561198041938330,"connected_time":3003000000000,"state":"active","ping":78},{"user_id":394,"name":"lil parma","steam_id":76561198035922275,"connected_time":2996000000000,"state":"active","ping":45},{"user_id":378,"name":"Cyndaquil Fan","steam_id":76561198799205521,"connected_time":4090000000000,"state":"active","ping":82},{"user_id":412,"name":"Otis from Back at the Barnyard","steam_id":76561198051059704,"connected_time":661000000000,"state":"active","ping":53},{"user_id":407,"name":"Legendary Gunther","steam_id":76561198441804455,"connected_time":993000000000,"state":"active","ping":117},{"user_id":401,"name":"Honey-Fox","steam_id":76561198133244742,"connected_time":2421000000000,"state":"active","ping":76},{"user_id":396,"name":"StarManMatt","steam_id":76561198125513574,"connected_time":2932000000000,"state":"active","ping":85},{"user_id":411,"name":"BL√òRG","steam_id":76561198036126673,"connected_time":813000000000,"state":"active","ping":78},{"user_id":391,"name":"rAnch","steam_id":76561198024562587,"connected_time":3027000000000,"state":"active","ping":43},{"user_id":397,"name":"Papa Cena","steam_id":76561198257654846,"connected_time":2924000000000,"state":"active","ping":82},{"user_id":406,"name":"Eurobeat too loud, can't hear :","steam_id":76561198330743199,"connected_time":1414000000000,"state":"active","ping":90}]},{"server_id":405,"name":"Uncletopia | Dallas | 4 | Community","name_short":"dal-4","host":"dal-1.us.uncletopia.com","port":27045,"enabled":true,"region":"us-central","cc":"us","latitude":32.779167,"longitude":-96.80889,"reserved":0,"last_update":"0001-01-01T00:00:00Z","name_a2s":"Uncletopia | Dallas | 4 | Community","protocol":17,"map":"workshop/pl_eruption_b9a.ugc2807898013","folder":"tf","game":"Team Fortress","app_id":440,"player_count":15,"max_players":24,"Bots":0,"server_type":"Dedicated","server_os":"Linux","password":true,"vac":true,"version":"7961495","steam_id":85568392924515220,"keywords":["nocrits","nodmgspread","payload","uncletopia"],"game_id":440,"stv_port":27046,"stv_name":"Uncletopia | Dallas | 4 | Community | STV","players":[{"user_id":201,"name":"Garth","steam_id":76561198170173453,"connected_time":5587000000000,"state":"active","ping":76},{"user_id":202,"name":"ThatGuy","steam_id":76561198272470063,"connected_time":5574000000000,"state":"active","ping":42},{"user_id":222,"name":"your little goofy homie","steam_id":76561198967158026,"connected_time":2698000000000,"state":"active","ping":74},{"user_id":204,"name":"Candiedrook69","steam_id":76561199097716911,"connected_time":5539000000000,"state":"active","ping":51},{"user_id":207,"name":"Organization Member #14","steam_id":76561198420495963,"connected_time":5367000000000,"state":"active","ping":73},{"user_id":230,"name":"Wally","steam_id":76561198991050450,"connected_time":940000000000,"state":"active","ping":53},{"user_id":236,"name":"üÖúüÖîüÖîüÖöüÖ¢üÖ£üÖî\ufffd\ufffd\ufffd","steam_id":76561197999748343,"connected_time":223000000000,"state":"active","ping":30},{"user_id":212,"name":"NyanHorses","steam_id":76561198161584966,"connected_time":4890000000000,"state":"active","ping":45},{"user_id":228,"name":"TheSmolPopato","steam_id":76561199076606348,"connected_time":1637000000000,"state":"active","ping":94},{"user_id":229,"name":"John Wick","steam_id":76561199467334502,"connected_time":1266000000000,"state":"active","ping":77},{"user_id":231,"name":"meemoze","steam_id":76561198401945631,"connected_time":880000000000,"state":"active","ping":44},{"user_id":232,"name":"Creative Name Here","steam_id":76561199182551808,"connected_time":873000000000,"state":"active","ping":73},{"user_id":233,"name":"BosnianBones","steam_id":76561198300187313,"connected_time":753000000000,"state":"active","ping":76},{"user_id":234,"name":"Autumn, The Only Good Season","steam_id":76561198103496593,"connected_time":518000000000,"state":"active","ping":60},{"user_id":237,"name":"Bucket Hat Trick","steam_id":76561198381785132,"connected_time":148000000000,"state":"active","ping":63}]},{"server_id":5,"name":"Uncletopia | Frankfurt | 1 | All Maps","name_short":"frk-1","host":"frk-1.de.uncletopia.com","port":27015,"enabled":true,"region":"eu","cc":"de","latitude":50.110924,"longitude":8.682127,"reserved":0,"last_update":"0001-01-01T00:00:00Z","name_a2s":"Uncletopia | Frankfurt | 1 | All Maps","protocol":17,"map":"koth_highpass","folder":"tf","game":"Team Fortress","app_id":440,"player_count":0,"max_players":24,"Bots":0,"server_type":"Dedicated","server_os":"Linux","password":true,"vac":true,"version":"7961495","steam_id":85568392924469989,"keywords":["cp","nocrits","nodmgspread","uncletopia"],"game_id":440,"stv_port":27016,"stv_name":"Uncletopia | Frankfurt | 1 | All Maps | STV","players":null},{"server_id":110,"name":"Uncletopia | Frankfurt | 2 | All Maps","name_short":"frk-2","host":"frk-1.de.uncletopia.com","port":27025,"enabled":true,"region":"eu","cc":"de","latitude":50.110924,"longitude":8.682127,"reserved":0,"last_update":"0001-01-01T00:00:00Z","name_a2s":"Uncletopia | Frankfurt | 2 | All Maps","protocol":17,"map":"cp_dustbowl","folder":"tf","game":"Team Fortress","app_id":440,"player_count":0,"max_players":24,"Bots":0,"server_type":"Dedicated","server_os":"Linux","password":true,"vac":true,"version":"7961495","steam_id":85568392924469990,"keywords":["cp","nocrits","nodmgspread","uncletopia"],"game_id":440,"stv_port":27026,"stv_name":"Uncletopia | Frankfurt | 2 | All Maps | STV","players":null},{"server_id":308,"name":"Uncletopia | Frankfurt | 3 | All Maps","name_short":"frk-3","host":"frk-1.de.uncletopia.com","port":27035,"enabled":true,"region":"eu","cc":"de","latitude":50.110924,"longitude":8.682127,"reserved":0,"last_update":"0001-01-01T00:00:00Z","name_a2s":"Uncletopia | Frankfurt | 3 | All Maps","protocol":17,"map":"pl_barnblitz","folder":"tf","game":"Team Fortress","app_id":440,"player_count":0,"max_players":24,"Bots":0,"server_type":"Dedicated","server_os":"Linux","password":true,"vac":true,"version":"7961495","steam_id":85568392924504274,"keywords":["nocrits","nodmgspread","payload","uncletopia"],"game_id":440,"stv_port":27036,"stv_name":"Uncletopia | Frankfurt | 3 | All Maps | STV","players":null},{"server_id":309,"name":"Uncletopia | Frankfurt | 4 | All Maps","name_short":"frk-4","host":"frk-1.de.uncletopia.com","port":27045,"enabled":true,"region":"eu","cc":"de","latitude":50.110924,"longitude":8.682127,"reserved":0,"last_update":"0001-01-01T00:00:00Z","name_a2s":"Uncletopia | Frankfurt | 4 | All Maps","protocol":17,"map":"koth_highpass","folder":"tf","game":"Team Fortress","app_id":440,"player_count":0,"max_players":24,"Bots":0,"server_type":"Dedicated","server_os":"Linux","password":true,"vac":true,"version":"7961495","steam_id":85568392924504275,"keywords":["cp","nocrits","nodmgspread","uncletopia"],"game_id":440,"stv_port":27046,"stv_name":"Uncletopia | Frankfurt | 4 | All Maps | STV","players":null},{"server_id":310,"name":"Uncletopia | Frankfurt | 5 | All Maps","name_short":"frk-5","host":"frk-1.de.uncletopia.com","port":27055,"enabled":true,"region":"eu","cc":"de","latitude":50.110924,"longitude":8.682127,"reserved":0,"last_update":"0001-01-01T00:00:00Z","name_a2s":"Uncletopia | Frankfurt | 5 | All Maps","protocol":17,"map":"pl_badwater","folder":"tf","game":"Team Fortress","app_id":440,"player_count":0,"max_players":24,"Bots":0,"server_type":"Dedicated","server_os":"Linux","password":true,"vac":true,"version":"7961495","steam_id":85568392924504277,"keywords":["nocrits","nodmgspread","payload","uncletopia"],"game_id":440,"stv_port":27056,"stv_name":"Uncletopia | Frankfurt | 5 | All Maps | STV","players":null},{"server_id":311,"name":"Uncletopia | Frankfurt | 6 | All Maps","name_short":"frk-6","host":"frk-1.de.uncletopia.com","port":27065,"enabled":true,"region":"eu","cc":"de","latitude":50.110924,"longitude":8.682127,"reserved":0,"last_update":"0001-01-01T00:00:00Z","name_a2s":"Uncletopia | Frankfurt | 6 | All Maps","protocol":17,"map":"cp_altitude","folder":"tf","game":"Team Fortress","app_id":440,"player_count":0,"max_players":24,"Bots":0,"server_type":"Dedicated","server_os":"Linux","password":true,"vac":true,"version":"7961495","steam_id":85568392924504278,"keywords":["cp","nocrits","nodmgspread","uncletopia"],"game_id":440,"stv_port":27066,"stv_name":"Uncletopia | Frankfurt | 6 | All Maps | STV","players":null},{"server_id":23,"name":"Uncletopia | Frankfurt | 7 | Stopwatch","name_short":"frk-7","host":"frk-1.de.uncletopia.com","port":27075,"enabled":true,"region":"eu","cc":"de","latitude":50.110924,"longitude":8.682127,"reserved":0,"last_update":"0001-01-01T00:00:00Z","name_a2s":"Uncletopia | Frankfurt | 7 | Stopwatch","protocol":17,"map":"pl_frontier_final","folder":"tf","game":"Team Fortress","app_id":440,"player_count":0,"max_players":24,"Bots":0,"server_type":"Dedicated","server_os":"Linux","password":true,"vac":true,"version":"7961495","steam_id":85568392924742827,"keywords":["nocrits","nodmgspread","payload","uncletopia"],"game_id":440,"stv_port":27076,"stv_name":"Uncletopia | Frankfurt | 7 | Stopwatch | STV","players":null},{"server_id":24,"name":"Uncletopia | Frankfurt | 8 | Community","name_short":"frk-8","host":"frk-1.de.uncletopia.com","port":27085,"enabled":true,"region":"eu","cc":"de","latitude":50.110924,"longitude":8.682127,"reserved":0,"last_update":"0001-01-01T00:00:00Z","name_a2s":"Uncletopia | Frankfurt | 8 | Community","protocol":17,"map":"cp_mountainlab","folder":"tf","game":"Team Fortress","app_id":440,"player_count":0,"max_players":24,"Bots":0,"server_type":"Dedicated","server_os":"Linux","password":true,"vac":true,"version":"7961495","steam_id":85568392924742828,"keywords":["cp","nocrits","nodmgspread","uncletopia"],"game_id":440,"stv_port":27086,"stv_name":"Uncletopia | Frankfurt | 8 | Community | STV","players":null},{"server_id":202,"name":"Uncletopia | Hong Kong | 1 | All Maps","name_short":"hgk-1","host":"hgk-1.hk.uncletopia.com","port":27015,"enabled":true,"region":"asia","cc":"hk","latitude":22.302711,"longitude":114.177216,"reserved":0,"last_update":"0001-01-01T00:00:00Z","name_a2s":"Uncletopia | Hong Kong | 1 | All Maps","protocol":17,"map":"pl_upward","folder":"tf","game":"Team Fortress","app_id":440,"player_count":0,"max_players":24,"Bots":0,"server_type":"Dedicated","server_os":"Linux","password":true,"vac":true,"version":"7961495","steam_id":85568392924494504,"keywords":["nocrits","nodmgspread","payload","uncletopia"],"game_id":440,"stv_port":27016,"stv_name":"Uncletopia | Hong Kong | 1 | All Maps | STV","players":null},{"server_id":1,"name":"Uncletopia | Los Angeles | 1 | All Maps","name_short":"lax-1","host":"lax-1.us.uncletopia.com","port":27015,"enabled":true,"region":"us-west","cc":"us","latitude":33.94279,"longitude":-118.41004,"reserved":0,"last_update":"0001-01-01T00:00:00Z","name_a2s":"Uncletopia | Los Angeles | 1 | All Maps","protocol":17,"map":"pl_upward","folder":"tf","game":"Team Fortress","app_id":440,"player_count":24,"max_players":24,"Bots":0,"server_type":"Dedicated","server_os":"Linux","password":true,"vac":true,"version":"7961495","steam_id":85568392924469991,"keywords":["nocrits","nodmgspread","payload","uncletopia"],"game_id":440,"stv_port":27016,"stv_name":"Uncletopia | Los Angeles | 1 | All Maps | STV","players":[{"user_id":471,"name":"\u003c3yaoi-boy-princess\u003c3","steam_id":76561197997343746,"connected_time":3790000000000,"state":"active","ping":58},{"user_id":490,"name":"thug shaker mind control","steam_id":76561198984612489,"connected_time":2120000000000,"state":"active","ping":47},{"user_id":421,"name":"Triasm","steam_id":76561198057707549,"connected_time":7414000000000,"state":"active","ping":62},{"user_id":506,"name":"just end me now.","steam_id":76561198238664158,"connected_time":441000000000,"state":"active","ping":110},{"user_id":472,"name":"Yoyos","steam_id":76561198061035695,"connected_time":3505000000000,"state":"active","ping":47},{"user_id":491,"name":"NotAWeeb","steam_id":76561198165530739,"connected_time":2111000000000,"state":"active","ping":48},{"user_id":479,"name":"jambalaya ex.2 :D","steam_id":76561199024115600,"connected_time":3297000000000,"state":"active","ping":45},{"user_id":473,"name":"knatspray","steam_id":76561198832507482,"connected_time":3429000000000,"state":"active","ping":80},{"user_id":454,"name":"KyePerson","steam_id":76561198145597212,"connected_time":5185000000000,"state":"active","ping":61},{"user_id":495,"name":"Silverman_Cam","steam_id":76561198936168937,"connected_time":1560000000000,"state":"active","ping":60},{"user_id":504,"name":"gaspipe","steam_id":76561198046107745,"connected_time":482000000000,"state":"active","ping":79},{"user_id":453,"name":"Amogous Supreme","steam_id":76561198025476774,"connected_time":5291000000000,"state":"active","ping":67},{"user_id":469,"name":"ChozoChorizo","steam_id":76561198272609196,"connected_time":4048000000000,"state":"active","ping":87},{"user_id":494,"name":"mild","steam_id":76561198082470182,"connected_time":2086000000000,"state":"active","ping":74},{"user_id":500,"name":"xbox record that","steam_id":76561198150117455,"connected_time":1272000000000,"state":"active","ping":57},{"user_id":335,"name":"Jimmy","steam_id":76561198857959855,"connected_time":14802000000000,"state":"active","ping":48},{"user_id":468,"name":"FROYO b4nny","steam_id":76561197970669109,"connected_time":4265000000000,"state":"active","ping":45},{"user_id":481,"name":"EduardoLopez2005","steam_id":76561198188481309,"connected_time":3001000000000,"state":"active","ping":57},{"user_id":501,"name":"plantation","steam_id":76561199496059845,"connected_time":1272000000000,"state":"active","ping":115},{"user_id":441,"name":"muck","steam_id":76561198120437909,"connected_time":6652000000000,"state":"active","ping":69},{"user_id":483,"name":"Fostrel","steam_id":76561198152160601,"connected_time":2738000000000,"state":"active","ping":86},{"user_id":478,"name":"nyakky","steam_id":76561198927779787,"connected_time":3366000000000,"state":"active","ping":149},{"user_id":492,"name":"guts' theme (Cut \u0026 Looped)","steam_id":76561198012829728,"connected_time":2111000000000,"state":"active","ping":97},{"user_id":489,"name":"Lock'd","steam_id":76561198170108230,"connected_time":2122000000000,"state":"active","ping":44}]},{"server_id":112,"name":"Uncletopia | Los Angeles | 2 | All Maps","name_short":"lax-2","host":"lax-1.us.uncletopia.com","port":27025,"enabled":true,"region":"us-west","cc":"us","latitude":33.94279,"longitude":-118.41004,"reserved":0,"last_update":"0001-01-01T00:00:00Z","name_a2s":"Uncletopia | Los Angeles | 2 | All Maps","protocol":17,"map":"pl_badwater","folder":"tf","game":"Team Fortress","app_id":440,"player_count":24,"max_players":24,"Bots":0,"server_type":"Dedicated","server_os":"Linux","password":true,"vac":true,"version":"7961495","steam_id":85568392924469992,"keywords":["nocrits","nodmgspread","payload","uncletopia"],"game_id":440,"stv_port":27026,"stv_name":"Uncletopia | Los Angeles | 2 | All Maps | STV","players":[{"user_id":218,"name":"ItsMePugs","steam_id":76561198132964086,"connected_time":48000000000,"state":"active","ping":67},{"user_id":210,"name":"kwetzal","steam_id":76561198845749671,"connected_time":969000000000,"state":"active","ping":67},{"user_id":202,"name":"kreeper700","steam_id":76561199495556056,"connected_time":1133000000000,"state":"active","ping":57},{"user_id":172,"name":"Ralph Kramden (Slim Charles)","steam_id":76561197981687895,"connected_time":3249000000000,"state":"active","ping":57},{"user_id":179,"name":"coolbro55","steam_id":76561198137489572,"connected_time":2789000000000,"state":"active","ping":62},{"user_id":205,"name":"OtanoJenkins","steam_id":76561198045696853,"connected_time":1018000000000,"state":"active","ping":61},{"user_id":204,"name":"DaWayOfRockets","steam_id":76561199228437541,"connected_time":1052000000000,"state":"active","ping":178},{"user_id":207,"name":"CaiGaming","steam_id":76561198313023508,"connected_time":995000000000,"state":"active","ping":70},{"user_id":199,"name":"Your Favorite Fearless Hero","steam_id":76561199127590316,"connected_time":1764000000000,"state":"active","ping":64},{"user_id":220,"name":"TheTroller1Billion","steam_id":76561198328017774,"connected_time":36000000000,"state":"active","ping":71},{"user_id":209,"name":"1000 Ping","steam_id":76561198098330939,"connected_time":977000000000,"state":"active","ping":67},{"user_id":171,"name":"Mocha Josie","steam_id":76561198066452726,"connected_time":3595000000000,"state":"active","ping":55},{"user_id":211,"name":"sheep man shaun","steam_id":76561198994349483,"connected_time":949000000000,"state":"active","ping":53},{"user_id":214,"name":"Yung Settings","steam_id":76561198233126064,"connected_time":895000000000,"state":"active","ping":114},{"user_id":212,"name":"begin the rumbling","steam_id":76561198377868275,"connected_time":934000000000,"state":"active","ping":102},{"user_id":167,"name":"flo rida","steam_id":76561198226169704,"connected_time":4607000000000,"state":"active","ping":54},{"user_id":213,"name":"Lycan","steam_id":76561198151499868,"connected_time":920000000000,"state":"active","ping":54},{"user_id":162,"name":"HooDoo","steam_id":76561198088994018,"connected_time":4752000000000,"state":"active","ping":78},{"user_id":215,"name":"Flaming Water","steam_id":76561198147210534,"connected_time":789000000000,"state":"active","ping":106},{"user_id":193,"name":"Monte","steam_id":76561198173275715,"connected_time":2481000000000,"state":"active","ping":65},{"user_id":157,"name":"mentos14","steam_id":76561198097993629,"connected_time":5304000000000,"state":"active","ping":57},{"user_id":196,"name":"Mapachito Lindo","steam_id":76561198031359995,"connected_time":2297000000000,"state":"active","ping":68},{"user_id":216,"name":"selling rice","steam_id":76561198063357023,"connected_time":775000000000,"state":"active","ping":49},{"user_id":219,"name":"dewey","steam_id":76561198132791511,"connected_time":47000000000,"state":"spawning","ping":42}]},{"server_id":324,"name":"Uncletopia | Los Angeles | 3 | All Maps","name_short":"lax-3","host":"lax-1.us.uncletopia.com","port":27035,"enabled":true,"region":"us-west","cc":"us","latitude":33.94279,"longitude":-118.41004,"reserved":0,"last_update":"0001-01-01T00:00:00Z","name_a2s":"Uncletopia | Los Angeles | 3 | All Maps","protocol":17,"map":"pl_upward","folder":"tf","game":"Team Fortress","app_id":440,"player_count":24,"max_players":24,"Bots":0,"server_type":"Dedicated","server_os":"Linux","password":true,"vac":true,"version":"7961495","steam_id":85568392924510198,"keywords":["nocrits","nodmgspread","payload","uncletopia"],"game_id":440,"stv_port":27036,"stv_name":"Uncletopia | Los Angeles | 3 | All Maps | STV","players":[{"user_id":20,"name":"The_Skull","steam_id":76561198121244647,"connected_time":5114000000000,"state":"active","ping":96},{"user_id":68,"name":"Toddinator","steam_id":76561198303329028,"connected_time":2605000000000,"state":"active","ping":114},{"user_id":13,"name":"Immortal8Reaper","steam_id":76561198297661559,"connected_time":5819000000000,"state":"active","ping":135},{"user_id":96,"name":"Ashanti Clan","steam_id":76561198032651105,"connected_time":316000000000,"state":"active","ping":84},{"user_id":24,"name":"They could be ********","steam_id":76561198441020995,"connected_time":4627000000000,"state":"active","ping":47},{"user_id":88,"name":"Eggregis-Thumbs","steam_id":76561198310566277,"connected_time":984000000000,"state":"active","ping":116},{"user_id":73,"name":"man fish fish man","steam_id":76561198879600285,"connected_time":1965000000000,"state":"active","ping":64},{"user_id":94,"name":"Rodrick Knee","steam_id":76561198283021062,"connected_time":505000000000,"state":"active","ping":125},{"user_id":90,"name":"BIG POPT","steam_id":76561198047692532,"connected_time":948000000000,"state":"active","ping":50},{"user_id":26,"name":"JavaScript Frappuccino","steam_id":76561198111620153,"connected_time":4588000000000,"state":"active","ping":73},{"user_id":69,"name":"burnese cat :3","steam_id":76561198065662025,"connected_time":2598000000000,"state":"active","ping":58},{"user_id":91,"name":"trackpad gaming | f2p","steam_id":76561198840414371,"connected_time":928000000000,"state":"active","ping":79},{"user_id":70,"name":"DarkMewMew","steam_id":76561199471715552,"connected_time":2579000000000,"state":"active","ping":73},{"user_id":75,"name":"Serene Salamander","steam_id":76561198001094770,"connected_time":1941000000000,"state":"active","ping":68},{"user_id":76,"name":"Sunami","steam_id":76561198026941076,"connected_time":1939000000000,"state":"active","ping":61},{"user_id":77,"name":"SleepyCanary","steam_id":76561198071770434,"connected_time":1935000000000,"state":"active","ping":80},{"user_id":92,"name":"EdxTheFig","steam_id":76561198108650109,"connected_time":694000000000,"state":"active","ping":45},{"user_id":93,"name":"Cheesecake","steam_id":76561197978508626,"connected_time":668000000000,"state":"active","ping":76},{"user_id":87,"name":"Texas","steam_id":76561198053276976,"connected_time":1230000000000,"state":"active","ping":63},{"user_id":99,"name":"Livin' Like Larry","steam_id":76561198313360974,"connected_time":111000000000,"state":"active","ping":45},{"user_id":61,"name":"elephant thumb","steam_id":76561198118859752,"connected_time":2834000000000,"state":"active","ping":46},{"user_id":80,"name":"lol","steam_id":76561198026491738,"connected_time":1908000000000,"state":"active","ping":61},{"user_id":97,"name":"CALsHero09","steam_id":76561198155881095,"connected_time":287000000000,"state":"active","ping":113},{"user_id":84,"name":"Kenneth Lamington","steam_id":76561198188825674,"connected_time":1737000000000,"state":"active","ping":100}]},{"server_id":25,"name":"Uncletopia | Los Angeles | 4 | Stopwatch","name_short":"lax-4","host":"lax-1.us.uncletopia.com","port":27045,"enabled":true,"region":"us-west","cc":"us","latitude":33.94279,"longitude":-118.41004,"reserved":0,"last_update":"0001-01-01T00:00:00Z","name_a2s":"Uncletopia | Los Angeles | 4 | Stopwatch","protocol":17,"map":"workshop/cp_reckoner_rc6.ugc674719999","folder":"tf","game":"Team Fortress","app_id":440,"player_count":0,"max_players":24,"Bots":0,"server_type":"Dedicated","server_os":"Linux","password":true,"vac":true,"version":"7961495","steam_id":85568392924510199,"keywords":["cp","nocrits","nodmgspread","uncletopia"],"game_id":440,"stv_port":27046,"stv_name":"Uncletopia | Los Angeles | 4 | Stopwatch | STV","players":null},{"server_id":11,"name":"Uncletopia | London | 1 | All Maps","name_short":"lon-1","host":"lon-1.uk.uncletopia.com","port":27015,"enabled":true,"region":"eu","cc":"gb","latitude":51.509865,"longitude":-0.118092,"reserved":0,"last_update":"0001-01-01T00:00:00Z","name_a2s":"Uncletopia | London | 1 | All Maps","protocol":17,"map":"koth_highpass","folder":"tf","game":"Team Fortress","app_id":440,"player_count":0,"max_players":24,"Bots":0,"server_type":"Dedicated","server_os":"Linux","password":true,"vac":true,"version":"7961495","steam_id":85568392924367362,"keywords":["cp","nocrits","nodmgspread","uncletopia"],"game_id":440,"stv_port":27016,"stv_name":"Uncletopia | London | 1 | All Maps | STV","players":null},{"server_id":114,"name":"Uncletopia | London | 2 | All Maps","name_short":"lon-2","host":"lon-1.uk.uncletopia.com","port":27025,"enabled":true,"region":"eu","cc":"gb","latitude":51.509865,"longitude":-0.118092,"reserved":0,"last_update":"0001-01-01T00:00:00Z","name_a2s":"Uncletopia | London | 2 | All Maps","protocol":17,"map":"koth_lakeside_final","folder":"tf","game":"Team Fortress","app_id":440,"player_count":0,"max_players":24,"Bots":0,"server_type":"Dedicated","server_os":"Linux","password":true,"vac":true,"version":"7961495","steam_id":85568392924470941,"keywords":["cp","nocrits","nodmgspread","uncletopia"],"game_id":440,"stv_port":27026,"stv_name":"Uncletopia | London | 2 | All Maps | STV","players":null},{"server_id":320,"name":"Uncletopia | London | 3 | All Maps","name_short":"lon-3","host":"lon-1.uk.uncletopia.com","port":27035,"enabled":true,"region":"eu","cc":"gb","latitude":51.509865,"longitude":-0.118092,"reserved":0,"last_update":"0001-01-01T00:00:00Z","name_a2s":"Uncletopia | London | 3 | All Maps","protocol":17,"map":"cp_process_final","folder":"tf","game":"Team Fortress","app_id":440,"player_count":0,"max_players":24,"Bots":0,"server_type":"Dedicated","server_os":"Linux","password":true,"vac":true,"version":"7961495","steam_id":85568392924510192,"keywords":["cp","nocrits","nodmgspread","uncletopia"],"game_id":440,"stv_port":27036,"stv_name":"Uncletopia | London | 3 | All Maps | STV","players":null},{"server_id":321,"name":"Uncletopia | London | 4 | All Maps","name_short":"lon-4","host":"lon-1.uk.uncletopia.com","port":27045,"enabled":true,"region":"eu","cc":"gb","latitude":51.509865,"longitude":-0.118092,"reserved":0,"last_update":"0001-01-01T00:00:00Z","name_a2s":"Uncletopia | London | 4 | All Maps","protocol":17,"map":"koth_cascade","folder":"tf","game":"Team Fortress","app_id":440,"player_count":0,"max_players":24,"Bots":0,"server_type":"Dedicated","server_os":"Linux","password":true,"vac":true,"version":"7961495","steam_id":85568392924510193,"keywords":["cp","nocrits","nodmgspread","uncletopia"],"game_id":440,"stv_port":27046,"stv_name":"Uncletopia | London | 4 | All Maps | STV","players":null},{"server_id":21,"name":"Uncletopia | London | 5 | All Maps","name_short":"lon-5","host":"lon-1.uk.uncletopia.com","port":27055,"enabled":true,"region":"eu","cc":"gb","latitude":51.509865,"longitude":-0.118092,"reserved":0,"last_update":"0001-01-01T00:00:00Z","name_a2s":"Uncletopia | London | 5 | All Maps","protocol":17,"map":"koth_lakeside_final","folder":"tf","game":"Team Fortress","app_id":440,"player_count":0,"max_players":24,"Bots":0,"server_type":"Dedicated","server_os":"Linux","password":true,"vac":true,"version":"7961495","steam_id":85568392924742829,"keywords":["cp","nocrits","nodmgspread","uncletopia"],"game_id":440,"stv_port":27056,"stv_name":"Uncletopia | London | 5 | All Maps | STV","players":null},{"server_id":22,"name":"Uncletopia | London | 6 | All Maps","name_short":"lon-6","host":"lon-1.uk.uncletopia.com","port":27065,"enabled":true,"region":"eu","cc":"gb","latitude":51.509865,"longitude":-0.118092,"reserved":0,"last_update":"0001-01-01T00:00:00Z","name_a2s":"Uncletopia | London | 6 | All Maps","protocol":17,"map":"cp_dustbowl","folder":"tf","game":"Team Fortress","app_id":440,"player_count":0,"max_players":24,"Bots":0,"server_type":"Dedicated","server_os":"Linux","password":true,"vac":true,"version":"7961495","steam_id":85568392924742830,"keywords":["cp","nocrits","nodmgspread","uncletopia"],"game_id":440,"stv_port":27066,"stv_name":"Uncletopia | London | 6 | All Maps | STV","players":null},{"server_id":40,"name":"Uncletopia | London | 7 | Stopwatch","name_short":"lon-7","host":"lon-1.uk.uncletopia.com","port":27075,"enabled":true,"region":"eu","cc":"gb","latitude":51.509865,"longitude":-0.118092,"reserved":0,"last_update":"0001-01-01T00:00:00Z","name_a2s":"Uncletopia | London | 7 | Stopwatch","protocol":17,"map":"koth_lakeside_final","folder":"tf","game":"Team Fortress","app_id":440,"player_count":0,"max_players":24,"Bots":0,"server_type":"Dedicated","server_os":"Linux","password":true,"vac":true,"version":"7961495","steam_id":85568392924964314,"keywords":["cp","nocrits","nodmgspread","uncletopia"],"game_id":440,"stv_port":27076,"stv_name":"Uncletopia | London | 7 | Stopwatch | STV","players":null},{"server_id":41,"name":"Uncletopia | London | 8 | Community","name_short":"lon-8","host":"lon-1.uk.uncletopia.com","port":27085,"enabled":true,"region":"eu","cc":"gb","latitude":51.509865,"longitude":-0.118092,"reserved":0,"last_update":"0001-01-01T00:00:00Z","name_a2s":"Uncletopia | London | 8 | Community","protocol":17,"map":"cp_snakewater_final1","folder":"tf","game":"Team Fortress","app_id":440,"player_count":0,"max_players":24,"Bots":0,"server_type":"Dedicated","server_os":"Linux","password":true,"vac":true,"version":"7961495","steam_id":85568392924964315,"keywords":["cp","nocrits","nodmgspread","uncletopia"],"game_id":440,"stv_port":27086,"stv_name":"Uncletopia | London | 8 | Community | STV","players":null},{"server_id":300,"name":"Uncletopia | Montr√©al | 1 | All Maps","name_short":"mtl-1","host":"mtl-1.ca.uncletopia.com","port":27015,"enabled":true,"region":"us-east","cc":"ca","latitude":45.50889,"longitude":-73.56167,"reserved":0,"last_update":"0001-01-01T00:00:00Z","name_a2s":"","protocol":0,"map":"","folder":"","game":"","app_id":0,"player_count":0,"max_players":0,"Bots":0,"server_type":"","server_os":"","password":false,"vac":false,"version":"","steam_id":0,"keywords":null,"game_id":0,"stv_port":0,"stv_name":"","players":null},{"server_id":301,"name":"Uncletopia | Montr√©al | 2 | All Maps","name_short":"mtl-2","host":"mtl-1.ca.uncletopia.com","port":27025,"enabled":true,"region":"us-east","cc":"ca","latitude":45.50889,"longitude":-73.56167,"reserved":0,"last_update":"0001-01-01T00:00:00Z","name_a2s":"","protocol":0,"map":"","folder":"","game":"","app_id":0,"player_count":0,"max_players":0,"Bots":0,"server_type":"","server_os":"","password":false,"vac":false,"version":"","steam_id":0,"keywords":null,"game_id":0,"stv_port":0,"stv_name":"","players":null},{"server_id":302,"name":"Uncletopia | Montr√©al | 3 | All Maps","name_short":"mtl-3","host":"mtl-1.ca.uncletopia.com","port":27035,"enabled":true,"region":"us-east","cc":"ca","latitude":45.50889,"longitude":-73.56167,"reserved":0,"last_update":"0001-01-01T00:00:00Z","name_a2s":"","protocol":0,"map":"","folder":"","game":"","app_id":0,"player_count":0,"max_players":0,"Bots":0,"server_type":"","server_os":"","password":false,"vac":false,"version":"","steam_id":0,"keywords":null,"game_id":0,"stv_port":0,"stv_name":"","players":null},{"server_id":303,"name":"Uncletopia | Montr√©al | 4 | No Payload","name_short":"mtl-4","host":"mtl-1.ca.uncletopia.com","port":27045,"enabled":true,"region":"us-east","cc":"ca","latitude":45.50889,"longitude":-73.56167,"reserved":0,"last_update":"0001-01-01T00:00:00Z","name_a2s":"","protocol":0,"map":"","folder":"","game":"","app_id":0,"player_count":0,"max_players":0,"Bots":0,"server_type":"","server_os":"","password":false,"vac":false,"version":"","steam_id":0,"keywords":null,"game_id":0,"stv_port":0,"stv_name":"","players":null},{"server_id":13,"name":"Uncletopia | New York City | 1 | All Maps","name_short":"nyc-1","host":"nyc-1.us.uncletopia.com","port":27015,"enabled":true,"region":"us-east","cc":"us","latitude":40.73061,"longitude":-73.93524,"reserved":0,"last_update":"0001-01-01T00:00:00Z","name_a2s":"Uncletopia | New York City | 1 | All Maps","protocol":17,"map":"koth_viaduct","folder":"tf","game":"Team Fortress","app_id":440,"player_count":23,"max_players":24,"Bots":0,"server_type":"Dedicated","server_os":"Linux","password":true,"vac":true,"version":"7961495","steam_id":85568392924469993,"keywords":["cp","nocrits","nodmgspread","uncletopia"],"game_id":440,"stv_port":27016,"stv_name":"Uncletopia | New York City | 1 | All Maps | STV","players":[{"user_id":569,"name":"Schr√∂dinger's Arbys","steam_id":76561198010708247,"connected_time":150000000000,"state":"active","ping":64},{"user_id":553,"name":"Fiendish Frog","steam_id":76561198029478821,"connected_time":1581000000000,"state":"active","ping":52},{"user_id":563,"name":"Gentoo Linux Gaming","steam_id":76561197999657118,"connected_time":427000000000,"state":"active","ping":65},{"user_id":570,"name":"GrahamisGood","steam_id":76561198988396980,"connected_time":77000000000,"state":"active","ping":52},{"user_id":564,"name":"my name jeff","steam_id":76561198179816898,"connected_time":402000000000,"state":"active","ping":81},{"user_id":566,"name":"DOOD","steam_id":76561198042500353,"connected_time":284000000000,"state":"active","ping":131},{"user_id":560,"name":"Vynil","steam_id":76561198190004550,"connected_time":891000000000,"state":"active","ping":60},{"user_id":557,"name":"ink","steam_id":76561198081308147,"connected_time":1338000000000,"state":"active","ping":74},{"user_id":567,"name":"Timothy Grunclebottoms","steam_id":76561198871450477,"connected_time":279000000000,"state":"active","ping":67},{"user_id":548,"name":"Buck","steam_id":76561198064244796,"connected_time":1911000000000,"state":"active","ping":53},{"user_id":568,"name":"Ludcmorais","steam_id":76561198359217809,"connected_time":264000000000,"state":"active","ping":170},{"user_id":535,"name":"Bagadi","steam_id":76561198150241624,"connected_time":2599000000000,"state":"active","ping":58},{"user_id":538,"name":"Vizier","steam_id":76561198125775001,"connected_time":2519000000000,"state":"active","ping":76},{"user_id":545,"name":"Bippums","steam_id":76561198366406729,"connected_time":2004000000000,"state":"active","ping":85},{"user_id":562,"name":"Relare","steam_id":76561198004059718,"connected_time":441000000000,"state":"active","ping":78},{"user_id":550,"name":"Prsm","steam_id":76561198053344995,"connected_time":1824000000000,"state":"active","ping":36},{"user_id":533,"name":"Xx_gam3rberg_xX","steam_id":76561199035781025,"connected_time":2644000000000,"state":"active","ping":73},{"user_id":539,"name":"levy","steam_id":76561198322063023,"connected_time":2512000000000,"state":"active","ping":78},{"user_id":540,"name":"Bearegard","steam_id":76561198061926542,"connected_time":2447000000000,"state":"active","ping":71},{"user_id":542,"name":"kotari","steam_id":76561199140877941,"connected_time":2442000000000,"state":"active","ping":103},{"user_id":571,"name":"Peter Muskrat (racist)","steam_id":76561198857749738,"connected_time":3000000000,"state":"spawning","ping":149},{"user_id":556,"name":"LoFiDoll","steam_id":76561198156084069,"connected_time":1396000000000,"state":"active","ping":104},{"user_id":561,"name":"Universoul ‡≤†_‡≤†","steam_id":76561198991466236,"connected_time":792000000000,"state":"active","ping":84}]},{"server_id":14,"name":"Uncletopia | New York City | 2 | All Maps","name_short":"nyc-2","host":"nyc-1.us.uncletopia.com","port":27025,"enabled":true,"region":"us-east","cc":"us","latitude":40.73061,"longitude":-73.93524,"reserved":0,"last_update":"0001-01-01T00:00:00Z","name_a2s":"Uncletopia | New York City | 2 | All Maps","protocol":17,"map":"pl_pier","folder":"tf","game":"Team Fortress","app_id":440,"player_count":24,"max_players":24,"Bots":0,"server_type":"Dedicated","server_os":"Linux","password":true,"vac":true,"version":"7961495","steam_id":85568392924469994,"keywords":["nocrits","nodmgspread","payload","uncletopia"],"game_id":440,"stv_port":27026,"stv_name":"Uncletopia | New York City | 2 | All Maps | STV","players":[{"user_id":704,"name":"TheSquirrelofHuscurl","steam_id":76561198073379623,"connected_time":4931000000000,"state":"active","ping":86},{"user_id":738,"name":"Matt","steam_id":76561198182639406,"connected_time":1540000000000,"state":"active","ping":68},{"user_id":751,"name":"negus 2","steam_id":76561198043862737,"connected_time":359000000000,"state":"active","ping":44},{"user_id":749,"name":"De","steam_id":76561198206728044,"connected_time":575000000000,"state":"active","ping":76},{"user_id":713,"name":"High School Nudical","steam_id":76561198172120615,"connected_time":3776000000000,"state":"active","ping":37},{"user_id":739,"name":"Masax1171","steam_id":76561198170087846,"connected_time":1496000000000,"state":"active","ping":91},{"user_id":746,"name":"lulu","steam_id":76561199147764133,"connected_time":980000000000,"state":"active","ping":141},{"user_id":752,"name":"Ja","steam_id":76561198396340174,"connected_time":332000000000,"state":"active","ping":63},{"user_id":747,"name":"MrLonelySlayer","steam_id":76561198061793470,"connected_time":854000000000,"state":"active","ping":57},{"user_id":724,"name":"SnickerNoodle","steam_id":76561198064359644,"connected_time":2852000000000,"state":"active","ping":52},{"user_id":685,"name":"JustSparky","steam_id":76561198043074739,"connected_time":7761000000000,"state":"active","ping":54},{"user_id":688,"name":"ndvr","steam_id":76561199379200102,"connected_time":6912000000000,"state":"active","ping":56},{"user_id":750,"name":"Aaron","steam_id":76561198091157802,"connected_time":373000000000,"state":"active","ping":57},{"user_id":744,"name":"Bee","steam_id":76561198074681324,"connected_time":1175000000000,"state":"active","ping":46},{"user_id":753,"name":"JellyParrot","steam_id":76561199190990163,"connected_time":330000000000,"state":"active","ping":77},{"user_id":758,"name":"pigswill","steam_id":76561197999081865,"connected_time":55000000000,"state":"active","ping":70},{"user_id":451,"name":"googa","steam_id":76561198133130452,"connected_time":24936000000000,"state":"active","ping":47},{"user_id":755,"name":"Sqiddwr","steam_id":76561197998071622,"connected_time":223000000000,"state":"active","ping":61},{"user_id":741,"name":"DragoDuck","steam_id":76561198385685683,"connected_time":1451000000000,"state":"active","ping":110},{"user_id":711,"name":"That Sentry Is A Spy!","steam_id":76561198069395625,"connected_time":3895000000000,"state":"active","ping":63},{"user_id":748,"name":"songcreator","steam_id":76561198076822464,"connected_time":806000000000,"state":"active","ping":66},{"user_id":756,"name":"Plant Enthusiast","steam_id":76561198045718960,"connected_time":222000000000,"state":"active","ping":89},{"user_id":728,"name":"McGruble","steam_id":76561198136317340,"connected_time":2563000000000,"state":"active","ping":73},{"user_id":757,"name":"toasty weber","steam_id":76561198037746805,"connected_time":180000000000,"state":"active","ping":63}]},{"server_id":15,"name":"Uncletopia | New York City | 3 | Stopwatch","name_short":"nyc-3","host":"nyc-1.us.uncletopia.com","port":27035,"enabled":true,"region":"us-east","cc":"us","latitude":40.73061,"longitude":-73.93524,"reserved":0,"last_update":"0001-01-01T00:00:00Z","name_a2s":"Uncletopia | New York City | 3 | Stopwatch","protocol":17,"map":"koth_highpass","folder":"tf","game":"Team Fortress","app_id":440,"player_count":0,"max_players":24,"Bots":0,"server_type":"Dedicated","server_os":"Linux","password":true,"vac":true,"version":"7961495","steam_id":85568392924742820,"keywords":["cp","nocrits","nodmgspread","uncletopia"],"game_id":440,"stv_port":27036,"stv_name":"Uncletopia | New York City | 3 | Stopwatch | STV","players":null},{"server_id":16,"name":"Uncletopia | New York City | 4 | Community","name_short":"nyc-4","host":"nyc-1.us.uncletopia.com","port":27045,"enabled":true,"region":"us-east","cc":"us","latitude":40.73061,"longitude":-73.93524,"reserved":0,"last_update":"0001-01-01T00:00:00Z","name_a2s":"Uncletopia | New York City | 4 | Community","protocol":17,"map":"workshop/cp_glassworks_rc6a.ugc454118349","folder":"tf","game":"Team Fortress","app_id":440,"player_count":0,"max_players":24,"Bots":0,"server_type":"Dedicated","server_os":"Linux","password":true,"vac":true,"version":"7961495","steam_id":85568392924742821,"keywords":["cp","nocrits","nodmgspread","uncletopia"],"game_id":440,"stv_port":27046,"stv_name":"Uncletopia | New York City | 4 | Community | STV","players":null},{"server_id":142,"name":"Uncletopia | S√£o Paulo | 1 | All Maps","name_short":"sao-1","host":"sao-1.br.uncletopia.com","port":27015,"enabled":true,"region":"sa","cc":"br","latitude":-23.533773,"longitude":-46.62529,"reserved":0,"last_update":"0001-01-01T00:00:00Z","name_a2s":"Uncletopia | S√£o Paulo | 1 | All Maps","protocol":17,"map":"koth_viaduct","folder":"tf","game":"Team Fortress","app_id":440,"player_count":0,"max_players":24,"Bots":0,"server_type":"Dedicated","server_os":"Linux","password":true,"vac":true,"version":"7961495","steam_id":85568392924469996,"keywords":["cp","nocrits","nodmgspread","uncletopia"],"game_id":440,"stv_port":27016,"stv_name":"Uncletopia | S√£o Paulo | 1 | All Maps | STV","players":null},{"server_id":143,"name":"Uncletopia | S√£o Paulo | 2 | Community","name_short":"sao-2","host":"sao-2.br.uncletopia.com","port":27015,"enabled":true,"region":"sa","cc":"br","latitude":-23.533773,"longitude":-46.62529,"reserved":0,"last_update":"0001-01-01T00:00:00Z","name_a2s":"Uncletopia | S√£o Paulo | 2 | Community","protocol":17,"map":"workshop/cp_bruhstbowl_b6.ugc2878604990","folder":"tf","game":"Team Fortress","app_id":440,"player_count":0,"max_players":24,"Bots":0,"server_type":"Dedicated","server_os":"Linux","password":true,"vac":true,"version":"7961495","steam_id":85568392924485349,"keywords":["cp","nocrits","nodmgspread","uncletopia"],"game_id":440,"stv_port":27016,"stv_name":"Uncletopia | S√£o Paulo | 2 | Community | STV","players":null},{"server_id":7,"name":"Uncletopia | Seattle | 1 | All Maps","name_short":"sea-1","host":"sea-1.us.uncletopia.com","port":27015,"enabled":true,"region":"us-west","cc":"us","latitude":47.608013,"longitude":-122.33517,"reserved":0,"last_update":"0001-01-01T00:00:00Z","name_a2s":"Uncletopia | Seattle | 1 | All Maps","protocol":17,"map":"pl_upward","folder":"tf","game":"Team Fortress","app_id":440,"player_count":24,"max_players":24,"Bots":0,"server_type":"Dedicated","server_os":"Linux","password":true,"vac":true,"version":"7961495","steam_id":85568392924469997,"keywords":["nocrits","nodmgspread","payload","uncletopia"],"game_id":440,"stv_port":27016,"stv_name":"Uncletopia | Seattle | 1 | All Maps | STV","players":[{"user_id":538,"name":"jungus","steam_id":76561198129862008,"connected_time":2310000000000,"state":"active","ping":68},{"user_id":546,"name":"FlamingManiac","steam_id":76561198361996837,"connected_time":1410000000000,"state":"active","ping":138},{"user_id":542,"name":"rawry ‡∏Ö^‚Ä¢Ôªå‚Ä¢^‡∏Ö","steam_id":76561198065825165,"connected_time":2122000000000,"state":"active","ping":110},{"user_id":428,"name":"pepe warlord","steam_id":76561198080819197,"connected_time":10917000000000,"state":"active","ping":85},{"user_id":535,"name":"Henchie!","steam_id":76561198047567464,"connected_time":2354000000000,"state":"active","ping":96},{"user_id":554,"name":"HotHead","steam_id":76561198138468982,"connected_time":396000000000,"state":"active","ping":41},{"user_id":544,"name":"lavender","steam_id":76561199069518286,"connected_time":1542000000000,"state":"active","ping":69},{"user_id":457,"name":"louise sneeze","steam_id":76561198062451648,"connected_time":9029000000000,"state":"active","ping":90},{"user_id":555,"name":"Translucent‡´Æ‚Çç ‚Ä¢ ·¥• ‚Ä¢","steam_id":76561199212057076,"connected_time":389000000000,"state":"active","ping":71},{"user_id":545,"name":"Mii Guest C, From Wii Sports","steam_id":76561198197964803,"connected_time":1521000000000,"state":"active","ping":61},{"user_id":551,"name":"thunderous prophet","steam_id":76561198131166135,"connected_time":777000000000,"state":"active","ping":41},{"user_id":423,"name":"lasky","steam_id":76561198017030029,"connected_time":11173000000000,"state":"active","ping":72},{"user_id":548,"name":"doopsies","steam_id":76561198083000867,"connected_time":1194000000000,"state":"active","ping":56},{"user_id":533,"name":"Dr. Karl, the AUS Science Guy","steam_id":76561198031278747,"connected_time":2532000000000,"state":"active","ping":55},{"user_id":486,"name":"Sniff","steam_id":76561198010270922,"connected_time":6587000000000,"state":"active","ping":69},{"user_id":534,"name":"Apollo","steam_id":76561198162364702,"connected_time":2361000000000,"state":"active","ping":47},{"user_id":499,"name":"Username","steam_id":76561199033122306,"connected_time":5508000000000,"state":"active","ping":155},{"user_id":453,"name":"NEBULA","steam_id":76561198086878595,"connected_time":9793000000000,"state":"active","ping":68},{"user_id":558,"name":"Chocc-_-","steam_id":76561198068070211,"connected_time":241000000000,"state":"active","ping":109},{"user_id":522,"name":"moosein","steam_id":76561198354272434,"connected_time":3592000000000,"state":"active","ping":83},{"user_id":556,"name":"top Golf","steam_id":76561198241265568,"connected_time":385000000000,"state":"active","ping":41},{"user_id":549,"name":"Empyrean","steam_id":76561198116398716,"connected_time":912000000000,"state":"active","ping":90},{"user_id":524,"name":"Snyderthing","steam_id":76561197997277855,"connected_time":3482000000000,"state":"active","ping":49},{"user_id":557,"name":"jorts","steam_id":76561199041179985,"connected_time":352000000000,"state":"active","ping":57}]},{"server_id":119,"name":"Uncletopia | Seattle | 2 | All Maps","name_short":"sea-2","host":"sea-1.us.uncletopia.com","port":27025,"enabled":true,"region":"us-west","cc":"us","latitude":47.608013,"longitude":-122.33517,"reserved":0,"last_update":"0001-01-01T00:00:00Z","name_a2s":"Uncletopia | Seattle | 2 | All Maps","protocol":17,"map":"koth_harvest_final","folder":"tf","game":"Team Fortress","app_id":440,"player_count":17,"max_players":24,"Bots":0,"server_type":"Dedicated","server_os":"Linux","password":true,"vac":true,"version":"7961495","steam_id":85568392924469998,"keywords":["cp","nocrits","nodmgspread","uncletopia"],"game_id":440,"stv_port":27026,"stv_name":"Uncletopia | Seattle | 2 | All Maps | STV","players":[{"user_id":362,"name":"Battle Hardened Space Chode","steam_id":76561198045666722,"connected_time":2005000000000,"state":"active","ping":123},{"user_id":382,"name":"DuckyCC","steam_id":76561198204224427,"connected_time":335000000000,"state":"active","ping":51},{"user_id":375,"name":"lamb cutlet","steam_id":76561199063557758,"connected_time":946000000000,"state":"active","ping":86},{"user_id":383,"name":"Gene Takovic","steam_id":76561198120442624,"connected_time":138000000000,"state":"active","ping":118},{"user_id":384,"name":"elder lich joe biden","steam_id":76561198257134732,"connected_time":28000000000,"state":"active","ping":71},{"user_id":368,"name":"bottle (Alcohol/Beverage)","steam_id":76561198451812135,"connected_time":1923000000000,"state":"active","ping":72},{"user_id":330,"name":"Nightstalker","steam_id":76561199004204111,"connected_time":2611000000000,"state":"active","ping":63},{"user_id":385,"name":"CPTforever","steam_id":76561198237767198,"connected_time":7000000000,"state":"active","ping":58},{"user_id":364,"name":"CLB","steam_id":76561198057971005,"connected_time":1974000000000,"state":"active","ping":30},{"user_id":380,"name":"Krack Crabs","steam_id":76561199091315615,"connected_time":469000000000,"state":"active","ping":57},{"user_id":371,"name":"Evanb","steam_id":76561198042057792,"connected_time":1395000000000,"state":"active","ping":36},{"user_id":366,"name":"Catherine","steam_id":76561198125233120,"connected_time":1948000000000,"state":"active","ping":64},{"user_id":379,"name":"skittle ducks jr.","steam_id":76561198309823950,"connected_time":698000000000,"state":"active","ping":44},{"user_id":338,"name":"Tripll-L","steam_id":76561197998077437,"connected_time":2455000000000,"state":"active","ping":54},{"user_id":369,"name":"mmmBoyo","steam_id":76561198821360261,"connected_time":1903000000000,"state":"active","ping":52},{"user_id":374,"name":"jellyfam shai","steam_id":76561198144909435,"connected_time":1091000000000,"state":"active","ping":90},{"user_id":373,"name":"Tom","steam_id":76561198070630154,"connected_time":1148000000000,"state":"active","ping":76}]},{"server_id":406,"name":"Uncletopia | Seattle | 3 | Stopwatch","name_short":"sea-3","host":"sea-1.us.uncletopia.com","port":27035,"enabled":true,"region":"us-west","cc":"us","latitude":47.608013,"longitude":-122.33517,"reserved":0,"last_update":"0001-01-01T00:00:00Z","name_a2s":"Uncletopia | Seattle | 3 | Stopwatch","protocol":17,"map":"workshop/koth_bagel_rc6.ugc2514036946","folder":"tf","game":"Team Fortress","app_id":440,"player_count":5,"max_players":24,"Bots":0,"server_type":"Dedicated","server_os":"Linux","password":true,"vac":true,"version":"7961495","steam_id":85568392924515217,"keywords":["cp","nocrits","nodmgspread","uncletopia"],"game_id":440,"stv_port":27036,"stv_name":"Uncletopia | Seattle | 3 | Stopwatch | STV","players":[{"user_id":85,"name":"johnman gooberguy","steam_id":76561199014859764,"connected_time":1822000000000,"state":"active","ping":74},{"user_id":82,"name":"cofferhead","steam_id":76561199191108449,"connected_time":2348000000000,"state":"active","ping":85},{"user_id":6,"name":"Grammaring","steam_id":76561198867366139,"connected_time":7900000000000,"state":"active","ping":75},{"user_id":88,"name":"gldhd","steam_id":76561198051751133,"connected_time":897000000000,"state":"active","ping":58},{"user_id":90,"name":"Thequirka","steam_id":76561198968058652,"connected_time":495000000000,"state":"active","ping":46}]},{"server_id":17,"name":"Uncletopia | San Francisco | 1 | All Maps","name_short":"sfo-1","host":"sfo-1.us.uncletopia.com","port":27015,"enabled":true,"region":"us-west","cc":"us","latitude":37.77397,"longitude":-122.4313,"reserved":0,"last_update":"0001-01-01T00:00:00Z","name_a2s":"Uncletopia | San Francisco | 1 | All Maps","protocol":17,"map":"cp_mountainlab","folder":"tf","game":"Team Fortress","app_id":440,"player_count":0,"max_players":24,"Bots":0,"server_type":"Dedicated","server_os":"Linux","password":true,"vac":true,"version":"7961495","steam_id":85568392924469999,"keywords":["cp","nocrits","nodmgspread","uncletopia"],"game_id":440,"stv_port":27016,"stv_name":"Uncletopia | San Francisco | 1 | All Maps | STV","players":null},{"server_id":18,"name":"Uncletopia | San Francisco | 2 | All Maps","name_short":"sfo-2","host":"sfo-1.us.uncletopia.com","port":27025,"enabled":true,"region":"us-west","cc":"us","latitude":37.77397,"longitude":-122.4313,"reserved":0,"last_update":"0001-01-01T00:00:00Z","name_a2s":"Uncletopia | San Francisco | 2 | All Maps","protocol":17,"map":"pl_snowycoast","folder":"tf","game":"Team Fortress","app_id":440,"player_count":21,"max_players":24,"Bots":0,"server_type":"Dedicated","server_os":"Linux","password":true,"vac":true,"version":"7961495","steam_id":85568392924470000,"keywords":["nocrits","nodmgspread","payload","uncletopia"],"game_id":440,"stv_port":27026,"stv_name":"Uncletopia | San Francisco | 2 | All Maps | STV","players":[{"user_id":134,"name":"Epifiny","steam_id":76561198027958086,"connected_time":6000000000,"state":"spawning","ping":110},{"user_id":123,"name":"Beef Wellington","steam_id":76561197995635241,"connected_time":1310000000000,"state":"active","ping":171},{"user_id":111,"name":"papi Chulo","steam_id":76561198126274984,"connected_time":2898000000000,"state":"active","ping":102},{"user_id":133,"name":"hardfork","steam_id":76561197960958019,"connected_time":299000000000,"state":"active","ping":65},{"user_id":112,"name":"SpeedyGongo","steam_id":76561198842946737,"connected_time":2890000000000,"state":"active","ping":84},{"user_id":94,"name":"MantisToboggan","steam_id":76561197969447887,"connected_time":4173000000000,"state":"active","ping":100},{"user_id":122,"name":"Pah-Wraith Gul Dukat","steam_id":76561198033918106,"connected_time":1343000000000,"state":"active","ping":61},{"user_id":124,"name":"Noxus","steam_id":76561199009820852,"connected_time":1285000000000,"state":"active","ping":83},{"user_id":97,"name":"TRASHMASTER3000","steam_id":76561198118546107,"connected_time":4115000000000,"state":"active","ping":58},{"user_id":64,"name":"Karg","steam_id":76561198091387866,"connected_time":7869000000000,"state":"active","ping":57},{"user_id":106,"name":"771095213","steam_id":76561198202263501,"connected_time":3575000000000,"state":"active","ping":54},{"user_id":116,"name":"the keebler","steam_id":76561199486326945,"connected_time":2841000000000,"state":"active","ping":105},{"user_id":130,"name":"Not a \"Real\" Cop","steam_id":76561198064108447,"connected_time":633000000000,"state":"active","ping":65},{"user_id":121,"name":"second involate","steam_id":76561198041863231,"connected_time":1468000000000,"state":"active","ping":64},{"user_id":127,"name":"copper","steam_id":76561198146250533,"connected_time":1231000000000,"state":"active","ping":52},{"user_id":92,"name":"M@","steam_id":76561198053117503,"connected_time":4638000000000,"state":"active","ping":89},{"user_id":99,"name":"fiend","steam_id":76561198122159645,"connected_time":4090000000000,"state":"active","ping":60},{"user_id":131,"name":"S O U N D W A V E","steam_id":76561198093417449,"connected_time":619000000000,"state":"active","ping":53},{"user_id":56,"name":"Subby Wubby Boi 0w0","steam_id":76561198297585031,"connected_time":8347000000000,"state":"active","ping":61},{"user_id":101,"name":"for eel? on cod? no carp?","steam_id":76561198095121758,"connected_time":4041000000000,"state":"active","ping":38},{"user_id":110,"name":"riSygneD","steam_id":76561198331618687,"connected_time":3425000000000,"state":"active","ping":32}]},{"server_id":19,"name":"Uncletopia | San Francisco | 3 | Stopwatch","name_short":"sfo-3","host":"sfo-1.us.uncletopia.com","port":27035,"enabled":true,"region":"us-west","cc":"us","latitude":37.77397,"longitude":-122.4313,"reserved":0,"last_update":"0001-01-01T00:00:00Z","name_a2s":"Uncletopia | San Francisco | 3 | Stopwatch","protocol":17,"map":"workshop/koth_clearcut_b15.ugc2107050255","folder":"tf","game":"Team Fortress","app_id":440,"player_count":0,"max_players":24,"Bots":0,"server_type":"Dedicated","server_os":"Linux","password":true,"vac":true,"version":"7961495","steam_id":85568392924742824,"keywords":["cp","nocrits","nodmgspread","uncletopia"],"game_id":440,"stv_port":27036,"stv_name":"Uncletopia | San Francisco | 3 | Stopwatch | STV","players":null},{"server_id":20,"name":"Uncletopia | San Francisco | 4 | Community","name_short":"sfo-4","host":"sfo-1.us.uncletopia.com","port":27045,"enabled":true,"region":"us-west","cc":"us","latitude":37.77397,"longitude":-122.4313,"reserved":0,"last_update":"0001-01-01T00:00:00Z","name_a2s":"Uncletopia | San Francisco | 4 | Community","protocol":17,"map":"workshop/koth_slaughter_rc1.ugc1712845210","folder":"tf","game":"Team Fortress","app_id":440,"player_count":0,"max_players":24,"Bots":0,"server_type":"Dedicated","server_os":"Linux","password":true,"vac":true,"version":"7961495","steam_id":85568392924742826,"keywords":["cp","nocrits","nodmgspread","uncletopia"],"game_id":440,"stv_port":27046,"stv_name":"Uncletopia | San Francisco | 4 | Community | STV","players":null},{"server_id":141,"name":"Uncletopia | Sydney | 1 | All Maps","name_short":"syd-1","host":"syd-1.au.uncletopia.com","port":27015,"enabled":true,"region":"au","cc":"au","latitude":-33.865143,"longitude":151.2099,"reserved":0,"last_update":"0001-01-01T00:00:00Z","name_a2s":"Uncletopia | Sydney | 1 | All Maps","protocol":17,"map":"cp_gorge","folder":"tf","game":"Team Fortress","app_id":440,"player_count":23,"max_players":24,"Bots":0,"server_type":"Dedicated","server_os":"Linux","password":true,"vac":true,"version":"7961495","steam_id":85568392924470001,"keywords":["cp","nocrits","nodmgspread","uncletopia"],"game_id":440,"stv_port":27016,"stv_name":"Uncletopia | Sydney | 1 | All Maps | STV","players":[{"user_id":255,"name":"whiteshaq","steam_id":76561198131988811,"connected_time":1005000000000,"state":"active","ping":74},{"user_id":265,"name":"Precipire","steam_id":76561198076159518,"connected_time":383000000000,"state":"active","ping":55},{"user_id":268,"name":"NEVERLUCKY","steam_id":76561198098948455,"connected_time":0,"state":"spawning","ping":31},{"user_id":256,"name":"swag messiah","steam_id":76561198380839792,"connected_time":906000000000,"state":"active","ping":42},{"user_id":225,"name":"Marzell","steam_id":76561198151276153,"connected_time":3230000000000,"state":"active","ping":93},{"user_id":257,"name":"L.ion","steam_id":76561198261172910,"connected_time":893000000000,"state":"active","ping":47},{"user_id":262,"name":"Killer Bean","steam_id":76561199107069046,"connected_time":542000000000,"state":"active","ping":61},{"user_id":215,"name":"bread","steam_id":76561199405764106,"connected_time":3803000000000,"state":"active","ping":44},{"user_id":260,"name":"PoblinGyro","steam_id":76561198081314932,"connected_time":635000000000,"state":"active","ping":85},{"user_id":261,"name":"ms. pauling bong fiend","steam_id":76561198086751156,"connected_time":625000000000,"state":"active","ping":60},{"user_id":267,"name":"TF2 GUNZEL 761","steam_id":76561198973002575,"connected_time":149000000000,"state":"active","ping":68},{"user_id":219,"name":"Girl Virus","steam_id":76561199440190709,"connected_time":3578000000000,"state":"active","ping":63},{"user_id":259,"name":"Sinister80s","steam_id":76561198343540472,"connected_time":810000000000,"state":"active","ping":69},{"user_id":254,"name":"Crispy","steam_id":76561198081760160,"connected_time":1150000000000,"state":"active","ping":74},{"user_id":246,"name":"lavanderpumpernickle(Del Davis)","steam_id":76561199093611800,"connected_time":2106000000000,"state":"active","ping":49},{"user_id":232,"name":"Foxivan","steam_id":76561198428775175,"connected_time":2984000000000,"state":"active","ping":69},{"user_id":244,"name":"Bard","steam_id":76561198024548474,"connected_time":2254000000000,"state":"active","ping":50},{"user_id":239,"name":"Rashid Of The Dank Memes","steam_id":76561198281398078,"connected_time":2540000000000,"state":"active","ping":66},{"user_id":264,"name":"Atlas","steam_id":76561198069332870,"connected_time":457000000000,"state":"active","ping":58},{"user_id":241,"name":"Mezorak","steam_id":76561198053433380,"connected_time":2451000000000,"state":"active","ping":56},{"user_id":266,"name":"Teags","steam_id":76561198310870519,"connected_time":200000000000,"state":"active","ping":50},{"user_id":243,"name":"dax.","steam_id":76561198321885643,"connected_time":2361000000000,"state":"active","ping":164},{"user_id":252,"name":"BobTheHuminoid","steam_id":76561199241312725,"connected_time":1862000000000,"state":"active","ping":60}]},{"server_id":123,"name":"Uncletopia | Sydney | 2 | All Maps","name_short":"syd-2","host":"syd-1.au.uncletopia.com","port":27025,"enabled":true,"region":"au","cc":"au","latitude":-33.865143,"longitude":151.2099,"reserved":0,"last_update":"0001-01-01T00:00:00Z","name_a2s":"Uncletopia | Sydney | 2 | All Maps","protocol":17,"map":"pl_frontier_final","folder":"tf","game":"Team Fortress","app_id":440,"player_count":7,"max_players":24,"Bots":0,"server_type":"Dedicated","server_os":"Linux","password":true,"vac":true,"version":"7961495","steam_id":85568392924470002,"keywords":["nocrits","nodmgspread","payload","uncletopia"],"game_id":440,"stv_port":27026,"stv_name":"Uncletopia | Sydney | 2 | All Maps | STV","players":[{"user_id":30,"name":"Builder of Sentries","steam_id":76561199155264704,"connected_time":883000000000,"state":"active","ping":92},{"user_id":26,"name":"Preemt (purposely misspelled)","steam_id":76561199216819073,"connected_time":1896000000000,"state":"active","ping":52},{"user_id":31,"name":"Rolston","steam_id":76561199161612998,"connected_time":883000000000,"state":"active","ping":89},{"user_id":37,"name":"qeuvl","steam_id":76561198170727659,"connected_time":281000000000,"state":"active","ping":64},{"user_id":34,"name":"Wombon","steam_id":76561198071323879,"connected_time":769000000000,"state":"active","ping":83},{"user_id":39,"name":"Blondie","steam_id":76561198046977058,"connected_time":42000000000,"state":"active","ping":108},{"user_id":36,"name":"ghostdreeper7717","steam_id":76561199238703006,"connected_time":433000000000,"state":"active","ping":106}]},{"server_id":395,"name":"Uncletopia | Sydney | 3 | All Maps","name_short":"syd-3","host":"syd-1.au.uncletopia.com","port":27035,"enabled":true,"region":"au","cc":"au","latitude":-33.865143,"longitude":151.2099,"reserved":0,"last_update":"0001-01-01T00:00:00Z","name_a2s":"Uncletopia | Sydney | 3 | All Maps","protocol":17,"map":"pl_barnblitz","folder":"tf","game":"Team Fortress","app_id":440,"player_count":0,"max_players":24,"Bots":0,"server_type":"Dedicated","server_os":"Linux","password":true,"vac":true,"version":"7961495","steam_id":85568392925194467,"keywords":["nocrits","nodmgspread","payload","uncletopia"],"game_id":440,"stv_port":27036,"stv_name":"Uncletopia | Sydney | 3 | All Maps | STV","players":null},{"server_id":396,"name":"Uncletopia | Sydney | 4 | All Maps","name_short":"syd-4","host":"syd-1.au.uncletopia.com","port":27045,"enabled":true,"region":"au","cc":"au","latitude":-33.865143,"longitude":151.2099,"reserved":0,"last_update":"0001-01-01T00:00:00Z","name_a2s":"Uncletopia | Sydney | 4 | All Maps","protocol":17,"map":"cp_process_final","folder":"tf","game":"Team Fortress","app_id":440,"player_count":0,"max_players":24,"Bots":0,"server_type":"Dedicated","server_os":"Linux","password":true,"vac":true,"version":"7961495","steam_id":85568392925397958,"keywords":["cp","nocrits","nodmgspread","uncletopia"],"game_id":440,"stv_port":27046,"stv_name":"Uncletopia | Sydney | 4 | All Maps | STV","players":null},{"server_id":58,"name":"Uncletopia | Sydney | 5 | Stopwatch","name_short":"syd-5","host":"syd-1.au.uncletopia.com","port":27055,"enabled":true,"region":"au","cc":"au","latitude":-33.865143,"longitude":151.2099,"reserved":0,"last_update":"0001-01-01T00:00:00Z","name_a2s":"Uncletopia | Sydney | 5 | Stopwatch","protocol":17,"map":"workshop/cp_reckoner_rc6.ugc674719999","folder":"tf","game":"Team Fortress","app_id":440,"player_count":0,"max_players":24,"Bots":0,"server_type":"Dedicated","server_os":"Linux","password":true,"vac":true,"version":"7961495","steam_id":85568392925397959,"keywords":["cp","nocrits","nodmgspread","uncletopia"],"game_id":440,"stv_port":27056,"stv_name":"Uncletopia | Sydney | 5 | Stopwatch | STV","players":null},{"server_id":59,"name":"Uncletopia | Sydney | 6 | Community","name_short":"syd-6","host":"syd-1.au.uncletopia.com","port":27065,"enabled":true,"region":"au","cc":"au","latitude":-33.865143,"longitude":151.2099,"reserved":0,"last_update":"0001-01-01T00:00:00Z","name_a2s":"Uncletopia | Sydney | 6 | Community","protocol":17,"map":"cp_sunshine","folder":"tf","game":"Team Fortress","app_id":440,"player_count":0,"max_players":24,"Bots":0,"server_type":"Dedicated","server_os":"Linux","password":true,"vac":true,"version":"7961495","steam_id":85568392925397960,"keywords":["cp","nocrits","nodmgspread","uncletopia"],"game_id":440,"stv_port":27066,"stv_name":"Uncletopia | Sydney | 6 | Community | STV","players":null},{"server_id":49,"name":"Uncletopia | Warsaw | 1 | All Maps","name_short":"waw-1","host":"waw-1.pl.uncletopia.com","port":27015,"enabled":true,"region":"eu","cc":"pl","latitude":52.2297,"longitude":21.017532,"reserved":0,"last_update":"0001-01-01T00:00:00Z","name_a2s":"Uncletopia | Warsaw | 1 | All Maps","protocol":17,"map":"koth_lakeside_final","folder":"tf","game":"Team Fortress","app_id":440,"player_count":0,"max_players":24,"Bots":0,"server_type":"Dedicated","server_os":"Linux","password":true,"vac":true,"version":"7961495","steam_id":85568392925397850,"keywords":["cp","nocrits","nodmgspread","uncletopia"],"game_id":440,"stv_port":27016,"stv_name":"Uncletopia | Warsaw | 1 | All Maps | STV","players":null},{"server_id":50,"name":"Uncletopia | Warsaw | 2 | All Maps","name_short":"waw-2","host":"waw-1.pl.uncletopia.com","port":27025,"enabled":true,"region":"eu","cc":"pl","latitude":52.2297,"longitude":21.017532,"reserved":0,"last_update":"0001-01-01T00:00:00Z","name_a2s":"Uncletopia | Warsaw | 2 | All Maps","protocol":17,"map":"pl_borneo","folder":"tf","game":"Team Fortress","app_id":440,"player_count":0,"max_players":24,"Bots":0,"server_type":"Dedicated","server_os":"Linux","password":true,"vac":true,"version":"7961495","steam_id":85568392925397851,"keywords":["nocrits","nodmgspread","payload","uncletopia"],"game_id":440,"stv_port":27026,"stv_name":"Uncletopia | Warsaw | 2 | All Maps | STV","players":null},{"server_id":51,"name":"Uncletopia | Warsaw | 3 | All Maps","name_short":"waw-3","host":"waw-1.pl.uncletopia.com","port":27035,"enabled":true,"region":"eu","cc":"pl","latitude":52.2297,"longitude":21.017532,"reserved":0,"last_update":"0001-01-01T00:00:00Z","name_a2s":"Uncletopia | Warsaw | 3 | All Maps","protocol":17,"map":"pl_barnblitz","folder":"tf","game":"Team Fortress","app_id":440,"player_count":0,"max_players":24,"Bots":0,"server_type":"Dedicated","server_os":"Linux","password":true,"vac":true,"version":"7961495","steam_id":85568392925397852,"keywords":["nocrits","nodmgspread","payload","uncletopia"],"game_id":440,"stv_port":27036,"stv_name":"Uncletopia | Warsaw | 3 | All Maps | STV","players":null},{"server_id":52,"name":"Uncletopia | Warsaw | 4 | All Maps","name_short":"waw-4","host":"waw-1.pl.uncletopia.com","port":27045,"enabled":true,"region":"eu","cc":"pl","latitude":52.2297,"longitude":21.017532,"reserved":0,"last_update":"0001-01-01T00:00:00Z","name_a2s":"Uncletopia | Warsaw | 4 | All Maps","protocol":17,"map":"pl_borneo","folder":"tf","game":"Team Fortress","app_id":440,"player_count":0,"max_players":24,"Bots":0,"server_type":"Dedicated","server_os":"Linux","password":true,"vac":true,"version":"7961495","steam_id":85568392925397853,"keywords":["nocrits","nodmgspread","payload","uncletopia"],"game_id":440,"stv_port":27046,"stv_name":"Uncletopia | Warsaw | 4 | All Maps | STV","players":null},{"server_id":53,"name":"Uncletopia | Warsaw | 5 | Stopwatch","name_short":"waw-5","host":"waw-1.pl.uncletopia.com","port":27055,"enabled":true,"region":"eu","cc":"pl","latitude":52.2297,"longitude":21.017532,"reserved":0,"last_update":"0001-01-01T00:00:00Z","name_a2s":"Uncletopia | Warsaw | 5 | Stopwatch","protocol":17,"map":"pl_barnblitz","folder":"tf","game":"Team Fortress","app_id":440,"player_count":0,"max_players":24,"Bots":0,"server_type":"Dedicated","server_os":"Linux","password":true,"vac":true,"version":"7961495","steam_id":85568392925397854,"keywords":["nocrits","nodmgspread","payload","uncletopia"],"game_id":440,"stv_port":27056,"stv_name":"Uncletopia | Warsaw | 5 | Stopwatch | STV","players":null},{"server_id":54,"name":"Uncletopia | Warsaw | 6 | Community","name_short":"waw-6","host":"waw-1.pl.uncletopia.com","port":27065,"enabled":true,"region":"eu","cc":"pl","latitude":52.2297,"longitude":21.017532,"reserved":0,"last_update":"0001-01-01T00:00:00Z","name_a2s":"Uncletopia | Warsaw | 6 | Community","protocol":17,"map":"cp_altitude","folder":"tf","game":"Team Fortress","app_id":440,"player_count":0,"max_players":24,"Bots":0,"server_type":"Dedicated","server_os":"Linux","password":true,"vac":true,"version":"7961495","steam_id":85568392925397856,"keywords":["cp","nocrits","nodmgspread","uncletopia"],"game_id":440,"stv_port":27066,"stv_name":"Uncletopia | Warsaw | 6 | Community | STV","players":null}]}