{"status":true,"message":"","result":[{"server_id":9,"name":"Uncletopia | Atlanta | 1 | All Maps","name_short":"atl-1","host":"atl-1.us.uncletopia.com","port":27015,"enabled":true,"region":"us-east","cc":"us","latitude":33.753746,"longitude":-84.38633,"reserved":0,"last_update":"0001-01-01T00:00:00Z","name_a2s":"Uncletopia | Atlanta | 1 | All Maps","protocol":17,"map":"pl_frontier_final","folder":"tf","game":"Team Fortress","app_id":440,"player_count":24,"max_players":24,"Bots":0,"server_type":"Dedicated","server_os":"Linux","password":true,"vac":true,"version":"7757534","steam_id":85568392924469982,"keywords":["nocrits","nodmgspread","payload","uncletopia"],"game_id":440,"stv_port":27016,"stv_name":"Uncletopia | Atlanta | 1 | All Maps | STV","players":[{"user_id":258,"name":"Brown_Dream","steam_id":76561198975766145,"connected_time":984000000000,"state":"active","ping":68},{"user_id":259,"name":"Xuey","steam_id":76561199120960187,"connected_time":979000000000,"state":"active","ping":81},{"user_id":262,"name":"Albino Jellyfish","steam_id":76561198208561097,"connected_time":696000000000,"state":"active","ping":68},{"user_id":264,"name":"LARGE","steam_id":76561198124583948,"connected_time":536000000000,"state":"active","ping":88},{"user_id":255,"name":"Plazmatik","steam_id":76561198168976029,"connected_time":1565000000000,"state":"active","ping":86},{"user_id":250,"name":"4 life","steam_id":76561198175961598,"connected_time":2263000000000,"state":"active","ping":114},{"user_id":256,"name":"Flint","steam_id":76561198066547582,"connected_time":1295000000000,"state":"active","ping":111},{"user_id":263,"name":"CRWND","steam_id":76561198329810027,"connected_time":660000000000,"state":"active","ping":146},{"user_id":248,"name":"Azuras","steam_id":76561198156416843,"connected_time":2291000000000,"state":"active","ping":105},{"user_id":254,"name":"ATL1 | BeastRyder","steam_id":76561198330281584,"connected_time":1661000000000,"state":"active","ping":81},{"user_id":266,"name":"Waffle Wannabe","steam_id":76561198064510650,"connected_time":528000000000,"state":"active","ping":70},{"user_id":239,"name":"SlurpyTheDog","steam_id":76561198799733154,"connected_time":2938000000000,"state":"active","ping":56},{"user_id":229,"name":"Sm0ky","steam_id":76561198418262145,"connected_time":3722000000000,"state":"active","ping":117},{"user_id":252,"name":"elwen","steam_id":76561198025282054,"connected_time":2209000000000,"state":"active","ping":159},{"user_id":267,"name":"floofy","steam_id":76561198389769098,"connected_time":352000000000,"state":"active","ping":87},{"user_id":225,"name":"BackwardsEagle","steam_id":76561199013712612,"connected_time":3878000000000,"state":"active","ping":81},{"user_id":242,"name":"Maxley","steam_id":76561198148602225,"connected_time":2763000000000,"state":"active","ping":66},{"user_id":243,"name":"phlog main (derogatory)","steam_id":76561198004118249,"connected_time":2729000000000,"state":"active","ping":66},{"user_id":253,"name":"Tito GInius","steam_id":76561198281359582,"connected_time":2059000000000,"state":"active","ping":90},{"user_id":249,"name":"DuckKey","steam_id":76561198904477889,"connected_time":2287000000000,"state":"active","ping":60},{"user_id":257,"name":"ATL1 | Lancer Fan Club","steam_id":76561198355495948,"connected_time":1141000000000,"state":"active","ping":71},{"user_id":260,"name":"Onyx","steam_id":76561198275349640,"connected_time":968000000000,"state":"active","ping":73},{"user_id":268,"name":"Cosmic sR","steam_id":76561198081738675,"connected_time":291000000000,"state":"active","ping":59},{"user_id":270,"name":"[txc] garf","steam_id":76561198083078030,"connected_time":269000000000,"state":"active","ping":49}]},{"server_id":104,"name":"Uncletopia | Atlanta | 2 | All Maps","name_short":"atl-2","host":"atl-1.us.uncletopia.com","port":27025,"enabled":true,"region":"us-east","cc":"us","latitude":33.753746,"longitude":-84.38633,"reserved":0,"last_update":"0001-01-01T00:00:00Z","name_a2s":"Uncletopia | Atlanta | 2 | All Maps","protocol":17,"map":"pl_borneo","folder":"tf","game":"Team Fortress","app_id":440,"player_count":23,"max_players":24,"Bots":0,"server_type":"Dedicated","server_os":"Linux","password":true,"vac":true,"version":"7757534","steam_id":85568392924469983,"keywords":["nocrits","nodmgspread","payload","uncletopia"],"game_id":440,"stv_port":27026,"stv_name":"Uncletopia | Atlanta | 2 | All Maps | STV","players":[{"user_id":191,"name":"Shork","steam_id":76561199097534592,"connected_time":7000000000,"state":"active","ping":344},{"user_id":150,"name":"Mtasorln Lurgy","steam_id":76561198205907263,"connected_time":2525000000000,"state":"active","ping":53},{"user_id":184,"name":"Kickpuncher","steam_id":76561198121528357,"connected_time":514000000000,"state":"active","ping":71},{"user_id":190,"name":"highmechs","steam_id":76561198013650292,"connected_time":102000000000,"state":"active","ping":89},{"user_id":192,"name":"Cat in Your Backyard","steam_id":76561197979078330,"connected_time":4000000000,"state":"spawning","ping":75},{"user_id":117,"name":"Wumbologist","steam_id":76561198188729514,"connected_time":5188000000000,"state":"active","ping":47},{"user_id":182,"name":"Bzamo","steam_id":76561198039883392,"connected_time":610000000000,"state":"active","ping":59},{"user_id":166,"name":"Bill Carr","steam_id":76561198110033943,"connected_time":1177000000000,"state":"active","ping":128},{"user_id":146,"name":"lol","steam_id":76561199097866312,"connected_time":3374000000000,"state":"active","ping":88},{"user_id":128,"name":"idk100987","steam_id":76561199447977988,"connected_time":4298000000000,"state":"active","ping":92},{"user_id":186,"name":"whats an egg","steam_id":76561198991039398,"connected_time":373000000000,"state":"active","ping":63},{"user_id":185,"name":"Sideways Whoopi Goldberg","steam_id":76561198003736560,"connected_time":488000000000,"state":"active","ping":59},{"user_id":154,"name":"The Loveable CHI.I.BI.","steam_id":76561198039262228,"connected_time":2432000000000,"state":"active","ping":52},{"user_id":170,"name":"troll","steam_id":76561198040890252,"connected_time":1084000000000,"state":"active","ping":56},{"user_id":187,"name":"Raine","steam_id":76561199081937889,"connected_time":354000000000,"state":"active","ping":58},{"user_id":180,"name":"vastrobotmax","steam_id":76561198417110724,"connected_time":628000000000,"state":"active","ping":85},{"user_id":188,"name":"Splnter","steam_id":76561198874186629,"connected_time":349000000000,"state":"active","ping":88},{"user_id":142,"name":"(no monitor) ayylien","steam_id":76561198042127970,"connected_time":3549000000000,"state":"active","ping":59},{"user_id":91,"name":"Marc G","steam_id":76561198062650363,"connected_time":8344000000000,"state":"active","ping":69},{"user_id":175,"name":"superprogamerman2009","steam_id":76561199393831863,"connected_time":880000000000,"state":"active","ping":139},{"user_id":143,"name":"SPOOKY_","steam_id":76561198073395404,"connected_time":3521000000000,"state":"active","ping":154},{"user_id":174,"name":"box","steam_id":76561198049531483,"connected_time":939000000000,"state":"active","ping":73},{"user_id":99,"name":"The Circle rules Your Life","steam_id":76561198072095399,"connected_time":8096000000000,"state":"active","ping":57}]},{"server_id":400,"name":"Uncletopia | Atlanta | 3 | Community","name_short":"atl-3","host":"atl-1.us.uncletopia.com","port":27035,"enabled":true,"region":"us-east","cc":"us","latitude":33.753746,"longitude":-84.38633,"reserved":0,"last_update":"0001-01-01T00:00:00Z","name_a2s":"Uncletopia | Atlanta | 3 | Community","protocol":17,"map":"workshop/koth_ashville_final.ugc2130459942","folder":"tf","game":"Team Fortress","app_id":440,"player_count":0,"max_players":24,"Bots":0,"server_type":"Dedicated","server_os":"Linux","password":true,"vac":true,"version":"7757534","steam_id":85568392924515187,"keywords":["cp","nocrits","nodmgspread","uncletopia"],"game_id":440,"stv_port":27036,"stv_name":"Uncletopia | Atlanta | 3 | Community | STV","players":null},{"server_id":401,"name":"Uncletopia | Atlanta | 4 | No Payload","name_short":"atl-4","host":"atl-1.us.uncletopia.com","port":27045,"enabled":true,"region":"us-east","cc":"us","latitude":33.753746,"longitude":-84.38633,"reserved":0,"last_update":"0001-01-01T00:00:00Z","name_a2s":"","protocol":0,"map":"","folder":"","game":"","app_id":0,"player_count":0,"max_players":0,"Bots":0,"server_type":"","server_os":"","password":false,"vac":false,"version":"","steam_id":0,"keywords":null,"game_id":0,"stv_port":0,"stv_name":"","players":null},{"server_id":2,"name":"Uncletopia | Chicago | 1 | All Maps","name_short":"chi-1","host":"chi-1.us.uncletopia.com","port":27015,"enabled":true,"region":"us-central","cc":"us","latitude":41.881832,"longitude":-87.62318,"reserved":0,"last_update":"0001-01-01T00:00:00Z","name_a2s":"Uncletopia | Chicago | 1 | All Maps","protocol":17,"map":"pl_barnblitz","folder":"tf","game":"Team Fortress","app_id":440,"player_count":21,"max_players":24,"Bots":0,"server_type":"Dedicated","server_os":"Linux","password":true,"vac":true,"version":"7757534","steam_id":85568392924469984,"keywords":["nocrits","nodmgspread","payload","uncletopia"],"game_id":440,"stv_port":27016,"stv_name":"Uncletopia | Chicago | 1 | All Maps | STV","players":[{"user_id":288,"name":"Bastee1021","steam_id":76561199456141163,"connected_time":160000000000,"state":"active","ping":127},{"user_id":291,"name":"$$$","steam_id":76561198218897541,"connected_time":147000000000,"state":"active","ping":64},{"user_id":275,"name":"an inebriated newt fancier","steam_id":76561197985428155,"connected_time":2116000000000,"state":"active","ping":55},{"user_id":280,"name":"Prophet","steam_id":76561198134948582,"connected_time":1306000000000,"state":"active","ping":91},{"user_id":236,"name":"I SEXED THE PUMPKIN","steam_id":76561198152641397,"connected_time":6107000000000,"state":"active","ping":47},{"user_id":285,"name":"Loogey03","steam_id":76561198155483586,"connected_time":506000000000,"state":"active","ping":56},{"user_id":259,"name":"Extinct","steam_id":76561199013696367,"connected_time":2832000000000,"state":"active","ping":71},{"user_id":289,"name":"Bear of the Polar Variety","steam_id":76561198370330710,"connected_time":155000000000,"state":"active","ping":46},{"user_id":197,"name":"Mann","steam_id":76561199030987614,"connected_time":9994000000000,"state":"active","ping":84},{"user_id":283,"name":"Krome","steam_id":76561198087317232,"connected_time":1127000000000,"state":"active","ping":74},{"user_id":290,"name":"goober","steam_id":76561199014881883,"connected_time":149000000000,"state":"active","ping":71},{"user_id":292,"name":"Lovedaddy","steam_id":76561198006569710,"connected_time":142000000000,"state":"active","ping":84},{"user_id":287,"name":"slurp","steam_id":76561198323497535,"connected_time":362000000000,"state":"active","ping":71},{"user_id":251,"name":".JIFF","steam_id":76561198045181760,"connected_time":3834000000000,"state":"active","ping":60},{"user_id":256,"name":"madturtle3","steam_id":76561198146953474,"connected_time":3275000000000,"state":"active","ping":87},{"user_id":254,"name":"kite","steam_id":76561198346516392,"connected_time":3527000000000,"state":"active","ping":64},{"user_id":262,"name":"Dwarfo","steam_id":76561198119220289,"connected_time":2807000000000,"state":"active","ping":76},{"user_id":267,"name":"Scotch Tape","steam_id":76561199389314894,"connected_time":2669000000000,"state":"active","ping":62},{"user_id":248,"name":"Doubting Dave","steam_id":76561198066410749,"connected_time":4333000000000,"state":"active","ping":78},{"user_id":263,"name":"ameritech","steam_id":76561198064769089,"connected_time":2795000000000,"state":"active","ping":74},{"user_id":277,"name":"Lia_Rein","steam_id":76561198151569597,"connected_time":2035000000000,"state":"active","ping":144}]},{"server_id":106,"name":"Uncletopia | Chicago | 2 | All Maps","name_short":"chi-2","host":"chi-1.us.uncletopia.com","port":27025,"enabled":true,"region":"us-central","cc":"us","latitude":41.881832,"longitude":-87.62318,"reserved":0,"last_update":"0001-01-01T00:00:00Z","name_a2s":"Uncletopia | Chicago | 2 | All Maps","protocol":17,"map":"pl_upward","folder":"tf","game":"Team Fortress","app_id":440,"player_count":18,"max_players":24,"Bots":0,"server_type":"Dedicated","server_os":"Linux","password":true,"vac":true,"version":"7757534","steam_id":85568392924469985,"keywords":["nocrits","nodmgspread","payload","uncletopia"],"game_id":440,"stv_port":27026,"stv_name":"Uncletopia | Chicago | 2 | All Maps | STV","players":[{"user_id":393,"name":"Jho-oh","steam_id":76561198062473436,"connected_time":1662000000000,"state":"active","ping":68},{"user_id":417,"name":"HellaCopter","steam_id":76561198062313698,"connected_time":15000000000,"state":"active","ping":95},{"user_id":397,"name":"lfty","steam_id":76561198283841707,"connected_time":1228000000000,"state":"active","ping":63},{"user_id":404,"name":"evan_is_sauce","steam_id":76561199086802383,"connected_time":536000000000,"state":"active","ping":87},{"user_id":320,"name":"andyiscolorless","steam_id":76561199239870921,"connected_time":6697000000000,"state":"active","ping":138},{"user_id":414,"name":"oomper","steam_id":76561199189982701,"connected_time":314000000000,"state":"active","ping":69},{"user_id":403,"name":"quint","steam_id":76561198046797995,"connected_time":569000000000,"state":"active","ping":67},{"user_id":409,"name":"Dr. Enforcicle (real)","steam_id":76561198964471859,"connected_time":434000000000,"state":"active","ping":76},{"user_id":362,"name":"Cogsmon","steam_id":76561198044977767,"connected_time":2946000000000,"state":"active","ping":86},{"user_id":312,"name":"Kieran","steam_id":76561198072788168,"connected_time":7667000000000,"state":"active","ping":71},{"user_id":406,"name":"blazzeh","steam_id":76561198053407069,"connected_time":525000000000,"state":"active","ping":98},{"user_id":408,"name":"The Moon","steam_id":76561198082926682,"connected_time":436000000000,"state":"active","ping":85},{"user_id":348,"name":"enmgxcltayiqoacx","steam_id":76561197974965536,"connected_time":4277000000000,"state":"active","ping":53},{"user_id":337,"name":"crumblejon","steam_id":76561198111273302,"connected_time":5839000000000,"state":"active","ping":60},{"user_id":416,"name":"too funky ·óúÀ¨·óú","steam_id":76561199120399776,"connected_time":95000000000,"state":"active","ping":75},{"user_id":391,"name":"A Shiny Meat Bicycle","steam_id":76561198358757709,"connected_time":1844000000000,"state":"active","ping":101},{"user_id":412,"name":"k3nny11","steam_id":76561198182533757,"connected_time":376000000000,"state":"active","ping":64},{"user_id":413,"name":"conscripted monk","steam_id":76561199029246232,"connected_time":363000000000,"state":"active","ping":69}]},{"server_id":402,"name":"Uncletopia | Chicago | 3 | All Maps","name_short":"chi-3","host":"chi-1.us.uncletopia.com","port":27035,"enabled":true,"region":"us-central","cc":"us","latitude":41.881832,"longitude":-87.62318,"reserved":0,"last_update":"0001-01-01T00:00:00Z","name_a2s":"Uncletopia | Chicago | 3 | All Maps","protocol":17,"map":"pl_badwater","folder":"tf","game":"Team Fortress","app_id":440,"player_count":22,"max_players":24,"Bots":0,"server_type":"Dedicated","server_os":"Linux","password":true,"vac":true,"version":"7757534","steam_id":85568392924515191,"keywords":["nocrits","nodmgspread","payload","uncletopia"],"game_id":440,"stv_port":27036,"stv_name":"Uncletopia | Chicago | 3 | All Maps | STV","players":[{"user_id":307,"name":"\u003c3Elise\u003c3","steam_id":76561198146435005,"connected_time":25000000000,"state":"active","ping":79},{"user_id":304,"name":"LEGACYYYYYYYYYYYYYYYYYYYYYY","steam_id":76561198172421881,"connected_time":76000000000,"state":"active","ping":75},{"user_id":308,"name":"orlando","steam_id":76561198128347876,"connected_time":1000000000,"state":"spawning","ping":92},{"user_id":306,"name":"Smiles","steam_id":76561198107197973,"connected_time":58000000000,"state":"spawning","ping":59},{"user_id":274,"name":"CPT. Giga Chad","steam_id":76561198059785363,"connected_time":1947000000000,"state":"active","ping":71},{"user_id":255,"name":"carp","steam_id":76561198042865147,"connected_time":3301000000000,"state":"active","ping":68},{"user_id":271,"name":"Cookie","steam_id":76561198047736899,"connected_time":2506000000000,"state":"active","ping":54},{"user_id":291,"name":"Crazy Cane","steam_id":76561198993941174,"connected_time":1206000000000,"state":"active","ping":69},{"user_id":276,"name":"Moffein","steam_id":76561198016739296,"connected_time":1714000000000,"state":"active","ping":93},{"user_id":297,"name":"Herment","steam_id":76561198710005863,"connected_time":579000000000,"state":"active","ping":77},{"user_id":278,"name":"GuyGoom","steam_id":76561198254522178,"connected_time":1656000000000,"state":"active","ping":58},{"user_id":279,"name":"Recursive Gamer","steam_id":76561198042102952,"connected_time":1547000000000,"state":"active","ping":64},{"user_id":302,"name":"gargoyle","steam_id":76561198856903497,"connected_time":166000000000,"state":"active","ping":156},{"user_id":280,"name":"nines","steam_id":76561198078992548,"connected_time":1545000000000,"state":"active","ping":75},{"user_id":265,"name":"ExtremeDucks","steam_id":76561198351756464,"connected_time":2742000000000,"state":"active","ping":81},{"user_id":282,"name":"Raydeo","steam_id":76561198073281298,"connected_time":1519000000000,"state":"active","ping":35},{"user_id":301,"name":"MeMyBongusAndTheGreatOutdoors","steam_id":76561198097708978,"connected_time":177000000000,"state":"active","ping":77},{"user_id":288,"name":"Balerion the Black Dread","steam_id":76561198003728369,"connected_time":1434000000000,"state":"active","ping":69},{"user_id":294,"name":"NUDIST AMBUSHER","steam_id":76561199039152146,"connected_time":805000000000,"state":"active","ping":85},{"user_id":273,"name":"Big Jack Horner","steam_id":76561198847690613,"connected_time":2228000000000,"state":"active","ping":61},{"user_id":268,"name":"Fobby #Savetf2","steam_id":76561198047681469,"connected_time":2601000000000,"state":"active","ping":73},{"user_id":300,"name":"i really like this dog :)","steam_id":76561198882404753,"connected_time":205000000000,"state":"active","ping":75}]},{"server_id":403,"name":"Uncletopia | Chicago | 4 | All Maps","name_short":"chi-4","host":"chi-1.us.uncletopia.com","port":27045,"enabled":true,"region":"us-central","cc":"us","latitude":41.881832,"longitude":-87.62318,"reserved":0,"last_update":"0001-01-01T00:00:00Z","name_a2s":"Uncletopia | Chicago | 4 | All Maps","protocol":17,"map":"cp_gorge","folder":"tf","game":"Team Fortress","app_id":440,"player_count":18,"max_players":24,"Bots":0,"server_type":"Dedicated","server_os":"Linux","password":true,"vac":true,"version":"7757534","steam_id":85568392924515193,"keywords":["cp","nocrits","nodmgspread","uncletopia"],"game_id":440,"stv_port":27046,"stv_name":"Uncletopia | Chicago | 4 | All Maps | STV","players":[{"user_id":246,"name":"spaze21","steam_id":76561198844407664,"connected_time":379000000000,"state":"active","ping":191},{"user_id":224,"name":"Koffy","steam_id":76561198184386039,"connected_time":1741000000000,"state":"active","ping":101},{"user_id":220,"name":"Letty_VR","steam_id":76561198996642919,"connected_time":1986000000000,"state":"active","ping":58},{"user_id":251,"name":"OY!","steam_id":76561198044189319,"connected_time":86000000000,"state":"active","ping":91},{"user_id":254,"name":"huh6750","steam_id":76561199094058555,"connected_time":13000000000,"state":"spawning","ping":60},{"user_id":244,"name":"xTSxbob T.S.H.A","steam_id":76561198130440530,"connected_time":474000000000,"state":"active","ping":71},{"user_id":236,"name":"Cruisin'","steam_id":76561199245457119,"connected_time":1232000000000,"state":"active","ping":80},{"user_id":252,"name":"Gus Fring's Cousin","steam_id":76561198254364557,"connected_time":69000000000,"state":"active","ping":72},{"user_id":253,"name":"lucy","steam_id":76561198135559825,"connected_time":67000000000,"state":"active","ping":60},{"user_id":237,"name":"Crustacean Daddy","steam_id":76561198993807061,"connected_time":1207000000000,"state":"active","ping":85},{"user_id":163,"name":"J1407B","steam_id":76561199003447981,"connected_time":6819000000000,"state":"active","ping":96},{"user_id":222,"name":"sailor","steam_id":76561198091015050,"connected_time":1801000000000,"state":"active","ping":46},{"user_id":223,"name":"Greasy Guavas","steam_id":76561198089650428,"connected_time":1782000000000,"state":"active","ping":72},{"user_id":225,"name":"Firedrakecheerful","steam_id":76561198141166902,"connected_time":1718000000000,"state":"active","ping":49},{"user_id":215,"name":"Kng","steam_id":76561198993248203,"connected_time":2674000000000,"state":"active","ping":87},{"user_id":240,"name":"Cookie","steam_id":76561198283317413,"connected_time":1087000000000,"state":"active","ping":57},{"user_id":214,"name":"Oneal","steam_id":76561198026564095,"connected_time":2750000000000,"state":"active","ping":53},{"user_id":231,"name":"delusional schizophrenic","steam_id":76561198323435040,"connected_time":1532000000000,"state":"active","ping":76}]},{"server_id":36,"name":"Uncletopia | Chicago | 5 | All Maps","name_short":"chi-5","host":"chi-2.us.uncletopia.com","port":27015,"enabled":true,"region":"us-central","cc":"us","latitude":41.881832,"longitude":-87.62318,"reserved":0,"last_update":"0001-01-01T00:00:00Z","name_a2s":"Uncletopia | Chicago | 5 | All Maps","protocol":17,"map":"pl_badwater","folder":"tf","game":"Team Fortress","app_id":440,"player_count":24,"max_players":24,"Bots":0,"server_type":"Dedicated","server_os":"Linux","password":true,"vac":true,"version":"7757534","steam_id":85568392924866362,"keywords":["nocrits","nodmgspread","payload","uncletopia"],"game_id":440,"stv_port":27016,"stv_name":"Uncletopia | Chicago | 5 | All Maps | STV","players":[{"user_id":10,"name":"Hovg9000.TV","steam_id":76561199191556710,"connected_time":5305000000000,"state":"active","ping":96},{"user_id":61,"name":"Lucksman","steam_id":76561198306997894,"connected_time":1008000000000,"state":"active","ping":82},{"user_id":74,"name":"CJDGuy","steam_id":76561198213009545,"connected_time":73000000000,"state":"active","ping":53},{"user_id":48,"name":"OhNoJericho_","steam_id":76561198218566895,"connected_time":1703000000000,"state":"active","ping":75},{"user_id":56,"name":"Pluto","steam_id":76561198338593690,"connected_time":1280000000000,"state":"active","ping":80},{"user_id":52,"name":"Chancethefapper69","steam_id":76561198173086317,"connected_time":1604000000000,"state":"active","ping":73},{"user_id":19,"name":"The Unknown","steam_id":76561198270013890,"connected_time":3311000000000,"state":"active","ping":100},{"user_id":72,"name":"sansa musa","steam_id":76561198163723555,"connected_time":187000000000,"state":"active","ping":60},{"user_id":70,"name":"Curlytop","steam_id":76561198368845472,"connected_time":577000000000,"state":"active","ping":93},{"user_id":29,"name":"The Janitor","steam_id":76561198370152780,"connected_time":2563000000000,"state":"active","ping":67},{"user_id":63,"name":"Captain Hotdog","steam_id":76561198059812666,"connected_time":801000000000,"state":"active","ping":94},{"user_id":64,"name":"Once in a Lifetime","steam_id":76561199180652178,"connected_time":792000000000,"state":"active","ping":90},{"user_id":65,"name":"RyInc","steam_id":76561198874261643,"connected_time":792000000000,"state":"active","ping":45},{"user_id":66,"name":"claeb :)","steam_id":76561198028761580,"connected_time":786000000000,"state":"active","ping":61},{"user_id":34,"name":"Your Local Festive Furry","steam_id":76561199030190462,"connected_time":2483000000000,"state":"active","ping":59},{"user_id":38,"name":"Soju","steam_id":76561198044130442,"connected_time":2451000000000,"state":"active","ping":77},{"user_id":36,"name":"mcjuice","steam_id":76561198087730829,"connected_time":2468000000000,"state":"active","ping":65},{"user_id":53,"name":"Ham","steam_id":76561199217678959,"connected_time":1532000000000,"state":"active","ping":73},{"user_id":71,"name":"Jimmy jam123","steam_id":76561199216003981,"connected_time":213000000000,"state":"active","ping":93},{"user_id":49,"name":"omyy","steam_id":76561198334751997,"connected_time":1675000000000,"state":"active","ping":85},{"user_id":68,"name":"„ÄåÍú±·¥õ…™…¥·¥ã è„Äç","steam_id":76561198190323610,"connected_time":782000000000,"state":"active","ping":90},{"user_id":73,"name":"ayecodex","steam_id":76561199477598858,"connected_time":166000000000,"state":"active","ping":62},{"user_id":69,"name":"Killerkarate","steam_id":76561198067533929,"connected_time":779000000000,"state":"active","ping":54},{"user_id":54,"name":"Legolele7","steam_id":76561198141865597,"connected_time":1527000000000,"state":"active","ping":124}]},{"server_id":37,"name":"Uncletopia | Chicago | 6 | All Maps","name_short":"chi-6","host":"chi-2.us.uncletopia.com","port":27025,"enabled":true,"region":"us-central","cc":"us","latitude":41.881832,"longitude":-87.62318,"reserved":0,"last_update":"0001-01-01T00:00:00Z","name_a2s":"Uncletopia | Chicago | 6 | All Maps","protocol":17,"map":"cp_sunshine","folder":"tf","game":"Team Fortress","app_id":440,"player_count":24,"max_players":24,"Bots":0,"server_type":"Dedicated","server_os":"Linux","password":true,"vac":true,"version":"7757534","steam_id":85568392924866363,"keywords":["cp","nocrits","nodmgspread","uncletopia"],"game_id":440,"stv_port":27026,"stv_name":"Uncletopia | Chicago | 6 | All Maps | STV","players":[{"user_id":169,"name":"One Confused Proton","steam_id":76561199372053610,"connected_time":3151000000000,"state":"active","ping":82},{"user_id":173,"name":"BoX_hEaD101","steam_id":76561198200875467,"connected_time":2502000000000,"state":"active","ping":119},{"user_id":171,"name":"Mask","steam_id":76561198877649728,"connected_time":2753000000000,"state":"active","ping":216},{"user_id":199,"name":"Seojer","steam_id":76561198234965408,"connected_time":1377000000000,"state":"active","ping":116},{"user_id":195,"name":"Quark","steam_id":76561198328155605,"connected_time":1461000000000,"state":"active","ping":52},{"user_id":158,"name":"Tamalito109","steam_id":76561198310531554,"connected_time":4461000000000,"state":"active","ping":92},{"user_id":176,"name":"bomb","steam_id":76561198359135819,"connected_time":2361000000000,"state":"active","ping":107},{"user_id":206,"name":"Gheeotine","steam_id":76561198010181698,"connected_time":333000000000,"state":"active","ping":96},{"user_id":197,"name":"Tony Pajamas","steam_id":76561198102299438,"connected_time":1398000000000,"state":"active","ping":64},{"user_id":179,"name":"Eviscerator","steam_id":76561197980073637,"connected_time":2281000000000,"state":"active","ping":70},{"user_id":180,"name":"Pazz :)","steam_id":76561198122629890,"connected_time":2226000000000,"state":"active","ping":64},{"user_id":181,"name":"chen","steam_id":76561198064872330,"connected_time":2187000000000,"state":"active","ping":65},{"user_id":198,"name":"Discourse","steam_id":76561198984286678,"connected_time":1394000000000,"state":"active","ping":57},{"user_id":183,"name":"shniper","steam_id":76561199023476841,"connected_time":2138000000000,"state":"active","ping":59},{"user_id":184,"name":"SCraig64","steam_id":76561198171251965,"connected_time":2114000000000,"state":"active","ping":74},{"user_id":204,"name":"Nelson","steam_id":76561198850327678,"connected_time":1039000000000,"state":"active","ping":95},{"user_id":186,"name":"The local hobo","steam_id":76561198289650060,"connected_time":2025000000000,"state":"active","ping":82},{"user_id":200,"name":"STONE COLD","steam_id":76561198041643833,"connected_time":1369000000000,"state":"active","ping":90},{"user_id":192,"name":"flappyflap2","steam_id":76561198285048973,"connected_time":1717000000000,"state":"active","ping":60},{"user_id":188,"name":"nat","steam_id":76561198865090309,"connected_time":2007000000000,"state":"active","ping":83},{"user_id":205,"name":"J.G. Klaus","steam_id":76561198001111196,"connected_time":631000000000,"state":"active","ping":67},{"user_id":189,"name":"DerpFamous","steam_id":76561198046167888,"connected_time":1946000000000,"state":"active","ping":60},{"user_id":194,"name":"Œõlxium","steam_id":76561198131272900,"connected_time":1609000000000,"state":"active","ping":51},{"user_id":201,"name":"robot with human hair","steam_id":76561198018691308,"connected_time":1363000000000,"state":"active","ping":75}]},{"server_id":38,"name":"Uncletopia | Chicago | 7 | Stopwatch Beta","name_short":"chi-7","host":"chi-2.us.uncletopia.com","port":27035,"enabled":true,"region":"us-central","cc":"us","latitude":41.881832,"longitude":-87.62318,"reserved":0,"last_update":"0001-01-01T00:00:00Z","name_a2s":"Uncletopia | Chicago | 7 | Stopwatch Beta","protocol":17,"map":"pl_barnblitz","folder":"tf","game":"Team Fortress","app_id":440,"player_count":0,"max_players":24,"Bots":0,"server_type":"Dedicated","server_os":"Linux","password":true,"vac":true,"version":"7757534","steam_id":85568392924866364,"keywords":["nocrits","nodmgspread","payload","uncletopia"],"game_id":440,"stv_port":27036,"stv_name":"Uncletopia | Chicago | 7 | Stopwatch Beta | STV","players":null},{"server_id":39,"name":"Uncletopia | Chicago | 8 | Community","name_short":"chi-8","host":"chi-2.us.uncletopia.com","port":27045,"enabled":true,"region":"us-central","cc":"us","latitude":41.881832,"longitude":-87.62318,"reserved":0,"last_update":"0001-01-01T00:00:00Z","name_a2s":"Uncletopia | Chicago | 8 | Community","protocol":17,"map":"koth_cascade","folder":"tf","game":"Team Fortress","app_id":440,"player_count":0,"max_players":24,"Bots":0,"server_type":"Dedicated","server_os":"Linux","password":true,"vac":true,"version":"7757534","steam_id":85568392924866365,"keywords":["cp","nocrits","nodmgspread","uncletopia"],"game_id":440,"stv_port":27046,"stv_name":"Uncletopia | Chicago | 8 | Community | STV","players":null},{"server_id":8,"name":"Uncletopia | Dallas | 1 | All Maps","name_short":"dal-1","host":"dal-1.us.uncletopia.com","port":27015,"enabled":true,"region":"us-central","cc":"us","latitude":32.779167,"longitude":-96.80889,"reserved":0,"last_update":"0001-01-01T00:00:00Z","name_a2s":"Uncletopia | Dallas | 1 | All Maps","protocol":17,"map":"cp_mossrock","folder":"tf","game":"Team Fortress","app_id":440,"player_count":24,"max_players":24,"Bots":0,"server_type":"Dedicated","server_os":"Linux","password":true,"vac":true,"version":"7757534","steam_id":85568392924469986,"keywords":["cp","nocrits","nodmgspread","uncletopia"],"game_id":440,"stv_port":27016,"stv_name":"Uncletopia | Dallas | 1 | All Maps | STV","players":[{"user_id":257,"name":"momb","steam_id":76561198142234038,"connected_time":1796000000000,"state":"active","ping":84},{"user_id":283,"name":"roleycoley","steam_id":76561198069574107,"connected_time":465000000000,"state":"active","ping":47},{"user_id":263,"name":"Loashes","steam_id":76561198119608299,"connected_time":1383000000000,"state":"active","ping":62},{"user_id":269,"name":"AlmondPlanes500","steam_id":76561199012992052,"connected_time":1216000000000,"state":"active","ping":99},{"user_id":276,"name":"silliest guy","steam_id":76561198066566813,"connected_time":928000000000,"state":"active","ping":102},{"user_id":280,"name":"Seller of Waffles","steam_id":76561198296018138,"connected_time":858000000000,"state":"active","ping":71},{"user_id":284,"name":"The Lasagna Hunter","steam_id":76561199222602638,"connected_time":346000000000,"state":"active","ping":60},{"user_id":184,"name":"X-7","steam_id":76561198127217378,"connected_time":7722000000000,"state":"active","ping":133},{"user_id":189,"name":"A Straw","steam_id":76561199367935846,"connected_time":7237000000000,"state":"active","ping":69},{"user_id":272,"name":"Technic","steam_id":76561198200302281,"connected_time":1164000000000,"state":"active","ping":74},{"user_id":282,"name":"Zing","steam_id":76561198097160898,"connected_time":491000000000,"state":"active","ping":76},{"user_id":260,"name":"sudoku_fiend","steam_id":76561198152029104,"connected_time":1470000000000,"state":"active","ping":146},{"user_id":275,"name":"THE_DARK_TRICKSTER","steam_id":76561198870649125,"connected_time":1112000000000,"state":"active","ping":141},{"user_id":277,"name":"PEPPINO SPAGHETTI","steam_id":76561198084849541,"connected_time":926000000000,"state":"active","ping":45},{"user_id":273,"name":"johngaming220","steam_id":76561199119202785,"connected_time":1162000000000,"state":"active","ping":89},{"user_id":240,"name":"Kazmirl [Youtube]","steam_id":76561198116008410,"connected_time":2762000000000,"state":"active","ping":95},{"user_id":278,"name":"Hipster Killer","steam_id":76561198068569249,"connected_time":921000000000,"state":"active","ping":102},{"user_id":279,"name":"HeatedArtist","steam_id":76561198961937603,"connected_time":906000000000,"state":"active","ping":114},{"user_id":253,"name":"Ninty","steam_id":76561199364725776,"connected_time":2271000000000,"state":"active","ping":88},{"user_id":267,"name":"cake-mix","steam_id":76561199475394535,"connected_time":1315000000000,"state":"active","ping":101},{"user_id":256,"name":"IT WON'T LET ME","steam_id":76561198951344437,"connected_time":1884000000000,"state":"active","ping":72},{"user_id":258,"name":"üå∏MelWormüå∏","steam_id":76561198084145814,"connected_time":1578000000000,"state":"active","ping":66},{"user_id":265,"name":"U C ME!?","steam_id":76561199038072811,"connected_time":1373000000000,"state":"active","ping":73},{"user_id":281,"name":"Space_Cowboy","steam_id":76561198202240772,"connected_time":855000000000,"state":"active","ping":60}]},{"server_id":108,"name":"Uncletopia | Dallas | 2 | All Maps","name_short":"dal-2","host":"dal-1.us.uncletopia.com","port":27025,"enabled":true,"region":"us-central","cc":"us","latitude":32.779167,"longitude":-96.80889,"reserved":0,"last_update":"0001-01-01T00:00:00Z","name_a2s":"Uncletopia | Dallas | 2 | All Maps","protocol":17,"map":"pl_badwater","folder":"tf","game":"Team Fortress","app_id":440,"player_count":1,"max_players":24,"Bots":0,"server_type":"Dedicated","server_os":"Linux","password":true,"vac":true,"version":"7757534","steam_id":85568392924469988,"keywords":["nocrits","nodmgspread","payload","uncletopia"],"game_id":440,"stv_port":27026,"stv_name":"Uncletopia | Dallas | 2 | All Maps | STV","players":[{"user_id":239,"name":"jregueiro08","steam_id":76561199251785909,"connected_time":90000000000,"state":"active","ping":59}]},{"server_id":5,"name":"Uncletopia | Frankfurt | 1 | All Maps","name_short":"frk-1","host":"frk-1.de.uncletopia.com","port":27015,"enabled":true,"region":"eu","cc":"de","latitude":50.110924,"longitude":8.682127,"reserved":0,"last_update":"0001-01-01T00:00:00Z","name_a2s":"Uncletopia | Frankfurt | 1 | All Maps","protocol":17,"map":"cp_gorge","folder":"tf","game":"Team Fortress","app_id":440,"player_count":24,"max_players":24,"Bots":0,"server_type":"Dedicated","server_os":"Linux","password":true,"vac":true,"version":"7757534","steam_id":85568392924469989,"keywords":["cp","nocrits","nodmgspread","uncletopia"],"game_id":440,"stv_port":27016,"stv_name":"Uncletopia | Frankfurt | 1 | All Maps | STV","players":[{"user_id":577,"name":"Improvised Explosive Diarrhea","steam_id":76561198449261973,"connected_time":1029000000000,"state":"active","ping":78},{"user_id":491,"name":"Scipionemiliano","steam_id":76561198027646559,"connected_time":5292000000000,"state":"active","ping":127},{"user_id":561,"name":"Edmost","steam_id":76561198090748165,"connected_time":2029000000000,"state":"active","ping":59},{"user_id":575,"name":"‚òÅ Lou1smeister ‚òÅ","steam_id":76561198004032968,"connected_time":1144000000000,"state":"active","ping":66},{"user_id":574,"name":"Mau","steam_id":76561198003382595,"connected_time":1196000000000,"state":"active","ping":59},{"user_id":552,"name":"peso enjoyer","steam_id":76561198798177799,"connected_time":2476000000000,"state":"active","ping":67},{"user_id":559,"name":"Devil","steam_id":76561198129721935,"connected_time":2204000000000,"state":"active","ping":88},{"user_id":506,"name":"Benzo Fury","steam_id":76561198025259336,"connected_time":4488000000000,"state":"active","ping":50},{"user_id":571,"name":"lamalakamala","steam_id":76561198314076661,"connected_time":1531000000000,"state":"active","ping":101},{"user_id":583,"name":"dodo","steam_id":76561198252698930,"connected_time":854000000000,"state":"active","ping":67},{"user_id":592,"name":"Cheap Smuck","steam_id":76561198898294060,"connected_time":223000000000,"state":"active","ping":60},{"user_id":565,"name":"Mari Christmas","steam_id":76561197997020707,"connected_time":1679000000000,"state":"active","ping":64},{"user_id":585,"name":"TidB","steam_id":76561198055342304,"connected_time":708000000000,"state":"active","ping":56},{"user_id":530,"name":"Tesla","steam_id":76561198378649144,"connected_time":2978000000000,"state":"active","ping":59},{"user_id":586,"name":"Kriba","steam_id":76561198392985993,"connected_time":703000000000,"state":"active","ping":70},{"user_id":581,"name":"KeTlEr","steam_id":76561198100957443,"connected_time":947000000000,"state":"active","ping":78},{"user_id":538,"name":"[O\u0026O]YaboiDucki","steam_id":76561198195976589,"connected_time":2874000000000,"state":"active","ping":72},{"user_id":590,"name":"CptHavvock","steam_id":76561199189740651,"connected_time":490000000000,"state":"active","ping":83},{"user_id":562,"name":"Ratatatatatatouille","steam_id":76561198182267098,"connected_time":1887000000000,"state":"active","ping":86},{"user_id":593,"name":"Big Al","steam_id":76561198067692439,"connected_time":220000000000,"state":"active","ping":107},{"user_id":582,"name":"hlug2340","steam_id":76561198087970118,"connected_time":946000000000,"state":"active","ping":118},{"user_id":591,"name":"FlopPatrick Bateman","steam_id":76561198115901626,"connected_time":455000000000,"state":"active","ping":177},{"user_id":594,"name":"Isaac Boush","steam_id":76561198179746529,"connected_time":218000000000,"state":"active","ping":81},{"user_id":572,"name":"Daftsins","steam_id":76561198279804974,"connected_time":1393000000000,"state":"active","ping":59}]},{"server_id":110,"name":"Uncletopia | Frankfurt | 2 | All Maps","name_short":"frk-2","host":"frk-1.de.uncletopia.com","port":27025,"enabled":true,"region":"eu","cc":"de","latitude":50.110924,"longitude":8.682127,"reserved":0,"last_update":"0001-01-01T00:00:00Z","name_a2s":"Uncletopia | Frankfurt | 2 | All Maps","protocol":17,"map":"pl_barnblitz","folder":"tf","game":"Team Fortress","app_id":440,"player_count":23,"max_players":24,"Bots":0,"server_type":"Dedicated","server_os":"Linux","password":true,"vac":true,"version":"7757534","steam_id":85568392924469990,"keywords":["nocrits","nodmgspread","payload","uncletopia"],"game_id":440,"stv_port":27026,"stv_name":"Uncletopia | Frankfurt | 2 | All Maps | STV","players":[{"user_id":461,"name":"Qwerty","steam_id":76561198023525894,"connected_time":2046000000000,"state":"active","ping":82},{"user_id":457,"name":"New","steam_id":76561198402195911,"connected_time":2109000000000,"state":"active","ping":107},{"user_id":454,"name":"Kvicha Kvaratskhelia","steam_id":76561198179339326,"connected_time":2579000000000,"state":"active","ping":75},{"user_id":487,"name":"cat","steam_id":76561198305304708,"connected_time":22000000000,"state":"active","ping":61},{"user_id":448,"name":"Birdseye","steam_id":76561198025852216,"connected_time":3156000000000,"state":"active","ping":60},{"user_id":473,"name":"breedable","steam_id":76561198010300032,"connected_time":1214000000000,"state":"active","ping":60},{"user_id":458,"name":"xTheDarkLight","steam_id":76561198239128298,"connected_time":2081000000000,"state":"active","ping":49},{"user_id":474,"name":"UltimateAura","steam_id":76561198338361324,"connected_time":1202000000000,"state":"active","ping":45},{"user_id":460,"name":"{TPF}Badaabing","steam_id":76561197996161449,"connected_time":2078000000000,"state":"active","ping":73},{"user_id":427,"name":"dn4k","steam_id":76561199221755690,"connected_time":4660000000000,"state":"active","ping":76},{"user_id":486,"name":"Dewotter","steam_id":76561198007653168,"connected_time":240000000000,"state":"active","ping":67},{"user_id":488,"name":"MeBandae","steam_id":76561198910770432,"connected_time":19000000000,"state":"active","ping":77},{"user_id":489,"name":"cooler bones","steam_id":76561199480942903,"connected_time":11000000000,"state":"active","ping":64},{"user_id":490,"name":"Balls","steam_id":76561198086400484,"connected_time":0,"state":"spawning","ping":24},{"user_id":485,"name":"MAKENTAKEN","steam_id":76561199127359587,"connected_time":313000000000,"state":"active","ping":101},{"user_id":466,"name":"Raymus","steam_id":76561198021330407,"connected_time":1773000000000,"state":"active","ping":45},{"user_id":470,"name":"Cataleptic","steam_id":76561197997966949,"connected_time":1586000000000,"state":"active","ping":71},{"user_id":455,"name":"Kibby","steam_id":76561197990056450,"connected_time":2448000000000,"state":"active","ping":69},{"user_id":452,"name":"xavier","steam_id":76561198076494034,"connected_time":2661000000000,"state":"active","ping":56},{"user_id":472,"name":"b_cho503","steam_id":76561199404873970,"connected_time":1389000000000,"state":"active","ping":180},{"user_id":482,"name":"Scottish Resistance","steam_id":76561198071360214,"connected_time":870000000000,"state":"active","ping":51},{"user_id":484,"name":"Can I get a Beep Beep","steam_id":76561198010730967,"connected_time":649000000000,"state":"active","ping":85},{"user_id":483,"name":"jovi_","steam_id":76561198449280552,"connected_time":856000000000,"state":"active","ping":59}]},{"server_id":308,"name":"Uncletopia | Frankfurt | 3 | All Maps","name_short":"frk-3","host":"frk-1.de.uncletopia.com","port":27035,"enabled":true,"region":"eu","cc":"de","latitude":50.110924,"longitude":8.682127,"reserved":0,"last_update":"0001-01-01T00:00:00Z","name_a2s":"Uncletopia | Frankfurt | 3 | All Maps","protocol":17,"map":"koth_cascade","folder":"tf","game":"Team Fortress","app_id":440,"player_count":0,"max_players":24,"Bots":0,"server_type":"Dedicated","server_os":"Linux","password":true,"vac":true,"version":"7757534","steam_id":85568392924504274,"keywords":["cp","nocrits","nodmgspread","uncletopia"],"game_id":440,"stv_port":27036,"stv_name":"Uncletopia | Frankfurt | 3 | All Maps | STV","players":null},{"server_id":309,"name":"Uncletopia | Frankfurt | 4 | All Maps","name_short":"frk-4","host":"frk-1.de.uncletopia.com","port":27045,"enabled":true,"region":"eu","cc":"de","latitude":50.110924,"longitude":8.682127,"reserved":0,"last_update":"0001-01-01T00:00:00Z","name_a2s":"Uncletopia | Frankfurt | 4 | All Maps","protocol":17,"map":"cp_sunshine","folder":"tf","game":"Team Fortress","app_id":440,"player_count":5,"max_players":24,"Bots":0,"server_type":"Dedicated","server_os":"Linux","password":true,"vac":true,"version":"7757534","steam_id":85568392924504275,"keywords":["cp","nocrits","nodmgspread","uncletopia"],"game_id":440,"stv_port":27046,"stv_name":"Uncletopia | Frankfurt | 4 | All Maps | STV","players":[{"user_id":566,"name":"Vitamin Weee","steam_id":76561199183937747,"connected_time":115000000000,"state":"active","ping":84},{"user_id":544,"name":"The Punch","steam_id":76561198212488780,"connected_time":1606000000000,"state":"active","ping":58},{"user_id":551,"name":"Lyzz","steam_id":76561198103622650,"connected_time":1278000000000,"state":"active","ping":69},{"user_id":552,"name":"matak","steam_id":76561198155597551,"connected_time":1261000000000,"state":"active","ping":45},{"user_id":558,"name":"Eno","steam_id":76561198387892963,"connected_time":1061000000000,"state":"active","ping":59}]},{"server_id":310,"name":"Uncletopia | Frankfurt | 5 | All Maps","name_short":"frk-5","host":"frk-1.de.uncletopia.com","port":27055,"enabled":true,"region":"eu","cc":"de","latitude":50.110924,"longitude":8.682127,"reserved":0,"last_update":"0001-01-01T00:00:00Z","name_a2s":"Uncletopia | Frankfurt | 5 | All Maps","protocol":17,"map":"koth_harvest_final","folder":"tf","game":"Team Fortress","app_id":440,"player_count":6,"max_players":24,"Bots":0,"server_type":"Dedicated","server_os":"Linux","password":true,"vac":true,"version":"7757534","steam_id":85568392924504277,"keywords":["cp","nocrits","nodmgspread","uncletopia"],"game_id":440,"stv_port":27056,"stv_name":"Uncletopia | Frankfurt | 5 | All Maps | STV","players":[{"user_id":48,"name":"Costarona","steam_id":76561197989455970,"connected_time":1205000000000,"state":"active","ping":120},{"user_id":53,"name":"Iron_Dave_Qc","steam_id":76561198159325213,"connected_time":237000000000,"state":"active","ping":133},{"user_id":54,"name":"Moutari","steam_id":76561199020465304,"connected_time":217000000000,"state":"active","ping":50},{"user_id":45,"name":"Clark","steam_id":76561198120498831,"connected_time":1686000000000,"state":"active","ping":69},{"user_id":52,"name":"Piss","steam_id":76561199284109054,"connected_time":800000000000,"state":"active","ping":86},{"user_id":46,"name":"Falling Apples","steam_id":76561198122762346,"connected_time":1676000000000,"state":"active","ping":73}]},{"server_id":311,"name":"Uncletopia | Frankfurt | 6 | All Maps","name_short":"frk-6","host":"frk-1.de.uncletopia.com","port":27065,"enabled":true,"region":"eu","cc":"de","latitude":50.110924,"longitude":8.682127,"reserved":0,"last_update":"0001-01-01T00:00:00Z","name_a2s":"Uncletopia | Frankfurt | 6 | All Maps","protocol":17,"map":"pl_barnblitz","folder":"tf","game":"Team Fortress","app_id":440,"player_count":21,"max_players":24,"Bots":0,"server_type":"Dedicated","server_os":"Linux","password":true,"vac":true,"version":"7757534","steam_id":85568392924504278,"keywords":["nocrits","nodmgspread","payload","uncletopia"],"game_id":440,"stv_port":27066,"stv_name":"Uncletopia | Frankfurt | 6 | All Maps | STV","players":[{"user_id":150,"name":"PeTrAk0S","steam_id":76561198109314762,"connected_time":357000000000,"state":"active","ping":71},{"user_id":151,"name":"Behind you","steam_id":76561198102420849,"connected_time":347000000000,"state":"active","ping":58},{"user_id":152,"name":"rummy","steam_id":76561197997573379,"connected_time":250000000000,"state":"active","ping":64},{"user_id":153,"name":"Max [FR]","steam_id":76561198444948331,"connected_time":98000000000,"state":"active","ping":62},{"user_id":154,"name":"Sydney\u003c3","steam_id":76561199478564380,"connected_time":80000000000,"state":"active","ping":160},{"user_id":149,"name":"mewcat","steam_id":76561199087050938,"connected_time":540000000000,"state":"active","ping":91},{"user_id":88,"name":"Kjat","steam_id":76561198839433592,"connected_time":4526000000000,"state":"active","ping":48},{"user_id":77,"name":"‚òÜMiNTERRRRR‚òÜ","steam_id":76561198799866156,"connected_time":5314000000000,"state":"active","ping":96},{"user_id":100,"name":"ghostie","steam_id":76561199097303487,"connected_time":3565000000000,"state":"active","ping":71},{"user_id":136,"name":"The Great Detective","steam_id":76561198118654137,"connected_time":1812000000000,"state":"active","ping":57},{"user_id":148,"name":"ev1lboyo","steam_id":76561199199499453,"connected_time":594000000000,"state":"active","ping":71},{"user_id":155,"name":"swallowed 10 pennies please hel","steam_id":76561198055816412,"connected_time":75000000000,"state":"active","ping":60},{"user_id":108,"name":"Mati [EST]","steam_id":76561197994743813,"connected_time":3269000000000,"state":"active","ping":110},{"user_id":130,"name":"a straight white male","steam_id":76561198381120660,"connected_time":2047000000000,"state":"active","ping":89},{"user_id":156,"name":"etc","steam_id":76561197998394797,"connected_time":59000000000,"state":"active","ping":60},{"user_id":138,"name":"Sir Skyber","steam_id":76561198064440004,"connected_time":1654000000000,"state":"active","ping":92},{"user_id":111,"name":"saucytomato","steam_id":76561198299799951,"connected_time":3171000000000,"state":"active","ping":68},{"user_id":157,"name":"Adopted?","steam_id":76561198118667043,"connected_time":7000000000,"state":"active","ping":91},{"user_id":142,"name":"The Noid","steam_id":76561198064326979,"connected_time":1341000000000,"state":"active","ping":164},{"user_id":114,"name":"metamikko","steam_id":76561198324704234,"connected_time":3108000000000,"state":"active","ping":119},{"user_id":116,"name":"sloppy transgirl toppy","steam_id":76561198057092208,"connected_time":3064000000000,"state":"active","ping":60}]},{"server_id":23,"name":"Uncletopia | Frankfurt | 7 | Stopwatch Beta","name_short":"frk-7","host":"frk-1.de.uncletopia.com","port":27075,"enabled":true,"region":"eu","cc":"de","latitude":50.110924,"longitude":8.682127,"reserved":0,"last_update":"0001-01-01T00:00:00Z","name_a2s":"Uncletopia | Frankfurt | 7 | Stopwatch Beta","protocol":17,"map":"workshop/koth_ramjam_rc1.ugc459778887","folder":"tf","game":"Team Fortress","app_id":440,"player_count":0,"max_players":24,"Bots":0,"server_type":"Dedicated","server_os":"Linux","password":true,"vac":true,"version":"7757534","steam_id":85568392924742827,"keywords":["cp","nocrits","nodmgspread","uncletopia"],"game_id":440,"stv_port":27076,"stv_name":"Uncletopia | Frankfurt | 7 | Stopwatch Beta | STV","players":null},{"server_id":24,"name":"Uncletopia | Frankfurt | 8 | Community","name_short":"frk-8","host":"frk-1.de.uncletopia.com","port":27085,"enabled":true,"region":"eu","cc":"de","latitude":50.110924,"longitude":8.682127,"reserved":0,"last_update":"0001-01-01T00:00:00Z","name_a2s":"Uncletopia | Frankfurt | 8 | Community","protocol":17,"map":"workshop/koth_ashville_final.ugc2130459942","folder":"tf","game":"Team Fortress","app_id":440,"player_count":0,"max_players":24,"Bots":0,"server_type":"Dedicated","server_os":"Linux","password":true,"vac":true,"version":"7757534","steam_id":85568392924742828,"keywords":["cp","nocrits","nodmgspread","uncletopia"],"game_id":440,"stv_port":27086,"stv_name":"Uncletopia | Frankfurt | 8 | Community | STV","players":null},{"server_id":202,"name":"Uncletopia | Hong Kong | 1 | All Maps","name_short":"hgk-1","host":"hgk-1.hk.uncletopia.com","port":27015,"enabled":true,"region":"asia","cc":"hk","latitude":22.302711,"longitude":114.177216,"reserved":0,"last_update":"0001-01-01T00:00:00Z","name_a2s":"Uncletopia | Hong Kong | 1 | All Maps","protocol":17,"map":"pl_borneo","folder":"tf","game":"Team Fortress","app_id":440,"player_count":0,"max_players":24,"Bots":0,"server_type":"Dedicated","server_os":"Linux","password":true,"vac":true,"version":"7757534","steam_id":85568392924494504,"keywords":["nocrits","nodmgspread","payload","uncletopia"],"game_id":440,"stv_port":27016,"stv_name":"Uncletopia | Hong Kong | 1 | All Maps | STV","players":null},{"server_id":1,"name":"Uncletopia | Los Angeles | 1 | All Maps","name_short":"lax-1","host":"lax-1.us.uncletopia.com","port":27015,"enabled":true,"region":"us-west","cc":"us","latitude":33.94279,"longitude":-118.41004,"reserved":0,"last_update":"0001-01-01T00:00:00Z","name_a2s":"Uncletopia | Los Angeles | 1 | All Maps","protocol":17,"map":"cp_dustbowl","folder":"tf","game":"Team Fortress","app_id":440,"player_count":24,"max_players":24,"Bots":0,"server_type":"Dedicated","server_os":"Linux","password":true,"vac":true,"version":"7757534","steam_id":85568392924469991,"keywords":["cp","nocrits","nodmgspread","uncletopia"],"game_id":440,"stv_port":27016,"stv_name":"Uncletopia | Los Angeles | 1 | All Maps | STV","players":[{"user_id":87,"name":"thedomterTTV","steam_id":76561198045169719,"connected_time":3405000000000,"state":"active","ping":100},{"user_id":109,"name":"no vc no c","steam_id":76561197989503095,"connected_time":1624000000000,"state":"active","ping":165},{"user_id":23,"name":"roach","steam_id":76561198354811369,"connected_time":10054000000000,"state":"active","ping":47},{"user_id":105,"name":"Jake The Snake","steam_id":76561198917115201,"connected_time":2087000000000,"state":"active","ping":84},{"user_id":119,"name":"Pump","steam_id":76561198085846167,"connected_time":274000000000,"state":"active","ping":64},{"user_id":83,"name":"Thunder","steam_id":76561198097721532,"connected_time":3924000000000,"state":"active","ping":44},{"user_id":120,"name":"Crowzie","steam_id":76561199387522441,"connected_time":84000000000,"state":"active","ping":117},{"user_id":116,"name":"üôÇüôÇüôÇüôÇüôÇ","steam_id":76561197960710212,"connected_time":1165000000000,"state":"active","ping":64},{"user_id":91,"name":"Courier711","steam_id":76561198053232343,"connected_time":3156000000000,"state":"active","ping":43},{"user_id":121,"name":"Mr8bittripper","steam_id":76561198133894229,"connected_time":71000000000,"state":"active","ping":1537},{"user_id":79,"name":"AskSoldier","steam_id":76561198152176454,"connected_time":4362000000000,"state":"active","ping":90},{"user_id":78,"name":"Go! Go! Zeppeli","steam_id":76561198040689813,"connected_time":4371000000000,"state":"active","ping":90},{"user_id":122,"name":"flo rida","steam_id":76561198226169704,"connected_time":25000000000,"state":"active","ping":49},{"user_id":108,"name":"certified internet furry","steam_id":76561199200574913,"connected_time":1811000000000,"state":"active","ping":71},{"user_id":93,"name":"_Ati","steam_id":76561198339777801,"connected_time":3066000000000,"state":"active","ping":67},{"user_id":104,"name":"squid","steam_id":76561198070236972,"connected_time":2160000000000,"state":"active","ping":60},{"user_id":111,"name":"Stupid Sexy Flanders","steam_id":76561198136311983,"connected_time":1596000000000,"state":"active","ping":128},{"user_id":117,"name":"Crazy Ivan","steam_id":76561197993072059,"connected_time":407000000000,"state":"active","ping":129},{"user_id":113,"name":"stinker","steam_id":76561198295640486,"connected_time":1565000000000,"state":"active","ping":52},{"user_id":118,"name":"[Bandit]","steam_id":76561197986919852,"connected_time":376000000000,"state":"active","ping":73},{"user_id":114,"name":"Casuallyanidiot","steam_id":76561199119545568,"connected_time":1530000000000,"state":"active","ping":55},{"user_id":115,"name":"Lepa Radiƒá","steam_id":76561198014698593,"connected_time":1498000000000,"state":"active","ping":72},{"user_id":80,"name":"peter griffindor","steam_id":76561198007867721,"connected_time":4328000000000,"state":"active","ping":51},{"user_id":123,"name":"FBI's least wanted","steam_id":76561198070380404,"connected_time":4000000000,"state":"spawning","ping":103}]},{"server_id":112,"name":"Uncletopia | Los Angeles | 2 | All Maps","name_short":"lax-2","host":"lax-1.us.uncletopia.com","port":27025,"enabled":true,"region":"us-west","cc":"us","latitude":33.94279,"longitude":-118.41004,"reserved":0,"last_update":"0001-01-01T00:00:00Z","name_a2s":"Uncletopia | Los Angeles | 2 | All Maps","protocol":17,"map":"cp_snakewater_final1","folder":"tf","game":"Team Fortress","app_id":440,"player_count":0,"max_players":24,"Bots":0,"server_type":"Dedicated","server_os":"Linux","password":true,"vac":true,"version":"7757534","steam_id":85568392924469992,"keywords":["cp","nocrits","nodmgspread","uncletopia"],"game_id":440,"stv_port":27026,"stv_name":"Uncletopia | Los Angeles | 2 | All Maps | STV","players":null},{"server_id":324,"name":"Uncletopia | Los Angeles | 3 | All Maps","name_short":"lax-3","host":"lax-1.us.uncletopia.com","port":27035,"enabled":true,"region":"us-west","cc":"us","latitude":33.94279,"longitude":-118.41004,"reserved":0,"last_update":"0001-01-01T00:00:00Z","name_a2s":"Uncletopia | Los Angeles | 3 | All Maps","protocol":17,"map":"cp_process_final","folder":"tf","game":"Team Fortress","app_id":440,"player_count":0,"max_players":24,"Bots":0,"server_type":"Dedicated","server_os":"Linux","password":true,"vac":true,"version":"7757534","steam_id":85568392924510198,"keywords":["cp","nocrits","nodmgspread","uncletopia"],"game_id":440,"stv_port":27036,"stv_name":"Uncletopia | Los Angeles | 3 | All Maps | STV","players":null},{"server_id":25,"name":"Uncletopia | Los Angeles | 4 | Stopwatch Beta","name_short":"lax-4","host":"lax-1.us.uncletopia.com","port":27045,"enabled":true,"region":"us-west","cc":"us","latitude":33.94279,"longitude":-118.41004,"reserved":0,"last_update":"0001-01-01T00:00:00Z","name_a2s":"Uncletopia | Los Angeles | 4 | Stopwatch Beta","protocol":17,"map":"pl_swiftwater_final1","folder":"tf","game":"Team Fortress","app_id":440,"player_count":0,"max_players":24,"Bots":0,"server_type":"Dedicated","server_os":"Linux","password":true,"vac":true,"version":"7757534","steam_id":85568392924510199,"keywords":["nocrits","nodmgspread","payload","uncletopia"],"game_id":440,"stv_port":27046,"stv_name":"Uncletopia | Los Angeles | 4 | Stopwatch Beta | STV","players":null},{"server_id":11,"name":"Uncletopia | London | 1 | All Maps","name_short":"lon-1","host":"lon-1.uk.uncletopia.com","port":27015,"enabled":true,"region":"eu","cc":"gb","latitude":51.509865,"longitude":-0.118092,"reserved":0,"last_update":"0001-01-01T00:00:00Z","name_a2s":"Uncletopia | London | 1 | All Maps","protocol":17,"map":"cp_snakewater_final1","folder":"tf","game":"Team Fortress","app_id":440,"player_count":23,"max_players":24,"Bots":0,"server_type":"Dedicated","server_os":"Linux","password":true,"vac":true,"version":"7757534","steam_id":85568392924367362,"keywords":["cp","nocrits","nodmgspread","uncletopia"],"game_id":440,"stv_port":27016,"stv_name":"Uncletopia | London | 1 | All Maps | STV","players":[{"user_id":690,"name":"trite","steam_id":76561197983765323,"connected_time":1940000000000,"state":"active","ping":55},{"user_id":660,"name":"gnarly business","steam_id":76561198832688767,"connected_time":6177000000000,"state":"active","ping":48},{"user_id":700,"name":"Robe Iniesta","steam_id":76561199047081427,"connected_time":412000000000,"state":"active","ping":57},{"user_id":681,"name":"Son Goku","steam_id":76561199383437138,"connected_time":2963000000000,"state":"active","ping":120},{"user_id":665,"name":"arcSolver","steam_id":76561198212013944,"connected_time":5975000000000,"state":"active","ping":54},{"user_id":653,"name":"Qpangfire","steam_id":76561198094354139,"connected_time":6806000000000,"state":"active","ping":45},{"user_id":675,"name":"Wedgeridoo","steam_id":76561198082813907,"connected_time":4149000000000,"state":"active","ping":117},{"user_id":697,"name":"goff","steam_id":76561198118989010,"connected_time":465000000000,"state":"active","ping":50},{"user_id":701,"name":"Ardbeg","steam_id":76561197973483985,"connected_time":331000000000,"state":"active","ping":52},{"user_id":651,"name":"SOPHIIEE","steam_id":76561198443798981,"connected_time":7028000000000,"state":"active","ping":58},{"user_id":666,"name":"KnugenIV","steam_id":76561198127091993,"connected_time":5972000000000,"state":"active","ping":60},{"user_id":703,"name":"KPhii","steam_id":76561198970587061,"connected_time":183000000000,"state":"active","ping":70},{"user_id":692,"name":"Lau","steam_id":76561197993573576,"connected_time":1554000000000,"state":"active","ping":92},{"user_id":677,"name":"KLAMA  ‚ù§","steam_id":76561198351549661,"connected_time":3640000000000,"state":"active","ping":75},{"user_id":672,"name":"Pestdoktor","steam_id":76561198058159271,"connected_time":4372000000000,"state":"active","ping":70},{"user_id":704,"name":"rock","steam_id":76561198093488870,"connected_time":90000000000,"state":"active","ping":59},{"user_id":699,"name":"A Pigeon","steam_id":76561198114090555,"connected_time":457000000000,"state":"active","ping":81},{"user_id":659,"name":"finbar","steam_id":76561198056812396,"connected_time":6427000000000,"state":"active","ping":85},{"user_id":696,"name":"Salty_shark","steam_id":76561198300798280,"connected_time":468000000000,"state":"active","ping":76},{"user_id":637,"name":"ayadam","steam_id":76561198161515769,"connected_time":8172000000000,"state":"active","ping":115},{"user_id":646,"name":"dec","steam_id":76561198009660168,"connected_time":7132000000000,"state":"active","ping":54},{"user_id":702,"name":"Kretur","steam_id":76561198161086266,"connected_time":276000000000,"state":"active","ping":99},{"user_id":654,"name":"noob_STALIN","steam_id":76561198273030727,"connected_time":6804000000000,"state":"active","ping":49}]},{"server_id":114,"name":"Uncletopia | London | 2 | All Maps","name_short":"lon-2","host":"lon-1.uk.uncletopia.com","port":27025,"enabled":true,"region":"eu","cc":"gb","latitude":51.509865,"longitude":-0.118092,"reserved":0,"last_update":"0001-01-01T00:00:00Z","name_a2s":"Uncletopia | London | 2 | All Maps","protocol":17,"map":"pl_frontier_final","folder":"tf","game":"Team Fortress","app_id":440,"player_count":24,"max_players":24,"Bots":0,"server_type":"Dedicated","server_os":"Linux","password":true,"vac":true,"version":"7757534","steam_id":85568392924470941,"keywords":["nocrits","nodmgspread","payload","uncletopia"],"game_id":440,"stv_port":27026,"stv_name":"Uncletopia | London | 2 | All Maps | STV","players":[{"user_id":232,"name":"Baki ‡∂û","steam_id":76561198193615529,"connected_time":818000000000,"state":"active","ping":64},{"user_id":100,"name":"Gnarville","steam_id":76561198006373329,"connected_time":11285000000000,"state":"active","ping":53},{"user_id":185,"name":"dochris.2","steam_id":76561198026478625,"connected_time":5235000000000,"state":"active","ping":49},{"user_id":186,"name":"Toa LightMakuta","steam_id":76561198212178104,"connected_time":5200000000000,"state":"active","ping":74},{"user_id":191,"name":"G6 sherlock","steam_id":76561198802967796,"connected_time":5102000000000,"state":"active","ping":111},{"user_id":219,"name":"‚ô• aura ‚ô•","steam_id":76561198066258544,"connected_time":2811000000000,"state":"active","ping":61},{"user_id":218,"name":"Captain Samo","steam_id":76561198047224482,"connected_time":3029000000000,"state":"active","ping":69},{"user_id":142,"name":"walluu","steam_id":76561198121830870,"connected_time":8401000000000,"state":"active","ping":85},{"user_id":224,"name":"Dr Ludwig","steam_id":76561198426522902,"connected_time":2231000000000,"state":"active","ping":53},{"user_id":233,"name":"SirSangoor","steam_id":76561198044462559,"connected_time":814000000000,"state":"active","ping":116},{"user_id":237,"name":"inna","steam_id":76561198168537318,"connected_time":611000000000,"state":"active","ping":76},{"user_id":238,"name":"Economic crisis","steam_id":76561198063562843,"connected_time":102000000000,"state":"active","ping":62},{"user_id":234,"name":"Supreme Sads","steam_id":76561198061061147,"connected_time":807000000000,"state":"active","ping":80},{"user_id":230,"name":"Dwevy","steam_id":76561198090379437,"connected_time":863000000000,"state":"active","ping":54},{"user_id":205,"name":"Proto-arc","steam_id":76561198012776747,"connected_time":4686000000000,"state":"active","ping":59},{"user_id":241,"name":"Johnyaazz","steam_id":76561198452749072,"connected_time":33000000000,"state":"active","ping":47},{"user_id":236,"name":"Dr.Sees [F2P]","steam_id":76561199219233587,"connected_time":747000000000,"state":"active","ping":80},{"user_id":195,"name":"hiihoo","steam_id":76561198872419251,"connected_time":5011000000000,"state":"active","ping":99},{"user_id":203,"name":"Lord of the Cows","steam_id":76561198203140640,"connected_time":4888000000000,"state":"active","ping":78},{"user_id":204,"name":"Piellino","steam_id":76561198156873276,"connected_time":4839000000000,"state":"active","ping":116},{"user_id":180,"name":"sareena","steam_id":76561198810194062,"connected_time":5796000000000,"state":"active","ping":67},{"user_id":242,"name":"Foonguz","steam_id":76561198834610534,"connected_time":33000000000,"state":"active","ping":54},{"user_id":228,"name":"Lubrsi","steam_id":76561198040208195,"connected_time":1843000000000,"state":"active","ping":46},{"user_id":231,"name":"bowchika wowa #SlavaUkraine","steam_id":76561198159564550,"connected_time":857000000000,"state":"active","ping":69}]},{"server_id":320,"name":"Uncletopia | London | 3 | All Maps","name_short":"lon-3","host":"lon-1.uk.uncletopia.com","port":27035,"enabled":true,"region":"eu","cc":"gb","latitude":51.509865,"longitude":-0.118092,"reserved":0,"last_update":"0001-01-01T00:00:00Z","name_a2s":"Uncletopia | London | 3 | All Maps","protocol":17,"map":"pl_upward","folder":"tf","game":"Team Fortress","app_id":440,"player_count":24,"max_players":24,"Bots":0,"server_type":"Dedicated","server_os":"Linux","password":true,"vac":true,"version":"7757534","steam_id":85568392924510192,"keywords":["nocrits","nodmgspread","payload","uncletopia"],"game_id":440,"stv_port":27036,"stv_name":"Uncletopia | London | 3 | All Maps | STV","players":[{"user_id":470,"name":"snuy","steam_id":76561199380115431,"connected_time":1896000000000,"state":"active","ping":46},{"user_id":478,"name":"roan","steam_id":76561197996420773,"connected_time":906000000000,"state":"active","ping":53},{"user_id":479,"name":"rudi","steam_id":76561199121842872,"connected_time":842000000000,"state":"active","ping":66},{"user_id":454,"name":"Meddler","steam_id":76561198033001402,"connected_time":2242000000000,"state":"active","ping":43},{"user_id":491,"name":"Gravel Mercenary","steam_id":76561199019412162,"connected_time":414000000000,"state":"active","ping":44},{"user_id":499,"name":"ricky pee pee","steam_id":76561198152620745,"connected_time":235000000000,"state":"active","ping":56},{"user_id":493,"name":"Whisper","steam_id":76561197990890595,"connected_time":383000000000,"state":"active","ping":68},{"user_id":500,"name":"slnc","steam_id":76561198041151496,"connected_time":154000000000,"state":"active","ping":75},{"user_id":438,"name":"Bada Bing!","steam_id":76561198073332036,"connected_time":2824000000000,"state":"active","ping":111},{"user_id":489,"name":"Fridge","steam_id":76561198071665589,"connected_time":529000000000,"state":"active","ping":104},{"user_id":448,"name":"I AM DOT","steam_id":76561198354118090,"connected_time":2328000000000,"state":"active","ping":80},{"user_id":423,"name":"Catra","steam_id":76561198077745407,"connected_time":3566000000000,"state":"active","ping":74},{"user_id":481,"name":"smrk","steam_id":76561198066926098,"connected_time":801000000000,"state":"active","ping":62},{"user_id":432,"name":"Twisted Logic ‚àû","steam_id":76561198002245428,"connected_time":3016000000000,"state":"active","ping":40},{"user_id":482,"name":"CouT1nho","steam_id":76561198203926376,"connected_time":789000000000,"state":"active","ping":41},{"user_id":483,"name":"Datenegassie","steam_id":76561198089417032,"connected_time":756000000000,"state":"active","ping":67},{"user_id":496,"name":"Soull","steam_id":76561199188088471,"connected_time":292000000000,"state":"active","ping":164},{"user_id":465,"name":"D_Ink","steam_id":76561198267716662,"connected_time":2066000000000,"state":"active","ping":36},{"user_id":449,"name":"Puboy","steam_id":76561197984617142,"connected_time":2303000000000,"state":"active","ping":63},{"user_id":487,"name":"tone","steam_id":76561197975301462,"connected_time":683000000000,"state":"active","ping":72},{"user_id":485,"name":"weed fairy","steam_id":76561197998843096,"connected_time":742000000000,"state":"active","ping":77},{"user_id":497,"name":"Jack.Orlando","steam_id":76561198802400236,"connected_time":290000000000,"state":"active","ping":81},{"user_id":498,"name":"Aeglos","steam_id":76561198248698294,"connected_time":281000000000,"state":"active","ping":52},{"user_id":490,"name":"Destinys","steam_id":76561198056132894,"connected_time":525000000000,"state":"active","ping":71}]},{"server_id":321,"name":"Uncletopia | London | 4 | All Maps","name_short":"lon-4","host":"lon-1.uk.uncletopia.com","port":27045,"enabled":true,"region":"eu","cc":"gb","latitude":51.509865,"longitude":-0.118092,"reserved":0,"last_update":"0001-01-01T00:00:00Z","name_a2s":"Uncletopia | London | 4 | All Maps","protocol":17,"map":"pl_goldrush","folder":"tf","game":"Team Fortress","app_id":440,"player_count":16,"max_players":24,"Bots":0,"server_type":"Dedicated","server_os":"Linux","password":true,"vac":true,"version":"7757534","steam_id":85568392924510193,"keywords":["nocrits","nodmgspread","payload","uncletopia"],"game_id":440,"stv_port":27046,"stv_name":"Uncletopia | London | 4 | All Maps | STV","players":[{"user_id":599,"name":"89384HDHSJDHU\u0026/","steam_id":76561198057833760,"connected_time":4550000000000,"state":"spawning","ping":2935},{"user_id":669,"name":"Star in a pond","steam_id":76561198205501279,"connected_time":22000000000,"state":"spawning","ping":103},{"user_id":666,"name":"ObiSky","steam_id":76561199045000780,"connected_time":304000000000,"state":"active","ping":69},{"user_id":663,"name":"GoatLord1","steam_id":76561198157964544,"connected_time":542000000000,"state":"active","ping":39},{"user_id":635,"name":"frosty","steam_id":76561198094560834,"connected_time":1810000000000,"state":"active","ping":46},{"user_id":658,"name":"Scout Gaming","steam_id":76561198274372297,"connected_time":789000000000,"state":"active","ping":70},{"user_id":665,"name":"cinny","steam_id":76561198832112629,"connected_time":469000000000,"state":"active","ping":166},{"user_id":653,"name":"Juiceydough","steam_id":76561197997323419,"connected_time":991000000000,"state":"active","ping":92},{"user_id":591,"name":"halo 3 rat","steam_id":76561198439007717,"connected_time":5354000000000,"state":"active","ping":71},{"user_id":478,"name":"Smash hit enjoyer","steam_id":76561198311322738,"connected_time":9388000000000,"state":"active","ping":66},{"user_id":640,"name":"G(RIZZ)LY","steam_id":76561197973234203,"connected_time":1685000000000,"state":"active","ping":67},{"user_id":641,"name":"Borat","steam_id":76561198122226417,"connected_time":1681000000000,"state":"active","ping":44},{"user_id":625,"name":"X45Y","steam_id":76561198112534025,"connected_time":2920000000000,"state":"active","ping":47},{"user_id":659,"name":"Dozer","steam_id":76561197998742338,"connected_time":773000000000,"state":"active","ping":49},{"user_id":656,"name":"Cumslee","steam_id":76561198069513194,"connected_time":940000000000,"state":"active","ping":67},{"user_id":626,"name":"horrorhynde","steam_id":76561198936703357,"connected_time":2904000000000,"state":"active","ping":91}]},{"server_id":21,"name":"Uncletopia | London | 5 | All Maps","name_short":"lon-5","host":"lon-1.uk.uncletopia.com","port":27055,"enabled":true,"region":"eu","cc":"gb","latitude":51.509865,"longitude":-0.118092,"reserved":0,"last_update":"0001-01-01T00:00:00Z","name_a2s":"Uncletopia | London | 5 | All Maps","protocol":17,"map":"pl_badwater","folder":"tf","game":"Team Fortress","app_id":440,"player_count":14,"max_players":24,"Bots":0,"server_type":"Dedicated","server_os":"Linux","password":true,"vac":true,"version":"7757534","steam_id":85568392924742829,"keywords":["nocrits","nodmgspread","payload","uncletopia"],"game_id":440,"stv_port":27056,"stv_name":"Uncletopia | London | 5 | All Maps | STV","players":[{"user_id":155,"name":"silliestguy23","steam_id":76561199072186739,"connected_time":404000000000,"state":"active","ping":55},{"user_id":152,"name":"Nugget","steam_id":76561198338916407,"connected_time":540000000000,"state":"active","ping":71},{"user_id":32,"name":"Envy","steam_id":76561198132723219,"connected_time":7948000000000,"state":"active","ping":107},{"user_id":156,"name":"bonnie gaming TF2","steam_id":76561199460297021,"connected_time":397000000000,"state":"active","ping":54},{"user_id":35,"name":"Saul Goodman","steam_id":76561198346169853,"connected_time":7897000000000,"state":"active","ping":96},{"user_id":166,"name":"ducks","steam_id":76561198166148685,"connected_time":74000000000,"state":"active","ping":28},{"user_id":149,"name":"rae","steam_id":76561199441196540,"connected_time":705000000000,"state":"active","ping":60},{"user_id":108,"name":"tube","steam_id":76561198188642265,"connected_time":3884000000000,"state":"active","ping":59},{"user_id":164,"name":"–Ωenry‚Ñ¢","steam_id":76561198199373928,"connected_time":165000000000,"state":"active","ping":85},{"user_id":150,"name":"thussu","steam_id":76561198890409949,"connected_time":692000000000,"state":"active","ping":105},{"user_id":154,"name":"DeanAdamFry","steam_id":76561198054153160,"connected_time":434000000000,"state":"active","ping":54},{"user_id":167,"name":"juju ‚ú®","steam_id":76561198966057450,"connected_time":52000000000,"state":"active","ping":74},{"user_id":168,"name":"PK Blizzard","steam_id":76561198039836567,"connected_time":46000000000,"state":"spawning","ping":37},{"user_id":57,"name":"Ficko","steam_id":76561198856075685,"connected_time":7286000000000,"state":"active","ping":113}]},{"server_id":22,"name":"Uncletopia | London | 6 | All Maps","name_short":"lon-6","host":"lon-1.uk.uncletopia.com","port":27065,"enabled":true,"region":"eu","cc":"gb","latitude":51.509865,"longitude":-0.118092,"reserved":0,"last_update":"0001-01-01T00:00:00Z","name_a2s":"Uncletopia | London | 6 | All Maps","protocol":17,"map":"cp_process_final","folder":"tf","game":"Team Fortress","app_id":440,"player_count":0,"max_players":24,"Bots":0,"server_type":"Dedicated","server_os":"Linux","password":true,"vac":true,"version":"7757534","steam_id":85568392924742830,"keywords":["cp","nocrits","nodmgspread","uncletopia"],"game_id":440,"stv_port":27066,"stv_name":"Uncletopia | London | 6 | All Maps | STV","players":null},{"server_id":40,"name":"Uncletopia | London | 7 | No Payload","name_short":"lon-7","host":"lon-1.uk.uncletopia.com","port":27075,"enabled":true,"region":"eu","cc":"gb","latitude":51.509865,"longitude":-0.118092,"reserved":0,"last_update":"0001-01-01T00:00:00Z","name_a2s":"Uncletopia | London | 7 | No Payload","protocol":17,"map":"koth_highpass","folder":"tf","game":"Team Fortress","app_id":440,"player_count":0,"max_players":24,"Bots":0,"server_type":"Dedicated","server_os":"Linux","password":true,"vac":true,"version":"7757534","steam_id":85568392924964314,"keywords":["cp","nocrits","nodmgspread","uncletopia"],"game_id":440,"stv_port":27076,"stv_name":"Uncletopia | London | 7 | No Payload | STV","players":null},{"server_id":41,"name":"Uncletopia | London | 8 | Community","name_short":"lon-8","host":"lon-1.uk.uncletopia.com","port":27085,"enabled":true,"region":"eu","cc":"gb","latitude":51.509865,"longitude":-0.118092,"reserved":0,"last_update":"0001-01-01T00:00:00Z","name_a2s":"Uncletopia | London | 8 | Community","protocol":17,"map":"workshop/pl_highwood_b13.ugc1769496557","folder":"tf","game":"Team Fortress","app_id":440,"player_count":0,"max_players":24,"Bots":0,"server_type":"Dedicated","server_os":"Linux","password":true,"vac":true,"version":"7757534","steam_id":85568392924964315,"keywords":["nocrits","nodmgspread","payload","uncletopia"],"game_id":440,"stv_port":27086,"stv_name":"Uncletopia | London | 8 | Community | STV","players":null},{"server_id":300,"name":"Uncletopia | Montr√©al | 1 | All Maps","name_short":"mtl-1","host":"mtl-1.ca.uncletopia.com","port":27015,"enabled":true,"region":"us-east","cc":"ca","latitude":45.50889,"longitude":-73.56167,"reserved":0,"last_update":"0001-01-01T00:00:00Z","name_a2s":"Uncletopia | Montr√©al | 1 | All Maps","protocol":17,"map":"koth_lakeside_final","folder":"tf","game":"Team Fortress","app_id":440,"player_count":0,"max_players":24,"Bots":0,"server_type":"Dedicated","server_os":"Linux","password":true,"vac":true,"version":"7757534","steam_id":85568392924500087,"keywords":["cp","nocrits","nodmgspread","uncletopia"],"game_id":440,"stv_port":27016,"stv_name":"Uncletopia | Montr√©al | 1 | All Maps | STV","players":null},{"server_id":301,"name":"Uncletopia | Montr√©al | 2 | All Maps","name_short":"mtl-2","host":"mtl-1.ca.uncletopia.com","port":27025,"enabled":true,"region":"us-east","cc":"ca","latitude":45.50889,"longitude":-73.56167,"reserved":0,"last_update":"0001-01-01T00:00:00Z","name_a2s":"Uncletopia | Montr√©al | 2 | All Maps","protocol":17,"map":"pl_pier","folder":"tf","game":"Team Fortress","app_id":440,"player_count":0,"max_players":24,"Bots":0,"server_type":"Dedicated","server_os":"Linux","password":true,"vac":true,"version":"7757534","steam_id":85568392924500088,"keywords":["nocrits","nodmgspread","payload","uncletopia"],"game_id":440,"stv_port":27026,"stv_name":"Uncletopia | Montr√©al | 2 | All Maps | STV","players":null},{"server_id":302,"name":"Uncletopia | Montr√©al | 3 | All Maps","name_short":"mtl-3","host":"mtl-1.ca.uncletopia.com","port":27035,"enabled":true,"region":"us-east","cc":"ca","latitude":45.50889,"longitude":-73.56167,"reserved":0,"last_update":"0001-01-01T00:00:00Z","name_a2s":"Uncletopia | Montr√©al | 3 | All Maps","protocol":17,"map":"cp_snakewater_final1","folder":"tf","game":"Team Fortress","app_id":440,"player_count":0,"max_players":24,"Bots":0,"server_type":"Dedicated","server_os":"Linux","password":true,"vac":true,"version":"7757534","steam_id":85568392924500089,"keywords":["cp","nocrits","nodmgspread","uncletopia"],"game_id":440,"stv_port":27036,"stv_name":"Uncletopia | Montr√©al | 3 | All Maps | STV","players":null},{"server_id":303,"name":"Uncletopia | Montr√©al | 4 | No Payload","name_short":"mtl-4","host":"mtl-1.ca.uncletopia.com","port":27045,"enabled":true,"region":"us-east","cc":"ca","latitude":45.50889,"longitude":-73.56167,"reserved":0,"last_update":"0001-01-01T00:00:00Z","name_a2s":"Uncletopia | Montr√©al | 4 | No Payload","protocol":17,"map":"cp_metalworks","folder":"tf","game":"Team Fortress","app_id":440,"player_count":0,"max_players":24,"Bots":0,"server_type":"Dedicated","server_os":"Linux","password":true,"vac":true,"version":"7757534","steam_id":85568392924500090,"keywords":["cp","nocrits","nodmgspread","uncletopia"],"game_id":440,"stv_port":27046,"stv_name":"Uncletopia | Montr√©al | 4 | No Payload | STV","players":null},{"server_id":13,"name":"Uncletopia | New York City | 1 | All Maps","name_short":"nyc-1","host":"nyc-1.us.uncletopia.com","port":27015,"enabled":true,"region":"us-east","cc":"us","latitude":40.73061,"longitude":-73.93524,"reserved":0,"last_update":"0001-01-01T00:00:00Z","name_a2s":"Uncletopia | New York City | 1 | All Maps","protocol":17,"map":"cp_metalworks","folder":"tf","game":"Team Fortress","app_id":440,"player_count":24,"max_players":24,"Bots":0,"server_type":"Dedicated","server_os":"Linux","password":true,"vac":true,"version":"7757534","steam_id":85568392924469993,"keywords":["cp","nocrits","nodmgspread","uncletopia"],"game_id":440,"stv_port":27016,"stv_name":"Uncletopia | New York City | 1 | All Maps | STV","players":[{"user_id":393,"name":"jeremimi","steam_id":76561198818225102,"connected_time":3195000000000,"state":"active","ping":119},{"user_id":426,"name":"Lil' Achiever","steam_id":76561197970450546,"connected_time":203000000000,"state":"active","ping":127},{"user_id":425,"name":"SackOfPotatoes","steam_id":76561198799020069,"connected_time":517000000000,"state":"active","ping":56},{"user_id":419,"name":"CakeBlock","steam_id":76561198067238228,"connected_time":1084000000000,"state":"active","ping":47},{"user_id":420,"name":"Bocchi the Cock","steam_id":76561198152455316,"connected_time":1073000000000,"state":"active","ping":159},{"user_id":431,"name":"Brain Tumor","steam_id":76561198805526881,"connected_time":30000000000,"state":"spawning","ping":85},{"user_id":428,"name":"F_L Vision Spire","steam_id":76561198095923905,"connected_time":98000000000,"state":"active","ping":60},{"user_id":417,"name":"WishedFuzzball","steam_id":76561198055642827,"connected_time":1290000000000,"state":"active","ping":73},{"user_id":410,"name":"Ralser","steam_id":76561199038370433,"connected_time":1835000000000,"state":"active","ping":162},{"user_id":387,"name":"Winter the Witchie","steam_id":76561198151971178,"connected_time":3408000000000,"state":"active","ping":73},{"user_id":399,"name":"Ded_meet","steam_id":76561198087542025,"connected_time":2703000000000,"state":"active","ping":84},{"user_id":264,"name":"ThatGamingKiwi","steam_id":76561199170522237,"connected_time":14092000000000,"state":"active","ping":83},{"user_id":411,"name":"Nyko","steam_id":76561198143197549,"connected_time":1791000000000,"state":"active","ping":54},{"user_id":429,"name":"buford tobagganson","steam_id":76561198240043930,"connected_time":89000000000,"state":"active","ping":71},{"user_id":423,"name":"mic you","steam_id":76561198120735848,"connected_time":974000000000,"state":"active","ping":49},{"user_id":397,"name":"Bison","steam_id":76561198204741439,"connected_time":3083000000000,"state":"active","ping":74},{"user_id":430,"name":"Gumthrax‚Ñ¢","steam_id":76561198047286282,"connected_time":76000000000,"state":"active","ping":74},{"user_id":424,"name":"Midlife Crisis Jotaro","steam_id":76561199023562280,"connected_time":678000000000,"state":"active","ping":61},{"user_id":412,"name":"FS Jorda (She/Her)","steam_id":76561198071421459,"connected_time":1780000000000,"state":"active","ping":30},{"user_id":433,"name":"capeeKo","steam_id":76561197970346623,"connected_time":9000000000,"state":"active","ping":163},{"user_id":400,"name":"Grebnedulgo The Elder","steam_id":76561199123285878,"connected_time":2623000000000,"state":"active","ping":66},{"user_id":407,"name":"Ginger Jesus","steam_id":76561198052386458,"connected_time":1987000000000,"state":"active","ping":44},{"user_id":408,"name":"jema","steam_id":76561198276513608,"connected_time":1965000000000,"state":"active","ping":150},{"user_id":413,"name":"SINEPLLAMS","steam_id":76561198316993833,"connected_time":1751000000000,"state":"active","ping":44}]},{"server_id":14,"name":"Uncletopia | New York City | 2 | All Maps","name_short":"nyc-2","host":"nyc-1.us.uncletopia.com","port":27025,"enabled":true,"region":"us-east","cc":"us","latitude":40.73061,"longitude":-73.93524,"reserved":0,"last_update":"0001-01-01T00:00:00Z","name_a2s":"Uncletopia | New York City | 2 | All Maps","protocol":17,"map":"cp_gorge","folder":"tf","game":"Team Fortress","app_id":440,"player_count":24,"max_players":24,"Bots":0,"server_type":"Dedicated","server_os":"Linux","password":true,"vac":true,"version":"7757534","steam_id":85568392924469994,"keywords":["cp","nocrits","nodmgspread","uncletopia"],"game_id":440,"stv_port":27026,"stv_name":"Uncletopia | New York City | 2 | All Maps | STV","players":[{"user_id":359,"name":"Kirbs","steam_id":76561198970654800,"connected_time":471000000000,"state":"active","ping":45},{"user_id":358,"name":"milk","steam_id":76561198813251405,"connected_time":475000000000,"state":"active","ping":53},{"user_id":349,"name":"tame","steam_id":76561198336898193,"connected_time":1771000000000,"state":"active","ping":47},{"user_id":347,"name":"Aloha :3","steam_id":76561198148517055,"connected_time":2027000000000,"state":"active","ping":135},{"user_id":334,"name":"Orenji","steam_id":76561199229204857,"connected_time":2558000000000,"state":"active","ping":117},{"user_id":361,"name":"Glanderson booper","steam_id":76561198021223747,"connected_time":162000000000,"state":"active","ping":123},{"user_id":299,"name":"REDACTED.AUDIO.STUDIOS","steam_id":76561198975542044,"connected_time":4351000000000,"state":"active","ping":68},{"user_id":328,"name":"Erin","steam_id":76561198394148072,"connected_time":2822000000000,"state":"active","ping":62},{"user_id":360,"name":"Knight","steam_id":76561198154529952,"connected_time":462000000000,"state":"active","ping":99},{"user_id":306,"name":"[BBW] Justario","steam_id":76561198016095410,"connected_time":3827000000000,"state":"active","ping":45},{"user_id":296,"name":"Senpa1","steam_id":76561198140297250,"connected_time":4547000000000,"state":"active","ping":45},{"user_id":294,"name":"Illusionism","steam_id":76561198167878499,"connected_time":4754000000000,"state":"active","ping":107},{"user_id":335,"name":"QwilfishFan22","steam_id":76561198078565975,"connected_time":2448000000000,"state":"active","ping":49},{"user_id":302,"name":"sasharudzik","steam_id":76561199126617781,"connected_time":4228000000000,"state":"active","ping":73},{"user_id":252,"name":"Tea Enthusiast","steam_id":76561198185583925,"connected_time":8502000000000,"state":"active","ping":44},{"user_id":342,"name":"I'm so full of stem cells","steam_id":76561198329087915,"connected_time":2174000000000,"state":"active","ping":123},{"user_id":319,"name":"lost in spaaaaace","steam_id":76561199085974120,"connected_time":3276000000000,"state":"active","ping":60},{"user_id":350,"name":"Redkiller","steam_id":76561199453655288,"connected_time":1638000000000,"state":"active","ping":70},{"user_id":326,"name":"DistantJragon","steam_id":76561198117563641,"connected_time":2998000000000,"state":"active","ping":76},{"user_id":330,"name":"farteater22","steam_id":76561198848710113,"connected_time":2673000000000,"state":"active","ping":64},{"user_id":362,"name":"jumbo","steam_id":76561198024192770,"connected_time":152000000000,"state":"active","ping":118},{"user_id":357,"name":"Jmciano24","steam_id":76561198050723212,"connected_time":801000000000,"state":"active","ping":50},{"user_id":343,"name":"Witch!","steam_id":76561198062763756,"connected_time":2171000000000,"state":"active","ping":70},{"user_id":356,"name":"ft. Mitk","steam_id":76561199109203558,"connected_time":839000000000,"state":"active","ping":74}]},{"server_id":15,"name":"Uncletopia | New York City | 3 | Stopwatch Beta","name_short":"nyc-3","host":"nyc-1.us.uncletopia.com","port":27035,"enabled":true,"region":"us-east","cc":"us","latitude":40.73061,"longitude":-73.93524,"reserved":0,"last_update":"0001-01-01T00:00:00Z","name_a2s":"Uncletopia | New York City | 3 | Stopwatch Beta","protocol":17,"map":"pl_upward","folder":"tf","game":"Team Fortress","app_id":440,"player_count":0,"max_players":24,"Bots":0,"server_type":"Dedicated","server_os":"Linux","password":true,"vac":true,"version":"7757534","steam_id":85568392924742820,"keywords":["nocrits","nodmgspread","payload","uncletopia"],"game_id":440,"stv_port":27036,"stv_name":"Uncletopia | New York City | 3 | Stopwatch Beta | STV","players":null},{"server_id":16,"name":"Uncletopia | New York City | 4 | Community","name_short":"nyc-4","host":"nyc-1.us.uncletopia.com","port":27045,"enabled":true,"region":"us-east","cc":"us","latitude":40.73061,"longitude":-73.93524,"reserved":0,"last_update":"0001-01-01T00:00:00Z","name_a2s":"Uncletopia | New York City | 4 | Community","protocol":17,"map":"workshop/pl_cashworks_final1.ugc2904065412","folder":"tf","game":"Team Fortress","app_id":440,"player_count":24,"max_players":24,"Bots":0,"server_type":"Dedicated","server_os":"Linux","password":true,"vac":true,"version":"7757534","steam_id":85568392924742821,"keywords":["nocrits","nodmgspread","payload","uncletopia"],"game_id":440,"stv_port":27046,"stv_name":"Uncletopia | New York City | 4 | Community | STV","players":[{"user_id":39,"name":"AbbyRoads","steam_id":76561198868564212,"connected_time":3641000000000,"state":"active","ping":65},{"user_id":93,"name":"LemonZest","steam_id":76561199196369249,"connected_time":155000000000,"state":"active","ping":60},{"user_id":81,"name":"NanoBite","steam_id":76561197999426452,"connected_time":895000000000,"state":"active","ping":107},{"user_id":82,"name":"Room_237","steam_id":76561199135081315,"connected_time":826000000000,"state":"active","ping":71},{"user_id":21,"name":"Hautboi","steam_id":76561199012329221,"connected_time":4629000000000,"state":"active","ping":57},{"user_id":57,"name":"Yangicron","steam_id":76561199243337775,"connected_time":2338000000000,"state":"active","ping":57},{"user_id":83,"name":"Heartgold","steam_id":76561199062592062,"connected_time":792000000000,"state":"active","ping":72},{"user_id":40,"name":"Super D Duper","steam_id":76561198078203677,"connected_time":3576000000000,"state":"active","ping":51},{"user_id":45,"name":"Jesse Bear","steam_id":76561198217075305,"connected_time":2917000000000,"state":"active","ping":68},{"user_id":90,"name":"Django","steam_id":76561197971158403,"connected_time":479000000000,"state":"active","ping":51},{"user_id":54,"name":"mrFlapJack","steam_id":76561199453282157,"connected_time":2461000000000,"state":"active","ping":86},{"user_id":85,"name":"Sir Iasis","steam_id":76561198035666760,"connected_time":688000000000,"state":"active","ping":80},{"user_id":91,"name":"dylo","steam_id":76561198367215624,"connected_time":339000000000,"state":"active","ping":96},{"user_id":92,"name":"rraymondddh","steam_id":76561198006216337,"connected_time":232000000000,"state":"active","ping":70},{"user_id":66,"name":"carrion goat","steam_id":76561198262064871,"connected_time":1970000000000,"state":"active","ping":44},{"user_id":34,"name":"Drake the Pixel","steam_id":76561198131824401,"connected_time":4039000000000,"state":"active","ping":39},{"user_id":94,"name":"My dad owns Club Penguin.","steam_id":76561198032864436,"connected_time":139000000000,"state":"active","ping":89},{"user_id":88,"name":"Monkey","steam_id":76561198031015186,"connected_time":600000000000,"state":"active","ping":63},{"user_id":67,"name":"Termed1124","steam_id":76561198873995670,"connected_time":1938000000000,"state":"active","ping":128},{"user_id":50,"name":"Convict Police Officers","steam_id":76561197993527275,"connected_time":2657000000000,"state":"active","ping":74},{"user_id":68,"name":"DD_440","steam_id":76561199135978082,"connected_time":1918000000000,"state":"active","ping":60},{"user_id":87,"name":"homestuck","steam_id":76561198085042338,"connected_time":675000000000,"state":"active","ping":122},{"user_id":55,"name":"Disco Fever","steam_id":76561198069532215,"connected_time":2416000000000,"state":"active","ping":53},{"user_id":79,"name":"[chef] iron","steam_id":76561197970888616,"connected_time":1128000000000,"state":"active","ping":72}]},{"server_id":142,"name":"Uncletopia | S√£o Paulo | 1 | All Maps","name_short":"sao-1","host":"sao-1.br.uncletopia.com","port":27015,"enabled":true,"region":"sa","cc":"br","latitude":-23.533773,"longitude":-46.62529,"reserved":0,"last_update":"0001-01-01T00:00:00Z","name_a2s":"Uncletopia | S√£o Paulo | 1 | All Maps","protocol":17,"map":"pl_borneo","folder":"tf","game":"Team Fortress","app_id":440,"player_count":0,"max_players":24,"Bots":0,"server_type":"Dedicated","server_os":"Linux","password":true,"vac":true,"version":"7757534","steam_id":85568392924469996,"keywords":["nocrits","nodmgspread","payload","uncletopia"],"game_id":440,"stv_port":27016,"stv_name":"Uncletopia | S√£o Paulo | 1 | All Maps | STV","players":null},{"server_id":143,"name":"Uncletopia | S√£o Paulo | 2 | All Maps","name_short":"sao-2","host":"sao-2.br.uncletopia.com","port":27015,"enabled":true,"region":"sa","cc":"br","latitude":-23.533773,"longitude":-46.62529,"reserved":0,"last_update":"0001-01-01T00:00:00Z","name_a2s":"Uncletopia | S√£o Paulo | 2 | All Maps","protocol":17,"map":"cp_snakewater_final1","folder":"tf","game":"Team Fortress","app_id":440,"player_count":0,"max_players":24,"Bots":0,"server_type":"Dedicated","server_os":"Linux","password":true,"vac":true,"version":"7757534","steam_id":85568392924485349,"keywords":["cp","nocrits","nodmgspread","uncletopia"],"game_id":440,"stv_port":27016,"stv_name":"Uncletopia | S√£o Paulo | 2 | All Maps | STV","players":null},{"server_id":7,"name":"Uncletopia | Seattle | 1 | All Maps","name_short":"sea-1","host":"sea-1.us.uncletopia.com","port":27015,"enabled":true,"region":"us-west","cc":"us","latitude":47.608013,"longitude":-122.33517,"reserved":0,"last_update":"0001-01-01T00:00:00Z","name_a2s":"Uncletopia | Seattle | 1 | All Maps","protocol":17,"map":"pl_badwater","folder":"tf","game":"Team Fortress","app_id":440,"player_count":24,"max_players":24,"Bots":0,"server_type":"Dedicated","server_os":"Linux","password":true,"vac":true,"version":"7757534","steam_id":85568392924469997,"keywords":["nocrits","nodmgspread","payload","uncletopia"],"game_id":440,"stv_port":27016,"stv_name":"Uncletopia | Seattle | 1 | All Maps | STV","players":[{"user_id":348,"name":"meowbop","steam_id":76561198130198601,"connected_time":1663000000000,"state":"active","ping":54},{"user_id":302,"name":"‚ô¶Benji‚ô¶","steam_id":76561198313529973,"connected_time":5983000000000,"state":"active","ping":34},{"user_id":298,"name":"ImChom","steam_id":76561198970425609,"connected_time":6660000000000,"state":"active","ping":60},{"user_id":351,"name":"Tom","steam_id":76561198070630154,"connected_time":1072000000000,"state":"active","ping":81},{"user_id":347,"name":"V‚àÜlume The 1rd","steam_id":76561198133260990,"connected_time":1755000000000,"state":"active","ping":55},{"user_id":226,"name":"Bubbamanme","steam_id":76561198119778504,"connected_time":12622000000000,"state":"active","ping":56},{"user_id":324,"name":"Snorgdarf","steam_id":76561198047962582,"connected_time":4656000000000,"state":"active","ping":46},{"user_id":313,"name":"ahabcomics","steam_id":76561199048645341,"connected_time":5335000000000,"state":"active","ping":65},{"user_id":360,"name":"soda","steam_id":76561198105924953,"connected_time":279000000000,"state":"active","ping":81},{"user_id":356,"name":"TheInventor","steam_id":76561198898516778,"connected_time":808000000000,"state":"active","ping":68},{"user_id":337,"name":"5392vin","steam_id":76561198880493511,"connected_time":2337000000000,"state":"active","ping":66},{"user_id":353,"name":"RagingBagon","steam_id":76561198255453127,"connected_time":1051000000000,"state":"active","ping":75},{"user_id":305,"name":"ùì°ùîÇùì™ùì∑","steam_id":76561198067641129,"connected_time":5805000000000,"state":"active","ping":56},{"user_id":330,"name":"Smoky","steam_id":76561198041551259,"connected_time":3854000000000,"state":"active","ping":70},{"user_id":328,"name":"Luca","steam_id":76561198125087140,"connected_time":3866000000000,"state":"active","ping":46},{"user_id":326,"name":"SibilantSerpent","steam_id":76561198154488754,"connected_time":4637000000000,"state":"active","ping":56},{"user_id":361,"name":"Honjk150","steam_id":76561199363493860,"connected_time":92000000000,"state":"active","ping":68},{"user_id":354,"name":"aslan","steam_id":76561198126546221,"connected_time":1049000000000,"state":"active","ping":75},{"user_id":295,"name":"forest (girldick)","steam_id":76561198157960257,"connected_time":7096000000000,"state":"active","ping":41},{"user_id":358,"name":"Username","steam_id":76561198855586261,"connected_time":771000000000,"state":"active","ping":68},{"user_id":345,"name":"Bonks","steam_id":76561198972835565,"connected_time":2106000000000,"state":"active","ping":40},{"user_id":346,"name":"NumberOneHunter","steam_id":76561198352382852,"connected_time":2093000000000,"state":"active","ping":54},{"user_id":315,"name":"toes","steam_id":76561198221151676,"connected_time":5142000000000,"state":"active","ping":58},{"user_id":359,"name":"Willy Wonker","steam_id":76561198082944789,"connected_time":632000000000,"state":"active","ping":80}]},{"server_id":119,"name":"Uncletopia | Seattle | 2 | All Maps","name_short":"sea-2","host":"sea-1.us.uncletopia.com","port":27025,"enabled":true,"region":"us-west","cc":"us","latitude":47.608013,"longitude":-122.33517,"reserved":0,"last_update":"0001-01-01T00:00:00Z","name_a2s":"Uncletopia | Seattle | 2 | All Maps","protocol":17,"map":"pl_swiftwater_final1","folder":"tf","game":"Team Fortress","app_id":440,"player_count":24,"max_players":24,"Bots":0,"server_type":"Dedicated","server_os":"Linux","password":true,"vac":true,"version":"7757534","steam_id":85568392924469998,"keywords":["nocrits","nodmgspread","payload","uncletopia"],"game_id":440,"stv_port":27026,"stv_name":"Uncletopia | Seattle | 2 | All Maps | STV","players":[{"user_id":192,"name":"riSygneD","steam_id":76561198331618687,"connected_time":3482000000000,"state":"active","ping":63},{"user_id":214,"name":"SuperNovaFox","steam_id":76561198052172564,"connected_time":2085000000000,"state":"active","ping":126},{"user_id":216,"name":"Snippykeegan","steam_id":76561198274529343,"connected_time":1451000000000,"state":"active","ping":81},{"user_id":228,"name":"The Super Mario Bros. Movie","steam_id":76561198871692156,"connected_time":1073000000000,"state":"active","ping":49},{"user_id":218,"name":"johnman gooberguy","steam_id":76561199014859764,"connected_time":1431000000000,"state":"active","ping":83},{"user_id":88,"name":"dance moon","steam_id":76561198110152060,"connected_time":6119000000000,"state":"active","ping":45},{"user_id":227,"name":"DrDallas","steam_id":76561198267631716,"connected_time":1209000000000,"state":"active","ping":79},{"user_id":225,"name":"MISTA DON'T PLAY","steam_id":76561199127423378,"connected_time":1328000000000,"state":"active","ping":89},{"user_id":181,"name":"KingKata","steam_id":76561198289610011,"connected_time":4025000000000,"state":"active","ping":64},{"user_id":230,"name":"trackpad gaming | f2p","steam_id":76561198840414371,"connected_time":727000000000,"state":"active","ping":48},{"user_id":220,"name":"Lock'd","steam_id":76561198170108230,"connected_time":1415000000000,"state":"active","ping":79},{"user_id":221,"name":"JOE_SPECWARRIOR","steam_id":76561198008564250,"connected_time":1365000000000,"state":"active","ping":77},{"user_id":232,"name":"Mr. StepOnShi","steam_id":76561198049381236,"connected_time":662000000000,"state":"active","ping":39},{"user_id":81,"name":"Viena","steam_id":76561198346193512,"connected_time":6424000000000,"state":"active","ping":36},{"user_id":207,"name":"Rise for the National Spamton","steam_id":76561198138468982,"connected_time":2473000000000,"state":"active","ping":49},{"user_id":222,"name":"Jack from Jack in The Box","steam_id":76561199083594971,"connected_time":1350000000000,"state":"active","ping":81},{"user_id":185,"name":"Diesel","steam_id":76561198448815852,"connected_time":3947000000000,"state":"active","ping":73},{"user_id":209,"name":"glue eater","steam_id":76561198210322871,"connected_time":2274000000000,"state":"active","ping":70},{"user_id":223,"name":"Thequirka","steam_id":76561198968058652,"connected_time":1350000000000,"state":"active","ping":49},{"user_id":213,"name":"Lavender","steam_id":76561198142770666,"connected_time":2154000000000,"state":"active","ping":129},{"user_id":229,"name":"codyalexis","steam_id":76561199343840914,"connected_time":779000000000,"state":"active","ping":124},{"user_id":226,"name":"AbuzzCactus","steam_id":76561198078391197,"connected_time":1325000000000,"state":"active","ping":119},{"user_id":233,"name":"strbry","steam_id":76561198155133601,"connected_time":460000000000,"state":"active","ping":58},{"user_id":123,"name":"Model CHP-3Y","steam_id":76561198107806145,"connected_time":5347000000000,"state":"active","ping":124}]},{"server_id":406,"name":"Uncletopia | Seattle | 3 | Stopwatch Beta","name_short":"sea-3","host":"sea-1.us.uncletopia.com","port":27035,"enabled":true,"region":"us-west","cc":"us","latitude":47.608013,"longitude":-122.33517,"reserved":0,"last_update":"0001-01-01T00:00:00Z","name_a2s":"Uncletopia | Seattle | 3 | Stopwatch Beta","protocol":17,"map":"workshop/koth_bagel_rc6.ugc2514036946","folder":"tf","game":"Team Fortress","app_id":440,"player_count":23,"max_players":24,"Bots":0,"server_type":"Dedicated","server_os":"Linux","password":true,"vac":true,"version":"7757534","steam_id":85568392924515217,"keywords":["cp","nocrits","nodmgspread","uncletopia"],"game_id":440,"stv_port":27036,"stv_name":"Uncletopia | Seattle | 3 | Stopwatch Beta | STV","players":[{"user_id":81,"name":"Mr_Web (He/They)","steam_id":76561198815562258,"connected_time":2070000000000,"state":"active","ping":120},{"user_id":105,"name":"replaycoding","steam_id":76561198289737954,"connected_time":293000000000,"state":"active","ping":53},{"user_id":76,"name":"Mona","steam_id":76561198144338191,"connected_time":2360000000000,"state":"active","ping":81},{"user_id":64,"name":"Fang Lopez","steam_id":76561198141800967,"connected_time":2729000000000,"state":"active","ping":59},{"user_id":65,"name":"Pneumo.","steam_id":76561197987911883,"connected_time":2728000000000,"state":"active","ping":93},{"user_id":104,"name":"Rain","steam_id":76561198032318897,"connected_time":322000000000,"state":"active","ping":75},{"user_id":14,"name":"Grammaring","steam_id":76561198867366139,"connected_time":5586000000000,"state":"active","ping":77},{"user_id":94,"name":"Wolowolowolowolowolowolowolowol","steam_id":76561199217207233,"connected_time":929000000000,"state":"active","ping":69},{"user_id":84,"name":"Banjo","steam_id":76561198004652853,"connected_time":1889000000000,"state":"active","ping":46},{"user_id":85,"name":"amagicowl","steam_id":76561199060487814,"connected_time":1870000000000,"state":"active","ping":60},{"user_id":33,"name":"Jkbh1","steam_id":76561198093449670,"connected_time":4030000000000,"state":"active","ping":75},{"user_id":106,"name":"Surgicalsubset","steam_id":76561198983418107,"connected_time":102000000000,"state":"active","ping":112},{"user_id":100,"name":"Hydro","steam_id":76561198434115600,"connected_time":519000000000,"state":"active","ping":74},{"user_id":93,"name":"-The_Under_Miner-","steam_id":76561199195735972,"connected_time":1102000000000,"state":"active","ping":92},{"user_id":92,"name":"reiidaya","steam_id":76561198325306660,"connected_time":1125000000000,"state":"active","ping":55},{"user_id":61,"name":"Thomo","steam_id":76561198168356650,"connected_time":2857000000000,"state":"active","ping":67},{"user_id":53,"name":"nav","steam_id":76561198872608266,"connected_time":3081000000000,"state":"active","ping":130},{"user_id":69,"name":"The Gremlin","steam_id":76561198419066993,"connected_time":2556000000000,"state":"active","ping":72},{"user_id":95,"name":"PPFitzenreit","steam_id":76561199381005210,"connected_time":885000000000,"state":"active","ping":93},{"user_id":99,"name":"BigBubble42","steam_id":76561198136286123,"connected_time":580000000000,"state":"active","ping":81},{"user_id":70,"name":"Owl of Delos","steam_id":76561198437116566,"connected_time":2536000000000,"state":"active","ping":66},{"user_id":97,"name":"DuckyCC","steam_id":76561198204224427,"connected_time":853000000000,"state":"active","ping":56},{"user_id":73,"name":"GravyPouch","steam_id":76561198067539038,"connected_time":2480000000000,"state":"active","ping":108}]},{"server_id":17,"name":"Uncletopia | San Francisco | 1 | All Maps","name_short":"sfo-1","host":"sfo-1.us.uncletopia.com","port":27015,"enabled":true,"region":"us-west","cc":"us","latitude":37.77397,"longitude":-122.4313,"reserved":0,"last_update":"0001-01-01T00:00:00Z","name_a2s":"Uncletopia | San Francisco | 1 | All Maps","protocol":17,"map":"koth_viaduct","folder":"tf","game":"Team Fortress","app_id":440,"player_count":24,"max_players":24,"Bots":0,"server_type":"Dedicated","server_os":"Linux","password":true,"vac":true,"version":"7757534","steam_id":85568392924469999,"keywords":["cp","nocrits","nodmgspread","uncletopia"],"game_id":440,"stv_port":27016,"stv_name":"Uncletopia | San Francisco | 1 | All Maps | STV","players":[{"user_id":386,"name":"cheezer","steam_id":76561198040399784,"connected_time":3148000000000,"state":"active","ping":55},{"user_id":407,"name":"Medic Pocket Girlfriend","steam_id":76561198378587138,"connected_time":1725000000000,"state":"active","ping":51},{"user_id":322,"name":"Buswolley","steam_id":76561197995205571,"connected_time":8196000000000,"state":"active","ping":42},{"user_id":387,"name":"The Horny","steam_id":76561198863639459,"connected_time":3146000000000,"state":"active","ping":79},{"user_id":416,"name":"Deacon","steam_id":76561197998532724,"connected_time":937000000000,"state":"active","ping":70},{"user_id":383,"name":"Vegetable soup","steam_id":76561198164619692,"connected_time":3547000000000,"state":"active","ping":111},{"user_id":355,"name":"TheMagicMrWaffle","steam_id":76561198104357256,"connected_time":6148000000000,"state":"active","ping":66},{"user_id":350,"name":"Rasputia","steam_id":76561198132051047,"connected_time":6462000000000,"state":"active","ping":71},{"user_id":351,"name":"Karl","steam_id":76561198115714484,"connected_time":6438000000000,"state":"active","ping":71},{"user_id":368,"name":"bonk schnoffer","steam_id":76561198301598124,"connected_time":4844000000000,"state":"active","ping":86},{"user_id":395,"name":"DrD","steam_id":76561198067266383,"connected_time":2682000000000,"state":"active","ping":48},{"user_id":422,"name":"2JZ_","steam_id":76561198064027289,"connected_time":258000000000,"state":"active","ping":103},{"user_id":411,"name":"Alkimia","steam_id":76561198385763137,"connected_time":1143000000000,"state":"active","ping":113},{"user_id":417,"name":"MORE BOUNCE TO THE OUNCE","steam_id":76561198243399336,"connected_time":823000000000,"state":"active","ping":66},{"user_id":398,"name":"MightyRectangle","steam_id":76561198094236144,"connected_time":2119000000000,"state":"active","ping":54},{"user_id":402,"name":"GRAPE","steam_id":76561198150447896,"connected_time":2033000000000,"state":"active","ping":56},{"user_id":419,"name":"Game Gaming","steam_id":76561199222119901,"connected_time":529000000000,"state":"active","ping":76},{"user_id":418,"name":"anomaly","steam_id":76561198182582249,"connected_time":759000000000,"state":"active","ping":77},{"user_id":412,"name":"Yakul","steam_id":76561198100040013,"connected_time":1139000000000,"state":"active","ping":128},{"user_id":390,"name":"tone","steam_id":76561198006505587,"connected_time":2906000000000,"state":"active","ping":131},{"user_id":414,"name":"Heavy's Delightful Feet","steam_id":76561198108015693,"connected_time":1117000000000,"state":"active","ping":74},{"user_id":421,"name":"Zetta","steam_id":76561198045710113,"connected_time":319000000000,"state":"active","ping":83},{"user_id":415,"name":"ic","steam_id":76561198009288860,"connected_time":1071000000000,"state":"active","ping":111},{"user_id":420,"name":"Uluyo","steam_id":76561198065857148,"connected_time":370000000000,"state":"active","ping":88}]},{"server_id":18,"name":"Uncletopia | San Francisco | 2 | All Maps","name_short":"sfo-2","host":"sfo-1.us.uncletopia.com","port":27025,"enabled":true,"region":"us-west","cc":"us","latitude":37.77397,"longitude":-122.4313,"reserved":0,"last_update":"0001-01-01T00:00:00Z","name_a2s":"Uncletopia | San Francisco | 2 | All Maps","protocol":17,"map":"koth_highpass","folder":"tf","game":"Team Fortress","app_id":440,"player_count":0,"max_players":24,"Bots":0,"server_type":"Dedicated","server_os":"Linux","password":true,"vac":true,"version":"7757534","steam_id":85568392924470000,"keywords":["cp","nocrits","nodmgspread","uncletopia"],"game_id":440,"stv_port":27026,"stv_name":"Uncletopia | San Francisco | 2 | All Maps | STV","players":null},{"server_id":19,"name":"Uncletopia | San Francisco | 3 | Stopwatch Beta","name_short":"sfo-3","host":"sfo-1.us.uncletopia.com","port":27035,"enabled":true,"region":"us-west","cc":"us","latitude":37.77397,"longitude":-122.4313,"reserved":0,"last_update":"0001-01-01T00:00:00Z","name_a2s":"Uncletopia | San Francisco | 3 | Stopwatch Beta","protocol":17,"map":"workshop/pl_badwater_pro_v12.ugc2142942074","folder":"tf","game":"Team Fortress","app_id":440,"player_count":0,"max_players":24,"Bots":0,"server_type":"Dedicated","server_os":"Linux","password":true,"vac":true,"version":"7757534","steam_id":85568392924742824,"keywords":["nocrits","nodmgspread","payload","uncletopia"],"game_id":440,"stv_port":27036,"stv_name":"Uncletopia | San Francisco | 3 | Stopwatch Beta | STV","players":null},{"server_id":20,"name":"Uncletopia | San Francisco | 4 | Community","name_short":"sfo-4","host":"sfo-1.us.uncletopia.com","port":27045,"enabled":true,"region":"us-west","cc":"us","latitude":37.77397,"longitude":-122.4313,"reserved":0,"last_update":"0001-01-01T00:00:00Z","name_a2s":"Uncletopia | San Francisco | 4 | Community","protocol":17,"map":"workshop/pl_fifthcurve_rc1.ugc648227046","folder":"tf","game":"Team Fortress","app_id":440,"player_count":0,"max_players":24,"Bots":0,"server_type":"Dedicated","server_os":"Linux","password":true,"vac":true,"version":"7757534","steam_id":85568392924742826,"keywords":["nocrits","nodmgspread","payload","uncletopia"],"game_id":440,"stv_port":27046,"stv_name":"Uncletopia | San Francisco | 4 | Community | STV","players":null},{"server_id":141,"name":"Uncletopia | Sydney | 1 | All Maps","name_short":"syd-1","host":"syd-1.au.uncletopia.com","port":27015,"enabled":true,"region":"au","cc":"au","latitude":-33.865143,"longitude":151.2099,"reserved":0,"last_update":"0001-01-01T00:00:00Z","name_a2s":"Uncletopia | Sydney | 1 | All Maps","protocol":17,"map":"koth_viaduct","folder":"tf","game":"Team Fortress","app_id":440,"player_count":0,"max_players":24,"Bots":0,"server_type":"Dedicated","server_os":"Linux","password":true,"vac":true,"version":"7757534","steam_id":85568392924470001,"keywords":["cp","nocrits","nodmgspread","uncletopia"],"game_id":440,"stv_port":27016,"stv_name":"Uncletopia | Sydney | 1 | All Maps | STV","players":null},{"server_id":123,"name":"Uncletopia | Sydney | 2 | All Maps","name_short":"syd-2","host":"syd-1.au.uncletopia.com","port":27025,"enabled":true,"region":"au","cc":"au","latitude":-33.865143,"longitude":151.2099,"reserved":0,"last_update":"0001-01-01T00:00:00Z","name_a2s":"Uncletopia | Sydney | 2 | All Maps","protocol":17,"map":"cp_altitude","folder":"tf","game":"Team Fortress","app_id":440,"player_count":0,"max_players":24,"Bots":0,"server_type":"Dedicated","server_os":"Linux","password":true,"vac":true,"version":"7757534","steam_id":85568392924470002,"keywords":["cp","nocrits","nodmgspread","uncletopia"],"game_id":440,"stv_port":27026,"stv_name":"Uncletopia | Sydney | 2 | All Maps | STV","players":null},{"server_id":395,"name":"Uncletopia | Sydney | 3 | All Maps","name_short":"syd-3","host":"syd-1.au.uncletopia.com","port":27035,"enabled":true,"region":"au","cc":"au","latitude":-33.865143,"longitude":151.2099,"reserved":0,"last_update":"0001-01-01T00:00:00Z","name_a2s":"Uncletopia | Sydney | 3 | All Maps","protocol":17,"map":"pl_swiftwater_final1","folder":"tf","game":"Team Fortress","app_id":440,"player_count":0,"max_players":24,"Bots":0,"server_type":"Dedicated","server_os":"Linux","password":true,"vac":true,"version":"7757534","steam_id":85568392925194467,"keywords":["nocrits","nodmgspread","payload","uncletopia"],"game_id":440,"stv_port":27036,"stv_name":"Uncletopia | Sydney | 3 | All Maps | STV","players":null},{"server_id":396,"name":"Uncletopia | Sydney | 4 | All Maps","name_short":"syd-4","host":"syd-1.au.uncletopia.com","port":27045,"enabled":true,"region":"au","cc":"au","latitude":-33.865143,"longitude":151.2099,"reserved":0,"last_update":"0001-01-01T00:00:00Z","name_a2s":"Uncletopia | Sydney | 4 | All Maps","protocol":17,"map":"koth_highpass","folder":"tf","game":"Team Fortress","app_id":440,"player_count":0,"max_players":24,"Bots":0,"server_type":"Dedicated","server_os":"Linux","password":true,"vac":true,"version":"7757534","steam_id":85568392925397958,"keywords":["cp","nocrits","nodmgspread","uncletopia"],"game_id":440,"stv_port":27046,"stv_name":"Uncletopia | Sydney | 4 | All Maps | STV","players":null},{"server_id":58,"name":"Uncletopia | Sydney | 5 | Stopwatch Beta","name_short":"syd-5","host":"syd-1.au.uncletopia.com","port":27055,"enabled":true,"region":"au","cc":"au","latitude":-33.865143,"longitude":151.2099,"reserved":0,"last_update":"0001-01-01T00:00:00Z","name_a2s":"Uncletopia | Sydney | 5 | Stopwatch Beta","protocol":17,"map":"koth_cascade","folder":"tf","game":"Team Fortress","app_id":440,"player_count":0,"max_players":24,"Bots":0,"server_type":"Dedicated","server_os":"Linux","password":true,"vac":true,"version":"7757534","steam_id":85568392925397959,"keywords":["cp","nocrits","nodmgspread","uncletopia"],"game_id":440,"stv_port":27056,"stv_name":"Uncletopia | Sydney | 5 | Stopwatch Beta | STV","players":null},{"server_id":59,"name":"Uncletopia | Sydney | 6 | Community","name_short":"syd-6","host":"syd-1.au.uncletopia.com","port":27065,"enabled":true,"region":"au","cc":"au","latitude":-33.865143,"longitude":151.2099,"reserved":0,"last_update":"0001-01-01T00:00:00Z","name_a2s":"Uncletopia | Sydney | 6 | Community","protocol":17,"map":"cp_snakewater_final1","folder":"tf","game":"Team Fortress","app_id":440,"player_count":0,"max_players":24,"Bots":0,"server_type":"Dedicated","server_os":"Linux","password":true,"vac":true,"version":"7757534","steam_id":85568392925397960,"keywords":["cp","nocrits","nodmgspread","uncletopia"],"game_id":440,"stv_port":27066,"stv_name":"Uncletopia | Sydney | 6 | Community | STV","players":null},{"server_id":49,"name":"Uncletopia | Warsaw | 1 | All Maps","name_short":"waw-1","host":"waw-1.pl.uncletopia.com","port":27015,"enabled":true,"region":"eu","cc":"pl","latitude":52.2297,"longitude":21.017532,"reserved":0,"last_update":"0001-01-01T00:00:00Z","name_a2s":"","protocol":0,"map":"","folder":"","game":"","app_id":0,"player_count":0,"max_players":0,"Bots":0,"server_type":"","server_os":"","password":false,"vac":false,"version":"","steam_id":0,"keywords":null,"game_id":0,"stv_port":0,"stv_name":"","players":null},{"server_id":50,"name":"Uncletopia | Warsaw | 2 | All Maps","name_short":"waw-2","host":"waw-1.pl.uncletopia.com","port":27025,"enabled":true,"region":"eu","cc":"pl","latitude":52.2297,"longitude":21.017532,"reserved":0,"last_update":"0001-01-01T00:00:00Z","name_a2s":"Uncletopia | Warsaw | 2 | All Maps","protocol":17,"map":"koth_highpass","folder":"tf","game":"Team Fortress","app_id":440,"player_count":0,"max_players":24,"Bots":0,"server_type":"Dedicated","server_os":"Linux","password":true,"vac":true,"version":"7757534","steam_id":85568392925397851,"keywords":["cp","nocrits","nodmgspread","uncletopia"],"game_id":440,"stv_port":27026,"stv_name":"Uncletopia | Warsaw | 2 | All Maps | STV","players":null},{"server_id":51,"name":"Uncletopia | Warsaw | 3 | All Maps","name_short":"waw-3","host":"waw-1.pl.uncletopia.com","port":27035,"enabled":true,"region":"eu","cc":"pl","latitude":52.2297,"longitude":21.017532,"reserved":0,"last_update":"0001-01-01T00:00:00Z","name_a2s":"Uncletopia | Warsaw | 3 | All Maps","protocol":17,"map":"pl_enclosure_final","folder":"tf","game":"Team Fortress","app_id":440,"player_count":13,"max_players":24,"Bots":0,"server_type":"Dedicated","server_os":"Linux","password":true,"vac":true,"version":"7757534","steam_id":85568392925397852,"keywords":["nocrits","nodmgspread","payload","uncletopia"],"game_id":440,"stv_port":27036,"stv_name":"Uncletopia | Warsaw | 3 | All Maps | STV","players":[{"user_id":93,"name":"Skye","steam_id":76561198138414772,"connected_time":3330000000000,"state":"active","ping":69},{"user_id":101,"name":"MagalaxShiro","steam_id":76561198079071492,"connected_time":2872000000000,"state":"active","ping":44},{"user_id":109,"name":"DicyPicky","steam_id":76561198078873335,"connected_time":715000000000,"state":"active","ping":78},{"user_id":112,"name":"Taharaki","steam_id":76561198131746120,"connected_time":673000000000,"state":"active","ping":64},{"user_id":25,"name":"Ember from Hungary","steam_id":76561198269211299,"connected_time":9700000000000,"state":"active","ping":85},{"user_id":106,"name":"Trkl","steam_id":76561198027993026,"connected_time":2310000000000,"state":"active","ping":61},{"user_id":107,"name":"blecha","steam_id":76561198256758947,"connected_time":2241000000000,"state":"active","ping":59},{"user_id":111,"name":"Kiz","steam_id":76561198811732820,"connected_time":691000000000,"state":"active","ping":104},{"user_id":113,"name":"Alibaba","steam_id":76561198033415173,"connected_time":477000000000,"state":"active","ping":57},{"user_id":59,"name":"gamie jamie","steam_id":76561198048530109,"connected_time":6609000000000,"state":"active","ping":77},{"user_id":81,"name":"Beancardo Milos","steam_id":76561198404832366,"connected_time":4609000000000,"state":"active","ping":103},{"user_id":64,"name":"Dr House Online Clinic","steam_id":76561198068213670,"connected_time":5979000000000,"state":"active","ping":48},{"user_id":115,"name":"PowerPlower","steam_id":76561198186150355,"connected_time":339000000000,"state":"active","ping":54}]},{"server_id":52,"name":"Uncletopia | Warsaw | 4 | All Maps","name_short":"waw-4","host":"waw-1.pl.uncletopia.com","port":27045,"enabled":true,"region":"eu","cc":"pl","latitude":52.2297,"longitude":21.017532,"reserved":0,"last_update":"0001-01-01T00:00:00Z","name_a2s":"Uncletopia | Warsaw | 4 | All Maps","protocol":17,"map":"koth_lakeside_final","folder":"tf","game":"Team Fortress","app_id":440,"player_count":0,"max_players":24,"Bots":0,"server_type":"Dedicated","server_os":"Linux","password":true,"vac":true,"version":"7757534","steam_id":85568392925397853,"keywords":["cp","nocrits","nodmgspread","uncletopia"],"game_id":440,"stv_port":27046,"stv_name":"Uncletopia | Warsaw | 4 | All Maps | STV","players":null},{"server_id":53,"name":"Uncletopia | Warsaw | 5 | Stopwatch Beta","name_short":"waw-5","host":"waw-1.pl.uncletopia.com","port":27055,"enabled":true,"region":"eu","cc":"pl","latitude":52.2297,"longitude":21.017532,"reserved":0,"last_update":"0001-01-01T00:00:00Z","name_a2s":"Uncletopia | Warsaw | 5 | Stopwatch Beta","protocol":17,"map":"pl_borneo","folder":"tf","game":"Team Fortress","app_id":440,"player_count":0,"max_players":24,"Bots":0,"server_type":"Dedicated","server_os":"Linux","password":true,"vac":true,"version":"7757534","steam_id":85568392925397854,"keywords":["nocrits","nodmgspread","payload","uncletopia"],"game_id":440,"stv_port":27056,"stv_name":"Uncletopia | Warsaw | 5 | Stopwatch Beta | STV","players":null},{"server_id":54,"name":"Uncletopia | Warsaw | 6 | Community","name_short":"waw-6","host":"waw-1.pl.uncletopia.com","port":27065,"enabled":true,"region":"eu","cc":"pl","latitude":52.2297,"longitude":21.017532,"reserved":0,"last_update":"0001-01-01T00:00:00Z","name_a2s":"Uncletopia | Warsaw | 6 | Community","protocol":17,"map":"koth_lakeside_final","folder":"tf","game":"Team Fortress","app_id":440,"player_count":0,"max_players":24,"Bots":0,"server_type":"Dedicated","server_os":"Linux","password":true,"vac":true,"version":"7757534","steam_id":85568392925397856,"keywords":["cp","nocrits","nodmgspread","uncletopia"],"game_id":440,"stv_port":27066,"stv_name":"Uncletopia | Warsaw | 6 | Community | STV","players":null}]}