{"status":true,"message":"","result":[{"server_id":9,"name":"Uncletopia | Atlanta | 1 | All Maps","name_short":"atl-1","host":"atl-1.us.uncletopia.com","port":27015,"enabled":true,"region":"us-east","cc":"us","latitude":33.753746,"longitude":-84.38633,"reserved":0,"last_update":"0001-01-01T00:00:00Z","name_a2s":"Uncletopia | Atlanta | 1 | All Maps","protocol":17,"map":"cp_snakewater_final1","folder":"tf","game":"Team Fortress","app_id":440,"player_count":0,"max_players":24,"Bots":0,"server_type":"Dedicated","server_os":"Linux","password":true,"vac":true,"version":"7757534","steam_id":85568392924469982,"keywords":["cp","nocrits","nodmgspread","uncletopia"],"game_id":440,"stv_port":27016,"stv_name":"Uncletopia | Atlanta | 1 | All Maps | STV","players":null},{"server_id":400,"name":"Uncletopia | Atlanta | 3 | Community","name_short":"atl-3","host":"atl-1.us.uncletopia.com","port":27035,"enabled":true,"region":"us-east","cc":"us","latitude":33.753746,"longitude":-84.38633,"reserved":0,"last_update":"0001-01-01T00:00:00Z","name_a2s":"Uncletopia | Atlanta | 3 | Community","protocol":17,"map":"workshop/pl_corrode_rc2.ugc546577989","folder":"tf","game":"Team Fortress","app_id":440,"player_count":24,"max_players":24,"Bots":0,"server_type":"Dedicated","server_os":"Linux","password":true,"vac":true,"version":"7757534","steam_id":85568392924515187,"keywords":["nocrits","nodmgspread","payload","uncletopia"],"game_id":440,"stv_port":27036,"stv_name":"Uncletopia | Atlanta | 3 | Community | STV","players":[{"user_id":351,"name":"Warzard","steam_id":76561199154051413,"connected_time":624000000000,"state":"active","ping":112},{"user_id":308,"name":"Laelaps","steam_id":76561198100061416,"connected_time":3926000000000,"state":"active","ping":53},{"user_id":295,"name":"Hitlinemoss","steam_id":76561198155435669,"connected_time":5320000000000,"state":"active","ping":71},{"user_id":353,"name":"Rakk","steam_id":76561198855176174,"connected_time":378000000000,"state":"active","ping":93},{"user_id":354,"name":"Huey","steam_id":76561198972816386,"connected_time":188000000000,"state":"active","ping":75},{"user_id":364,"name":"whirlwind","steam_id":76561198168685103,"connected_time":81000000000,"state":"active","ping":80},{"user_id":356,"name":"None of that $9.99 bullshit","steam_id":76561198116169903,"connected_time":163000000000,"state":"active","ping":75},{"user_id":319,"name":"Buck","steam_id":76561198064244796,"connected_time":3200000000000,"state":"active","ping":61},{"user_id":357,"name":"Fablor","steam_id":76561198175644926,"connected_time":162000000000,"state":"active","ping":105},{"user_id":358,"name":"Platino","steam_id":76561198410957728,"connected_time":161000000000,"state":"active","ping":60},{"user_id":359,"name":"THIRDPIERCE","steam_id":76561198405366314,"connected_time":145000000000,"state":"active","ping":78},{"user_id":360,"name":"White Noiz","steam_id":76561198116408865,"connected_time":106000000000,"state":"active","ping":72},{"user_id":271,"name":"The Engie","steam_id":76561198049418537,"connected_time":7183000000000,"state":"active","ping":87},{"user_id":315,"name":"Brendan","steam_id":76561198041079914,"connected_time":3488000000000,"state":"active","ping":75},{"user_id":361,"name":"Lil_Wump","steam_id":76561199130862520,"connected_time":105000000000,"state":"active","ping":72},{"user_id":341,"name":"happy camper","steam_id":76561198209813328,"connected_time":2179000000000,"state":"active","ping":67},{"user_id":345,"name":"gNarNar","steam_id":76561197994505205,"connected_time":1846000000000,"state":"active","ping":60},{"user_id":362,"name":"NuggetShay.jpg","steam_id":76561198190962742,"connected_time":98000000000,"state":"active","ping":63},{"user_id":363,"name":"onsceler","steam_id":76561198183663605,"connected_time":86000000000,"state":"active","ping":85},{"user_id":344,"name":"eek","steam_id":76561198332896682,"connected_time":1911000000000,"state":"active","ping":107},{"user_id":328,"name":"horseymorsel","steam_id":76561198086597804,"connected_time":3041000000000,"state":"active","ping":60},{"user_id":336,"name":"tani","steam_id":76561198137381904,"connected_time":2558000000000,"state":"active","ping":125},{"user_id":352,"name":"Greeble","steam_id":76561198000283892,"connected_time":483000000000,"state":"active","ping":118},{"user_id":343,"name":"twin","steam_id":76561198055626638,"connected_time":1937000000000,"state":"active","ping":100}]},{"server_id":401,"name":"Uncletopia | Atlanta | 4 | No Payload","name_short":"atl-4","host":"atl-1.us.uncletopia.com","port":27045,"enabled":true,"region":"us-east","cc":"us","latitude":33.753746,"longitude":-84.38633,"reserved":0,"last_update":"0001-01-01T00:00:00Z","name_a2s":"","protocol":0,"map":"","folder":"","game":"","app_id":0,"player_count":0,"max_players":0,"Bots":0,"server_type":"","server_os":"","password":false,"vac":false,"version":"","steam_id":0,"keywords":null,"game_id":0,"stv_port":0,"stv_name":"","players":null},{"server_id":2,"name":"Uncletopia | Chicago | 1 | All Maps","name_short":"chi-1","host":"chi-1.us.uncletopia.com","port":27015,"enabled":true,"region":"us-central","cc":"us","latitude":41.881832,"longitude":-87.62318,"reserved":0,"last_update":"0001-01-01T00:00:00Z","name_a2s":"Uncletopia | Chicago | 1 | All Maps","protocol":17,"map":"cp_altitude","folder":"tf","game":"Team Fortress","app_id":440,"player_count":24,"max_players":24,"Bots":0,"server_type":"Dedicated","server_os":"Linux","password":true,"vac":true,"version":"7757534","steam_id":85568392924469984,"keywords":["cp","nocrits","nodmgspread","uncletopia"],"game_id":440,"stv_port":27016,"stv_name":"Uncletopia | Chicago | 1 | All Maps | STV","players":[{"user_id":953,"name":"j4miecl4rk","steam_id":76561198404312721,"connected_time":6250000000000,"state":"active","ping":57},{"user_id":1013,"name":"Mothership","steam_id":76561198044029501,"connected_time":959000000000,"state":"active","ping":150},{"user_id":968,"name":"SCARY MONSTERS","steam_id":76561198042034176,"connected_time":5142000000000,"state":"active","ping":60},{"user_id":1004,"name":"Mahiru Koizumi","steam_id":76561198164782653,"connected_time":2441000000000,"state":"active","ping":71},{"user_id":1011,"name":"Terrazzle","steam_id":76561197999850393,"connected_time":994000000000,"state":"active","ping":84},{"user_id":1012,"name":"bee","steam_id":76561198025553902,"connected_time":991000000000,"state":"active","ping":45},{"user_id":1005,"name":"gerg","steam_id":76561197997127387,"connected_time":2440000000000,"state":"active","ping":101},{"user_id":994,"name":"CalThePal","steam_id":76561198084842126,"connected_time":3618000000000,"state":"active","ping":135},{"user_id":1014,"name":"Emperor Dankatine","steam_id":76561198044741086,"connected_time":950000000000,"state":"active","ping":82},{"user_id":1027,"name":"godtierJack.jpeg","steam_id":76561198089827454,"connected_time":518000000000,"state":"active","ping":65},{"user_id":1003,"name":"Dr. Strangelove","steam_id":76561198014593467,"connected_time":2968000000000,"state":"active","ping":60},{"user_id":1033,"name":"pyrolover900","steam_id":76561198234138080,"connected_time":135000000000,"state":"active","ping":60},{"user_id":1025,"name":"Pyyr","steam_id":76561198123491005,"connected_time":573000000000,"state":"active","ping":43},{"user_id":1020,"name":"DO NOT call me BART SIMPSON!!","steam_id":76561198069113375,"connected_time":732000000000,"state":"active","ping":71},{"user_id":1021,"name":"Bootstrap","steam_id":76561199110353614,"connected_time":686000000000,"state":"active","ping":90},{"user_id":1008,"name":"gristle","steam_id":76561198046815360,"connected_time":1630000000000,"state":"active","ping":88},{"user_id":1029,"name":"Elizabeth truss","steam_id":76561198058250979,"connected_time":366000000000,"state":"active","ping":87},{"user_id":979,"name":"Monky joe","steam_id":76561197982555224,"connected_time":4748000000000,"state":"active","ping":99},{"user_id":980,"name":"Bob","steam_id":76561198388535122,"connected_time":4745000000000,"state":"active","ping":51},{"user_id":997,"name":"CrabCake","steam_id":76561198347241343,"connected_time":3589000000000,"state":"active","ping":80},{"user_id":984,"name":"aaron","steam_id":76561198308883028,"connected_time":4530000000000,"state":"active","ping":106},{"user_id":1006,"name":"social distance warrior","steam_id":76561198128992994,"connected_time":2431000000000,"state":"active","ping":89},{"user_id":1028,"name":"Argh!","steam_id":76561197972159639,"connected_time":464000000000,"state":"active","ping":77},{"user_id":966,"name":"goblino","steam_id":76561198068260422,"connected_time":5766000000000,"state":"active","ping":48}]},{"server_id":106,"name":"Uncletopia | Chicago | 2 | All Maps","name_short":"chi-2","host":"chi-1.us.uncletopia.com","port":27025,"enabled":true,"region":"us-central","cc":"us","latitude":41.881832,"longitude":-87.62318,"reserved":0,"last_update":"0001-01-01T00:00:00Z","name_a2s":"Uncletopia | Chicago | 2 | All Maps","protocol":17,"map":"pl_badwater","folder":"tf","game":"Team Fortress","app_id":440,"player_count":0,"max_players":24,"Bots":0,"server_type":"Dedicated","server_os":"Linux","password":true,"vac":true,"version":"7757534","steam_id":85568392924469985,"keywords":["nocrits","nodmgspread","payload","uncletopia"],"game_id":440,"stv_port":27026,"stv_name":"Uncletopia | Chicago | 2 | All Maps | STV","players":null},{"server_id":402,"name":"Uncletopia | Chicago | 3 | All Maps","name_short":"chi-3","host":"chi-1.us.uncletopia.com","port":27035,"enabled":true,"region":"us-central","cc":"us","latitude":41.881832,"longitude":-87.62318,"reserved":0,"last_update":"0001-01-01T00:00:00Z","name_a2s":"Uncletopia | Chicago | 3 | All Maps","protocol":17,"map":"cp_altitude","folder":"tf","game":"Team Fortress","app_id":440,"player_count":0,"max_players":24,"Bots":0,"server_type":"Dedicated","server_os":"Linux","password":true,"vac":true,"version":"7757534","steam_id":85568392924515191,"keywords":["cp","nocrits","nodmgspread","uncletopia"],"game_id":440,"stv_port":27036,"stv_name":"Uncletopia | Chicago | 3 | All Maps | STV","players":null},{"server_id":403,"name":"Uncletopia | Chicago | 4 | All Maps","name_short":"chi-4","host":"chi-1.us.uncletopia.com","port":27045,"enabled":true,"region":"us-central","cc":"us","latitude":41.881832,"longitude":-87.62318,"reserved":0,"last_update":"0001-01-01T00:00:00Z","name_a2s":"Uncletopia | Chicago | 4 | All Maps","protocol":17,"map":"koth_cascade","folder":"tf","game":"Team Fortress","app_id":440,"player_count":0,"max_players":24,"Bots":0,"server_type":"Dedicated","server_os":"Linux","password":true,"vac":true,"version":"7757534","steam_id":85568392924515193,"keywords":["cp","nocrits","nodmgspread","uncletopia"],"game_id":440,"stv_port":27046,"stv_name":"Uncletopia | Chicago | 4 | All Maps | STV","players":null},{"server_id":36,"name":"Uncletopia | Chicago | 5 | All Maps","name_short":"chi-5","host":"chi-2.us.uncletopia.com","port":27015,"enabled":true,"region":"us-central","cc":"us","latitude":41.881832,"longitude":-87.62318,"reserved":0,"last_update":"0001-01-01T00:00:00Z","name_a2s":"Uncletopia | Chicago | 5 | All Maps","protocol":17,"map":"pl_snowycoast","folder":"tf","game":"Team Fortress","app_id":440,"player_count":0,"max_players":24,"Bots":0,"server_type":"Dedicated","server_os":"Linux","password":true,"vac":true,"version":"7757534","steam_id":85568392924866362,"keywords":["nocrits","nodmgspread","payload","uncletopia"],"game_id":440,"stv_port":27016,"stv_name":"Uncletopia | Chicago | 5 | All Maps | STV","players":null},{"server_id":37,"name":"Uncletopia | Chicago | 6 | All Maps","name_short":"chi-6","host":"chi-2.us.uncletopia.com","port":27025,"enabled":true,"region":"us-central","cc":"us","latitude":41.881832,"longitude":-87.62318,"reserved":0,"last_update":"0001-01-01T00:00:00Z","name_a2s":"Uncletopia | Chicago | 6 | All Maps","protocol":17,"map":"pl_pier","folder":"tf","game":"Team Fortress","app_id":440,"player_count":24,"max_players":24,"Bots":0,"server_type":"Dedicated","server_os":"Linux","password":true,"vac":true,"version":"7757534","steam_id":85568392924866363,"keywords":["nocrits","nodmgspread","payload","uncletopia"],"game_id":440,"stv_port":27026,"stv_name":"Uncletopia | Chicago | 6 | All Maps | STV","players":[{"user_id":1081,"name":"Branz","steam_id":76561198076632143,"connected_time":176000000000,"state":"active","ping":74},{"user_id":1041,"name":"blank","steam_id":76561198105529673,"connected_time":3019000000000,"state":"active","ping":101},{"user_id":1071,"name":"Shlartblorf","steam_id":76561198884378616,"connected_time":1327000000000,"state":"active","ping":110},{"user_id":1067,"name":"Windex","steam_id":76561198105561395,"connected_time":1928000000000,"state":"active","ping":76},{"user_id":1046,"name":"⭕⃤ wasbee","steam_id":76561198114752129,"connected_time":2551000000000,"state":"active","ping":90},{"user_id":989,"name":"ye. Phish","steam_id":76561198218719943,"connected_time":6724000000000,"state":"active","ping":93},{"user_id":1083,"name":"CroMaLaka","steam_id":76561198380926090,"connected_time":139000000000,"state":"active","ping":46},{"user_id":991,"name":"marcus","steam_id":76561198061979880,"connected_time":6392000000000,"state":"active","ping":60},{"user_id":1073,"name":"Viol3tOni","steam_id":76561198079208738,"connected_time":1218000000000,"state":"active","ping":115},{"user_id":831,"name":"gettysburg","steam_id":76561198016157051,"connected_time":18295000000000,"state":"active","ping":71},{"user_id":995,"name":"zuchima","steam_id":76561198026152104,"connected_time":6278000000000,"state":"active","ping":53},{"user_id":1079,"name":"Boward","steam_id":76561198071037498,"connected_time":935000000000,"state":"active","ping":60},{"user_id":1072,"name":"\"The Captain\" by Leonard Cohen","steam_id":76561198121955432,"connected_time":1271000000000,"state":"active","ping":58},{"user_id":1050,"name":"Yeet Man","steam_id":76561198000715955,"connected_time":2421000000000,"state":"active","ping":71},{"user_id":1032,"name":"L a v e n b a k a","steam_id":76561198171261101,"connected_time":3397000000000,"state":"active","ping":128},{"user_id":1033,"name":"Vanny","steam_id":76561198297961039,"connected_time":3395000000000,"state":"active","ping":59},{"user_id":1084,"name":"Admiral Angry","steam_id":76561198058199206,"connected_time":16000000000,"state":"active","ping":69},{"user_id":1080,"name":"KOOLAID","steam_id":76561198062775462,"connected_time":187000000000,"state":"active","ping":99},{"user_id":1053,"name":"Laz","steam_id":76561197990879167,"connected_time":2354000000000,"state":"active","ping":55},{"user_id":907,"name":"The Professor","steam_id":76561198113760863,"connected_time":13263000000000,"state":"active","ping":60},{"user_id":1029,"name":"Gunkpump","steam_id":76561197975794806,"connected_time":3989000000000,"state":"active","ping":98},{"user_id":1077,"name":"sheep","steam_id":76561198172943006,"connected_time":1014000000000,"state":"active","ping":47},{"user_id":1082,"name":"Qrowniniee","steam_id":76561198273028245,"connected_time":170000000000,"state":"active","ping":102},{"user_id":959,"name":"melon","steam_id":76561198041266286,"connected_time":9748000000000,"state":"active","ping":89}]},{"server_id":38,"name":"Uncletopia | Chicago | 7 | Stopwatch Beta","name_short":"chi-7","host":"chi-2.us.uncletopia.com","port":27035,"enabled":true,"region":"us-central","cc":"us","latitude":41.881832,"longitude":-87.62318,"reserved":0,"last_update":"0001-01-01T00:00:00Z","name_a2s":"Uncletopia | Chicago | 7 | Stopwatch Beta","protocol":17,"map":"workshop/pl_vigil_rc9.ugc1266210012","folder":"tf","game":"Team Fortress","app_id":440,"player_count":0,"max_players":24,"Bots":0,"server_type":"Dedicated","server_os":"Linux","password":true,"vac":true,"version":"7757534","steam_id":85568392924866364,"keywords":["nocrits","nodmgspread","payload","uncletopia"],"game_id":440,"stv_port":27036,"stv_name":"Uncletopia | Chicago | 7 | Stopwatch Beta | STV","players":null},{"server_id":39,"name":"Uncletopia | Chicago | 8 | Community","name_short":"chi-8","host":"chi-2.us.uncletopia.com","port":27045,"enabled":true,"region":"us-central","cc":"us","latitude":41.881832,"longitude":-87.62318,"reserved":0,"last_update":"0001-01-01T00:00:00Z","name_a2s":"Uncletopia | Chicago | 8 | Community","protocol":17,"map":"workshop/cp_mannbase_rc2a.ugc1900737467","folder":"tf","game":"Team Fortress","app_id":440,"player_count":0,"max_players":24,"Bots":0,"server_type":"Dedicated","server_os":"Linux","password":true,"vac":true,"version":"7757534","steam_id":85568392924866365,"keywords":["cp","nocrits","nodmgspread","uncletopia"],"game_id":440,"stv_port":27046,"stv_name":"Uncletopia | Chicago | 8 | Community | STV","players":null},{"server_id":8,"name":"Uncletopia | Dallas | 1 | All Maps","name_short":"dal-1","host":"dal-1.us.uncletopia.com","port":27015,"enabled":true,"region":"us-central","cc":"us","latitude":32.779167,"longitude":-96.80889,"reserved":0,"last_update":"0001-01-01T00:00:00Z","name_a2s":"Uncletopia | Dallas | 1 | All Maps","protocol":17,"map":"koth_cascade","folder":"tf","game":"Team Fortress","app_id":440,"player_count":0,"max_players":24,"Bots":0,"server_type":"Dedicated","server_os":"Linux","password":true,"vac":true,"version":"7757534","steam_id":85568392924469986,"keywords":["cp","nocrits","nodmgspread","uncletopia"],"game_id":440,"stv_port":27016,"stv_name":"Uncletopia | Dallas | 1 | All Maps | STV","players":null},{"server_id":108,"name":"Uncletopia | Dallas | 2 | All Maps","name_short":"dal-2","host":"dal-1.us.uncletopia.com","port":27025,"enabled":true,"region":"us-central","cc":"us","latitude":32.779167,"longitude":-96.80889,"reserved":0,"last_update":"0001-01-01T00:00:00Z","name_a2s":"Uncletopia | Dallas | 2 | All Maps","protocol":17,"map":"koth_cascade","folder":"tf","game":"Team Fortress","app_id":440,"player_count":0,"max_players":24,"Bots":0,"server_type":"Dedicated","server_os":"Linux","password":true,"vac":true,"version":"7757534","steam_id":85568392924469988,"keywords":["cp","nocrits","nodmgspread","uncletopia"],"game_id":440,"stv_port":27026,"stv_name":"Uncletopia | Dallas | 2 | All Maps | STV","players":null},{"server_id":5,"name":"Uncletopia | Frankfurt | 1 | All Maps","name_short":"frk-1","host":"frk-1.de.uncletopia.com","port":27015,"enabled":true,"region":"eu","cc":"de","latitude":50.110924,"longitude":8.682127,"reserved":0,"last_update":"0001-01-01T00:00:00Z","name_a2s":"Uncletopia | Frankfurt | 1 | All Maps","protocol":17,"map":"pl_snowycoast","folder":"tf","game":"Team Fortress","app_id":440,"player_count":0,"max_players":24,"Bots":0,"server_type":"Dedicated","server_os":"Linux","password":true,"vac":true,"version":"7757534","steam_id":85568392924469989,"keywords":["nocrits","nodmgspread","payload","uncletopia"],"game_id":440,"stv_port":27016,"stv_name":"Uncletopia | Frankfurt | 1 | All Maps | STV","players":null},{"server_id":110,"name":"Uncletopia | Frankfurt | 2 | All Maps","name_short":"frk-2","host":"frk-1.de.uncletopia.com","port":27025,"enabled":true,"region":"eu","cc":"de","latitude":50.110924,"longitude":8.682127,"reserved":0,"last_update":"0001-01-01T00:00:00Z","name_a2s":"Uncletopia | Frankfurt | 2 | All Maps","protocol":17,"map":"koth_highpass","folder":"tf","game":"Team Fortress","app_id":440,"player_count":0,"max_players":24,"Bots":0,"server_type":"Dedicated","server_os":"Linux","password":true,"vac":true,"version":"7757534","steam_id":85568392924469990,"keywords":["cp","nocrits","nodmgspread","uncletopia"],"game_id":440,"stv_port":27026,"stv_name":"Uncletopia | Frankfurt | 2 | All Maps | STV","players":null},{"server_id":308,"name":"Uncletopia | Frankfurt | 3 | All Maps","name_short":"frk-3","host":"frk-1.de.uncletopia.com","port":27035,"enabled":true,"region":"eu","cc":"de","latitude":50.110924,"longitude":8.682127,"reserved":0,"last_update":"0001-01-01T00:00:00Z","name_a2s":"Uncletopia | Frankfurt | 3 | All Maps","protocol":17,"map":"cp_altitude","folder":"tf","game":"Team Fortress","app_id":440,"player_count":16,"max_players":24,"Bots":0,"server_type":"Dedicated","server_os":"Linux","password":true,"vac":true,"version":"7757534","steam_id":85568392924504274,"keywords":["cp","nocrits","nodmgspread","uncletopia"],"game_id":440,"stv_port":27036,"stv_name":"Uncletopia | Frankfurt | 3 | All Maps | STV","players":[{"user_id":3,"name":"ballfondl#05","steam_id":76561199165355017,"connected_time":1143000000000,"state":"active","ping":108},{"user_id":4,"name":"Delab","steam_id":76561198846356572,"connected_time":1078000000000,"state":"active","ping":88},{"user_id":6,"name":"It's Just Killian","steam_id":76561199152468178,"connected_time":898000000000,"state":"active","ping":54},{"user_id":7,"name":"Sora The Fox","steam_id":76561198072998702,"connected_time":891000000000,"state":"active","ping":64},{"user_id":8,"name":"Karma","steam_id":76561198162154135,"connected_time":861000000000,"state":"active","ping":99},{"user_id":9,"name":"ItsYaBoiNexo","steam_id":76561199121905097,"connected_time":787000000000,"state":"active","ping":77},{"user_id":10,"name":"Prax","steam_id":76561198095875649,"connected_time":704000000000,"state":"active","ping":64},{"user_id":11,"name":"Joghurt","steam_id":76561198005363676,"connected_time":588000000000,"state":"active","ping":58},{"user_id":12,"name":"fmdi","steam_id":76561199433879329,"connected_time":570000000000,"state":"active","ping":74},{"user_id":13,"name":"trustable","steam_id":76561198894574244,"connected_time":558000000000,"state":"active","ping":183},{"user_id":14,"name":"Connor McFilip","steam_id":76561198107965067,"connected_time":435000000000,"state":"active","ping":57},{"user_id":18,"name":"Zogg","steam_id":76561198352683491,"connected_time":192000000000,"state":"active","ping":49},{"user_id":16,"name":"Fine","steam_id":76561198015551404,"connected_time":304000000000,"state":"active","ping":71},{"user_id":19,"name":"ji","steam_id":76561198845550388,"connected_time":138000000000,"state":"active","ping":119},{"user_id":20,"name":"vortexe","steam_id":76561198291669358,"connected_time":64000000000,"state":"active","ping":78},{"user_id":21,"name":"ali.","steam_id":76561198148359093,"connected_time":26000000000,"state":"active","ping":44}]},{"server_id":309,"name":"Uncletopia | Frankfurt | 4 | All Maps","name_short":"frk-4","host":"frk-1.de.uncletopia.com","port":27045,"enabled":true,"region":"eu","cc":"de","latitude":50.110924,"longitude":8.682127,"reserved":0,"last_update":"0001-01-01T00:00:00Z","name_a2s":"Uncletopia | Frankfurt | 4 | All Maps","protocol":17,"map":"cp_sunshine","folder":"tf","game":"Team Fortress","app_id":440,"player_count":0,"max_players":24,"Bots":0,"server_type":"Dedicated","server_os":"Linux","password":true,"vac":true,"version":"7757534","steam_id":85568392924504275,"keywords":["cp","nocrits","nodmgspread","uncletopia"],"game_id":440,"stv_port":27046,"stv_name":"Uncletopia | Frankfurt | 4 | All Maps | STV","players":null},{"server_id":310,"name":"Uncletopia | Frankfurt | 5 | All Maps","name_short":"frk-5","host":"frk-1.de.uncletopia.com","port":27055,"enabled":true,"region":"eu","cc":"de","latitude":50.110924,"longitude":8.682127,"reserved":0,"last_update":"0001-01-01T00:00:00Z","name_a2s":"Uncletopia | Frankfurt | 5 | All Maps","protocol":17,"map":"cp_altitude","folder":"tf","game":"Team Fortress","app_id":440,"player_count":0,"max_players":24,"Bots":0,"server_type":"Dedicated","server_os":"Linux","password":true,"vac":true,"version":"7757534","steam_id":85568392924504277,"keywords":["cp","nocrits","nodmgspread","uncletopia"],"game_id":440,"stv_port":27056,"stv_name":"Uncletopia | Frankfurt | 5 | All Maps | STV","players":null},{"server_id":311,"name":"Uncletopia | Frankfurt | 6 | All Maps","name_short":"frk-6","host":"frk-1.de.uncletopia.com","port":27065,"enabled":true,"region":"eu","cc":"de","latitude":50.110924,"longitude":8.682127,"reserved":0,"last_update":"0001-01-01T00:00:00Z","name_a2s":"Uncletopia | Frankfurt | 6 | All Maps","protocol":17,"map":"koth_highpass","folder":"tf","game":"Team Fortress","app_id":440,"player_count":0,"max_players":24,"Bots":0,"server_type":"Dedicated","server_os":"Linux","password":true,"vac":true,"version":"7757534","steam_id":85568392924504278,"keywords":["cp","nocrits","nodmgspread","uncletopia"],"game_id":440,"stv_port":27066,"stv_name":"Uncletopia | Frankfurt | 6 | All Maps | STV","players":null},{"server_id":23,"name":"Uncletopia | Frankfurt | 7 | Stopwatch Beta","name_short":"frk-7","host":"frk-1.de.uncletopia.com","port":27075,"enabled":true,"region":"eu","cc":"de","latitude":50.110924,"longitude":8.682127,"reserved":0,"last_update":"0001-01-01T00:00:00Z","name_a2s":"Uncletopia | Frankfurt | 7 | Stopwatch Beta","protocol":17,"map":"pl_frontier_final","folder":"tf","game":"Team Fortress","app_id":440,"player_count":0,"max_players":24,"Bots":0,"server_type":"Dedicated","server_os":"Linux","password":true,"vac":true,"version":"7757534","steam_id":85568392924742827,"keywords":["nocrits","nodmgspread","payload","uncletopia"],"game_id":440,"stv_port":27076,"stv_name":"Uncletopia | Frankfurt | 7 | Stopwatch Beta | STV","players":null},{"server_id":24,"name":"Uncletopia | Frankfurt | 8 | Community","name_short":"frk-8","host":"frk-1.de.uncletopia.com","port":27085,"enabled":true,"region":"eu","cc":"de","latitude":50.110924,"longitude":8.682127,"reserved":0,"last_update":"0001-01-01T00:00:00Z","name_a2s":"Uncletopia | Frankfurt | 8 | Community","protocol":17,"map":"workshop/pl_badwater_pro_v12.ugc2142942074","folder":"tf","game":"Team Fortress","app_id":440,"player_count":0,"max_players":24,"Bots":0,"server_type":"Dedicated","server_os":"Linux","password":true,"vac":true,"version":"7757534","steam_id":85568392924742828,"keywords":["nocrits","nodmgspread","payload","uncletopia"],"game_id":440,"stv_port":27086,"stv_name":"Uncletopia | Frankfurt | 8 | Community | STV","players":null},{"server_id":202,"name":"Uncletopia | Hong Kong | 1 | All Maps","name_short":"hgk-1","host":"hgk-1.hk.uncletopia.com","port":27015,"enabled":true,"region":"asia","cc":"hk","latitude":22.302711,"longitude":114.177216,"reserved":0,"last_update":"0001-01-01T00:00:00Z","name_a2s":"Uncletopia | Hong Kong | 1 | All Maps","protocol":17,"map":"pl_pier","folder":"tf","game":"Team Fortress","app_id":440,"player_count":23,"max_players":24,"Bots":0,"server_type":"Dedicated","server_os":"Linux","password":true,"vac":true,"version":"7757534","steam_id":85568392924494504,"keywords":["nocrits","nodmgspread","payload","uncletopia"],"game_id":440,"stv_port":27016,"stv_name":"Uncletopia | Hong Kong | 1 | All Maps | STV","players":[{"user_id":159,"name":"Cipher(#savetf2)","steam_id":76561198796591492,"connected_time":936000000000,"state":"active","ping":102},{"user_id":155,"name":"tiden2000","steam_id":76561198092969425,"connected_time":1193000000000,"state":"active","ping":78},{"user_id":131,"name":"Cá Tháng 4","steam_id":76561198047162026,"connected_time":2897000000000,"state":"active","ping":75},{"user_id":95,"name":"P","steam_id":76561198304514505,"connected_time":6820000000000,"state":"active","ping":84},{"user_id":161,"name":"Doormann","steam_id":76561199219230108,"connected_time":677000000000,"state":"active","ping":58},{"user_id":148,"name":"Hatred eyes","steam_id":76561199162652759,"connected_time":1600000000000,"state":"active","ping":62},{"user_id":149,"name":"Artoria","steam_id":76561199466006054,"connected_time":1590000000000,"state":"active","ping":60},{"user_id":113,"name":"greeny","steam_id":76561198024666371,"connected_time":4421000000000,"state":"active","ping":93},{"user_id":160,"name":"oh shit i m sorry","steam_id":76561198307556869,"connected_time":899000000000,"state":"active","ping":47},{"user_id":121,"name":"Michael Scott","steam_id":76561198023082794,"connected_time":3875000000000,"state":"active","ping":51},{"user_id":150,"name":"TomProPlayer","steam_id":76561199223292521,"connected_time":1450000000000,"state":"active","ping":76},{"user_id":129,"name":"Flying Chair of Death","steam_id":76561198179320563,"connected_time":3156000000000,"state":"active","ping":146},{"user_id":153,"name":"junbi OK","steam_id":76561198116387218,"connected_time":1312000000000,"state":"active","ping":86},{"user_id":162,"name":"vomit emoji","steam_id":76561198883148531,"connected_time":448000000000,"state":"active","ping":113},{"user_id":163,"name":"Battery","steam_id":76561198004583032,"connected_time":420000000000,"state":"active","ping":100},{"user_id":158,"name":"Shinobimono","steam_id":76561198343322788,"connected_time":1036000000000,"state":"active","ping":130},{"user_id":62,"name":"煙海 | Enkai","steam_id":76561198050460825,"connected_time":11126000000000,"state":"active","ping":75},{"user_id":157,"name":"Sex","steam_id":76561198871697359,"connected_time":1140000000000,"state":"active","ping":82},{"user_id":165,"name":"母の肉団子","steam_id":76561198069561896,"connected_time":297000000000,"state":"active","ping":43},{"user_id":145,"name":"momosneakeradventure","steam_id":76561199046440440,"connected_time":2024000000000,"state":"active","ping":43},{"user_id":61,"name":"Urotsuki","steam_id":76561198074339034,"connected_time":11165000000000,"state":"active","ping":75},{"user_id":144,"name":"Fluffy","steam_id":76561198316671856,"connected_time":2135000000000,"state":"active","ping":102},{"user_id":166,"name":"帕","steam_id":76561198439343999,"connected_time":202000000000,"state":"active","ping":78}]},{"server_id":1,"name":"Uncletopia | Los Angeles | 1 | All Maps","name_short":"lax-1","host":"lax-1.us.uncletopia.com","port":27015,"enabled":true,"region":"us-west","cc":"us","latitude":33.94279,"longitude":-118.41004,"reserved":0,"last_update":"0001-01-01T00:00:00Z","name_a2s":"Uncletopia | Los Angeles | 1 | All Maps","protocol":17,"map":"koth_highpass","folder":"tf","game":"Team Fortress","app_id":440,"player_count":0,"max_players":24,"Bots":0,"server_type":"Dedicated","server_os":"Linux","password":true,"vac":true,"version":"7757534","steam_id":85568392924469991,"keywords":["cp","nocrits","nodmgspread","uncletopia"],"game_id":440,"stv_port":27016,"stv_name":"Uncletopia | Los Angeles | 1 | All Maps | STV","players":null},{"server_id":112,"name":"Uncletopia | Los Angeles | 2 | All Maps","name_short":"lax-2","host":"lax-1.us.uncletopia.com","port":27025,"enabled":true,"region":"us-west","cc":"us","latitude":33.94279,"longitude":-118.41004,"reserved":0,"last_update":"0001-01-01T00:00:00Z","name_a2s":"Uncletopia | Los Angeles | 2 | All Maps","protocol":17,"map":"pl_upward","folder":"tf","game":"Team Fortress","app_id":440,"player_count":24,"max_players":24,"Bots":0,"server_type":"Dedicated","server_os":"Linux","password":true,"vac":true,"version":"7757534","steam_id":85568392924469992,"keywords":["nocrits","nodmgspread","payload","uncletopia"],"game_id":440,"stv_port":27026,"stv_name":"Uncletopia | Los Angeles | 2 | All Maps | STV","players":[{"user_id":237,"name":"M4 Sherman","steam_id":76561198126990820,"connected_time":7555000000000,"state":"active","ping":107},{"user_id":286,"name":"weed woman","steam_id":76561198052639733,"connected_time":4181000000000,"state":"active","ping":133},{"user_id":328,"name":"Cuno Doesn't Care!","steam_id":76561198007372782,"connected_time":111000000000,"state":"active","ping":57},{"user_id":256,"name":"weed lesbian","steam_id":76561198042263805,"connected_time":6562000000000,"state":"active","ping":76},{"user_id":297,"name":"bliss","steam_id":76561198440145948,"connected_time":3871000000000,"state":"active","ping":99},{"user_id":301,"name":"Slippery","steam_id":76561199469441947,"connected_time":3239000000000,"state":"active","ping":111},{"user_id":267,"name":"[δ] Delta","steam_id":76561198287190116,"connected_time":5969000000000,"state":"active","ping":85},{"user_id":262,"name":"weed wizard","steam_id":76561198121427519,"connected_time":6490000000000,"state":"active","ping":88},{"user_id":302,"name":"moe","steam_id":76561198929586245,"connected_time":3190000000000,"state":"active","ping":59},{"user_id":305,"name":"Sad Sapling","steam_id":76561198075612150,"connected_time":3095000000000,"state":"active","ping":48},{"user_id":329,"name":"Poatan","steam_id":76561198081303855,"connected_time":98000000000,"state":"active","ping":99},{"user_id":289,"name":"riri ᗜᴗᗜ","steam_id":76561198055462404,"connected_time":4082000000000,"state":"active","ping":41},{"user_id":322,"name":"Don't you drift away","steam_id":76561198102681457,"connected_time":1065000000000,"state":"active","ping":104},{"user_id":326,"name":"El pandora","steam_id":76561198075490385,"connected_time":291000000000,"state":"active","ping":46},{"user_id":319,"name":"Vandramio","steam_id":76561198173586511,"connected_time":1387000000000,"state":"active","ping":57},{"user_id":311,"name":"Emotional Skyscraper","steam_id":76561198436693500,"connected_time":2814000000000,"state":"active","ping":94},{"user_id":309,"name":"Sir Galahad","steam_id":76561198195999859,"connected_time":2910000000000,"state":"active","ping":84},{"user_id":317,"name":"egg tooth gaming","steam_id":76561198259650356,"connected_time":1426000000000,"state":"active","ping":75},{"user_id":294,"name":"0xFUL","steam_id":76561198081684676,"connected_time":3972000000000,"state":"active","ping":96},{"user_id":312,"name":"fox point ranger","steam_id":76561198000765454,"connected_time":2804000000000,"state":"active","ping":68},{"user_id":316,"name":"XxX_B1G_B33F1N_D0NG_XxX","steam_id":76561198145440269,"connected_time":2206000000000,"state":"active","ping":62},{"user_id":325,"name":"mir","steam_id":76561198878711921,"connected_time":682000000000,"state":"active","ping":88},{"user_id":282,"name":"Fgtfv567","steam_id":76561198071022525,"connected_time":5271000000000,"state":"active","ping":63},{"user_id":296,"name":"Drowse","steam_id":76561198029794548,"connected_time":3959000000000,"state":"active","ping":56}]},{"server_id":324,"name":"Uncletopia | Los Angeles | 3 | All Maps","name_short":"lax-3","host":"lax-1.us.uncletopia.com","port":27035,"enabled":true,"region":"us-west","cc":"us","latitude":33.94279,"longitude":-118.41004,"reserved":0,"last_update":"0001-01-01T00:00:00Z","name_a2s":"Uncletopia | Los Angeles | 3 | All Maps","protocol":17,"map":"cp_dustbowl","folder":"tf","game":"Team Fortress","app_id":440,"player_count":0,"max_players":24,"Bots":0,"server_type":"Dedicated","server_os":"Linux","password":true,"vac":true,"version":"7757534","steam_id":85568392924510198,"keywords":["cp","nocrits","nodmgspread","uncletopia"],"game_id":440,"stv_port":27036,"stv_name":"Uncletopia | Los Angeles | 3 | All Maps | STV","players":null},{"server_id":25,"name":"Uncletopia | Los Angeles | 4 | Stopwatch Beta","name_short":"lax-4","host":"lax-1.us.uncletopia.com","port":27045,"enabled":true,"region":"us-west","cc":"us","latitude":33.94279,"longitude":-118.41004,"reserved":0,"last_update":"0001-01-01T00:00:00Z","name_a2s":"Uncletopia | Los Angeles | 4 | Stopwatch Beta","protocol":17,"map":"pl_frontier_final","folder":"tf","game":"Team Fortress","app_id":440,"player_count":0,"max_players":24,"Bots":0,"server_type":"Dedicated","server_os":"Linux","password":true,"vac":true,"version":"7757534","steam_id":85568392924510199,"keywords":["nocrits","nodmgspread","payload","uncletopia"],"game_id":440,"stv_port":27046,"stv_name":"Uncletopia | Los Angeles | 4 | Stopwatch Beta | STV","players":null},{"server_id":11,"name":"Uncletopia | London | 1 | All Maps","name_short":"lon-1","host":"lon-1.uk.uncletopia.com","port":27015,"enabled":true,"region":"eu","cc":"gb","latitude":51.509865,"longitude":-0.118092,"reserved":0,"last_update":"0001-01-01T00:00:00Z","name_a2s":"Uncletopia | London | 1 | All Maps","protocol":17,"map":"koth_viaduct","folder":"tf","game":"Team Fortress","app_id":440,"player_count":0,"max_players":24,"Bots":0,"server_type":"Dedicated","server_os":"Linux","password":true,"vac":true,"version":"7757534","steam_id":85568392924367362,"keywords":["cp","nocrits","nodmgspread","uncletopia"],"game_id":440,"stv_port":27016,"stv_name":"Uncletopia | London | 1 | All Maps | STV","players":null},{"server_id":114,"name":"Uncletopia | London | 2 | All Maps","name_short":"lon-2","host":"lon-1.uk.uncletopia.com","port":27025,"enabled":true,"region":"eu","cc":"gb","latitude":51.509865,"longitude":-0.118092,"reserved":0,"last_update":"0001-01-01T00:00:00Z","name_a2s":"Uncletopia | London | 2 | All Maps","protocol":17,"map":"cp_altitude","folder":"tf","game":"Team Fortress","app_id":440,"player_count":0,"max_players":24,"Bots":0,"server_type":"Dedicated","server_os":"Linux","password":true,"vac":true,"version":"7757534","steam_id":85568392924470941,"keywords":["cp","nocrits","nodmgspread","uncletopia"],"game_id":440,"stv_port":27026,"stv_name":"Uncletopia | London | 2 | All Maps | STV","players":null},{"server_id":320,"name":"Uncletopia | London | 3 | All Maps","name_short":"lon-3","host":"lon-1.uk.uncletopia.com","port":27035,"enabled":true,"region":"eu","cc":"gb","latitude":51.509865,"longitude":-0.118092,"reserved":0,"last_update":"0001-01-01T00:00:00Z","name_a2s":"Uncletopia | London | 3 | All Maps","protocol":17,"map":"pl_upward","folder":"tf","game":"Team Fortress","app_id":440,"player_count":24,"max_players":24,"Bots":0,"server_type":"Dedicated","server_os":"Linux","password":true,"vac":true,"version":"7757534","steam_id":85568392924510192,"keywords":["nocrits","nodmgspread","payload","uncletopia"],"game_id":440,"stv_port":27036,"stv_name":"Uncletopia | London | 3 | All Maps | STV","players":[{"user_id":88,"name":"I LOVE THE HIGH GROUND","steam_id":76561198989449047,"connected_time":432000000000,"state":"active","ping":122},{"user_id":76,"name":".::[SerafeTTiN]::.","steam_id":76561198009471724,"connected_time":2423000000000,"state":"active","ping":96},{"user_id":81,"name":"󠀡󠀡","steam_id":76561198015585266,"connected_time":1475000000000,"state":"active","ping":93},{"user_id":87,"name":"jmp","steam_id":76561198168283286,"connected_time":462000000000,"state":"active","ping":84},{"user_id":69,"name":"Izzie","steam_id":76561198090287325,"connected_time":3009000000000,"state":"active","ping":58},{"user_id":30,"name":"Shun Rosen","steam_id":76561198012823909,"connected_time":5787000000000,"state":"active","ping":123},{"user_id":65,"name":"26789","steam_id":76561198118412910,"connected_time":3323000000000,"state":"active","ping":52},{"user_id":74,"name":"Mugelzz","steam_id":76561198048528709,"connected_time":2428000000000,"state":"active","ping":121},{"user_id":21,"name":"BONK-TEC!","steam_id":76561198272667029,"connected_time":6075000000000,"state":"active","ping":53},{"user_id":43,"name":"fnaf 2 ambience","steam_id":76561199149307190,"connected_time":5095000000000,"state":"active","ping":85},{"user_id":82,"name":"hellrunner","steam_id":76561198205309695,"connected_time":1464000000000,"state":"active","ping":80},{"user_id":67,"name":"top shelf","steam_id":76561198357894803,"connected_time":3135000000000,"state":"active","ping":111},{"user_id":86,"name":"potatohead","steam_id":76561198282131133,"connected_time":466000000000,"state":"active","ping":46},{"user_id":28,"name":"Jiggie","steam_id":76561198018134884,"connected_time":5827000000000,"state":"active","ping":77},{"user_id":78,"name":"Uncle Motong","steam_id":76561198029093635,"connected_time":2371000000000,"state":"active","ping":60},{"user_id":73,"name":"Geraldo","steam_id":76561198046596619,"connected_time":2523000000000,"state":"active","ping":131},{"user_id":79,"name":"ivanmixo","steam_id":76561198160213989,"connected_time":2342000000000,"state":"active","ping":67},{"user_id":85,"name":"Prism","steam_id":76561198075538312,"connected_time":954000000000,"state":"active","ping":47},{"user_id":70,"name":"Don Quixote","steam_id":76561197999454313,"connected_time":2949000000000,"state":"active","ping":75},{"user_id":92,"name":"GogsCrunchyNuts","steam_id":76561198150599213,"connected_time":338000000000,"state":"active","ping":93},{"user_id":75,"name":"[T]aKer","steam_id":76561198001778013,"connected_time":2426000000000,"state":"active","ping":50},{"user_id":50,"name":"EU GOD","steam_id":76561198001725703,"connected_time":4335000000000,"state":"active","ping":85},{"user_id":89,"name":"joni","steam_id":76561198048957139,"connected_time":431000000000,"state":"active","ping":59},{"user_id":62,"name":"ef1miykysalreadylmao","steam_id":76561198959501932,"connected_time":3542000000000,"state":"active","ping":82}]},{"server_id":321,"name":"Uncletopia | London | 4 | All Maps","name_short":"lon-4","host":"lon-1.uk.uncletopia.com","port":27045,"enabled":true,"region":"eu","cc":"gb","latitude":51.509865,"longitude":-0.118092,"reserved":0,"last_update":"0001-01-01T00:00:00Z","name_a2s":"Uncletopia | London | 4 | All Maps","protocol":17,"map":"koth_viaduct","folder":"tf","game":"Team Fortress","app_id":440,"player_count":0,"max_players":24,"Bots":0,"server_type":"Dedicated","server_os":"Linux","password":true,"vac":true,"version":"7757534","steam_id":85568392924510193,"keywords":["cp","nocrits","nodmgspread","uncletopia"],"game_id":440,"stv_port":27046,"stv_name":"Uncletopia | London | 4 | All Maps | STV","players":null},{"server_id":21,"name":"Uncletopia | London | 5 | All Maps","name_short":"lon-5","host":"lon-1.uk.uncletopia.com","port":27055,"enabled":true,"region":"eu","cc":"gb","latitude":51.509865,"longitude":-0.118092,"reserved":0,"last_update":"0001-01-01T00:00:00Z","name_a2s":"Uncletopia | London | 5 | All Maps","protocol":17,"map":"cp_snakewater_final1","folder":"tf","game":"Team Fortress","app_id":440,"player_count":0,"max_players":24,"Bots":0,"server_type":"Dedicated","server_os":"Linux","password":true,"vac":true,"version":"7757534","steam_id":85568392924742829,"keywords":["cp","nocrits","nodmgspread","uncletopia"],"game_id":440,"stv_port":27056,"stv_name":"Uncletopia | London | 5 | All Maps | STV","players":null},{"server_id":22,"name":"Uncletopia | London | 6 | All Maps","name_short":"lon-6","host":"lon-1.uk.uncletopia.com","port":27065,"enabled":true,"region":"eu","cc":"gb","latitude":51.509865,"longitude":-0.118092,"reserved":0,"last_update":"0001-01-01T00:00:00Z","name_a2s":"Uncletopia | London | 6 | All Maps","protocol":17,"map":"koth_cascade","folder":"tf","game":"Team Fortress","app_id":440,"player_count":0,"max_players":24,"Bots":0,"server_type":"Dedicated","server_os":"Linux","password":true,"vac":true,"version":"7757534","steam_id":85568392924742830,"keywords":["cp","nocrits","nodmgspread","uncletopia"],"game_id":440,"stv_port":27066,"stv_name":"Uncletopia | London | 6 | All Maps | STV","players":null},{"server_id":40,"name":"Uncletopia | London | 7 | No Payload","name_short":"lon-7","host":"lon-1.uk.uncletopia.com","port":27075,"enabled":true,"region":"eu","cc":"gb","latitude":51.509865,"longitude":-0.118092,"reserved":0,"last_update":"0001-01-01T00:00:00Z","name_a2s":"Uncletopia | London | 7 | No Payload","protocol":17,"map":"cp_process_final","folder":"tf","game":"Team Fortress","app_id":440,"player_count":0,"max_players":24,"Bots":0,"server_type":"Dedicated","server_os":"Linux","password":true,"vac":true,"version":"7757534","steam_id":85568392924964314,"keywords":["cp","nocrits","nodmgspread","uncletopia"],"game_id":440,"stv_port":27076,"stv_name":"Uncletopia | London | 7 | No Payload | STV","players":null},{"server_id":41,"name":"Uncletopia | London | 8 | Community","name_short":"lon-8","host":"lon-1.uk.uncletopia.com","port":27085,"enabled":true,"region":"eu","cc":"gb","latitude":51.509865,"longitude":-0.118092,"reserved":0,"last_update":"0001-01-01T00:00:00Z","name_a2s":"Uncletopia | London | 8 | Community","protocol":17,"map":"workshop/cp_overgrown_rc7b.ugc503939302","folder":"tf","game":"Team Fortress","app_id":440,"player_count":0,"max_players":24,"Bots":0,"server_type":"Dedicated","server_os":"Linux","password":true,"vac":true,"version":"7757534","steam_id":85568392924964315,"keywords":["cp","nocrits","nodmgspread","uncletopia"],"game_id":440,"stv_port":27086,"stv_name":"Uncletopia | London | 8 | Community | STV","players":null},{"server_id":300,"name":"Uncletopia | Montréal | 1 | All Maps","name_short":"mtl-1","host":"mtl-1.ca.uncletopia.com","port":27015,"enabled":true,"region":"us-east","cc":"ca","latitude":45.50889,"longitude":-73.56167,"reserved":0,"last_update":"0001-01-01T00:00:00Z","name_a2s":"Uncletopia | Montréal | 1 | All Maps","protocol":17,"map":"pl_borneo","folder":"tf","game":"Team Fortress","app_id":440,"player_count":0,"max_players":24,"Bots":0,"server_type":"Dedicated","server_os":"Linux","password":true,"vac":true,"version":"7757534","steam_id":85568392924500087,"keywords":["nocrits","nodmgspread","payload","uncletopia"],"game_id":440,"stv_port":27016,"stv_name":"Uncletopia | Montréal | 1 | All Maps | STV","players":null},{"server_id":301,"name":"Uncletopia | Montréal | 2 | All Maps","name_short":"mtl-2","host":"mtl-1.ca.uncletopia.com","port":27025,"enabled":true,"region":"us-east","cc":"ca","latitude":45.50889,"longitude":-73.56167,"reserved":0,"last_update":"0001-01-01T00:00:00Z","name_a2s":"Uncletopia | Montréal | 2 | All Maps","protocol":17,"map":"pl_frontier_final","folder":"tf","game":"Team Fortress","app_id":440,"player_count":0,"max_players":24,"Bots":0,"server_type":"Dedicated","server_os":"Linux","password":true,"vac":true,"version":"7757534","steam_id":85568392924500088,"keywords":["nocrits","nodmgspread","payload","uncletopia"],"game_id":440,"stv_port":27026,"stv_name":"Uncletopia | Montréal | 2 | All Maps | STV","players":null},{"server_id":302,"name":"Uncletopia | Montréal | 3 | All Maps","name_short":"mtl-3","host":"mtl-1.ca.uncletopia.com","port":27035,"enabled":true,"region":"us-east","cc":"ca","latitude":45.50889,"longitude":-73.56167,"reserved":0,"last_update":"0001-01-01T00:00:00Z","name_a2s":"Uncletopia | Montréal | 3 | All Maps","protocol":17,"map":"koth_highpass","folder":"tf","game":"Team Fortress","app_id":440,"player_count":0,"max_players":24,"Bots":0,"server_type":"Dedicated","server_os":"Linux","password":true,"vac":true,"version":"7757534","steam_id":85568392924500089,"keywords":["cp","nocrits","nodmgspread","uncletopia"],"game_id":440,"stv_port":27036,"stv_name":"Uncletopia | Montréal | 3 | All Maps | STV","players":null},{"server_id":303,"name":"Uncletopia | Montréal | 4 | No Payload","name_short":"mtl-4","host":"mtl-1.ca.uncletopia.com","port":27045,"enabled":true,"region":"us-east","cc":"ca","latitude":45.50889,"longitude":-73.56167,"reserved":0,"last_update":"0001-01-01T00:00:00Z","name_a2s":"Uncletopia | Montréal | 4 | No Payload","protocol":17,"map":"pl_borneo","folder":"tf","game":"Team Fortress","app_id":440,"player_count":0,"max_players":24,"Bots":0,"server_type":"Dedicated","server_os":"Linux","password":true,"vac":true,"version":"7757534","steam_id":85568392924500090,"keywords":["nocrits","nodmgspread","payload","uncletopia"],"game_id":440,"stv_port":27046,"stv_name":"Uncletopia | Montréal | 4 | No Payload | STV","players":null},{"server_id":13,"name":"Uncletopia | New York City | 1 | All Maps","name_short":"nyc-1","host":"nyc-1.us.uncletopia.com","port":27015,"enabled":true,"region":"us-east","cc":"us","latitude":40.73061,"longitude":-73.93524,"reserved":0,"last_update":"0001-01-01T00:00:00Z","name_a2s":"Uncletopia | New York City | 1 | All Maps","protocol":17,"map":"koth_highpass","folder":"tf","game":"Team Fortress","app_id":440,"player_count":0,"max_players":24,"Bots":0,"server_type":"Dedicated","server_os":"Linux","password":true,"vac":true,"version":"7757534","steam_id":85568392924469993,"keywords":["cp","nocrits","nodmgspread","uncletopia"],"game_id":440,"stv_port":27016,"stv_name":"Uncletopia | New York City | 1 | All Maps | STV","players":null},{"server_id":14,"name":"Uncletopia | New York City | 2 | All Maps","name_short":"nyc-2","host":"nyc-1.us.uncletopia.com","port":27025,"enabled":true,"region":"us-east","cc":"us","latitude":40.73061,"longitude":-73.93524,"reserved":0,"last_update":"0001-01-01T00:00:00Z","name_a2s":"Uncletopia | New York City | 2 | All Maps","protocol":17,"map":"pl_swiftwater_final1","folder":"tf","game":"Team Fortress","app_id":440,"player_count":0,"max_players":24,"Bots":0,"server_type":"Dedicated","server_os":"Linux","password":true,"vac":true,"version":"7757534","steam_id":85568392924469994,"keywords":["nocrits","nodmgspread","payload","uncletopia"],"game_id":440,"stv_port":27026,"stv_name":"Uncletopia | New York City | 2 | All Maps | STV","players":null},{"server_id":15,"name":"Uncletopia | New York City | 3 | Stopwatch Beta","name_short":"nyc-3","host":"nyc-1.us.uncletopia.com","port":27035,"enabled":true,"region":"us-east","cc":"us","latitude":40.73061,"longitude":-73.93524,"reserved":0,"last_update":"0001-01-01T00:00:00Z","name_a2s":"Uncletopia | New York City | 3 | Stopwatch Beta","protocol":17,"map":"koth_highpass","folder":"tf","game":"Team Fortress","app_id":440,"player_count":0,"max_players":24,"Bots":0,"server_type":"Dedicated","server_os":"Linux","password":true,"vac":true,"version":"7757534","steam_id":85568392924742820,"keywords":["cp","nocrits","nodmgspread","uncletopia"],"game_id":440,"stv_port":27036,"stv_name":"Uncletopia | New York City | 3 | Stopwatch Beta | STV","players":null},{"server_id":16,"name":"Uncletopia | New York City | 4 | Community","name_short":"nyc-4","host":"nyc-1.us.uncletopia.com","port":27045,"enabled":true,"region":"us-east","cc":"us","latitude":40.73061,"longitude":-73.93524,"reserved":0,"last_update":"0001-01-01T00:00:00Z","name_a2s":"Uncletopia | New York City | 4 | Community","protocol":17,"map":"workshop/cp_villa_b19.ugc2113052569","folder":"tf","game":"Team Fortress","app_id":440,"player_count":0,"max_players":24,"Bots":0,"server_type":"Dedicated","server_os":"Linux","password":true,"vac":true,"version":"7757534","steam_id":85568392924742821,"keywords":["cp","nocrits","nodmgspread","uncletopia"],"game_id":440,"stv_port":27046,"stv_name":"Uncletopia | New York City | 4 | Community | STV","players":null},{"server_id":142,"name":"Uncletopia | São Paulo | 1 | All Maps","name_short":"sao-1","host":"sao-1.br.uncletopia.com","port":27015,"enabled":true,"region":"sa","cc":"br","latitude":-23.533773,"longitude":-46.62529,"reserved":0,"last_update":"0001-01-01T00:00:00Z","name_a2s":"Uncletopia | São Paulo | 1 | All Maps","protocol":17,"map":"pl_badwater","folder":"tf","game":"Team Fortress","app_id":440,"player_count":0,"max_players":24,"Bots":0,"server_type":"Dedicated","server_os":"Linux","password":true,"vac":true,"version":"7757534","steam_id":85568392924469996,"keywords":["nocrits","nodmgspread","payload","uncletopia"],"game_id":440,"stv_port":27016,"stv_name":"Uncletopia | São Paulo | 1 | All Maps | STV","players":null},{"server_id":143,"name":"Uncletopia | São Paulo | 2 | All Maps","name_short":"sao-2","host":"sao-2.br.uncletopia.com","port":27015,"enabled":true,"region":"sa","cc":"br","latitude":-23.533773,"longitude":-46.62529,"reserved":0,"last_update":"0001-01-01T00:00:00Z","name_a2s":"Uncletopia | São Paulo | 2 | All Maps","protocol":17,"map":"pl_borneo","folder":"tf","game":"Team Fortress","app_id":440,"player_count":0,"max_players":24,"Bots":0,"server_type":"Dedicated","server_os":"Linux","password":true,"vac":true,"version":"7757534","steam_id":85568392924485349,"keywords":["nocrits","nodmgspread","payload","uncletopia"],"game_id":440,"stv_port":27016,"stv_name":"Uncletopia | São Paulo | 2 | All Maps | STV","players":null},{"server_id":7,"name":"Uncletopia | Seattle | 1 | All Maps","name_short":"sea-1","host":"sea-1.us.uncletopia.com","port":27015,"enabled":true,"region":"us-west","cc":"us","latitude":47.608013,"longitude":-122.33517,"reserved":0,"last_update":"0001-01-01T00:00:00Z","name_a2s":"Uncletopia | Seattle | 1 | All Maps","protocol":17,"map":"koth_lakeside_final","folder":"tf","game":"Team Fortress","app_id":440,"player_count":0,"max_players":24,"Bots":0,"server_type":"Dedicated","server_os":"Linux","password":true,"vac":true,"version":"7757534","steam_id":85568392924469997,"keywords":["cp","nocrits","nodmgspread","uncletopia"],"game_id":440,"stv_port":27016,"stv_name":"Uncletopia | Seattle | 1 | All Maps | STV","players":null},{"server_id":119,"name":"Uncletopia | Seattle | 2 | All Maps","name_short":"sea-2","host":"sea-1.us.uncletopia.com","port":27025,"enabled":true,"region":"us-west","cc":"us","latitude":47.608013,"longitude":-122.33517,"reserved":0,"last_update":"0001-01-01T00:00:00Z","name_a2s":"Uncletopia | Seattle | 2 | All Maps","protocol":17,"map":"pl_pier","folder":"tf","game":"Team Fortress","app_id":440,"player_count":23,"max_players":24,"Bots":0,"server_type":"Dedicated","server_os":"Linux","password":true,"vac":true,"version":"7757534","steam_id":85568392924469998,"keywords":["nocrits","nodmgspread","payload","uncletopia"],"game_id":440,"stv_port":27026,"stv_name":"Uncletopia | Seattle | 2 | All Maps | STV","players":[{"user_id":587,"name":"Milky Luggage","steam_id":76561198433728893,"connected_time":63000000000,"state":"active","ping":90},{"user_id":560,"name":"Barn.Jones1992","steam_id":76561198197981309,"connected_time":1496000000000,"state":"active","ping":85},{"user_id":564,"name":"jrmadmallard","steam_id":76561198275994616,"connected_time":1354000000000,"state":"active","ping":63},{"user_id":570,"name":"Brocklee","steam_id":76561198189330642,"connected_time":1197000000000,"state":"active","ping":74},{"user_id":567,"name":"Anxiety","steam_id":76561198365627687,"connected_time":1310000000000,"state":"active","ping":83},{"user_id":588,"name":"Stupid Dumbass Shithead Medic","steam_id":76561198256581731,"connected_time":25000000000,"state":"active","ping":72},{"user_id":572,"name":"xXBootysquirterXx","steam_id":76561198958369544,"connected_time":1080000000000,"state":"active","ping":89},{"user_id":454,"name":"Nobuunga","steam_id":76561198100614981,"connected_time":9826000000000,"state":"active","ping":46},{"user_id":573,"name":"p9 squash","steam_id":76561198150281353,"connected_time":1057000000000,"state":"active","ping":57},{"user_id":579,"name":"shane","steam_id":76561198060491451,"connected_time":669000000000,"state":"active","ping":93},{"user_id":581,"name":"strong and healthy gamer","steam_id":76561198049489349,"connected_time":463000000000,"state":"active","ping":56},{"user_id":583,"name":"charm quark","steam_id":76561198098770777,"connected_time":295000000000,"state":"active","ping":45},{"user_id":574,"name":"Crumpets","steam_id":76561198964015430,"connected_time":1057000000000,"state":"active","ping":90},{"user_id":580,"name":"Empyrean","steam_id":76561198116398716,"connected_time":659000000000,"state":"active","ping":86},{"user_id":479,"name":"shiftshock01","steam_id":76561199049488870,"connected_time":7772000000000,"state":"active","ping":72},{"user_id":569,"name":"gamer","steam_id":76561198295713840,"connected_time":1258000000000,"state":"active","ping":75},{"user_id":578,"name":"Citizen Toxie","steam_id":76561197961107982,"connected_time":809000000000,"state":"active","ping":87},{"user_id":575,"name":"Pudsla","steam_id":76561198258974036,"connected_time":974000000000,"state":"active","ping":66},{"user_id":589,"name":"moopmop","steam_id":76561198065224965,"connected_time":21000000000,"state":"active","ping":62},{"user_id":576,"name":"bocchi the rock tf2","steam_id":76561198016739296,"connected_time":899000000000,"state":"active","ping":60},{"user_id":577,"name":"mu","steam_id":76561197997530228,"connected_time":857000000000,"state":"active","ping":50},{"user_id":585,"name":"Pilgor","steam_id":76561199015974393,"connected_time":231000000000,"state":"active","ping":45},{"user_id":452,"name":"pizzaguy4","steam_id":76561198058821622,"connected_time":10607000000000,"state":"active","ping":91}]},{"server_id":406,"name":"Uncletopia | Seattle | 3 | Stopwatch Beta","name_short":"sea-3","host":"sea-1.us.uncletopia.com","port":27035,"enabled":true,"region":"us-west","cc":"us","latitude":47.608013,"longitude":-122.33517,"reserved":0,"last_update":"0001-01-01T00:00:00Z","name_a2s":"Uncletopia | Seattle | 3 | Stopwatch Beta","protocol":17,"map":"koth_highpass","folder":"tf","game":"Team Fortress","app_id":440,"player_count":0,"max_players":24,"Bots":0,"server_type":"Dedicated","server_os":"Linux","password":true,"vac":true,"version":"7757534","steam_id":85568392924515217,"keywords":["cp","nocrits","nodmgspread","uncletopia"],"game_id":440,"stv_port":27036,"stv_name":"Uncletopia | Seattle | 3 | Stopwatch Beta | STV","players":null},{"server_id":17,"name":"Uncletopia | San Francisco | 1 | All Maps","name_short":"sfo-1","host":"sfo-1.us.uncletopia.com","port":27015,"enabled":true,"region":"us-west","cc":"us","latitude":37.77397,"longitude":-122.4313,"reserved":0,"last_update":"0001-01-01T00:00:00Z","name_a2s":"Uncletopia | San Francisco | 1 | All Maps","protocol":17,"map":"cp_process_final","folder":"tf","game":"Team Fortress","app_id":440,"player_count":19,"max_players":24,"Bots":0,"server_type":"Dedicated","server_os":"Linux","password":true,"vac":true,"version":"7757534","steam_id":85568392924469999,"keywords":["cp","nocrits","nodmgspread","uncletopia"],"game_id":440,"stv_port":27016,"stv_name":"Uncletopia | San Francisco | 1 | All Maps | STV","players":[{"user_id":811,"name":"nox","steam_id":76561198054390505,"connected_time":273000000000,"state":"active","ping":90},{"user_id":755,"name":"ihavetapeworms","steam_id":76561198357040313,"connected_time":4545000000000,"state":"active","ping":91},{"user_id":807,"name":"kebo","steam_id":76561198237159430,"connected_time":1310000000000,"state":"active","ping":57},{"user_id":810,"name":"Varrick","steam_id":76561198018461983,"connected_time":498000000000,"state":"active","ping":86},{"user_id":775,"name":"DeadKrow","steam_id":76561198054515487,"connected_time":3375000000000,"state":"active","ping":118},{"user_id":772,"name":"kiko","steam_id":76561198128901451,"connected_time":3567000000000,"state":"active","ping":64},{"user_id":814,"name":"Pacman","steam_id":76561199466007022,"connected_time":34000000000,"state":"active","ping":73},{"user_id":805,"name":"GROOVYROOM","steam_id":76561199153684166,"connected_time":1482000000000,"state":"active","ping":61},{"user_id":815,"name":"zaza2k","steam_id":76561198393760567,"connected_time":23000000000,"state":"active","ping":47},{"user_id":793,"name":"bigpoo (lean addict)","steam_id":76561198864139320,"connected_time":2339000000000,"state":"active","ping":172},{"user_id":799,"name":"nyoah","steam_id":76561198834915248,"connected_time":2111000000000,"state":"active","ping":71},{"user_id":764,"name":"tweet","steam_id":76561198166515735,"connected_time":4228000000000,"state":"active","ping":44},{"user_id":746,"name":"BeanieBomber","steam_id":76561198128337215,"connected_time":5151000000000,"state":"active","ping":53},{"user_id":813,"name":"Foomfa","steam_id":76561198007033616,"connected_time":224000000000,"state":"active","ping":90},{"user_id":808,"name":"toki","steam_id":76561199196943730,"connected_time":1160000000000,"state":"active","ping":64},{"user_id":784,"name":"Jango","steam_id":76561198121922413,"connected_time":3117000000000,"state":"active","ping":49},{"user_id":802,"name":"me","steam_id":76561199468285784,"connected_time":1857000000000,"state":"active","ping":30},{"user_id":767,"name":"Llama","steam_id":76561198075484983,"connected_time":4174000000000,"state":"active","ping":71},{"user_id":796,"name":"M4 Sherman","steam_id":76561198011096132,"connected_time":2236000000000,"state":"active","ping":48}]},{"server_id":18,"name":"Uncletopia | San Francisco | 2 | All Maps","name_short":"sfo-2","host":"sfo-1.us.uncletopia.com","port":27025,"enabled":true,"region":"us-west","cc":"us","latitude":37.77397,"longitude":-122.4313,"reserved":0,"last_update":"0001-01-01T00:00:00Z","name_a2s":"Uncletopia | San Francisco | 2 | All Maps","protocol":17,"map":"koth_cascade","folder":"tf","game":"Team Fortress","app_id":440,"player_count":0,"max_players":24,"Bots":0,"server_type":"Dedicated","server_os":"Linux","password":true,"vac":true,"version":"7757534","steam_id":85568392924470000,"keywords":["cp","nocrits","nodmgspread","uncletopia"],"game_id":440,"stv_port":27026,"stv_name":"Uncletopia | San Francisco | 2 | All Maps | STV","players":null},{"server_id":19,"name":"Uncletopia | San Francisco | 3 | Stopwatch Beta","name_short":"sfo-3","host":"sfo-1.us.uncletopia.com","port":27035,"enabled":true,"region":"us-west","cc":"us","latitude":37.77397,"longitude":-122.4313,"reserved":0,"last_update":"0001-01-01T00:00:00Z","name_a2s":"Uncletopia | San Francisco | 3 | Stopwatch Beta","protocol":17,"map":"pl_borneo","folder":"tf","game":"Team Fortress","app_id":440,"player_count":0,"max_players":24,"Bots":0,"server_type":"Dedicated","server_os":"Linux","password":true,"vac":true,"version":"7757534","steam_id":85568392924742824,"keywords":["nocrits","nodmgspread","payload","uncletopia"],"game_id":440,"stv_port":27036,"stv_name":"Uncletopia | San Francisco | 3 | Stopwatch Beta | STV","players":null},{"server_id":20,"name":"Uncletopia | San Francisco | 4 | Community","name_short":"sfo-4","host":"sfo-1.us.uncletopia.com","port":27045,"enabled":true,"region":"us-west","cc":"us","latitude":37.77397,"longitude":-122.4313,"reserved":0,"last_update":"0001-01-01T00:00:00Z","name_a2s":"Uncletopia | San Francisco | 4 | Community","protocol":17,"map":"workshop/koth_ashville_final.ugc2130459942","folder":"tf","game":"Team Fortress","app_id":440,"player_count":0,"max_players":24,"Bots":0,"server_type":"Dedicated","server_os":"Linux","password":true,"vac":true,"version":"7757534","steam_id":85568392924742826,"keywords":["cp","nocrits","nodmgspread","uncletopia"],"game_id":440,"stv_port":27046,"stv_name":"Uncletopia | San Francisco | 4 | Community | STV","players":null},{"server_id":141,"name":"Uncletopia | Sydney | 1 | All Maps","name_short":"syd-1","host":"syd-1.au.uncletopia.com","port":27015,"enabled":true,"region":"au","cc":"au","latitude":-33.865143,"longitude":151.2099,"reserved":0,"last_update":"0001-01-01T00:00:00Z","name_a2s":"Uncletopia | Sydney | 1 | All Maps","protocol":17,"map":"koth_highpass","folder":"tf","game":"Team Fortress","app_id":440,"player_count":24,"max_players":24,"Bots":0,"server_type":"Dedicated","server_os":"Linux","password":true,"vac":true,"version":"7757534","steam_id":85568392924470001,"keywords":["cp","nocrits","nodmgspread","uncletopia"],"game_id":440,"stv_port":27016,"stv_name":"Uncletopia | Sydney | 1 | All Maps | STV","players":[{"user_id":156,"name":"Techlord","steam_id":76561199117241969,"connected_time":821000000000,"state":"active","ping":44},{"user_id":151,"name":"Teenyman5","steam_id":76561198326425017,"connected_time":851000000000,"state":"active","ping":68},{"user_id":153,"name":"J959","steam_id":76561198855585931,"connected_time":842000000000,"state":"active","ping":49},{"user_id":163,"name":"Storms","steam_id":76561199058704739,"connected_time":45000000000,"state":"active","ping":78},{"user_id":146,"name":"Voncrumb","steam_id":76561198054076313,"connected_time":1483000000000,"state":"active","ping":50},{"user_id":162,"name":"Tofu","steam_id":76561198025637573,"connected_time":48000000000,"state":"active","ping":114},{"user_id":131,"name":"Radio","steam_id":76561199436707447,"connected_time":2146000000000,"state":"active","ping":53},{"user_id":148,"name":"Drago meteor bomb","steam_id":76561198031869152,"connected_time":1179000000000,"state":"active","ping":95},{"user_id":147,"name":"Iggy","steam_id":76561198801469956,"connected_time":1461000000000,"state":"active","ping":62},{"user_id":160,"name":"giant skeleton","steam_id":76561198951165749,"connected_time":110000000000,"state":"active","ping":49},{"user_id":127,"name":"Gregory","steam_id":76561199028542666,"connected_time":2603000000000,"state":"active","ping":47},{"user_id":149,"name":"cakey","steam_id":76561198173746761,"connected_time":943000000000,"state":"active","ping":112},{"user_id":150,"name":"cimpact","steam_id":76561198452258917,"connected_time":942000000000,"state":"active","ping":110},{"user_id":133,"name":"beanpope","steam_id":76561199005815714,"connected_time":2110000000000,"state":"active","ping":59},{"user_id":135,"name":"chill weed vibes only","steam_id":76561198182862426,"connected_time":2005000000000,"state":"active","ping":44},{"user_id":158,"name":"spell joe biden backwards","steam_id":76561198101220255,"connected_time":759000000000,"state":"active","ping":66},{"user_id":137,"name":"RBY","steam_id":76561198279663555,"connected_time":1918000000000,"state":"active","ping":52},{"user_id":138,"name":"Asl:3x","steam_id":76561198972095766,"connected_time":1891000000000,"state":"active","ping":40},{"user_id":139,"name":"TK-King1","steam_id":76561199219050905,"connected_time":1843000000000,"state":"active","ping":60},{"user_id":157,"name":"grab a stubby mate","steam_id":76561198075320354,"connected_time":819000000000,"state":"active","ping":45},{"user_id":142,"name":"hijik","steam_id":76561198359069277,"connected_time":1704000000000,"state":"active","ping":104},{"user_id":143,"name":"Sir Reality","steam_id":76561198045552695,"connected_time":1686000000000,"state":"active","ping":76},{"user_id":144,"name":"The Real MVP","steam_id":76561198046510592,"connected_time":1677000000000,"state":"active","ping":86},{"user_id":145,"name":"BlueVapour","steam_id":76561198049026672,"connected_time":1659000000000,"state":"active","ping":86}]},{"server_id":123,"name":"Uncletopia | Sydney | 2 | All Maps","name_short":"syd-2","host":"syd-1.au.uncletopia.com","port":27025,"enabled":true,"region":"au","cc":"au","latitude":-33.865143,"longitude":151.2099,"reserved":0,"last_update":"0001-01-01T00:00:00Z","name_a2s":"Uncletopia | Sydney | 2 | All Maps","protocol":17,"map":"pl_badwater","folder":"tf","game":"Team Fortress","app_id":440,"player_count":24,"max_players":24,"Bots":0,"server_type":"Dedicated","server_os":"Linux","password":true,"vac":true,"version":"7757534","steam_id":85568392924470002,"keywords":["nocrits","nodmgspread","payload","uncletopia"],"game_id":440,"stv_port":27026,"stv_name":"Uncletopia | Sydney | 2 | All Maps | STV","players":[{"user_id":187,"name":"Empr","steam_id":76561198024387396,"connected_time":6484000000000,"state":"active","ping":67},{"user_id":267,"name":"ly","steam_id":76561198303878229,"connected_time":1152000000000,"state":"active","ping":58},{"user_id":270,"name":"\u003c0/","steam_id":76561197969655014,"connected_time":557000000000,"state":"active","ping":85},{"user_id":239,"name":"fovai","steam_id":76561198223471072,"connected_time":2273000000000,"state":"active","ping":61},{"user_id":251,"name":"Jy","steam_id":76561198104427524,"connected_time":1567000000000,"state":"active","ping":56},{"user_id":263,"name":"4-Star Yelp Review","steam_id":76561197995258180,"connected_time":1221000000000,"state":"active","ping":54},{"user_id":234,"name":"Zeal","steam_id":76561198060829393,"connected_time":3163000000000,"state":"active","ping":67},{"user_id":242,"name":"Mac","steam_id":76561198063407128,"connected_time":2133000000000,"state":"active","ping":45},{"user_id":189,"name":"until yawn","steam_id":76561198170693338,"connected_time":6322000000000,"state":"active","ping":75},{"user_id":264,"name":"Fuzz","steam_id":76561198063077180,"connected_time":1215000000000,"state":"active","ping":59},{"user_id":269,"name":"o p t i v e","steam_id":76561198131756192,"connected_time":739000000000,"state":"active","ping":75},{"user_id":236,"name":"Mangos","steam_id":76561198206091949,"connected_time":3102000000000,"state":"active","ping":110},{"user_id":258,"name":"qwop champion","steam_id":76561198143395126,"connected_time":1383000000000,"state":"active","ping":56},{"user_id":265,"name":"EXTRA THICC","steam_id":76561198333936835,"connected_time":1203000000000,"state":"active","ping":57},{"user_id":260,"name":"Ok Mate","steam_id":76561198254922035,"connected_time":1334000000000,"state":"active","ping":57},{"user_id":276,"name":"Livid","steam_id":76561198060024585,"connected_time":84000000000,"state":"active","ping":44},{"user_id":256,"name":"Cris.p bacon","steam_id":76561199230423491,"connected_time":1443000000000,"state":"active","ping":110},{"user_id":272,"name":"Red Robot","steam_id":76561198192333355,"connected_time":286000000000,"state":"active","ping":75},{"user_id":274,"name":"DQ","steam_id":76561197965566926,"connected_time":240000000000,"state":"active","ping":31},{"user_id":273,"name":"Patroid","steam_id":76561198320888586,"connected_time":281000000000,"state":"active","ping":57},{"user_id":241,"name":"The Tupelo Mississippi Flash","steam_id":76561197994434239,"connected_time":2145000000000,"state":"active","ping":60},{"user_id":245,"name":"Pirate Arr","steam_id":76561198011944697,"connected_time":1868000000000,"state":"active","ping":58},{"user_id":266,"name":"floppinv2","steam_id":76561198213566569,"connected_time":1199000000000,"state":"active","ping":95},{"user_id":279,"name":"Barry Bougar M.D.","steam_id":76561198301282416,"connected_time":37000000000,"state":"spawning","ping":53}]},{"server_id":395,"name":"Uncletopia | Sydney | 3 | All Maps","name_short":"syd-3","host":"syd-1.au.uncletopia.com","port":27035,"enabled":true,"region":"au","cc":"au","latitude":-33.865143,"longitude":151.2099,"reserved":0,"last_update":"0001-01-01T00:00:00Z","name_a2s":"Uncletopia | Sydney | 3 | All Maps","protocol":17,"map":"koth_lakeside_final","folder":"tf","game":"Team Fortress","app_id":440,"player_count":0,"max_players":24,"Bots":0,"server_type":"Dedicated","server_os":"Linux","password":true,"vac":true,"version":"7757534","steam_id":85568392925194467,"keywords":["cp","nocrits","nodmgspread","uncletopia"],"game_id":440,"stv_port":27036,"stv_name":"Uncletopia | Sydney | 3 | All Maps | STV","players":null},{"server_id":396,"name":"Uncletopia | Sydney | 4 | All Maps","name_short":"syd-4","host":"syd-1.au.uncletopia.com","port":27045,"enabled":true,"region":"au","cc":"au","latitude":-33.865143,"longitude":151.2099,"reserved":0,"last_update":"0001-01-01T00:00:00Z","name_a2s":"Uncletopia | Sydney | 4 | All Maps","protocol":17,"map":"koth_lakeside_final","folder":"tf","game":"Team Fortress","app_id":440,"player_count":0,"max_players":24,"Bots":0,"server_type":"Dedicated","server_os":"Linux","password":true,"vac":true,"version":"7757534","steam_id":85568392925397958,"keywords":["cp","nocrits","nodmgspread","uncletopia"],"game_id":440,"stv_port":27046,"stv_name":"Uncletopia | Sydney | 4 | All Maps | STV","players":null},{"server_id":58,"name":"Uncletopia | Sydney | 5 | Stopwatch Beta","name_short":"syd-5","host":"syd-1.au.uncletopia.com","port":27055,"enabled":true,"region":"au","cc":"au","latitude":-33.865143,"longitude":151.2099,"reserved":0,"last_update":"0001-01-01T00:00:00Z","name_a2s":"Uncletopia | Sydney | 5 | Stopwatch Beta","protocol":17,"map":"koth_highpass","folder":"tf","game":"Team Fortress","app_id":440,"player_count":0,"max_players":24,"Bots":0,"server_type":"Dedicated","server_os":"Linux","password":true,"vac":true,"version":"7757534","steam_id":85568392925397959,"keywords":["cp","nocrits","nodmgspread","uncletopia"],"game_id":440,"stv_port":27056,"stv_name":"Uncletopia | Sydney | 5 | Stopwatch Beta | STV","players":null},{"server_id":59,"name":"Uncletopia | Sydney | 6 | Community","name_short":"syd-6","host":"syd-1.au.uncletopia.com","port":27065,"enabled":true,"region":"au","cc":"au","latitude":-33.865143,"longitude":151.2099,"reserved":0,"last_update":"0001-01-01T00:00:00Z","name_a2s":"Uncletopia | Sydney | 6 | Community","protocol":17,"map":"workshop/cp_villa_b19.ugc2113052569","folder":"tf","game":"Team Fortress","app_id":440,"player_count":0,"max_players":24,"Bots":0,"server_type":"Dedicated","server_os":"Linux","password":true,"vac":true,"version":"7757534","steam_id":85568392925397960,"keywords":["cp","nocrits","nodmgspread","uncletopia"],"game_id":440,"stv_port":27066,"stv_name":"Uncletopia | Sydney | 6 | Community | STV","players":null},{"server_id":49,"name":"Uncletopia | Warsaw | 1 | All Maps","name_short":"waw-1","host":"waw-1.pl.uncletopia.com","port":27015,"enabled":true,"region":"eu","cc":"pl","latitude":52.2297,"longitude":21.017532,"reserved":0,"last_update":"0001-01-01T00:00:00Z","name_a2s":"","protocol":0,"map":"","folder":"","game":"","app_id":0,"player_count":0,"max_players":0,"Bots":0,"server_type":"","server_os":"","password":false,"vac":false,"version":"","steam_id":0,"keywords":null,"game_id":0,"stv_port":0,"stv_name":"","players":null},{"server_id":50,"name":"Uncletopia | Warsaw | 2 | All Maps","name_short":"waw-2","host":"waw-1.pl.uncletopia.com","port":27025,"enabled":true,"region":"eu","cc":"pl","latitude":52.2297,"longitude":21.017532,"reserved":0,"last_update":"0001-01-01T00:00:00Z","name_a2s":"Uncletopia | Warsaw | 2 | All Maps","protocol":17,"map":"cp_process_final","folder":"tf","game":"Team Fortress","app_id":440,"player_count":0,"max_players":24,"Bots":0,"server_type":"Dedicated","server_os":"Linux","password":true,"vac":true,"version":"7757534","steam_id":85568392925397851,"keywords":["cp","nocrits","nodmgspread","uncletopia"],"game_id":440,"stv_port":27026,"stv_name":"Uncletopia | Warsaw | 2 | All Maps | STV","players":null},{"server_id":51,"name":"Uncletopia | Warsaw | 3 | All Maps","name_short":"waw-3","host":"waw-1.pl.uncletopia.com","port":27035,"enabled":true,"region":"eu","cc":"pl","latitude":52.2297,"longitude":21.017532,"reserved":0,"last_update":"0001-01-01T00:00:00Z","name_a2s":"Uncletopia | Warsaw | 3 | All Maps","protocol":17,"map":"pl_barnblitz","folder":"tf","game":"Team Fortress","app_id":440,"player_count":0,"max_players":24,"Bots":0,"server_type":"Dedicated","server_os":"Linux","password":true,"vac":true,"version":"7757534","steam_id":85568392925397852,"keywords":["nocrits","nodmgspread","payload","uncletopia"],"game_id":440,"stv_port":27036,"stv_name":"Uncletopia | Warsaw | 3 | All Maps | STV","players":null},{"server_id":52,"name":"Uncletopia | Warsaw | 4 | All Maps","name_short":"waw-4","host":"waw-1.pl.uncletopia.com","port":27045,"enabled":true,"region":"eu","cc":"pl","latitude":52.2297,"longitude":21.017532,"reserved":0,"last_update":"0001-01-01T00:00:00Z","name_a2s":"Uncletopia | Warsaw | 4 | All Maps","protocol":17,"map":"pl_snowycoast","folder":"tf","game":"Team Fortress","app_id":440,"player_count":0,"max_players":24,"Bots":0,"server_type":"Dedicated","server_os":"Linux","password":true,"vac":true,"version":"7757534","steam_id":85568392925397853,"keywords":["nocrits","nodmgspread","payload","uncletopia"],"game_id":440,"stv_port":27046,"stv_name":"Uncletopia | Warsaw | 4 | All Maps | STV","players":null},{"server_id":53,"name":"Uncletopia | Warsaw | 5 | Stopwatch Beta","name_short":"waw-5","host":"waw-1.pl.uncletopia.com","port":27055,"enabled":true,"region":"eu","cc":"pl","latitude":52.2297,"longitude":21.017532,"reserved":0,"last_update":"0001-01-01T00:00:00Z","name_a2s":"Uncletopia | Warsaw | 5 | Stopwatch Beta","protocol":17,"map":"pl_barnblitz","folder":"tf","game":"Team Fortress","app_id":440,"player_count":0,"max_players":24,"Bots":0,"server_type":"Dedicated","server_os":"Linux","password":true,"vac":true,"version":"7757534","steam_id":85568392925397854,"keywords":["nocrits","nodmgspread","payload","uncletopia"],"game_id":440,"stv_port":27056,"stv_name":"Uncletopia | Warsaw | 5 | Stopwatch Beta | STV","players":null},{"server_id":54,"name":"Uncletopia | Warsaw | 6 | Community","name_short":"waw-6","host":"waw-1.pl.uncletopia.com","port":27065,"enabled":true,"region":"eu","cc":"pl","latitude":52.2297,"longitude":21.017532,"reserved":0,"last_update":"0001-01-01T00:00:00Z","name_a2s":"Uncletopia | Warsaw | 6 | Community","protocol":17,"map":"pl_swiftwater_final1","folder":"tf","game":"Team Fortress","app_id":440,"player_count":0,"max_players":24,"Bots":0,"server_type":"Dedicated","server_os":"Linux","password":true,"vac":true,"version":"7757534","steam_id":85568392925397856,"keywords":["nocrits","nodmgspread","payload","uncletopia"],"game_id":440,"stv_port":27066,"stv_name":"Uncletopia | Warsaw | 6 | Community | STV","players":null}]}