{"status":true,"message":"","result":[{"server_id":9,"name":"Uncletopia | Atlanta | 1 | All Maps","name_short":"atl-1","host":"atl-1.us.uncletopia.com","port":27015,"enabled":true,"region":"us-east","cc":"us","latitude":33.753746,"longitude":-84.38633,"reserved":0,"last_update":"0001-01-01T00:00:00Z","name_a2s":"Uncletopia | Atlanta | 1 | All Maps","protocol":17,"map":"cp_dustbowl","folder":"tf","game":"Team Fortress","app_id":440,"player_count":0,"max_players":24,"Bots":0,"server_type":"Dedicated","server_os":"Linux","password":true,"vac":true,"version":"7961495","steam_id":85568392924469982,"keywords":["cp","nocrits","nodmgspread","uncletopia"],"game_id":440,"stv_port":27016,"stv_name":"Uncletopia | Atlanta | 1 | All Maps | STV","players":null},{"server_id":104,"name":"Uncletopia | Atlanta | 2 | All Maps","name_short":"atl-2","host":"atl-1.us.uncletopia.com","port":27025,"enabled":true,"region":"us-east","cc":"us","latitude":33.753746,"longitude":-84.38633,"reserved":0,"last_update":"0001-01-01T00:00:00Z","name_a2s":"Uncletopia | Atlanta | 2 | All Maps","protocol":17,"map":"koth_cascade","folder":"tf","game":"Team Fortress","app_id":440,"player_count":0,"max_players":24,"Bots":0,"server_type":"Dedicated","server_os":"Linux","password":true,"vac":true,"version":"7961495","steam_id":85568392924469983,"keywords":["cp","nocrits","nodmgspread","uncletopia"],"game_id":440,"stv_port":27026,"stv_name":"Uncletopia | Atlanta | 2 | All Maps | STV","players":null},{"server_id":400,"name":"Uncletopia | Atlanta | 3 | Stopwatch","name_short":"atl-3","host":"atl-1.us.uncletopia.com","port":27035,"enabled":true,"region":"us-east","cc":"us","latitude":33.753746,"longitude":-84.38633,"reserved":0,"last_update":"0001-01-01T00:00:00Z","name_a2s":"Uncletopia | Atlanta | 3 | Stopwatch","protocol":17,"map":"pl_badwater","folder":"tf","game":"Team Fortress","app_id":440,"player_count":0,"max_players":24,"Bots":0,"server_type":"Dedicated","server_os":"Linux","password":true,"vac":true,"version":"7961495","steam_id":85568392924515187,"keywords":["nocrits","nodmgspread","payload","uncletopia"],"game_id":440,"stv_port":27036,"stv_name":"Uncletopia | Atlanta | 3 | Stopwatch | STV","players":null},{"server_id":401,"name":"Uncletopia | Atlanta | 4 | Community","name_short":"atl-4","host":"atl-1.us.uncletopia.com","port":27045,"enabled":true,"region":"us-east","cc":"us","latitude":33.753746,"longitude":-84.38633,"reserved":0,"last_update":"0001-01-01T00:00:00Z","name_a2s":"Uncletopia | Atlanta | 4 | Community","protocol":17,"map":"cp_sunshine","folder":"tf","game":"Team Fortress","app_id":440,"player_count":0,"max_players":24,"Bots":0,"server_type":"Dedicated","server_os":"Linux","password":true,"vac":true,"version":"7961495","steam_id":85568392924515188,"keywords":["cp","nocrits","nodmgspread","uncletopia"],"game_id":440,"stv_port":27046,"stv_name":"Uncletopia | Atlanta | 4 | Community | STV","players":null},{"server_id":2,"name":"Uncletopia | Chicago | 1 | All Maps","name_short":"chi-1","host":"chi-1.us.uncletopia.com","port":27015,"enabled":true,"region":"us-central","cc":"us","latitude":41.881832,"longitude":-87.62318,"reserved":0,"last_update":"0001-01-01T00:00:00Z","name_a2s":"Uncletopia | Chicago | 1 | All Maps","protocol":17,"map":"koth_highpass","folder":"tf","game":"Team Fortress","app_id":440,"player_count":2,"max_players":24,"Bots":0,"server_type":"Dedicated","server_os":"Linux","password":true,"vac":true,"version":"7961495","steam_id":85568392924469984,"keywords":["cp","nocrits","nodmgspread","uncletopia"],"game_id":440,"stv_port":27016,"stv_name":"Uncletopia | Chicago | 1 | All Maps | STV","players":[{"user_id":17,"name":"Fllint","steam_id":76561199046737035,"connected_time":64000000000,"state":"spawning","ping":197},{"user_id":18,"name":"Captain Malarkey","steam_id":76561198869924281,"connected_time":0,"state":"spawning","ping":15}]},{"server_id":106,"name":"Uncletopia | Chicago | 2 | All Maps","name_short":"chi-2","host":"chi-1.us.uncletopia.com","port":27025,"enabled":true,"region":"us-central","cc":"us","latitude":41.881832,"longitude":-87.62318,"reserved":0,"last_update":"0001-01-01T00:00:00Z","name_a2s":"Uncletopia | Chicago | 2 | All Maps","protocol":17,"map":"pl_thundermountain","folder":"tf","game":"Team Fortress","app_id":440,"player_count":23,"max_players":24,"Bots":0,"server_type":"Dedicated","server_os":"Linux","password":true,"vac":true,"version":"7961495","steam_id":85568392924469985,"keywords":["nocrits","nodmgspread","payload","uncletopia"],"game_id":440,"stv_port":27026,"stv_name":"Uncletopia | Chicago | 2 | All Maps | STV","players":[{"user_id":81,"name":"kashroomski","steam_id":76561198057076267,"connected_time":362000000000,"state":"active","ping":73},{"user_id":20,"name":"Snitzman","steam_id":76561198068303272,"connected_time":4348000000000,"state":"active","ping":106},{"user_id":75,"name":"dietcokefan42","steam_id":76561198135307995,"connected_time":1029000000000,"state":"active","ping":69},{"user_id":57,"name":"HK G36 with pronouns","steam_id":76561199217503417,"connected_time":1869000000000,"state":"active","ping":94},{"user_id":78,"name":"kite","steam_id":76561198346516392,"connected_time":788000000000,"state":"active","ping":83},{"user_id":58,"name":"Mythic","steam_id":76561198028616665,"connected_time":1867000000000,"state":"active","ping":74},{"user_id":80,"name":"JakeTheSnake2007","steam_id":76561199101642283,"connected_time":655000000000,"state":"active","ping":64},{"user_id":43,"name":"dr peppah chug!","steam_id":76561198068835693,"connected_time":3322000000000,"state":"active","ping":83},{"user_id":76,"name":"Som Ting Wong","steam_id":76561198174985707,"connected_time":1009000000000,"state":"active","ping":68},{"user_id":51,"name":"Obelisk","steam_id":76561198049416866,"connected_time":2353000000000,"state":"active","ping":78},{"user_id":59,"name":"Aeris","steam_id":76561198287271028,"connected_time":1819000000000,"state":"active","ping":60},{"user_id":55,"name":"zabloinkus","steam_id":76561198069967245,"connected_time":1935000000000,"state":"active","ping":85},{"user_id":82,"name":"nerf me","steam_id":76561198310495200,"connected_time":298000000000,"state":"active","ping":55},{"user_id":47,"name":"Gluteus","steam_id":76561198039122699,"connected_time":2631000000000,"state":"active","ping":60},{"user_id":61,"name":"Dr. Han","steam_id":76561198811130843,"connected_time":1736000000000,"state":"active","ping":78},{"user_id":71,"name":"Pixeled","steam_id":76561198088917077,"connected_time":1169000000000,"state":"active","ping":85},{"user_id":83,"name":"SandHanitizer","steam_id":76561198234676500,"connected_time":239000000000,"state":"active","ping":68},{"user_id":44,"name":"Woke Portugal Agenda","steam_id":76561198083276946,"connected_time":3255000000000,"state":"active","ping":68},{"user_id":84,"name":"Dollar Store Empanadillas","steam_id":76561198985919768,"connected_time":128000000000,"state":"active","ping":83},{"user_id":85,"name":"5unny PHD IN HATEOLOGY","steam_id":76561198133111058,"connected_time":114000000000,"state":"active","ping":82},{"user_id":64,"name":"Jo_","steam_id":76561198142135469,"connected_time":1705000000000,"state":"active","ping":63},{"user_id":77,"name":"Louis Pasteur","steam_id":76561198090820261,"connected_time":947000000000,"state":"active","ping":75},{"user_id":65,"name":"Hovg9000","steam_id":76561199191556710,"connected_time":1700000000000,"state":"active","ping":82}]},{"server_id":402,"name":"Uncletopia | Chicago | 3 | All Maps","name_short":"chi-3","host":"chi-1.us.uncletopia.com","port":27035,"enabled":true,"region":"us-central","cc":"us","latitude":41.881832,"longitude":-87.62318,"reserved":0,"last_update":"0001-01-01T00:00:00Z","name_a2s":"Uncletopia | Chicago | 3 | All Maps","protocol":17,"map":"pl_upward","folder":"tf","game":"Team Fortress","app_id":440,"player_count":0,"max_players":24,"Bots":0,"server_type":"Dedicated","server_os":"Linux","password":true,"vac":true,"version":"7961495","steam_id":85568392924515191,"keywords":["nocrits","nodmgspread","payload","uncletopia"],"game_id":440,"stv_port":27036,"stv_name":"Uncletopia | Chicago | 3 | All Maps | STV","players":null},{"server_id":403,"name":"Uncletopia | Chicago | 4 | All Maps","name_short":"chi-4","host":"chi-1.us.uncletopia.com","port":27045,"enabled":true,"region":"us-central","cc":"us","latitude":41.881832,"longitude":-87.62318,"reserved":0,"last_update":"0001-01-01T00:00:00Z","name_a2s":"Uncletopia | Chicago | 4 | All Maps","protocol":17,"map":"cp_powerhouse","folder":"tf","game":"Team Fortress","app_id":440,"player_count":24,"max_players":24,"Bots":0,"server_type":"Dedicated","server_os":"Linux","password":true,"vac":true,"version":"7961495","steam_id":85568392924515193,"keywords":["cp","nocrits","nodmgspread","uncletopia"],"game_id":440,"stv_port":27046,"stv_name":"Uncletopia | Chicago | 4 | All Maps | STV","players":[{"user_id":255,"name":"SexySpectacles","steam_id":76561198211449103,"connected_time":3013000000000,"state":"active","ping":46},{"user_id":272,"name":"Voids","steam_id":76561198128386726,"connected_time":1265000000000,"state":"active","ping":86},{"user_id":141,"name":"Chakra monitoring device","steam_id":76561197995620232,"connected_time":12869000000000,"state":"active","ping":58},{"user_id":270,"name":"ATL 1 | Save your wifi","steam_id":76561198286147372,"connected_time":1365000000000,"state":"active","ping":82},{"user_id":289,"name":"my pitbull eats women under 5'7","steam_id":76561198142756572,"connected_time":148000000000,"state":"active","ping":62},{"user_id":290,"name":"Punchy","steam_id":76561198200000641,"connected_time":103000000000,"state":"active","ping":49},{"user_id":282,"name":"Dr.Inkmix(femboy)","steam_id":76561198854070384,"connected_time":686000000000,"state":"active","ping":113},{"user_id":236,"name":"Baron von Whoopsie","steam_id":76561197996691013,"connected_time":6151000000000,"state":"active","ping":70},{"user_id":207,"name":"ATL1 | cola","steam_id":76561198374390458,"connected_time":8676000000000,"state":"active","ping":76},{"user_id":278,"name":"Kuri","steam_id":76561199037050183,"connected_time":1042000000000,"state":"active","ping":87},{"user_id":248,"name":"Horrowes","steam_id":76561198318446417,"connected_time":4919000000000,"state":"active","ping":78},{"user_id":283,"name":"Rein","steam_id":76561198300340427,"connected_time":538000000000,"state":"active","ping":59},{"user_id":287,"name":"scrapheap","steam_id":76561198202407087,"connected_time":240000000000,"state":"active","ping":73},{"user_id":263,"name":"why","steam_id":76561199059732212,"connected_time":2743000000000,"state":"active","ping":71},{"user_id":258,"name":"Mcfighter2","steam_id":76561198168073956,"connected_time":2965000000000,"state":"active","ping":58},{"user_id":284,"name":"evil tiger","steam_id":76561198152818418,"connected_time":379000000000,"state":"active","ping":87},{"user_id":250,"name":"Captain","steam_id":76561198155723294,"connected_time":4804000000000,"state":"active","ping":60},{"user_id":288,"name":"Cheese4Everyone","steam_id":76561198022333985,"connected_time":229000000000,"state":"active","ping":75},{"user_id":252,"name":"Kilphax","steam_id":76561197993814144,"connected_time":4040000000000,"state":"active","ping":60},{"user_id":279,"name":"1st place love live fan","steam_id":76561198037951506,"connected_time":1019000000000,"state":"active","ping":63},{"user_id":175,"name":"ThatGamingKiwi","steam_id":76561199170522237,"connected_time":11069000000000,"state":"active","ping":96},{"user_id":274,"name":"PBxJAY","steam_id":76561198402471788,"connected_time":1245000000000,"state":"active","ping":125},{"user_id":275,"name":"Heathcliff","steam_id":76561198044288534,"connected_time":1167000000000,"state":"active","ping":87},{"user_id":285,"name":"C Papi","steam_id":76561198027779564,"connected_time":330000000000,"state":"active","ping":56}]},{"server_id":36,"name":"Uncletopia | Chicago | 5 | All Maps","name_short":"chi-5","host":"chi-2.us.uncletopia.com","port":27015,"enabled":true,"region":"us-central","cc":"us","latitude":41.881832,"longitude":-87.62318,"reserved":0,"last_update":"0001-01-01T00:00:00Z","name_a2s":"Uncletopia | Chicago | 5 | All Maps","protocol":17,"map":"pl_pier","folder":"tf","game":"Team Fortress","app_id":440,"player_count":24,"max_players":24,"Bots":0,"server_type":"Dedicated","server_os":"Linux","password":true,"vac":true,"version":"7961495","steam_id":85568392924866362,"keywords":["nocrits","nodmgspread","payload","uncletopia"],"game_id":440,"stv_port":27016,"stv_name":"Uncletopia | Chicago | 5 | All Maps | STV","players":[{"user_id":161,"name":"2bcoffee","steam_id":76561198810469767,"connected_time":88000000000,"state":"active","ping":72},{"user_id":137,"name":"Marco Pierre white","steam_id":76561198115714484,"connected_time":1317000000000,"state":"active","ping":121},{"user_id":164,"name":"[_Dr.Scythe_]","steam_id":76561198845245858,"connected_time":35000000000,"state":"active","ping":188},{"user_id":157,"name":"Truly Cryo","steam_id":76561198347497484,"connected_time":392000000000,"state":"active","ping":86},{"user_id":160,"name":"TheLonliestThelonius","steam_id":76561198097657243,"connected_time":196000000000,"state":"active","ping":72},{"user_id":134,"name":"the keebler","steam_id":76561199486326945,"connected_time":1400000000000,"state":"active","ping":75},{"user_id":145,"name":"sergeant major cone tits","steam_id":76561198333985626,"connected_time":1063000000000,"state":"active","ping":60},{"user_id":135,"name":"Mug Moment Gaming","steam_id":76561198233098136,"connected_time":1384000000000,"state":"active","ping":52},{"user_id":74,"name":"Fred Durst's #1 Fan","steam_id":76561198282395338,"connected_time":6026000000000,"state":"active","ping":85},{"user_id":162,"name":"stir-fried human tonsils","steam_id":76561198312126442,"connected_time":77000000000,"state":"active","ping":101},{"user_id":113,"name":"gooselover42069","steam_id":76561198059562839,"connected_time":2896000000000,"state":"active","ping":54},{"user_id":97,"name":"shirts","steam_id":76561199019533093,"connected_time":4096000000000,"state":"active","ping":63},{"user_id":148,"name":"Luke","steam_id":76561198253533632,"connected_time":936000000000,"state":"active","ping":58},{"user_id":142,"name":"sora","steam_id":76561198094256973,"connected_time":1244000000000,"state":"active","ping":96},{"user_id":147,"name":"Don't Fuckle with Shuckle","steam_id":76561199020102367,"connected_time":989000000000,"state":"active","ping":72},{"user_id":149,"name":"Tom","steam_id":76561198070630154,"connected_time":868000000000,"state":"active","ping":89},{"user_id":133,"name":"Kerpal45","steam_id":76561198153340350,"connected_time":1606000000000,"state":"active","ping":86},{"user_id":125,"name":"loser","steam_id":76561198259380127,"connected_time":2290000000000,"state":"active","ping":57},{"user_id":154,"name":"Goldensliv","steam_id":76561198161673891,"connected_time":671000000000,"state":"active","ping":83},{"user_id":163,"name":"PartyCreeper","steam_id":76561199078334962,"connected_time":64000000000,"state":"active","ping":83},{"user_id":151,"name":"blehz","steam_id":76561198048429098,"connected_time":752000000000,"state":"active","ping":90},{"user_id":152,"name":"Sprit ♥","steam_id":76561198268780781,"connected_time":748000000000,"state":"active","ping":48},{"user_id":153,"name":"8-Bit-Boss","steam_id":76561199169144384,"connected_time":729000000000,"state":"active","ping":103},{"user_id":155,"name":"The Notorious RBG","steam_id":76561198014275148,"connected_time":590000000000,"state":"active","ping":71}]},{"server_id":37,"name":"Uncletopia | Chicago | 6 | All Maps","name_short":"chi-6","host":"chi-2.us.uncletopia.com","port":27025,"enabled":true,"region":"us-central","cc":"us","latitude":41.881832,"longitude":-87.62318,"reserved":0,"last_update":"0001-01-01T00:00:00Z","name_a2s":"Uncletopia | Chicago | 6 | All Maps","protocol":17,"map":"cp_process_final","folder":"tf","game":"Team Fortress","app_id":440,"player_count":0,"max_players":24,"Bots":0,"server_type":"Dedicated","server_os":"Linux","password":true,"vac":true,"version":"7961495","steam_id":85568392924866363,"keywords":["cp","nocrits","nodmgspread","uncletopia"],"game_id":440,"stv_port":27026,"stv_name":"Uncletopia | Chicago | 6 | All Maps | STV","players":null},{"server_id":38,"name":"Uncletopia | Chicago | 7 | Stopwatch","name_short":"chi-7","host":"chi-2.us.uncletopia.com","port":27035,"enabled":true,"region":"us-central","cc":"us","latitude":41.881832,"longitude":-87.62318,"reserved":0,"last_update":"0001-01-01T00:00:00Z","name_a2s":"Uncletopia | Chicago | 7 | Stopwatch","protocol":17,"map":"workshop/koth_ramjam_rc1.ugc459778887","folder":"tf","game":"Team Fortress","app_id":440,"player_count":0,"max_players":24,"Bots":0,"server_type":"Dedicated","server_os":"Linux","password":true,"vac":true,"version":"7961495","steam_id":85568392924866364,"keywords":["cp","nocrits","nodmgspread","uncletopia"],"game_id":440,"stv_port":27036,"stv_name":"Uncletopia | Chicago | 7 | Stopwatch | STV","players":null},{"server_id":39,"name":"Uncletopia | Chicago | 8 | Community","name_short":"chi-8","host":"chi-2.us.uncletopia.com","port":27045,"enabled":true,"region":"us-central","cc":"us","latitude":41.881832,"longitude":-87.62318,"reserved":0,"last_update":"0001-01-01T00:00:00Z","name_a2s":"Uncletopia | Chicago | 8 | Community","protocol":17,"map":"pl_pier","folder":"tf","game":"Team Fortress","app_id":440,"player_count":0,"max_players":24,"Bots":0,"server_type":"Dedicated","server_os":"Linux","password":true,"vac":true,"version":"7961495","steam_id":85568392924866365,"keywords":["nocrits","nodmgspread","payload","uncletopia"],"game_id":440,"stv_port":27046,"stv_name":"Uncletopia | Chicago | 8 | Community | STV","players":null},{"server_id":8,"name":"Uncletopia | Dallas | 1 | All Maps","name_short":"dal-1","host":"dal-1.us.uncletopia.com","port":27015,"enabled":true,"region":"us-central","cc":"us","latitude":32.779167,"longitude":-96.80889,"reserved":0,"last_update":"0001-01-01T00:00:00Z","name_a2s":"Uncletopia | Dallas | 1 | All Maps","protocol":17,"map":"pl_swiftwater_final1","folder":"tf","game":"Team Fortress","app_id":440,"player_count":0,"max_players":24,"Bots":0,"server_type":"Dedicated","server_os":"Linux","password":true,"vac":true,"version":"7961495","steam_id":85568392924469986,"keywords":["nocrits","nodmgspread","payload","uncletopia"],"game_id":440,"stv_port":27016,"stv_name":"Uncletopia | Dallas | 1 | All Maps | STV","players":null},{"server_id":108,"name":"Uncletopia | Dallas | 2 | All Maps","name_short":"dal-2","host":"dal-1.us.uncletopia.com","port":27025,"enabled":true,"region":"us-central","cc":"us","latitude":32.779167,"longitude":-96.80889,"reserved":0,"last_update":"0001-01-01T00:00:00Z","name_a2s":"Uncletopia | Dallas | 2 | All Maps","protocol":17,"map":"pl_badwater","folder":"tf","game":"Team Fortress","app_id":440,"player_count":24,"max_players":24,"Bots":0,"server_type":"Dedicated","server_os":"Linux","password":true,"vac":true,"version":"7961495","steam_id":85568392924469988,"keywords":["nocrits","nodmgspread","payload","uncletopia"],"game_id":440,"stv_port":27026,"stv_name":"Uncletopia | Dallas | 2 | All Maps | STV","players":[{"user_id":57,"name":"[SB] EDDIE SPAGHETTI","steam_id":76561198071688546,"connected_time":388000000000,"state":"active","ping":63},{"user_id":52,"name":"Kamin","steam_id":76561198255299559,"connected_time":549000000000,"state":"active","ping":62},{"user_id":45,"name":"kermitcreeper(ZAZA)","steam_id":76561199222829972,"connected_time":1856000000000,"state":"active","ping":60},{"user_id":49,"name":"rat","steam_id":76561198272622003,"connected_time":1121000000000,"state":"active","ping":76},{"user_id":53,"name":"sunglasses","steam_id":76561198173747227,"connected_time":542000000000,"state":"active","ping":94},{"user_id":48,"name":"SubWay #SaveTf2","steam_id":76561198336722096,"connected_time":1134000000000,"state":"active","ping":66},{"user_id":62,"name":"Rafl","steam_id":76561198055222756,"connected_time":56000000000,"state":"active","ping":44},{"user_id":47,"name":"Zero","steam_id":76561198033384990,"connected_time":1807000000000,"state":"active","ping":66},{"user_id":44,"name":"Never Ovaryacting","steam_id":76561198158691254,"connected_time":1878000000000,"state":"active","ping":74},{"user_id":19,"name":"who ate the cheese","steam_id":76561198275408467,"connected_time":3423000000000,"state":"active","ping":49},{"user_id":38,"name":"arsenicCatnip","steam_id":76561198102052297,"connected_time":2777000000000,"state":"active","ping":79},{"user_id":21,"name":"Lettuce_Plays","steam_id":76561198872255639,"connected_time":3380000000000,"state":"active","ping":93},{"user_id":22,"name":"Fake21","steam_id":76561198282065071,"connected_time":3360000000000,"state":"active","ping":52},{"user_id":23,"name":"Piranhaplant","steam_id":76561198447663050,"connected_time":3281000000000,"state":"active","ping":62},{"user_id":59,"name":"JargonScott","steam_id":76561197972793903,"connected_time":272000000000,"state":"active","ping":73},{"user_id":25,"name":"UwU","steam_id":76561198971629959,"connected_time":3211000000000,"state":"active","ping":127},{"user_id":55,"name":"Bunner","steam_id":76561198074464842,"connected_time":436000000000,"state":"active","ping":103},{"user_id":28,"name":"Transgender Guy Fieri","steam_id":76561198801467075,"connected_time":3037000000000,"state":"active","ping":61},{"user_id":50,"name":"Franticraven177","steam_id":76561198334105579,"connected_time":990000000000,"state":"active","ping":79},{"user_id":30,"name":"shakoiwa","steam_id":76561199059441773,"connected_time":3030000000000,"state":"active","ping":90},{"user_id":56,"name":"Seskova","steam_id":76561198090207032,"connected_time":408000000000,"state":"active","ping":103},{"user_id":32,"name":"BLØRG","steam_id":76561198036126673,"connected_time":3016000000000,"state":"active","ping":73},{"user_id":60,"name":"\u003eSGR\u003c Bacon Hoodie","steam_id":76561198843822629,"connected_time":221000000000,"state":"active","ping":50},{"user_id":63,"name":"(grandma) penis engineer","steam_id":76561198101203842,"connected_time":30000000000,"state":"active","ping":50}]},{"server_id":404,"name":"Uncletopia | Dallas | 3 | All Maps","name_short":"dal-3","host":"dal-1.us.uncletopia.com","port":27035,"enabled":true,"region":"us-central","cc":"us","latitude":32.779167,"longitude":-96.80889,"reserved":0,"last_update":"0001-01-01T00:00:00Z","name_a2s":"Uncletopia | Dallas | 3 | All Maps","protocol":17,"map":"pl_badwater","folder":"tf","game":"Team Fortress","app_id":440,"player_count":0,"max_players":24,"Bots":0,"server_type":"Dedicated","server_os":"Linux","password":true,"vac":true,"version":"7961495","steam_id":85568392924515219,"keywords":["nocrits","nodmgspread","payload","uncletopia"],"game_id":440,"stv_port":27036,"stv_name":"Uncletopia | Dallas | 3 | All Maps | STV","players":null},{"server_id":405,"name":"Uncletopia | Dallas | 4 | Community","name_short":"dal-4","host":"dal-1.us.uncletopia.com","port":27045,"enabled":true,"region":"us-central","cc":"us","latitude":32.779167,"longitude":-96.80889,"reserved":0,"last_update":"0001-01-01T00:00:00Z","name_a2s":"Uncletopia | Dallas | 4 | Community","protocol":17,"map":"workshop/cp_villa_b19.ugc2113052569","folder":"tf","game":"Team Fortress","app_id":440,"player_count":0,"max_players":24,"Bots":0,"server_type":"Dedicated","server_os":"Linux","password":true,"vac":true,"version":"7961495","steam_id":85568392924515220,"keywords":["cp","nocrits","nodmgspread","uncletopia"],"game_id":440,"stv_port":27046,"stv_name":"Uncletopia | Dallas | 4 | Community | STV","players":null},{"server_id":5,"name":"Uncletopia | Frankfurt | 1 | All Maps","name_short":"frk-1","host":"frk-1.de.uncletopia.com","port":27015,"enabled":true,"region":"eu","cc":"de","latitude":50.110924,"longitude":8.682127,"reserved":0,"last_update":"0001-01-01T00:00:00Z","name_a2s":"Uncletopia | Frankfurt | 1 | All Maps","protocol":17,"map":"pl_frontier_final","folder":"tf","game":"Team Fortress","app_id":440,"player_count":24,"max_players":24,"Bots":0,"server_type":"Dedicated","server_os":"Linux","password":true,"vac":true,"version":"7961495","steam_id":85568392924469989,"keywords":["nocrits","nodmgspread","payload","uncletopia"],"game_id":440,"stv_port":27016,"stv_name":"Uncletopia | Frankfurt | 1 | All Maps | STV","players":[{"user_id":297,"name":"cister0","steam_id":76561198130195469,"connected_time":3752000000000,"state":"active","ping":78},{"user_id":345,"name":"Oceanic | tuesday maybe","steam_id":76561197979741827,"connected_time":734000000000,"state":"active","ping":68},{"user_id":282,"name":"Carry Krypl","steam_id":76561198136938121,"connected_time":4591000000000,"state":"active","ping":57},{"user_id":342,"name":"Caliban","steam_id":76561197999696839,"connected_time":1278000000000,"state":"active","ping":108},{"user_id":346,"name":"Günther","steam_id":76561198333417038,"connected_time":416000000000,"state":"active","ping":76},{"user_id":277,"name":"LE","steam_id":76561198810056289,"connected_time":5315000000000,"state":"active","ping":88},{"user_id":352,"name":"A moon goose","steam_id":76561198064734905,"connected_time":211000000000,"state":"active","ping":91},{"user_id":288,"name":"Glonkdod","steam_id":76561198035119964,"connected_time":4490000000000,"state":"active","ping":59},{"user_id":312,"name":"Obscure Rock Album","steam_id":76561198032359132,"connected_time":3122000000000,"state":"active","ping":58},{"user_id":212,"name":"Jpeg","steam_id":76561198166767537,"connected_time":9875000000000,"state":"active","ping":56},{"user_id":334,"name":"TheShadowScribe","steam_id":76561199037525945,"connected_time":2220000000000,"state":"active","ping":88},{"user_id":333,"name":"Alyosha","steam_id":76561198032771167,"connected_time":2241000000000,"state":"active","ping":84},{"user_id":348,"name":"so cute it kils","steam_id":76561198256660599,"connected_time":343000000000,"state":"active","ping":69},{"user_id":349,"name":"Chopperson_","steam_id":76561198873728497,"connected_time":302000000000,"state":"active","ping":115},{"user_id":313,"name":"finbar","steam_id":76561198056812396,"connected_time":3116000000000,"state":"active","ping":79},{"user_id":343,"name":"grawioli","steam_id":76561198255779964,"connected_time":1206000000000,"state":"active","ping":64},{"user_id":351,"name":"proctologist","steam_id":76561198030517886,"connected_time":286000000000,"state":"active","ping":63},{"user_id":336,"name":"Veirū Viseris","steam_id":76561197989857176,"connected_time":2065000000000,"state":"active","ping":77},{"user_id":273,"name":"d1sk","steam_id":76561197986511308,"connected_time":5678000000000,"state":"active","ping":57},{"user_id":324,"name":"Lord of the Ping","steam_id":76561198019648669,"connected_time":2613000000000,"state":"active","ping":56},{"user_id":341,"name":"FUKAYOU","steam_id":76561198380484033,"connected_time":1504000000000,"state":"active","ping":55},{"user_id":338,"name":"Head empty","steam_id":76561198067561269,"connected_time":1720000000000,"state":"active","ping":60},{"user_id":328,"name":"Begone","steam_id":76561199093369711,"connected_time":2432000000000,"state":"active","ping":91},{"user_id":294,"name":"Ratman","steam_id":76561198121888714,"connected_time":4429000000000,"state":"active","ping":72}]},{"server_id":110,"name":"Uncletopia | Frankfurt | 2 | All Maps","name_short":"frk-2","host":"frk-1.de.uncletopia.com","port":27025,"enabled":true,"region":"eu","cc":"de","latitude":50.110924,"longitude":8.682127,"reserved":0,"last_update":"0001-01-01T00:00:00Z","name_a2s":"Uncletopia | Frankfurt | 2 | All Maps","protocol":17,"map":"pl_upward","folder":"tf","game":"Team Fortress","app_id":440,"player_count":23,"max_players":24,"Bots":0,"server_type":"Dedicated","server_os":"Linux","password":true,"vac":true,"version":"7961495","steam_id":85568392924469990,"keywords":["nocrits","nodmgspread","payload","uncletopia"],"game_id":440,"stv_port":27026,"stv_name":"Uncletopia | Frankfurt | 2 | All Maps | STV","players":[{"user_id":336,"name":"Boykisser","steam_id":76561199035732179,"connected_time":625000000000,"state":"active","ping":79},{"user_id":330,"name":"Andy","steam_id":76561198136364381,"connected_time":819000000000,"state":"active","ping":61},{"user_id":338,"name":"worthless human being","steam_id":76561199177223922,"connected_time":494000000000,"state":"active","ping":58},{"user_id":264,"name":"pepsimus_maximus (pepsi/max)","steam_id":76561198062425104,"connected_time":5948000000000,"state":"active","ping":79},{"user_id":313,"name":"Exoduc","steam_id":76561198121166441,"connected_time":2363000000000,"state":"active","ping":75},{"user_id":314,"name":"spy among us","steam_id":76561198392537090,"connected_time":2303000000000,"state":"active","ping":53},{"user_id":344,"name":"julidulen","steam_id":76561199225661729,"connected_time":143000000000,"state":"active","ping":42},{"user_id":315,"name":"Magic1L","steam_id":76561198831787182,"connected_time":2268000000000,"state":"active","ping":70},{"user_id":319,"name":"Moumoune","steam_id":76561199135352307,"connected_time":1713000000000,"state":"active","ping":68},{"user_id":317,"name":"maakgis","steam_id":76561198851703804,"connected_time":2210000000000,"state":"active","ping":114},{"user_id":278,"name":"KFD","steam_id":76561198157183003,"connected_time":5510000000000,"state":"active","ping":62},{"user_id":331,"name":"Djoser326","steam_id":76561198051035537,"connected_time":775000000000,"state":"active","ping":61},{"user_id":287,"name":"5UP3R TH30 B4G","steam_id":76561198852348375,"connected_time":4639000000000,"state":"active","ping":61},{"user_id":312,"name":"Draugluin","steam_id":76561199219965276,"connected_time":2453000000000,"state":"active","ping":59},{"user_id":191,"name":"[UM-monster","steam_id":76561198085098243,"connected_time":10599000000000,"state":"active","ping":107},{"user_id":345,"name":"Purrplehaze","steam_id":76561198297604298,"connected_time":137000000000,"state":"active","ping":71},{"user_id":322,"name":"=)","steam_id":76561199248627250,"connected_time":1268000000000,"state":"active","ping":75},{"user_id":341,"name":"Charles Darwin","steam_id":76561197973496139,"connected_time":387000000000,"state":"active","ping":75},{"user_id":346,"name":"LEGEND FUMO.","steam_id":76561198061033903,"connected_time":37000000000,"state":"active","ping":45},{"user_id":334,"name":"night.s","steam_id":76561198326287823,"connected_time":745000000000,"state":"active","ping":75},{"user_id":327,"name":"Diggity","steam_id":76561198297157085,"connected_time":1050000000000,"state":"active","ping":54},{"user_id":309,"name":"Ivarr","steam_id":76561198115629118,"connected_time":2866000000000,"state":"active","ping":57},{"user_id":305,"name":"tequila sunset","steam_id":76561198315969106,"connected_time":3506000000000,"state":"active","ping":92}]},{"server_id":308,"name":"Uncletopia | Frankfurt | 3 | All Maps","name_short":"frk-3","host":"frk-1.de.uncletopia.com","port":27035,"enabled":true,"region":"eu","cc":"de","latitude":50.110924,"longitude":8.682127,"reserved":0,"last_update":"0001-01-01T00:00:00Z","name_a2s":"Uncletopia | Frankfurt | 3 | All Maps","protocol":17,"map":"pl_thundermountain","folder":"tf","game":"Team Fortress","app_id":440,"player_count":24,"max_players":24,"Bots":0,"server_type":"Dedicated","server_os":"Linux","password":true,"vac":true,"version":"7961495","steam_id":85568392924504274,"keywords":["nocrits","nodmgspread","payload","uncletopia"],"game_id":440,"stv_port":27036,"stv_name":"Uncletopia | Frankfurt | 3 | All Maps | STV","players":[{"user_id":289,"name":"Dolcelatte","steam_id":76561198038501770,"connected_time":2578000000000,"state":"active","ping":47},{"user_id":302,"name":"Freshxy","steam_id":76561198250232194,"connected_time":1977000000000,"state":"active","ping":65},{"user_id":323,"name":"69Dogge","steam_id":76561199217231419,"connected_time":539000000000,"state":"active","ping":73},{"user_id":324,"name":"Rain","steam_id":76561198112974983,"connected_time":515000000000,"state":"active","ping":123},{"user_id":325,"name":"Nuke Dukem","steam_id":76561198229220632,"connected_time":465000000000,"state":"active","ping":78},{"user_id":326,"name":"Frosta","steam_id":76561198201684095,"connected_time":452000000000,"state":"active","ping":68},{"user_id":281,"name":"THE SPIRIT","steam_id":76561198170744597,"connected_time":2872000000000,"state":"active","ping":70},{"user_id":301,"name":"kingdead4","steam_id":76561198079576655,"connected_time":2013000000000,"state":"active","ping":65},{"user_id":327,"name":"✪ m_br3","steam_id":76561198044981990,"connected_time":420000000000,"state":"active","ping":75},{"user_id":318,"name":"тукку ирма","steam_id":76561197998715016,"connected_time":725000000000,"state":"active","ping":61},{"user_id":328,"name":"Laysketchup","steam_id":76561198798891390,"connected_time":383000000000,"state":"active","ping":64},{"user_id":332,"name":"GMsU | Acoul","steam_id":76561198229222992,"connected_time":304000000000,"state":"active","ping":45},{"user_id":330,"name":"GMsU | Rebikas","steam_id":76561198077053764,"connected_time":359000000000,"state":"active","ping":43},{"user_id":333,"name":"Michael","steam_id":76561198003146906,"connected_time":72000000000,"state":"active","ping":56},{"user_id":271,"name":"waluigi","steam_id":76561198215809251,"connected_time":3264000000000,"state":"active","ping":52},{"user_id":331,"name":"A$AP $TARK€","steam_id":76561199375305230,"connected_time":344000000000,"state":"active","ping":73},{"user_id":305,"name":"Marchioly","steam_id":76561198335079215,"connected_time":1934000000000,"state":"active","ping":102},{"user_id":306,"name":"Kerkas","steam_id":76561197984963558,"connected_time":1898000000000,"state":"active","ping":60},{"user_id":322,"name":"Sugardaddy_pep","steam_id":76561198807512589,"connected_time":605000000000,"state":"active","ping":72},{"user_id":317,"name":"Qwertuss","steam_id":76561198026305366,"connected_time":785000000000,"state":"active","ping":59},{"user_id":307,"name":"蓮 Lotus","steam_id":76561198083141117,"connected_time":1860000000000,"state":"active","ping":59},{"user_id":319,"name":"DrunkDriversRights","steam_id":76561199012566222,"connected_time":713000000000,"state":"active","ping":51},{"user_id":320,"name":"PhantomReaper","steam_id":76561199058312643,"connected_time":669000000000,"state":"active","ping":176},{"user_id":312,"name":"Kecron","steam_id":76561198135331389,"connected_time":1664000000000,"state":"active","ping":84}]},{"server_id":309,"name":"Uncletopia | Frankfurt | 4 | All Maps","name_short":"frk-4","host":"frk-1.de.uncletopia.com","port":27045,"enabled":true,"region":"eu","cc":"de","latitude":50.110924,"longitude":8.682127,"reserved":0,"last_update":"0001-01-01T00:00:00Z","name_a2s":"Uncletopia | Frankfurt | 4 | All Maps","protocol":17,"map":"pl_badwater","folder":"tf","game":"Team Fortress","app_id":440,"player_count":23,"max_players":24,"Bots":0,"server_type":"Dedicated","server_os":"Linux","password":true,"vac":true,"version":"7961495","steam_id":85568392924504275,"keywords":["nocrits","nodmgspread","payload","uncletopia"],"game_id":440,"stv_port":27046,"stv_name":"Uncletopia | Frankfurt | 4 | All Maps | STV","players":[{"user_id":49,"name":"Radigan-Flanders::","steam_id":76561198100439744,"connected_time":2070000000000,"state":"active","ping":46},{"user_id":27,"name":"Gorgeous George","steam_id":76561198144256544,"connected_time":3727000000000,"state":"active","ping":57},{"user_id":54,"name":"Coldynator","steam_id":76561198042224175,"connected_time":1998000000000,"state":"active","ping":81},{"user_id":127,"name":"Five Finger Discount","steam_id":76561197994556857,"connected_time":178000000000,"state":"active","ping":61},{"user_id":89,"name":"tiamat","steam_id":76561198116027948,"connected_time":1512000000000,"state":"active","ping":93},{"user_id":132,"name":"gendolfas","steam_id":76561198062856371,"connected_time":33000000000,"state":"active","ping":98},{"user_id":125,"name":"Several geollos screaming","steam_id":76561198291326102,"connected_time":194000000000,"state":"active","ping":71},{"user_id":120,"name":"Zerfesh","steam_id":76561198117534358,"connected_time":858000000000,"state":"active","ping":94},{"user_id":43,"name":"Destinys","steam_id":76561198056132894,"connected_time":2320000000000,"state":"active","ping":56},{"user_id":124,"name":"Wir suchen dich!","steam_id":76561198307613521,"connected_time":215000000000,"state":"active","ping":61},{"user_id":56,"name":"Bedrock44333","steam_id":76561199019316595,"connected_time":1973000000000,"state":"active","ping":108},{"user_id":113,"name":"PROTOTYPE","steam_id":76561197986570586,"connected_time":1116000000000,"state":"active","ping":84},{"user_id":117,"name":"Razef","steam_id":76561198030309484,"connected_time":993000000000,"state":"active","ping":56},{"user_id":45,"name":"TuplaO","steam_id":76561198263002649,"connected_time":2230000000000,"state":"active","ping":109},{"user_id":108,"name":"пупундель","steam_id":76561198370603695,"connected_time":1186000000000,"state":"active","ping":75},{"user_id":128,"name":"SalCrabber deluxe","steam_id":76561198275942961,"connected_time":173000000000,"state":"active","ping":45},{"user_id":74,"name":"All my homies love the husk","steam_id":76561198173218318,"connected_time":1729000000000,"state":"active","ping":44},{"user_id":112,"name":"Homosapien","steam_id":76561197972035953,"connected_time":1150000000000,"state":"active","ping":50},{"user_id":133,"name":"Edla","steam_id":76561198062815315,"connected_time":4000000000,"state":"spawning","ping":131},{"user_id":119,"name":"Hegyi tahó F2P","steam_id":76561199219150356,"connected_time":928000000000,"state":"active","ping":77},{"user_id":69,"name":"breadbear \u003c3","steam_id":76561198036895007,"connected_time":1814000000000,"state":"active","ping":82},{"user_id":130,"name":"Haha?","steam_id":76561198056882245,"connected_time":149000000000,"state":"active","ping":45},{"user_id":102,"name":"SuntanPikachu","steam_id":76561198121242476,"connected_time":1273000000000,"state":"active","ping":69}]},{"server_id":310,"name":"Uncletopia | Frankfurt | 5 | All Maps","name_short":"frk-5","host":"frk-1.de.uncletopia.com","port":27055,"enabled":true,"region":"eu","cc":"de","latitude":50.110924,"longitude":8.682127,"reserved":0,"last_update":"0001-01-01T00:00:00Z","name_a2s":"Uncletopia | Frankfurt | 5 | All Maps","protocol":17,"map":"pl_pier","folder":"tf","game":"Team Fortress","app_id":440,"player_count":24,"max_players":24,"Bots":0,"server_type":"Dedicated","server_os":"Linux","password":true,"vac":true,"version":"7961495","steam_id":85568392924504277,"keywords":["nocrits","nodmgspread","payload","uncletopia"],"game_id":440,"stv_port":27056,"stv_name":"Uncletopia | Frankfurt | 5 | All Maps | STV","players":[{"user_id":473,"name":"sac","steam_id":76561197992659494,"connected_time":264000000000,"state":"active","ping":60},{"user_id":443,"name":"dongus","steam_id":76561198042774930,"connected_time":2106000000000,"state":"active","ping":77},{"user_id":457,"name":"Malorn Aetherius","steam_id":76561198068257989,"connected_time":1147000000000,"state":"active","ping":56},{"user_id":456,"name":"ramko_","steam_id":76561198379753516,"connected_time":1506000000000,"state":"active","ping":82},{"user_id":471,"name":"chocy milk addict","steam_id":76561199042178118,"connected_time":343000000000,"state":"active","ping":71},{"user_id":461,"name":"SaltyCupcakes","steam_id":76561198256386417,"connected_time":1078000000000,"state":"active","ping":57},{"user_id":446,"name":"relaX","steam_id":76561198354409001,"connected_time":2057000000000,"state":"active","ping":115},{"user_id":449,"name":"Sterben","steam_id":76561198130973360,"connected_time":1895000000000,"state":"active","ping":104},{"user_id":400,"name":"powej","steam_id":76561198056381418,"connected_time":4583000000000,"state":"active","ping":45},{"user_id":455,"name":"Ozzie","steam_id":76561197992915315,"connected_time":1693000000000,"state":"active","ping":76},{"user_id":458,"name":"Ixion","steam_id":76561198041660675,"connected_time":1140000000000,"state":"active","ping":75},{"user_id":464,"name":"QQQW","steam_id":76561198095560087,"connected_time":1064000000000,"state":"active","ping":68},{"user_id":467,"name":"LE$KA","steam_id":76561198211434744,"connected_time":775000000000,"state":"active","ping":99},{"user_id":448,"name":"an idiot","steam_id":76561198172542535,"connected_time":2024000000000,"state":"active","ping":67},{"user_id":462,"name":"Domcxz","steam_id":76561198291703984,"connected_time":1073000000000,"state":"active","ping":62},{"user_id":408,"name":"Chill Spirit","steam_id":76561198845001725,"connected_time":3937000000000,"state":"active","ping":45},{"user_id":452,"name":"Random Romain","steam_id":76561198355825319,"connected_time":1751000000000,"state":"active","ping":80},{"user_id":430,"name":"warforge3","steam_id":76561199276024310,"connected_time":3314000000000,"state":"active","ping":92},{"user_id":405,"name":"please do not the cat","steam_id":76561198089003514,"connected_time":4078000000000,"state":"active","ping":45},{"user_id":463,"name":"DRAGONFLY","steam_id":76561198104896547,"connected_time":1071000000000,"state":"active","ping":60},{"user_id":469,"name":"jon arbuckle gaming","steam_id":76561199060384919,"connected_time":406000000000,"state":"active","ping":47},{"user_id":403,"name":"antlionguard","steam_id":76561198072747143,"connected_time":4282000000000,"state":"active","ping":104},{"user_id":453,"name":"DrakeTheDuck","steam_id":76561199182279601,"connected_time":1745000000000,"state":"active","ping":114},{"user_id":466,"name":"q`","steam_id":76561197985597838,"connected_time":1035000000000,"state":"active","ping":71}]},{"server_id":311,"name":"Uncletopia | Frankfurt | 6 | All Maps","name_short":"frk-6","host":"frk-1.de.uncletopia.com","port":27065,"enabled":true,"region":"eu","cc":"de","latitude":50.110924,"longitude":8.682127,"reserved":0,"last_update":"0001-01-01T00:00:00Z","name_a2s":"Uncletopia | Frankfurt | 6 | All Maps","protocol":17,"map":"koth_highpass","folder":"tf","game":"Team Fortress","app_id":440,"player_count":0,"max_players":24,"Bots":0,"server_type":"Dedicated","server_os":"Linux","password":true,"vac":true,"version":"7961495","steam_id":85568392924504278,"keywords":["cp","nocrits","nodmgspread","uncletopia"],"game_id":440,"stv_port":27066,"stv_name":"Uncletopia | Frankfurt | 6 | All Maps | STV","players":null},{"server_id":23,"name":"Uncletopia | Frankfurt | 7 | Stopwatch","name_short":"frk-7","host":"frk-1.de.uncletopia.com","port":27075,"enabled":true,"region":"eu","cc":"de","latitude":50.110924,"longitude":8.682127,"reserved":0,"last_update":"0001-01-01T00:00:00Z","name_a2s":"Uncletopia | Frankfurt | 7 | Stopwatch","protocol":17,"map":"pl_frontier_final","folder":"tf","game":"Team Fortress","app_id":440,"player_count":0,"max_players":24,"Bots":0,"server_type":"Dedicated","server_os":"Linux","password":true,"vac":true,"version":"7961495","steam_id":85568392924742827,"keywords":["nocrits","nodmgspread","payload","uncletopia"],"game_id":440,"stv_port":27076,"stv_name":"Uncletopia | Frankfurt | 7 | Stopwatch | STV","players":null},{"server_id":24,"name":"Uncletopia | Frankfurt | 8 | Community","name_short":"frk-8","host":"frk-1.de.uncletopia.com","port":27085,"enabled":true,"region":"eu","cc":"de","latitude":50.110924,"longitude":8.682127,"reserved":0,"last_update":"0001-01-01T00:00:00Z","name_a2s":"Uncletopia | Frankfurt | 8 | Community","protocol":17,"map":"workshop/koth_product_final.ugc454272353","folder":"tf","game":"Team Fortress","app_id":440,"player_count":0,"max_players":24,"Bots":0,"server_type":"Dedicated","server_os":"Linux","password":true,"vac":true,"version":"7961495","steam_id":85568392924742828,"keywords":["cp","nocrits","nodmgspread","uncletopia"],"game_id":440,"stv_port":27086,"stv_name":"Uncletopia | Frankfurt | 8 | Community | STV","players":null},{"server_id":202,"name":"Uncletopia | Hong Kong | 1 | All Maps","name_short":"hgk-1","host":"hgk-1.hk.uncletopia.com","port":27015,"enabled":true,"region":"asia","cc":"hk","latitude":22.302711,"longitude":114.177216,"reserved":0,"last_update":"0001-01-01T00:00:00Z","name_a2s":"Uncletopia | Hong Kong | 1 | All Maps","protocol":17,"map":"pl_swiftwater_final1","folder":"tf","game":"Team Fortress","app_id":440,"player_count":0,"max_players":24,"Bots":0,"server_type":"Dedicated","server_os":"Linux","password":true,"vac":true,"version":"7961495","steam_id":85568392924494504,"keywords":["nocrits","nodmgspread","payload","uncletopia"],"game_id":440,"stv_port":27016,"stv_name":"Uncletopia | Hong Kong | 1 | All Maps | STV","players":null},{"server_id":1,"name":"Uncletopia | Los Angeles | 1 | All Maps","name_short":"lax-1","host":"lax-1.us.uncletopia.com","port":27015,"enabled":true,"region":"us-west","cc":"us","latitude":33.94279,"longitude":-118.41004,"reserved":0,"last_update":"0001-01-01T00:00:00Z","name_a2s":"Uncletopia | Los Angeles | 1 | All Maps","protocol":17,"map":"pl_snowycoast","folder":"tf","game":"Team Fortress","app_id":440,"player_count":0,"max_players":24,"Bots":0,"server_type":"Dedicated","server_os":"Linux","password":true,"vac":true,"version":"7961495","steam_id":85568392924469991,"keywords":["nocrits","nodmgspread","payload","uncletopia"],"game_id":440,"stv_port":27016,"stv_name":"Uncletopia | Los Angeles | 1 | All Maps | STV","players":null},{"server_id":112,"name":"Uncletopia | Los Angeles | 2 | All Maps","name_short":"lax-2","host":"lax-1.us.uncletopia.com","port":27025,"enabled":true,"region":"us-west","cc":"us","latitude":33.94279,"longitude":-118.41004,"reserved":0,"last_update":"0001-01-01T00:00:00Z","name_a2s":"Uncletopia | Los Angeles | 2 | All Maps","protocol":17,"map":"cp_mountainlab","folder":"tf","game":"Team Fortress","app_id":440,"player_count":0,"max_players":24,"Bots":0,"server_type":"Dedicated","server_os":"Linux","password":true,"vac":true,"version":"7961495","steam_id":85568392924469992,"keywords":["cp","nocrits","nodmgspread","uncletopia"],"game_id":440,"stv_port":27026,"stv_name":"Uncletopia | Los Angeles | 2 | All Maps | STV","players":null},{"server_id":324,"name":"Uncletopia | Los Angeles | 3 | All Maps","name_short":"lax-3","host":"lax-1.us.uncletopia.com","port":27035,"enabled":true,"region":"us-west","cc":"us","latitude":33.94279,"longitude":-118.41004,"reserved":0,"last_update":"0001-01-01T00:00:00Z","name_a2s":"Uncletopia | Los Angeles | 3 | All Maps","protocol":17,"map":"pl_frontier_final","folder":"tf","game":"Team Fortress","app_id":440,"player_count":0,"max_players":24,"Bots":0,"server_type":"Dedicated","server_os":"Linux","password":true,"vac":true,"version":"7961495","steam_id":85568392924510198,"keywords":["nocrits","nodmgspread","payload","uncletopia"],"game_id":440,"stv_port":27036,"stv_name":"Uncletopia | Los Angeles | 3 | All Maps | STV","players":null},{"server_id":25,"name":"Uncletopia | Los Angeles | 4 | Stopwatch","name_short":"lax-4","host":"lax-1.us.uncletopia.com","port":27045,"enabled":true,"region":"us-west","cc":"us","latitude":33.94279,"longitude":-118.41004,"reserved":0,"last_update":"0001-01-01T00:00:00Z","name_a2s":"Uncletopia | Los Angeles | 4 | Stopwatch","protocol":17,"map":"pl_barnblitz","folder":"tf","game":"Team Fortress","app_id":440,"player_count":0,"max_players":24,"Bots":0,"server_type":"Dedicated","server_os":"Linux","password":true,"vac":true,"version":"7961495","steam_id":85568392924510199,"keywords":["nocrits","nodmgspread","payload","uncletopia"],"game_id":440,"stv_port":27046,"stv_name":"Uncletopia | Los Angeles | 4 | Stopwatch | STV","players":null},{"server_id":11,"name":"Uncletopia | London | 1 | All Maps","name_short":"lon-1","host":"lon-1.uk.uncletopia.com","port":27015,"enabled":true,"region":"eu","cc":"gb","latitude":51.509865,"longitude":-0.118092,"reserved":0,"last_update":"0001-01-01T00:00:00Z","name_a2s":"Uncletopia | London | 1 | All Maps","protocol":17,"map":"cp_sunshine","folder":"tf","game":"Team Fortress","app_id":440,"player_count":24,"max_players":24,"Bots":0,"server_type":"Dedicated","server_os":"Linux","password":true,"vac":true,"version":"7961495","steam_id":85568392924367362,"keywords":["cp","nocrits","nodmgspread","uncletopia"],"game_id":440,"stv_port":27016,"stv_name":"Uncletopia | London | 1 | All Maps | STV","players":[{"user_id":569,"name":"ber","steam_id":76561197993892057,"connected_time":6071000000000,"state":"active","ping":90},{"user_id":702,"name":"Cranjis McBasketball","steam_id":76561198051290193,"connected_time":649000000000,"state":"active","ping":60},{"user_id":707,"name":"Mr. Hunts","steam_id":76561197981910397,"connected_time":218000000000,"state":"active","ping":61},{"user_id":705,"name":"Archer","steam_id":76561197994239444,"connected_time":341000000000,"state":"active","ping":118},{"user_id":555,"name":"Ghetto Reimo","steam_id":76561198189315728,"connected_time":6745000000000,"state":"active","ping":75},{"user_id":688,"name":"milk","steam_id":76561198151231791,"connected_time":1099000000000,"state":"active","ping":59},{"user_id":589,"name":"mertefe","steam_id":76561199237126613,"connected_time":4872000000000,"state":"active","ping":115},{"user_id":696,"name":"Chonky dorito","steam_id":76561199076870571,"connected_time":931000000000,"state":"active","ping":93},{"user_id":566,"name":"soil.dirt.earth","steam_id":76561198014377623,"connected_time":6385000000000,"state":"active","ping":31},{"user_id":708,"name":"Kahvi","steam_id":76561198723244199,"connected_time":202000000000,"state":"active","ping":79},{"user_id":690,"name":"ACG_Dubsy","steam_id":76561198797308565,"connected_time":1068000000000,"state":"active","ping":64},{"user_id":699,"name":"STEFF","steam_id":76561198013306538,"connected_time":840000000000,"state":"active","ping":53},{"user_id":679,"name":"[SpA]Scatterbrain","steam_id":76561197998639769,"connected_time":2175000000000,"state":"active","ping":45},{"user_id":691,"name":"mumbler","steam_id":76561197970641239,"connected_time":1053000000000,"state":"active","ping":55},{"user_id":709,"name":"swatton","steam_id":76561198875537106,"connected_time":45000000000,"state":"active","ping":60},{"user_id":693,"name":"Wang of Wall St","steam_id":76561198047460598,"connected_time":993000000000,"state":"active","ping":127},{"user_id":704,"name":"British Disapproval","steam_id":76561198001375260,"connected_time":476000000000,"state":"active","ping":55},{"user_id":683,"name":"Mirru","steam_id":76561198078247594,"connected_time":1857000000000,"state":"active","ping":92},{"user_id":703,"name":"Dukebox","steam_id":76561197977447291,"connected_time":481000000000,"state":"active","ping":64},{"user_id":682,"name":"Alexandre","steam_id":76561198121784446,"connected_time":1896000000000,"state":"active","ping":41},{"user_id":698,"name":"Shoe Gayser","steam_id":76561198063127464,"connected_time":854000000000,"state":"active","ping":60},{"user_id":695,"name":"C.H.E.R.E.P.","steam_id":76561198026938595,"connected_time":960000000000,"state":"active","ping":77},{"user_id":701,"name":"albert","steam_id":76561198353496134,"connected_time":705000000000,"state":"active","ping":55},{"user_id":662,"name":"bigwish | bmod.tf","steam_id":76561197997859723,"connected_time":2869000000000,"state":"active","ping":84}]},{"server_id":114,"name":"Uncletopia | London | 2 | All Maps","name_short":"lon-2","host":"lon-1.uk.uncletopia.com","port":27025,"enabled":true,"region":"eu","cc":"gb","latitude":51.509865,"longitude":-0.118092,"reserved":0,"last_update":"0001-01-01T00:00:00Z","name_a2s":"Uncletopia | London | 2 | All Maps","protocol":17,"map":"cp_process_final","folder":"tf","game":"Team Fortress","app_id":440,"player_count":24,"max_players":24,"Bots":0,"server_type":"Dedicated","server_os":"Linux","password":true,"vac":true,"version":"7961495","steam_id":85568392924470941,"keywords":["cp","nocrits","nodmgspread","uncletopia"],"game_id":440,"stv_port":27026,"stv_name":"Uncletopia | London | 2 | All Maps | STV","players":[{"user_id":257,"name":"An Idiot in space","steam_id":76561198011089239,"connected_time":802000000000,"state":"active","ping":50},{"user_id":258,"name":"Cobalt","steam_id":76561198349228196,"connected_time":787000000000,"state":"active","ping":51},{"user_id":266,"name":"Mr. Mundy","steam_id":76561198132008918,"connected_time":54000000000,"state":"active","ping":75},{"user_id":251,"name":"Fat Pigeon","steam_id":76561198817940142,"connected_time":979000000000,"state":"active","ping":46},{"user_id":150,"name":"Hexagon","steam_id":76561198151205758,"connected_time":6285000000000,"state":"active","ping":60},{"user_id":252,"name":"Metagamermario","steam_id":76561199417190355,"connected_time":840000000000,"state":"active","ping":165},{"user_id":159,"name":"r0la","steam_id":76561198128315340,"connected_time":6093000000000,"state":"active","ping":87},{"user_id":239,"name":"Mind Fuzz","steam_id":76561198050079428,"connected_time":1604000000000,"state":"active","ping":104},{"user_id":224,"name":"Udinese Dion","steam_id":76561198067931573,"connected_time":2492000000000,"state":"active","ping":60},{"user_id":231,"name":"Omyskull","steam_id":76561198131711758,"connected_time":2171000000000,"state":"active","ping":63},{"user_id":265,"name":"Nick","steam_id":76561198036109469,"connected_time":297000000000,"state":"active","ping":105},{"user_id":262,"name":"Carlo","steam_id":76561198276491098,"connected_time":678000000000,"state":"active","ping":70},{"user_id":245,"name":"Xanics","steam_id":76561198187813929,"connected_time":1392000000000,"state":"active","ping":60},{"user_id":250,"name":"CallMeUnoriginal","steam_id":76561198977528294,"connected_time":984000000000,"state":"active","ping":46},{"user_id":246,"name":"{YS} داكافيوس بينج\ufffd","steam_id":76561198267463398,"connected_time":1265000000000,"state":"active","ping":62},{"user_id":259,"name":"Nittugai","steam_id":76561198067366462,"connected_time":760000000000,"state":"active","ping":60},{"user_id":243,"name":"Plep","steam_id":76561198840259819,"connected_time":1498000000000,"state":"active","ping":60},{"user_id":256,"name":"hench frog","steam_id":76561198445120460,"connected_time":821000000000,"state":"active","ping":67},{"user_id":215,"name":"mt","steam_id":76561197961319303,"connected_time":2945000000000,"state":"active","ping":56},{"user_id":267,"name":"Farmercy","steam_id":76561198000038039,"connected_time":25000000000,"state":"active","ping":63},{"user_id":261,"name":"Emerald","steam_id":76561199141384216,"connected_time":715000000000,"state":"active","ping":48},{"user_id":199,"name":"SSAAMMII","steam_id":76561199168609647,"connected_time":3366000000000,"state":"active","ping":56},{"user_id":219,"name":"Ullr","steam_id":76561198140547483,"connected_time":2810000000000,"state":"active","ping":41},{"user_id":210,"name":"Goldblade","steam_id":76561198382997614,"connected_time":3205000000000,"state":"active","ping":82}]},{"server_id":320,"name":"Uncletopia | London | 3 | All Maps","name_short":"lon-3","host":"lon-1.uk.uncletopia.com","port":27035,"enabled":true,"region":"eu","cc":"gb","latitude":51.509865,"longitude":-0.118092,"reserved":0,"last_update":"0001-01-01T00:00:00Z","name_a2s":"Uncletopia | London | 3 | All Maps","protocol":17,"map":"pl_frontier_final","folder":"tf","game":"Team Fortress","app_id":440,"player_count":3,"max_players":24,"Bots":0,"server_type":"Dedicated","server_os":"Linux","password":true,"vac":true,"version":"7961495","steam_id":85568392924510192,"keywords":["nocrits","nodmgspread","payload","uncletopia"],"game_id":440,"stv_port":27036,"stv_name":"Uncletopia | London | 3 | All Maps | STV","players":[{"user_id":24,"name":"Tx_madmash \u0026 knuckles","steam_id":76561198924656512,"connected_time":214000000000,"state":"active","ping":49},{"user_id":25,"name":"Daredevil","steam_id":76561198153488940,"connected_time":20000000000,"state":"spawning","ping":85},{"user_id":26,"name":"mossfan1","steam_id":76561198087525446,"connected_time":20000000000,"state":"active","ping":60}]},{"server_id":321,"name":"Uncletopia | London | 4 | All Maps","name_short":"lon-4","host":"lon-1.uk.uncletopia.com","port":27045,"enabled":true,"region":"eu","cc":"gb","latitude":51.509865,"longitude":-0.118092,"reserved":0,"last_update":"0001-01-01T00:00:00Z","name_a2s":"Uncletopia | London | 4 | All Maps","protocol":17,"map":"koth_lakeside_final","folder":"tf","game":"Team Fortress","app_id":440,"player_count":16,"max_players":24,"Bots":0,"server_type":"Dedicated","server_os":"Linux","password":true,"vac":true,"version":"7961495","steam_id":85568392924510193,"keywords":["cp","nocrits","nodmgspread","uncletopia"],"game_id":440,"stv_port":27046,"stv_name":"Uncletopia | London | 4 | All Maps | STV","players":[{"user_id":14,"name":"Moondrop","steam_id":76561199421181719,"connected_time":2390000000000,"state":"active","ping":74},{"user_id":15,"name":"RayTrain","steam_id":76561198874299515,"connected_time":2387000000000,"state":"active","ping":87},{"user_id":27,"name":"robyn","steam_id":76561199388526903,"connected_time":705000000000,"state":"active","ping":67},{"user_id":24,"name":"gabrielglod928","steam_id":76561199014805744,"connected_time":1240000000000,"state":"active","ping":55},{"user_id":22,"name":"Deez nuts","steam_id":76561199429562693,"connected_time":1365000000000,"state":"active","ping":72},{"user_id":19,"name":"Andreus","steam_id":76561199403926001,"connected_time":1722000000000,"state":"active","ping":76},{"user_id":23,"name":"Ostara","steam_id":76561198200054489,"connected_time":1291000000000,"state":"active","ping":52},{"user_id":37,"name":"TOP G","steam_id":76561198138928548,"connected_time":59000000000,"state":"active","ping":59},{"user_id":29,"name":"toomas2018(vote for toomas2018)","steam_id":76561199105796083,"connected_time":494000000000,"state":"active","ping":72},{"user_id":34,"name":"Rez","steam_id":76561198410598772,"connected_time":228000000000,"state":"active","ping":45},{"user_id":35,"name":"Beta Probopass","steam_id":76561198140806694,"connected_time":75000000000,"state":"active","ping":293},{"user_id":36,"name":"Walking","steam_id":76561198327852572,"connected_time":72000000000,"state":"active","ping":105},{"user_id":38,"name":"Nobaddy","steam_id":76561198037871007,"connected_time":41000000000,"state":"active","ping":63},{"user_id":39,"name":"padillacampos","steam_id":76561198161923970,"connected_time":35000000000,"state":"active","ping":117},{"user_id":40,"name":"woof","steam_id":76561198233092760,"connected_time":16000000000,"state":"active","ping":74},{"user_id":41,"name":"BLÅHAJ","steam_id":76561199353672293,"connected_time":1000000000,"state":"spawning","ping":44}]},{"server_id":21,"name":"Uncletopia | London | 5 | All Maps","name_short":"lon-5","host":"lon-1.uk.uncletopia.com","port":27055,"enabled":true,"region":"eu","cc":"gb","latitude":51.509865,"longitude":-0.118092,"reserved":0,"last_update":"0001-01-01T00:00:00Z","name_a2s":"Uncletopia | London | 5 | All Maps","protocol":17,"map":"cp_sunshine","folder":"tf","game":"Team Fortress","app_id":440,"player_count":0,"max_players":24,"Bots":0,"server_type":"Dedicated","server_os":"Linux","password":true,"vac":true,"version":"7961495","steam_id":85568392924742829,"keywords":["cp","nocrits","nodmgspread","uncletopia"],"game_id":440,"stv_port":27056,"stv_name":"Uncletopia | London | 5 | All Maps | STV","players":null},{"server_id":22,"name":"Uncletopia | London | 6 | All Maps","name_short":"lon-6","host":"lon-1.uk.uncletopia.com","port":27065,"enabled":true,"region":"eu","cc":"gb","latitude":51.509865,"longitude":-0.118092,"reserved":0,"last_update":"0001-01-01T00:00:00Z","name_a2s":"Uncletopia | London | 6 | All Maps","protocol":17,"map":"cp_altitude","folder":"tf","game":"Team Fortress","app_id":440,"player_count":24,"max_players":24,"Bots":0,"server_type":"Dedicated","server_os":"Linux","password":true,"vac":true,"version":"7961495","steam_id":85568392924742830,"keywords":["cp","nocrits","nodmgspread","uncletopia"],"game_id":440,"stv_port":27066,"stv_name":"Uncletopia | London | 6 | All Maps | STV","players":[{"user_id":209,"name":"The Bread Bringer","steam_id":76561198264079743,"connected_time":375000000000,"state":"active","ping":44},{"user_id":151,"name":"M","steam_id":76561199220785307,"connected_time":3572000000000,"state":"active","ping":151},{"user_id":189,"name":"Byte","steam_id":76561198052610205,"connected_time":1673000000000,"state":"active","ping":52},{"user_id":170,"name":"Salt Syndrome","steam_id":76561198046584592,"connected_time":2800000000000,"state":"active","ping":156},{"user_id":191,"name":"Unreliable, funny and dangerous","steam_id":76561198050709790,"connected_time":1476000000000,"state":"active","ping":90},{"user_id":200,"name":"heddwch","steam_id":76561198076097983,"connected_time":1014000000000,"state":"active","ping":86},{"user_id":210,"name":"the grongle","steam_id":76561198989398023,"connected_time":357000000000,"state":"active","ping":114},{"user_id":199,"name":"IS3BITEL","steam_id":76561199178060325,"connected_time":1033000000000,"state":"active","ping":85},{"user_id":182,"name":"Andy","steam_id":76561198046918834,"connected_time":2035000000000,"state":"active","ping":64},{"user_id":194,"name":"Gvidas","steam_id":76561198395564537,"connected_time":1419000000000,"state":"active","ping":75},{"user_id":213,"name":"Spinya","steam_id":76561198086653667,"connected_time":103000000000,"state":"active","ping":58},{"user_id":205,"name":"Bronchius Bonehead","steam_id":76561198133961416,"connected_time":786000000000,"state":"active","ping":47},{"user_id":212,"name":"Demicore","steam_id":76561197976922136,"connected_time":130000000000,"state":"active","ping":70},{"user_id":184,"name":"sam_","steam_id":76561198814734120,"connected_time":1921000000000,"state":"active","ping":106},{"user_id":167,"name":"Ark-e","steam_id":76561198261870909,"connected_time":2968000000000,"state":"active","ping":39},{"user_id":211,"name":"(MAC) [BN] Crazyking","steam_id":76561198001668616,"connected_time":222000000000,"state":"active","ping":63},{"user_id":36,"name":"Space","steam_id":76561198378357559,"connected_time":8694000000000,"state":"active","ping":39},{"user_id":180,"name":"Brallerin","steam_id":76561198060026189,"connected_time":2077000000000,"state":"active","ping":55},{"user_id":175,"name":"Houlles","steam_id":76561198095277383,"connected_time":2458000000000,"state":"active","ping":53},{"user_id":203,"name":"BELADIT","steam_id":76561198011911501,"connected_time":836000000000,"state":"active","ping":74},{"user_id":176,"name":"LSKi","steam_id":76561198215470228,"connected_time":2440000000000,"state":"active","ping":55},{"user_id":207,"name":"IBlewUpMalaysia","steam_id":76561198065455764,"connected_time":700000000000,"state":"active","ping":62},{"user_id":214,"name":"DudeoftheRock","steam_id":76561198059401865,"connected_time":99000000000,"state":"active","ping":59},{"user_id":177,"name":"Boring Jazz Trivia","steam_id":76561198011155232,"connected_time":2338000000000,"state":"active","ping":62}]},{"server_id":40,"name":"Uncletopia | London | 7 | Stopwatch","name_short":"lon-7","host":"lon-1.uk.uncletopia.com","port":27075,"enabled":true,"region":"eu","cc":"gb","latitude":51.509865,"longitude":-0.118092,"reserved":0,"last_update":"0001-01-01T00:00:00Z","name_a2s":"Uncletopia | London | 7 | Stopwatch","protocol":17,"map":"workshop/pl_barnblitz_pro7.ugc582280235","folder":"tf","game":"Team Fortress","app_id":440,"player_count":0,"max_players":24,"Bots":0,"server_type":"Dedicated","server_os":"Linux","password":true,"vac":true,"version":"7961495","steam_id":85568392924964314,"keywords":["nocrits","nodmgspread","payload","uncletopia"],"game_id":440,"stv_port":27076,"stv_name":"Uncletopia | London | 7 | Stopwatch | STV","players":null},{"server_id":41,"name":"Uncletopia | London | 8 | Community","name_short":"lon-8","host":"lon-1.uk.uncletopia.com","port":27085,"enabled":true,"region":"eu","cc":"gb","latitude":51.509865,"longitude":-0.118092,"reserved":0,"last_update":"0001-01-01T00:00:00Z","name_a2s":"Uncletopia | London | 8 | Community","protocol":17,"map":"workshop/cp_villa_b19.ugc2113052569","folder":"tf","game":"Team Fortress","app_id":440,"player_count":23,"max_players":24,"Bots":0,"server_type":"Dedicated","server_os":"Linux","password":true,"vac":true,"version":"7961495","steam_id":85568392924964315,"keywords":["cp","nocrits","nodmgspread","uncletopia"],"game_id":440,"stv_port":27086,"stv_name":"Uncletopia | London | 8 | Community | STV","players":[{"user_id":55,"name":"Vel0city","steam_id":76561198049687798,"connected_time":262000000000,"state":"active","ping":45},{"user_id":54,"name":"akakez","steam_id":76561198095432821,"connected_time":357000000000,"state":"active","ping":115},{"user_id":20,"name":"TSx* Osa__PL","steam_id":76561198027016799,"connected_time":3115000000000,"state":"active","ping":76},{"user_id":21,"name":"TSx* Naxer","steam_id":76561198011986779,"connected_time":3056000000000,"state":"active","ping":77},{"user_id":29,"name":"TSx* EmperoT","steam_id":76561198018656942,"connected_time":1608000000000,"state":"active","ping":85},{"user_id":63,"name":"Snd","steam_id":76561198010816408,"connected_time":71000000000,"state":"active","ping":105},{"user_id":32,"name":"smiley","steam_id":76561198042245117,"connected_time":1421000000000,"state":"active","ping":66},{"user_id":23,"name":"TSx* Bargal","steam_id":76561198040266872,"connected_time":2911000000000,"state":"active","ping":78},{"user_id":24,"name":"fire","steam_id":76561198063674613,"connected_time":2884000000000,"state":"active","ping":59},{"user_id":25,"name":"TSx* {Demon-Angel}","steam_id":76561198151486463,"connected_time":2783000000000,"state":"active","ping":93},{"user_id":33,"name":"Mousetail","steam_id":76561198269524918,"connected_time":1416000000000,"state":"active","ping":53},{"user_id":37,"name":"silicon based life form","steam_id":76561199127121346,"connected_time":1219000000000,"state":"active","ping":55},{"user_id":38,"name":"web e-dog corporate media anima","steam_id":76561198034955422,"connected_time":1170000000000,"state":"active","ping":52},{"user_id":42,"name":"SYLOK","steam_id":76561198117257427,"connected_time":1020000000000,"state":"active","ping":90},{"user_id":40,"name":"Rodak","steam_id":76561199135986344,"connected_time":1113000000000,"state":"active","ping":59},{"user_id":43,"name":"Mr Fruitypebbles","steam_id":76561198133823242,"connected_time":897000000000,"state":"active","ping":57},{"user_id":52,"name":"Prawo Jazdy","steam_id":76561198121589024,"connected_time":520000000000,"state":"active","ping":56},{"user_id":46,"name":"0.01 of Germs","steam_id":76561199006462039,"connected_time":678000000000,"state":"active","ping":63},{"user_id":61,"name":"Christmas_Kiwi","steam_id":76561199259353499,"connected_time":130000000000,"state":"active","ping":64},{"user_id":60,"name":"Datsunbrah","steam_id":76561198088494680,"connected_time":153000000000,"state":"active","ping":749},{"user_id":50,"name":"ınsurgent","steam_id":76561199195886436,"connected_time":581000000000,"state":"active","ping":112},{"user_id":59,"name":"The legendery balls","steam_id":76561199139344747,"connected_time":194000000000,"state":"active","ping":99},{"user_id":53,"name":"wicked","steam_id":76561198164376035,"connected_time":511000000000,"state":"active","ping":75}]},{"server_id":300,"name":"Uncletopia | Montréal | 1 | One Thousand Uncles","name_short":"mtl-1","host":"mtl-1.ca.uncletopia.com","port":27015,"enabled":true,"region":"us-east","cc":"ca","latitude":45.50889,"longitude":-73.56167,"reserved":0,"last_update":"0001-01-01T00:00:00Z","name_a2s":"","protocol":0,"map":"","folder":"","game":"","app_id":0,"player_count":0,"max_players":0,"Bots":0,"server_type":"","server_os":"","password":false,"vac":false,"version":"","steam_id":0,"keywords":null,"game_id":0,"stv_port":0,"stv_name":"","players":null},{"server_id":301,"name":"Uncletopia | Montréal | 2 | One Thousand Uncles","name_short":"mtl-2","host":"mtl-1.ca.uncletopia.com","port":27025,"enabled":true,"region":"us-east","cc":"ca","latitude":45.50889,"longitude":-73.56167,"reserved":0,"last_update":"0001-01-01T00:00:00Z","name_a2s":"","protocol":0,"map":"","folder":"","game":"","app_id":0,"player_count":0,"max_players":0,"Bots":0,"server_type":"","server_os":"","password":false,"vac":false,"version":"","steam_id":0,"keywords":null,"game_id":0,"stv_port":0,"stv_name":"","players":null},{"server_id":302,"name":"Uncletopia | Montréal | 3 | One Thousand Uncles","name_short":"mtl-3","host":"mtl-1.ca.uncletopia.com","port":27035,"enabled":true,"region":"us-east","cc":"ca","latitude":45.50889,"longitude":-73.56167,"reserved":0,"last_update":"0001-01-01T00:00:00Z","name_a2s":"","protocol":0,"map":"","folder":"","game":"","app_id":0,"player_count":0,"max_players":0,"Bots":0,"server_type":"","server_os":"","password":false,"vac":false,"version":"","steam_id":0,"keywords":null,"game_id":0,"stv_port":0,"stv_name":"","players":null},{"server_id":13,"name":"Uncletopia | New York City | 1 | All Maps","name_short":"nyc-1","host":"nyc-1.us.uncletopia.com","port":27015,"enabled":true,"region":"us-east","cc":"us","latitude":40.73061,"longitude":-73.93524,"reserved":0,"last_update":"0001-01-01T00:00:00Z","name_a2s":"Uncletopia | New York City | 1 | All Maps","protocol":17,"map":"koth_highpass","folder":"tf","game":"Team Fortress","app_id":440,"player_count":0,"max_players":24,"Bots":0,"server_type":"Dedicated","server_os":"Linux","password":true,"vac":true,"version":"7961495","steam_id":85568392924469993,"keywords":["cp","nocrits","nodmgspread","uncletopia"],"game_id":440,"stv_port":27016,"stv_name":"Uncletopia | New York City | 1 | All Maps | STV","players":null},{"server_id":14,"name":"Uncletopia | New York City | 2 | All Maps","name_short":"nyc-2","host":"nyc-1.us.uncletopia.com","port":27025,"enabled":true,"region":"us-east","cc":"us","latitude":40.73061,"longitude":-73.93524,"reserved":0,"last_update":"0001-01-01T00:00:00Z","name_a2s":"Uncletopia | New York City | 2 | All Maps","protocol":17,"map":"pl_badwater","folder":"tf","game":"Team Fortress","app_id":440,"player_count":20,"max_players":24,"Bots":0,"server_type":"Dedicated","server_os":"Linux","password":true,"vac":true,"version":"7961495","steam_id":85568392924469994,"keywords":["nocrits","nodmgspread","payload","uncletopia"],"game_id":440,"stv_port":27026,"stv_name":"Uncletopia | New York City | 2 | All Maps | STV","players":[{"user_id":31,"name":"scrungle","steam_id":76561198041102272,"connected_time":718000000000,"state":"active","ping":59},{"user_id":27,"name":"Willham","steam_id":76561198065755781,"connected_time":898000000000,"state":"active","ping":97},{"user_id":36,"name":"nick","steam_id":76561198055079352,"connected_time":271000000000,"state":"active","ping":73},{"user_id":43,"name":"Das Psycho","steam_id":76561198064615020,"connected_time":5000000000,"state":"spawning","ping":70},{"user_id":41,"name":"Ham","steam_id":76561198143371318,"connected_time":63000000000,"state":"active","ping":144},{"user_id":15,"name":"Fernando Alonso","steam_id":76561198066822788,"connected_time":1590000000000,"state":"active","ping":58},{"user_id":17,"name":"beats (across the sea)","steam_id":76561199245717718,"connected_time":1501000000000,"state":"active","ping":58},{"user_id":20,"name":"Loser420","steam_id":76561199049823558,"connected_time":1244000000000,"state":"active","ping":69},{"user_id":21,"name":"yer_nerd","steam_id":76561199435454093,"connected_time":1228000000000,"state":"active","ping":65},{"user_id":22,"name":"Sickmind33","steam_id":76561198036248611,"connected_time":1208000000000,"state":"active","ping":67},{"user_id":38,"name":"MTeezy","steam_id":76561198004375865,"connected_time":154000000000,"state":"active","ping":81},{"user_id":24,"name":"Female Gamer","steam_id":76561199366482682,"connected_time":1161000000000,"state":"active","ping":119},{"user_id":39,"name":"Kay ☭","steam_id":76561198353432576,"connected_time":152000000000,"state":"active","ping":60},{"user_id":29,"name":"A Rat in a Box","steam_id":76561199113545462,"connected_time":879000000000,"state":"active","ping":167},{"user_id":30,"name":"FrenchMan690","steam_id":76561199507050386,"connected_time":875000000000,"state":"active","ping":161},{"user_id":32,"name":"snarl7711","steam_id":76561199249582561,"connected_time":571000000000,"state":"active","ping":85},{"user_id":33,"name":"ToyBox","steam_id":76561199074735423,"connected_time":424000000000,"state":"active","ping":60},{"user_id":34,"name":"tldhrt","steam_id":76561198815644949,"connected_time":393000000000,"state":"active","ping":59},{"user_id":35,"name":"Vitur","steam_id":76561198012360430,"connected_time":385000000000,"state":"active","ping":74},{"user_id":42,"name":"Barbatruc","steam_id":76561198119019916,"connected_time":48000000000,"state":"active","ping":129}]},{"server_id":15,"name":"Uncletopia | New York City | 3 | Stopwatch","name_short":"nyc-3","host":"nyc-1.us.uncletopia.com","port":27035,"enabled":true,"region":"us-east","cc":"us","latitude":40.73061,"longitude":-73.93524,"reserved":0,"last_update":"0001-01-01T00:00:00Z","name_a2s":"Uncletopia | New York City | 3 | Stopwatch","protocol":17,"map":"koth_highpass","folder":"tf","game":"Team Fortress","app_id":440,"player_count":0,"max_players":24,"Bots":0,"server_type":"Dedicated","server_os":"Linux","password":true,"vac":true,"version":"7961495","steam_id":85568392924742820,"keywords":["cp","nocrits","nodmgspread","uncletopia"],"game_id":440,"stv_port":27036,"stv_name":"Uncletopia | New York City | 3 | Stopwatch | STV","players":null},{"server_id":16,"name":"Uncletopia | New York City | 4 | Community","name_short":"nyc-4","host":"nyc-1.us.uncletopia.com","port":27045,"enabled":true,"region":"us-east","cc":"us","latitude":40.73061,"longitude":-73.93524,"reserved":0,"last_update":"0001-01-01T00:00:00Z","name_a2s":"Uncletopia | New York City | 4 | Community","protocol":17,"map":"workshop/koth_slaughter_rc1.ugc1712845210","folder":"tf","game":"Team Fortress","app_id":440,"player_count":0,"max_players":24,"Bots":0,"server_type":"Dedicated","server_os":"Linux","password":true,"vac":true,"version":"7961495","steam_id":85568392924742821,"keywords":["cp","nocrits","nodmgspread","uncletopia"],"game_id":440,"stv_port":27046,"stv_name":"Uncletopia | New York City | 4 | Community | STV","players":null},{"server_id":142,"name":"Uncletopia | São Paulo | 1 | All Maps","name_short":"sao-1","host":"sao-1.br.uncletopia.com","port":27015,"enabled":true,"region":"sa","cc":"br","latitude":-23.533773,"longitude":-46.62529,"reserved":0,"last_update":"0001-01-01T00:00:00Z","name_a2s":"Uncletopia | São Paulo | 1 | All Maps","protocol":17,"map":"koth_lakeside_final","folder":"tf","game":"Team Fortress","app_id":440,"player_count":0,"max_players":24,"Bots":0,"server_type":"Dedicated","server_os":"Linux","password":true,"vac":true,"version":"7961495","steam_id":85568392924469996,"keywords":["cp","nocrits","nodmgspread","uncletopia"],"game_id":440,"stv_port":27016,"stv_name":"Uncletopia | São Paulo | 1 | All Maps | STV","players":null},{"server_id":143,"name":"Uncletopia | São Paulo | 2 | Community","name_short":"sao-2","host":"sao-2.br.uncletopia.com","port":27015,"enabled":true,"region":"sa","cc":"br","latitude":-23.533773,"longitude":-46.62529,"reserved":0,"last_update":"0001-01-01T00:00:00Z","name_a2s":"Uncletopia | São Paulo | 2 | Community","protocol":17,"map":"workshop/koth_ramjam_rc1.ugc459778887","folder":"tf","game":"Team Fortress","app_id":440,"player_count":0,"max_players":24,"Bots":0,"server_type":"Dedicated","server_os":"Linux","password":true,"vac":true,"version":"7961495","steam_id":85568392924485349,"keywords":["cp","nocrits","nodmgspread","uncletopia"],"game_id":440,"stv_port":27016,"stv_name":"Uncletopia | São Paulo | 2 | Community | STV","players":null},{"server_id":7,"name":"Uncletopia | Seattle | 1 | All Maps","name_short":"sea-1","host":"sea-1.us.uncletopia.com","port":27015,"enabled":true,"region":"us-west","cc":"us","latitude":47.608013,"longitude":-122.33517,"reserved":0,"last_update":"0001-01-01T00:00:00Z","name_a2s":"Uncletopia | Seattle | 1 | All Maps","protocol":17,"map":"pl_upward","folder":"tf","game":"Team Fortress","app_id":440,"player_count":24,"max_players":24,"Bots":0,"server_type":"Dedicated","server_os":"Linux","password":true,"vac":true,"version":"7961495","steam_id":85568392924469997,"keywords":["nocrits","nodmgspread","payload","uncletopia"],"game_id":440,"stv_port":27016,"stv_name":"Uncletopia | Seattle | 1 | All Maps | STV","players":[{"user_id":130,"name":"BooGotShot","steam_id":76561198039062270,"connected_time":4163000000000,"state":"active","ping":99},{"user_id":188,"name":"Monte","steam_id":76561198097499917,"connected_time":448000000000,"state":"active","ping":72},{"user_id":183,"name":"blond","steam_id":76561199058492923,"connected_time":1272000000000,"state":"active","ping":122},{"user_id":184,"name":"vegicide","steam_id":76561198239286750,"connected_time":1196000000000,"state":"active","ping":119},{"user_id":179,"name":"freyja","steam_id":76561198249206656,"connected_time":1426000000000,"state":"active","ping":132},{"user_id":189,"name":"Neko","steam_id":76561198075690128,"connected_time":118000000000,"state":"active","ping":195},{"user_id":159,"name":"Ernesto Papalo","steam_id":76561198348586698,"connected_time":2215000000000,"state":"active","ping":84},{"user_id":186,"name":"ATHEIST TIL I REALIZED I AM GOD","steam_id":76561199190800520,"connected_time":1001000000000,"state":"active","ping":41},{"user_id":172,"name":"Scromch","steam_id":76561198045211728,"connected_time":1662000000000,"state":"active","ping":60},{"user_id":134,"name":"Petrivus","steam_id":76561198202152453,"connected_time":3851000000000,"state":"active","ping":45},{"user_id":181,"name":"collector's pest","steam_id":76561198170402666,"connected_time":1321000000000,"state":"active","ping":68},{"user_id":173,"name":"Ya Kid Brotha","steam_id":76561199127423378,"connected_time":1606000000000,"state":"active","ping":77},{"user_id":187,"name":"Cosmo","steam_id":76561199085643398,"connected_time":979000000000,"state":"active","ping":76},{"user_id":149,"name":"nooblet bitch","steam_id":76561198103496593,"connected_time":2782000000000,"state":"active","ping":105},{"user_id":174,"name":"Cheeseburger","steam_id":76561198044131927,"connected_time":1598000000000,"state":"active","ping":105},{"user_id":176,"name":"confetti","steam_id":76561198335140490,"connected_time":1566000000000,"state":"active","ping":92},{"user_id":169,"name":"manbug","steam_id":76561198169219561,"connected_time":1777000000000,"state":"active","ping":90},{"user_id":141,"name":"THE CUMEST LORD","steam_id":76561198061412592,"connected_time":3600000000000,"state":"active","ping":117},{"user_id":142,"name":"HappilyDisturbed","steam_id":76561198156158743,"connected_time":3582000000000,"state":"active","ping":87},{"user_id":168,"name":"oo","steam_id":76561198119626492,"connected_time":1859000000000,"state":"active","ping":71},{"user_id":148,"name":"ClownTown","steam_id":76561199350870177,"connected_time":2808000000000,"state":"active","ping":113},{"user_id":177,"name":"Bishop","steam_id":76561198033860186,"connected_time":1545000000000,"state":"active","ping":73},{"user_id":178,"name":"Korota","steam_id":76561198095891641,"connected_time":1543000000000,"state":"active","ping":103},{"user_id":150,"name":"Bob","steam_id":76561198059258610,"connected_time":2781000000000,"state":"active","ping":85}]},{"server_id":119,"name":"Uncletopia | Seattle | 2 | All Maps","name_short":"sea-2","host":"sea-1.us.uncletopia.com","port":27025,"enabled":true,"region":"us-west","cc":"us","latitude":47.608013,"longitude":-122.33517,"reserved":0,"last_update":"0001-01-01T00:00:00Z","name_a2s":"Uncletopia | Seattle | 2 | All Maps","protocol":17,"map":"pl_upward","folder":"tf","game":"Team Fortress","app_id":440,"player_count":0,"max_players":24,"Bots":0,"server_type":"Dedicated","server_os":"Linux","password":true,"vac":true,"version":"7961495","steam_id":85568392924469998,"keywords":["nocrits","nodmgspread","payload","uncletopia"],"game_id":440,"stv_port":27026,"stv_name":"Uncletopia | Seattle | 2 | All Maps | STV","players":null},{"server_id":406,"name":"Uncletopia | Seattle | 3 | Stopwatch","name_short":"sea-3","host":"sea-1.us.uncletopia.com","port":27035,"enabled":true,"region":"us-west","cc":"us","latitude":47.608013,"longitude":-122.33517,"reserved":0,"last_update":"0001-01-01T00:00:00Z","name_a2s":"Uncletopia | Seattle | 3 | Stopwatch","protocol":17,"map":"pl_pier","folder":"tf","game":"Team Fortress","app_id":440,"player_count":0,"max_players":24,"Bots":0,"server_type":"Dedicated","server_os":"Linux","password":true,"vac":true,"version":"7961495","steam_id":85568392924515217,"keywords":["nocrits","nodmgspread","payload","uncletopia"],"game_id":440,"stv_port":27036,"stv_name":"Uncletopia | Seattle | 3 | Stopwatch | STV","players":null},{"server_id":17,"name":"Uncletopia | San Francisco | 1 | All Maps","name_short":"sfo-1","host":"sfo-1.us.uncletopia.com","port":27015,"enabled":true,"region":"us-west","cc":"us","latitude":37.77397,"longitude":-122.4313,"reserved":0,"last_update":"0001-01-01T00:00:00Z","name_a2s":"Uncletopia | San Francisco | 1 | All Maps","protocol":17,"map":"koth_cascade","folder":"tf","game":"Team Fortress","app_id":440,"player_count":0,"max_players":24,"Bots":0,"server_type":"Dedicated","server_os":"Linux","password":true,"vac":true,"version":"7961495","steam_id":85568392924469999,"keywords":["cp","nocrits","nodmgspread","uncletopia"],"game_id":440,"stv_port":27016,"stv_name":"Uncletopia | San Francisco | 1 | All Maps | STV","players":null},{"server_id":18,"name":"Uncletopia | San Francisco | 2 | All Maps","name_short":"sfo-2","host":"sfo-1.us.uncletopia.com","port":27025,"enabled":true,"region":"us-west","cc":"us","latitude":37.77397,"longitude":-122.4313,"reserved":0,"last_update":"0001-01-01T00:00:00Z","name_a2s":"Uncletopia | San Francisco | 2 | All Maps","protocol":17,"map":"pl_snowycoast","folder":"tf","game":"Team Fortress","app_id":440,"player_count":24,"max_players":24,"Bots":0,"server_type":"Dedicated","server_os":"Linux","password":true,"vac":true,"version":"7961495","steam_id":85568392924470000,"keywords":["nocrits","nodmgspread","payload","uncletopia"],"game_id":440,"stv_port":27026,"stv_name":"Uncletopia | San Francisco | 2 | All Maps | STV","players":[{"user_id":65,"name":"jeff_fan","steam_id":76561198086420687,"connected_time":375000000000,"state":"active","ping":103},{"user_id":53,"name":"Just a Good Friend","steam_id":76561198140052403,"connected_time":1518000000000,"state":"active","ping":43},{"user_id":46,"name":"John Calibur","steam_id":76561197999986606,"connected_time":2483000000000,"state":"active","ping":49},{"user_id":51,"name":"Colonel Canada","steam_id":76561198042110453,"connected_time":2269000000000,"state":"active","ping":92},{"user_id":8,"name":"EclipseHellhound","steam_id":76561199192649470,"connected_time":6049000000000,"state":"active","ping":64},{"user_id":55,"name":"usedhalfcart","steam_id":76561198072621852,"connected_time":1466000000000,"state":"active","ping":109},{"user_id":66,"name":"Jam Jams","steam_id":76561198128811267,"connected_time":281000000000,"state":"active","ping":92},{"user_id":47,"name":"Strike Force Lightning","steam_id":76561198271519776,"connected_time":2448000000000,"state":"active","ping":118},{"user_id":57,"name":"dantheman","steam_id":76561199486390813,"connected_time":1452000000000,"state":"active","ping":127},{"user_id":58,"name":"lukamine","steam_id":76561198166827208,"connected_time":1369000000000,"state":"active","ping":61},{"user_id":52,"name":"Spruce","steam_id":76561198081684676,"connected_time":2269000000000,"state":"active","ping":81},{"user_id":64,"name":"Laxoloni","steam_id":76561199197045700,"connected_time":548000000000,"state":"active","ping":68},{"user_id":29,"name":"snowcap","steam_id":76561198344164944,"connected_time":4187000000000,"state":"active","ping":62},{"user_id":67,"name":"SwineFlu","steam_id":76561197989014109,"connected_time":236000000000,"state":"active","ping":76},{"user_id":60,"name":"donutbodega17","steam_id":76561199211254746,"connected_time":1157000000000,"state":"active","ping":104},{"user_id":68,"name":"Jimmy Fallon","steam_id":76561198069131730,"connected_time":172000000000,"state":"active","ping":96},{"user_id":69,"name":"Kiril","steam_id":76561198051433762,"connected_time":126000000000,"state":"active","ping":109},{"user_id":42,"name":"canna van gogh","steam_id":76561198056331193,"connected_time":3076000000000,"state":"active","ping":60},{"user_id":70,"name":"Captain Underbelly","steam_id":76561198811270935,"connected_time":104000000000,"state":"active","ping":99},{"user_id":30,"name":"\u003c3","steam_id":76561198196829267,"connected_time":4153000000000,"state":"active","ping":63},{"user_id":72,"name":"JULBITSU","steam_id":76561198117466330,"connected_time":78000000000,"state":"active","ping":72},{"user_id":62,"name":"BombWolf","steam_id":76561198289812368,"connected_time":1066000000000,"state":"active","ping":128},{"user_id":63,"name":"deeeefers","steam_id":76561198082592496,"connected_time":1028000000000,"state":"active","ping":65},{"user_id":36,"name":"Dog","steam_id":76561198041841128,"connected_time":3864000000000,"state":"active","ping":62}]},{"server_id":19,"name":"Uncletopia | San Francisco | 3 | Stopwatch","name_short":"sfo-3","host":"sfo-1.us.uncletopia.com","port":27035,"enabled":true,"region":"us-west","cc":"us","latitude":37.77397,"longitude":-122.4313,"reserved":0,"last_update":"0001-01-01T00:00:00Z","name_a2s":"Uncletopia | San Francisco | 3 | Stopwatch","protocol":17,"map":"pl_pier","folder":"tf","game":"Team Fortress","app_id":440,"player_count":0,"max_players":24,"Bots":0,"server_type":"Dedicated","server_os":"Linux","password":true,"vac":true,"version":"7961495","steam_id":85568392924742824,"keywords":["nocrits","nodmgspread","payload","uncletopia"],"game_id":440,"stv_port":27036,"stv_name":"Uncletopia | San Francisco | 3 | Stopwatch | STV","players":null},{"server_id":20,"name":"Uncletopia | San Francisco | 4 | Community","name_short":"sfo-4","host":"sfo-1.us.uncletopia.com","port":27045,"enabled":true,"region":"us-west","cc":"us","latitude":37.77397,"longitude":-122.4313,"reserved":0,"last_update":"0001-01-01T00:00:00Z","name_a2s":"Uncletopia | San Francisco | 4 | Community","protocol":17,"map":"pl_pier","folder":"tf","game":"Team Fortress","app_id":440,"player_count":0,"max_players":24,"Bots":0,"server_type":"Dedicated","server_os":"Linux","password":true,"vac":true,"version":"7961495","steam_id":85568392924742826,"keywords":["nocrits","nodmgspread","payload","uncletopia"],"game_id":440,"stv_port":27046,"stv_name":"Uncletopia | San Francisco | 4 | Community | STV","players":null},{"server_id":141,"name":"Uncletopia | Sydney | 1 | All Maps","name_short":"syd-1","host":"syd-1.au.uncletopia.com","port":27015,"enabled":true,"region":"au","cc":"au","latitude":-33.865143,"longitude":151.2099,"reserved":0,"last_update":"0001-01-01T00:00:00Z","name_a2s":"Uncletopia | Sydney | 1 | All Maps","protocol":17,"map":"koth_highpass","folder":"tf","game":"Team Fortress","app_id":440,"player_count":0,"max_players":24,"Bots":0,"server_type":"Dedicated","server_os":"Linux","password":true,"vac":true,"version":"7961495","steam_id":85568392924470001,"keywords":["cp","nocrits","nodmgspread","uncletopia"],"game_id":440,"stv_port":27016,"stv_name":"Uncletopia | Sydney | 1 | All Maps | STV","players":null},{"server_id":123,"name":"Uncletopia | Sydney | 2 | All Maps","name_short":"syd-2","host":"syd-1.au.uncletopia.com","port":27025,"enabled":true,"region":"au","cc":"au","latitude":-33.865143,"longitude":151.2099,"reserved":0,"last_update":"0001-01-01T00:00:00Z","name_a2s":"Uncletopia | Sydney | 2 | All Maps","protocol":17,"map":"koth_cascade","folder":"tf","game":"Team Fortress","app_id":440,"player_count":0,"max_players":24,"Bots":0,"server_type":"Dedicated","server_os":"Linux","password":true,"vac":true,"version":"7961495","steam_id":85568392924470002,"keywords":["cp","nocrits","nodmgspread","uncletopia"],"game_id":440,"stv_port":27026,"stv_name":"Uncletopia | Sydney | 2 | All Maps | STV","players":null},{"server_id":395,"name":"Uncletopia | Sydney | 3 | All Maps","name_short":"syd-3","host":"syd-1.au.uncletopia.com","port":27035,"enabled":true,"region":"au","cc":"au","latitude":-33.865143,"longitude":151.2099,"reserved":0,"last_update":"0001-01-01T00:00:00Z","name_a2s":"Uncletopia | Sydney | 3 | All Maps","protocol":17,"map":"koth_highpass","folder":"tf","game":"Team Fortress","app_id":440,"player_count":0,"max_players":24,"Bots":0,"server_type":"Dedicated","server_os":"Linux","password":true,"vac":true,"version":"7961495","steam_id":85568392925194467,"keywords":["cp","nocrits","nodmgspread","uncletopia"],"game_id":440,"stv_port":27036,"stv_name":"Uncletopia | Sydney | 3 | All Maps | STV","players":null},{"server_id":396,"name":"Uncletopia | Sydney | 4 | All Maps","name_short":"syd-4","host":"syd-1.au.uncletopia.com","port":27045,"enabled":true,"region":"au","cc":"au","latitude":-33.865143,"longitude":151.2099,"reserved":0,"last_update":"0001-01-01T00:00:00Z","name_a2s":"Uncletopia | Sydney | 4 | All Maps","protocol":17,"map":"koth_highpass","folder":"tf","game":"Team Fortress","app_id":440,"player_count":0,"max_players":24,"Bots":0,"server_type":"Dedicated","server_os":"Linux","password":true,"vac":true,"version":"7961495","steam_id":85568392925397958,"keywords":["cp","nocrits","nodmgspread","uncletopia"],"game_id":440,"stv_port":27046,"stv_name":"Uncletopia | Sydney | 4 | All Maps | STV","players":null},{"server_id":58,"name":"Uncletopia | Sydney | 5 | Stopwatch","name_short":"syd-5","host":"syd-1.au.uncletopia.com","port":27055,"enabled":true,"region":"au","cc":"au","latitude":-33.865143,"longitude":151.2099,"reserved":0,"last_update":"0001-01-01T00:00:00Z","name_a2s":"Uncletopia | Sydney | 5 | Stopwatch","protocol":17,"map":"pl_frontier_final","folder":"tf","game":"Team Fortress","app_id":440,"player_count":0,"max_players":24,"Bots":0,"server_type":"Dedicated","server_os":"Linux","password":true,"vac":true,"version":"7961495","steam_id":85568392925397959,"keywords":["nocrits","nodmgspread","payload","uncletopia"],"game_id":440,"stv_port":27056,"stv_name":"Uncletopia | Sydney | 5 | Stopwatch | STV","players":null},{"server_id":59,"name":"Uncletopia | Sydney | 6 | Community","name_short":"syd-6","host":"syd-1.au.uncletopia.com","port":27065,"enabled":true,"region":"au","cc":"au","latitude":-33.865143,"longitude":151.2099,"reserved":0,"last_update":"0001-01-01T00:00:00Z","name_a2s":"Uncletopia | Sydney | 6 | Community","protocol":17,"map":"cp_sunshine","folder":"tf","game":"Team Fortress","app_id":440,"player_count":1,"max_players":24,"Bots":0,"server_type":"Dedicated","server_os":"Linux","password":true,"vac":true,"version":"7961495","steam_id":85568392925397960,"keywords":["cp","nocrits","nodmgspread","uncletopia"],"game_id":440,"stv_port":27066,"stv_name":"Uncletopia | Sydney | 6 | Community | STV","players":[{"user_id":3,"name":"Matt VII (7) (seven)","steam_id":76561198065340795,"connected_time":66000000000,"state":"active","ping":50}]},{"server_id":49,"name":"Uncletopia | Warsaw | 1 | One Thousand Uncles","name_short":"waw-1","host":"waw-1.pl.uncletopia.com","port":27015,"enabled":true,"region":"eu","cc":"pl","latitude":52.2297,"longitude":21.017532,"reserved":0,"last_update":"0001-01-01T00:00:00Z","name_a2s":"Uncletopia | Warsaw | 1 | One Thousand Uncles","protocol":17,"map":"cp_mercenarypark","folder":"tf","game":"Team Fortress","app_id":440,"player_count":30,"max_players":32,"Bots":16,"server_type":"Dedicated","server_os":"Linux","password":true,"vac":true,"version":"7961495","steam_id":85568392925397850,"keywords":["alltalk","bots","cp","danepve","increased_maxplayers","nocrits","norespawntime","uncletopia"],"game_id":440,"stv_port":0,"stv_name":"","players":[{"user_id":379,"name":"Riky95","steam_id":76561198095289436,"connected_time":2343000000000,"state":"active","ping":63},{"user_id":394,"name":"0scr_","steam_id":76561198042631352,"connected_time":1885000000000,"state":"active","ping":81},{"user_id":426,"name":"sussygamer2023","steam_id":76561199473267237,"connected_time":725000000000,"state":"active","ping":54},{"user_id":362,"name":"Scout","steam_id":76561198992898803,"connected_time":4264000000000,"state":"active","ping":72},{"user_id":363,"name":"aaaaaa","steam_id":76561198086304421,"connected_time":4215000000000,"state":"active","ping":86},{"user_id":373,"name":"Rayco","steam_id":76561198048013129,"connected_time":2414000000000,"state":"active","ping":59},{"user_id":396,"name":"xanderomeister","steam_id":76561198882550389,"connected_time":1769000000000,"state":"active","ping":60},{"user_id":391,"name":"Benzo Fury","steam_id":76561198025259336,"connected_time":2168000000000,"state":"active","ping":76},{"user_id":398,"name":"RacoonGamer","steam_id":76561198100907657,"connected_time":1719000000000,"state":"active","ping":155},{"user_id":427,"name":"monke","steam_id":76561199095477435,"connected_time":519000000000,"state":"active","ping":74},{"user_id":429,"name":"IHaveBecomeBread","steam_id":76561198884652507,"connected_time":359000000000,"state":"active","ping":82},{"user_id":407,"name":"T_Crow","steam_id":76561198052999669,"connected_time":1096000000000,"state":"active","ping":49},{"user_id":430,"name":"pink_flame","steam_id":76561198450290326,"connected_time":157000000000,"state":"active","ping":48},{"user_id":409,"name":"Darkie","steam_id":76561198000388812,"connected_time":1061000000000,"state":"active","ping":113}]},{"server_id":50,"name":"Uncletopia | Warsaw | 2 | One Thousand Uncles","name_short":"waw-2","host":"waw-1.pl.uncletopia.com","port":27025,"enabled":true,"region":"eu","cc":"pl","latitude":52.2297,"longitude":21.017532,"reserved":0,"last_update":"0001-01-01T00:00:00Z","name_a2s":"Uncletopia | Warsaw | 2 | One Thousand Uncles","protocol":17,"map":"pl_barnblitz","folder":"tf","game":"Team Fortress","app_id":440,"player_count":27,"max_players":32,"Bots":16,"server_type":"Dedicated","server_os":"Linux","password":true,"vac":true,"version":"7961495","steam_id":85568392925397851,"keywords":["alltalk","bots","danepve","increased_maxplayers","nocrits","norespawntime","payload","uncletopia"],"game_id":440,"stv_port":0,"stv_name":"","players":[{"user_id":450,"name":"Meat Dragon","steam_id":76561198120319256,"connected_time":2388000000000,"state":"active","ping":162},{"user_id":452,"name":"Wanna pie","steam_id":76561198978528345,"connected_time":1951000000000,"state":"active","ping":96},{"user_id":475,"name":"calaka77","steam_id":76561198191457235,"connected_time":633000000000,"state":"active","ping":62},{"user_id":389,"name":"d u k k i","steam_id":76561198071807437,"connected_time":7435000000000,"state":"active","ping":47},{"user_id":477,"name":"Oreo Principle","steam_id":76561198063929217,"connected_time":367000000000,"state":"active","ping":44},{"user_id":478,"name":"GUINEA PWIGGY","steam_id":76561199345347941,"connected_time":332000000000,"state":"active","ping":62},{"user_id":456,"name":"Kotlet schabowy","steam_id":76561198048983509,"connected_time":1233000000000,"state":"active","ping":44},{"user_id":479,"name":"Pestilence","steam_id":76561198140938904,"connected_time":230000000000,"state":"active","ping":71},{"user_id":480,"name":"\u003cGNGWD\u003e the scringly dingly","steam_id":76561198192179174,"connected_time":119000000000,"state":"active","ping":135},{"user_id":481,"name":"Girl with 4k (pocket pls ❤)","steam_id":76561198091512580,"connected_time":15000000000,"state":"active","ping":87},{"user_id":412,"name":"Fatmagic Mukbang ASMR","steam_id":76561198063492110,"connected_time":5385000000000,"state":"active","ping":88}]},{"server_id":51,"name":"Uncletopia | Warsaw | 3 | All Maps","name_short":"waw-3","host":"waw-1.pl.uncletopia.com","port":27035,"enabled":true,"region":"eu","cc":"pl","latitude":52.2297,"longitude":21.017532,"reserved":0,"last_update":"0001-01-01T00:00:00Z","name_a2s":"Uncletopia | Warsaw | 3 | All Maps","protocol":17,"map":"plr_pipeline","folder":"tf","game":"Team Fortress","app_id":440,"player_count":0,"max_players":24,"Bots":0,"server_type":"Dedicated","server_os":"Linux","password":true,"vac":true,"version":"7961495","steam_id":85568392925397852,"keywords":["nocrits","nodmgspread","payload","uncletopia"],"game_id":440,"stv_port":27036,"stv_name":"Uncletopia | Warsaw | 3 | All Maps | STV","players":null},{"server_id":52,"name":"Uncletopia | Warsaw | 4 | All Maps","name_short":"waw-4","host":"waw-1.pl.uncletopia.com","port":27045,"enabled":true,"region":"eu","cc":"pl","latitude":52.2297,"longitude":21.017532,"reserved":0,"last_update":"0001-01-01T00:00:00Z","name_a2s":"Uncletopia | Warsaw | 4 | All Maps","protocol":17,"map":"pl_pier","folder":"tf","game":"Team Fortress","app_id":440,"player_count":0,"max_players":24,"Bots":0,"server_type":"Dedicated","server_os":"Linux","password":true,"vac":true,"version":"7961495","steam_id":85568392925397853,"keywords":["nocrits","nodmgspread","payload","uncletopia"],"game_id":440,"stv_port":27046,"stv_name":"Uncletopia | Warsaw | 4 | All Maps | STV","players":null},{"server_id":53,"name":"Uncletopia | Warsaw | 5 | Stopwatch","name_short":"waw-5","host":"waw-1.pl.uncletopia.com","port":27055,"enabled":true,"region":"eu","cc":"pl","latitude":52.2297,"longitude":21.017532,"reserved":0,"last_update":"0001-01-01T00:00:00Z","name_a2s":"Uncletopia | Warsaw | 5 | Stopwatch","protocol":17,"map":"koth_lakeside_final","folder":"tf","game":"Team Fortress","app_id":440,"player_count":2,"max_players":24,"Bots":0,"server_type":"Dedicated","server_os":"Linux","password":true,"vac":true,"version":"7961495","steam_id":85568392925397854,"keywords":["cp","nocrits","nodmgspread","uncletopia"],"game_id":440,"stv_port":27056,"stv_name":"Uncletopia | Warsaw | 5 | Stopwatch | STV","players":[{"user_id":4,"name":"i_am_f2p","steam_id":76561199491729907,"connected_time":1228000000000,"state":"active","ping":83},{"user_id":5,"name":"doom_slayer16","steam_id":76561199498996985,"connected_time":1222000000000,"state":"active","ping":106}]},{"server_id":54,"name":"Uncletopia | Warsaw | 6 | Community","name_short":"waw-6","host":"waw-1.pl.uncletopia.com","port":27065,"enabled":true,"region":"eu","cc":"pl","latitude":52.2297,"longitude":21.017532,"reserved":0,"last_update":"0001-01-01T00:00:00Z","name_a2s":"Uncletopia | Warsaw | 6 | Community","protocol":17,"map":"workshop/pl_fifthcurve_rc1.ugc648227046","folder":"tf","game":"Team Fortress","app_id":440,"player_count":6,"max_players":24,"Bots":0,"server_type":"Dedicated","server_os":"Linux","password":true,"vac":true,"version":"7961495","steam_id":85568392925397856,"keywords":["nocrits","nodmgspread","payload","uncletopia"],"game_id":440,"stv_port":27066,"stv_name":"Uncletopia | Warsaw | 6 | Community | STV","players":[{"user_id":6,"name":"Juuni","steam_id":76561198388345739,"connected_time":4472000000000,"state":"active","ping":89},{"user_id":8,"name":"Smol","steam_id":76561199001607121,"connected_time":4274000000000,"state":"active","ping":58},{"user_id":9,"name":"h e a v y","steam_id":76561199161084988,"connected_time":4214000000000,"state":"active","ping":97},{"user_id":10,"name":"Kotya","steam_id":76561198264896621,"connected_time":4105000000000,"state":"active","ping":84},{"user_id":14,"name":"ARBUZ z murzynem","steam_id":76561198446272479,"connected_time":1407000000000,"state":"active","ping":51},{"user_id":15,"name":"joshyflip","steam_id":76561198133701461,"connected_time":831000000000,"state":"active","ping":48}]}]}