{"status":true,"message":"","result":[{"server_id":9,"name":"Uncletopia | Atlanta | 1 | All Maps","name_short":"atl-1","host":"atl-1.us.uncletopia.com","port":27015,"enabled":true,"region":"us-east","cc":"us","latitude":33.753746,"longitude":-84.38633,"reserved":0,"last_update":"0001-01-01T00:00:00Z","name_a2s":"Uncletopia | Atlanta | 1 | All Maps","protocol":17,"map":"cp_dustbowl","folder":"tf","game":"Team Fortress","app_id":440,"player_count":23,"max_players":24,"Bots":0,"server_type":"Dedicated","server_os":"Linux","password":true,"vac":true,"version":"7723704","steam_id":85568392924469982,"keywords":["nocrits","nodmgspread","payload","uncletopia"],"game_id":440,"stv_port":27016,"stv_name":"Uncletopia | Atlanta | 1 | All Maps | STV","players":[{"user_id":719,"name":"stink","steam_id":76561198099318923,"connected_time":2247000000000,"state":"connecting","ping":92},{"user_id":746,"name":"Takethehelm","steam_id":76561198137875657,"connected_time":347000000000,"state":"connecting","ping":84},{"user_id":743,"name":"Underscore","steam_id":76561198374209415,"connected_time":601000000000,"state":"connecting","ping":84},{"user_id":671,"name":"Avo","steam_id":76561197993340494,"connected_time":6448000000000,"state":"connecting","ping":73},{"user_id":748,"name":"CATBOY FROM TIK TOK","steam_id":76561198092135570,"connected_time":80000000000,"state":"connecting","ping":75},{"user_id":731,"name":"Van","steam_id":76561198073518712,"connected_time":1462000000000,"state":"connecting","ping":95},{"user_id":734,"name":"Daksuki","steam_id":76561198084127751,"connected_time":1327000000000,"state":"connecting","ping":110},{"user_id":547,"name":"mommy claus","steam_id":76561199230929836,"connected_time":11604000000000,"state":"connecting","ping":114},{"user_id":727,"name":"Intro Bonito","steam_id":76561198119478838,"connected_time":1713000000000,"state":"connecting","ping":83},{"user_id":747,"name":"rachel","steam_id":76561198052588144,"connected_time":234000000000,"state":"connecting","ping":86},{"user_id":707,"name":"Takeover","steam_id":76561197996081461,"connected_time":3070000000000,"state":"connecting","ping":70},{"user_id":724,"name":"bradolf hilter","steam_id":76561198300928877,"connected_time":2037000000000,"state":"connecting","ping":55},{"user_id":735,"name":"Medical Asshat","steam_id":76561198004584315,"connected_time":1299000000000,"state":"connecting","ping":113},{"user_id":552,"name":"HEFTY HOG","steam_id":76561198079923652,"connected_time":10102000000000,"state":"connecting","ping":94},{"user_id":733,"name":"A Wandering Frenchmen","steam_id":76561199122049654,"connected_time":1373000000000,"state":"connecting","ping":92},{"user_id":711,"name":"Shipmunk","steam_id":76561198063062670,"connected_time":2957000000000,"state":"connecting","ping":66},{"user_id":736,"name":"‚ù§‚ô°ÔΩ•ÔæüBubblesÔΩ•Ôæü‚ô°‚ù§","steam_id":76561198041057042,"connected_time":1290000000000,"state":"connecting","ping":114},{"user_id":740,"name":"100$ sushi roll","steam_id":76561198026589960,"connected_time":1155000000000,"state":"connecting","ping":115},{"user_id":562,"name":"ComradeCatgirl","steam_id":76561198185337278,"connected_time":8131000000000,"state":"connecting","ping":77},{"user_id":728,"name":"ATL1 | Lancer Fan Club","steam_id":76561198355495948,"connected_time":1600000000000,"state":"connecting","ping":88},{"user_id":739,"name":"ExplosiveGamer21","steam_id":76561198132370955,"connected_time":1241000000000,"state":"connecting","ping":107},{"user_id":749,"name":"ATL0 Dedi Le4n!!!","steam_id":76561198045522596,"connected_time":25000000000,"state":"connecting","ping":77}]},{"server_id":400,"name":"Uncletopia | Atlanta | 3 | All Maps","name_short":"atl-3","host":"atl-1.us.uncletopia.com","port":27035,"enabled":true,"region":"us-east","cc":"us","latitude":33.753746,"longitude":-84.38633,"reserved":0,"last_update":"0001-01-01T00:00:00Z","name_a2s":"Uncletopia | Atlanta | 3 | All Maps","protocol":17,"map":"pl_pier","folder":"tf","game":"Team Fortress","app_id":440,"player_count":24,"max_players":24,"Bots":0,"server_type":"Dedicated","server_os":"Linux","password":true,"vac":true,"version":"7723704","steam_id":85568392924515187,"keywords":["nocrits","nodmgspread","payload","uncletopia"],"game_id":440,"stv_port":27036,"stv_name":"Uncletopia | Atlanta | 3 | All Maps | STV","players":[{"user_id":323,"name":"sweaterfan","steam_id":76561199389567214,"connected_time":857000000000,"state":"active","ping":60},{"user_id":300,"name":"forg","steam_id":76561198090733157,"connected_time":2236000000000,"state":"active","ping":105},{"user_id":301,"name":"Scoot Pilgrim","steam_id":76561198065720462,"connected_time":2035000000000,"state":"active","ping":117},{"user_id":268,"name":"your mom bought me a GPU","steam_id":76561198017748754,"connected_time":4998000000000,"state":"active","ping":60},{"user_id":302,"name":"OmniXVII","steam_id":76561198027183394,"connected_time":2023000000000,"state":"active","ping":96},{"user_id":303,"name":"Poobah","steam_id":76561198042907713,"connected_time":1972000000000,"state":"active","ping":106},{"user_id":315,"name":"9:02","steam_id":76561198795862574,"connected_time":1663000000000,"state":"active","ping":69},{"user_id":308,"name":"Tirlby","steam_id":76561198045231233,"connected_time":1937000000000,"state":"active","ping":64},{"user_id":289,"name":"T√ñZI","steam_id":76561198045268695,"connected_time":3239000000000,"state":"active","ping":76},{"user_id":306,"name":"fallin","steam_id":76561198205386960,"connected_time":1968000000000,"state":"active","ping":74},{"user_id":292,"name":"Leppystyle","steam_id":76561198077316300,"connected_time":2871000000000,"state":"active","ping":77},{"user_id":324,"name":"Aristotle Voulton","steam_id":76561198100174923,"connected_time":473000000000,"state":"active","ping":68},{"user_id":307,"name":"Just a Random Dood","steam_id":76561198101538371,"connected_time":1959000000000,"state":"active","ping":80},{"user_id":209,"name":"Ferguson","steam_id":76561198121349387,"connected_time":9769000000000,"state":"active","ping":67},{"user_id":309,"name":"Crazy Hungarian","steam_id":76561198025498172,"connected_time":1850000000000,"state":"active","ping":119},{"user_id":316,"name":"The Collective","steam_id":76561198170423483,"connected_time":1644000000000,"state":"active","ping":75},{"user_id":311,"name":"PurpOwl","steam_id":76561198979416718,"connected_time":1785000000000,"state":"active","ping":76},{"user_id":325,"name":"hapi bananuh","steam_id":76561198091547092,"connected_time":257000000000,"state":"active","ping":64},{"user_id":320,"name":"plutonium isotope","steam_id":76561198319442494,"connected_time":1508000000000,"state":"active","ping":110},{"user_id":271,"name":"LeatherFace","steam_id":76561198011947334,"connected_time":4513000000000,"state":"active","ping":92},{"user_id":270,"name":"Stressmelo","steam_id":76561199204445185,"connected_time":4922000000000,"state":"active","ping":100},{"user_id":318,"name":"HARRY","steam_id":76561198842067238,"connected_time":1581000000000,"state":"active","ping":73},{"user_id":298,"name":"hashmap","steam_id":76561198043794014,"connected_time":2315000000000,"state":"active","ping":70},{"user_id":321,"name":"Rudy","steam_id":76561198013456828,"connected_time":1385000000000,"state":"active","ping":75}]},{"server_id":401,"name":"Uncletopia | Atlanta | 4 | No Payload","name_short":"atl-4","host":"atl-1.us.uncletopia.com","port":27045,"enabled":true,"region":"us-east","cc":"us","latitude":33.753746,"longitude":-84.38633,"reserved":0,"last_update":"0001-01-01T00:00:00Z","name_a2s":"Uncletopia | Atlanta | 4 | No Payload","protocol":17,"map":"cp_well","folder":"tf","game":"Team Fortress","app_id":440,"player_count":0,"max_players":24,"Bots":0,"server_type":"Dedicated","server_os":"Linux","password":true,"vac":true,"version":"7723704","steam_id":85568392924515188,"keywords":["cp","nocrits","nodmgspread","uncletopia"],"game_id":440,"stv_port":27046,"stv_name":"Uncletopia | Atlanta | 4 | No Payload | STV","players":null},{"server_id":2,"name":"Uncletopia | Chicago | 1 | All Maps","name_short":"chi-1","host":"chi-1.us.uncletopia.com","port":27015,"enabled":true,"region":"us-central","cc":"us","latitude":41.881832,"longitude":-87.62318,"reserved":0,"last_update":"0001-01-01T00:00:00Z","name_a2s":"Uncletopia | Chicago | 1 | All Maps","protocol":17,"map":"pl_upward","folder":"tf","game":"Team Fortress","app_id":440,"player_count":18,"max_players":24,"Bots":0,"server_type":"Dedicated","server_os":"Linux","password":true,"vac":true,"version":"7723704","steam_id":85568392924469984,"keywords":["nocrits","nodmgspread","payload","uncletopia"],"game_id":440,"stv_port":27016,"stv_name":"Uncletopia | Chicago | 1 | All Maps | STV","players":[{"user_id":696,"name":"Franz","steam_id":76561198041929745,"connected_time":423000000000,"state":"active","ping":100},{"user_id":635,"name":"Astori√¶!","steam_id":76561199090168858,"connected_time":5221000000000,"state":"active","ping":60},{"user_id":683,"name":"Spycrab Surprise","steam_id":76561198086767034,"connected_time":1407000000000,"state":"active","ping":88},{"user_id":698,"name":"yari","steam_id":76561198154183700,"connected_time":22000000000,"state":"active","ping":40},{"user_id":623,"name":"jrmadmallard","steam_id":76561198275994616,"connected_time":5783000000000,"state":"active","ping":88},{"user_id":693,"name":"Shicane Slotrocket","steam_id":76561198119483989,"connected_time":514000000000,"state":"active","ping":84},{"user_id":676,"name":"glory! glory!","steam_id":76561198311004039,"connected_time":2662000000000,"state":"active","ping":90},{"user_id":689,"name":"c00kie","steam_id":76561198418178297,"connected_time":649000000000,"state":"active","ping":45},{"user_id":682,"name":"wolf_71","steam_id":76561198963570945,"connected_time":1447000000000,"state":"active","ping":73},{"user_id":690,"name":"Ampere","steam_id":76561198853751432,"connected_time":638000000000,"state":"active","ping":65},{"user_id":688,"name":"sawrik","steam_id":76561198018808213,"connected_time":835000000000,"state":"active","ping":55},{"user_id":687,"name":"The_Changsta","steam_id":76561198042185053,"connected_time":874000000000,"state":"active","ping":74},{"user_id":697,"name":"Kdash","steam_id":76561198043829155,"connected_time":227000000000,"state":"active","ping":74},{"user_id":674,"name":"huge monster cock","steam_id":76561197994492154,"connected_time":2801000000000,"state":"active","ping":170},{"user_id":686,"name":"poey","steam_id":76561198865346767,"connected_time":1194000000000,"state":"active","ping":95},{"user_id":694,"name":"Strange Child","steam_id":76561198082523009,"connected_time":475000000000,"state":"active","ping":55},{"user_id":663,"name":"coal","steam_id":76561198027252280,"connected_time":3414000000000,"state":"active","ping":60},{"user_id":672,"name":"Jazz","steam_id":76561198281069210,"connected_time":2933000000000,"state":"active","ping":55}]},{"server_id":106,"name":"Uncletopia | Chicago | 2 | All Maps","name_short":"chi-2","host":"chi-1.us.uncletopia.com","port":27025,"enabled":true,"region":"us-central","cc":"us","latitude":41.881832,"longitude":-87.62318,"reserved":0,"last_update":"0001-01-01T00:00:00Z","name_a2s":"Uncletopia | Chicago | 2 | All Maps","protocol":17,"map":"koth_sawmill","folder":"tf","game":"Team Fortress","app_id":440,"player_count":23,"max_players":24,"Bots":0,"server_type":"Dedicated","server_os":"Linux","password":true,"vac":true,"version":"7723704","steam_id":85568392924469985,"keywords":["cp","nocrits","nodmgspread","uncletopia"],"game_id":440,"stv_port":27026,"stv_name":"Uncletopia | Chicago | 2 | All Maps | STV","players":[{"user_id":247,"name":"osten","steam_id":76561198041354349,"connected_time":7232000000000,"state":"active","ping":58},{"user_id":333,"name":"Ping","steam_id":76561199206514106,"connected_time":499000000000,"state":"active","ping":45},{"user_id":253,"name":"Exceptionally Mediocre","steam_id":76561198054264959,"connected_time":6792000000000,"state":"active","ping":55},{"user_id":334,"name":"D3AC0N 44","steam_id":76561198115695203,"connected_time":468000000000,"state":"active","ping":45},{"user_id":327,"name":"coffee bagel","steam_id":76561198141198352,"connected_time":630000000000,"state":"active","ping":43},{"user_id":328,"name":"Chaspen","steam_id":76561198098269939,"connected_time":624000000000,"state":"active","ping":75},{"user_id":336,"name":"Siniana","steam_id":76561198027155987,"connected_time":75000000000,"state":"active","ping":114},{"user_id":324,"name":"TeriyakiDynamite","steam_id":76561198050049346,"connected_time":690000000000,"state":"active","ping":115},{"user_id":329,"name":"lit for 28","steam_id":76561198201259645,"connected_time":565000000000,"state":"active","ping":77},{"user_id":316,"name":"BigOrca54","steam_id":76561198181360271,"connected_time":919000000000,"state":"active","ping":54},{"user_id":286,"name":"JustSomeInternetGuy","steam_id":76561199066037843,"connected_time":3655000000000,"state":"active","ping":69},{"user_id":227,"name":"glonk","steam_id":76561198162544699,"connected_time":8852000000000,"state":"active","ping":61},{"user_id":317,"name":"ClayXros (Plain Cereal)","steam_id":76561198097025072,"connected_time":913000000000,"state":"active","ping":56},{"user_id":313,"name":"BreadBug","steam_id":76561198797355574,"connected_time":984000000000,"state":"active","ping":67},{"user_id":330,"name":"bwoccaly but chrimas","steam_id":76561198097146171,"connected_time":555000000000,"state":"active","ping":50},{"user_id":318,"name":"austin lego island xtreme stunt","steam_id":76561198045655893,"connected_time":899000000000,"state":"active","ping":59},{"user_id":319,"name":"M4 Sherman","steam_id":76561198011096132,"connected_time":890000000000,"state":"active","ping":91},{"user_id":314,"name":"shrub","steam_id":76561198829547198,"connected_time":984000000000,"state":"active","ping":78},{"user_id":335,"name":"MoopStoop","steam_id":76561198140936620,"connected_time":417000000000,"state":"active","ping":60},{"user_id":331,"name":"TheEmeraldTroll","steam_id":76561198303120179,"connected_time":547000000000,"state":"active","ping":57},{"user_id":322,"name":"Chicanery","steam_id":76561198977589038,"connected_time":830000000000,"state":"active","ping":77},{"user_id":301,"name":"Queueue","steam_id":76561198070804012,"connected_time":2641000000000,"state":"active","ping":63},{"user_id":265,"name":"Mossy","steam_id":76561198156401277,"connected_time":5664000000000,"state":"active","ping":73}]},{"server_id":402,"name":"Uncletopia | Chicago | 3 | All Maps","name_short":"chi-3","host":"chi-1.us.uncletopia.com","port":27035,"enabled":true,"region":"us-central","cc":"us","latitude":41.881832,"longitude":-87.62318,"reserved":0,"last_update":"0001-01-01T00:00:00Z","name_a2s":"Uncletopia | Chicago | 3 | All Maps","protocol":17,"map":"pl_swiftwater_final1","folder":"tf","game":"Team Fortress","app_id":440,"player_count":24,"max_players":24,"Bots":0,"server_type":"Dedicated","server_os":"Linux","password":true,"vac":true,"version":"7723704","steam_id":85568392924515191,"keywords":["nocrits","nodmgspread","payload","uncletopia"],"game_id":440,"stv_port":27036,"stv_name":"Uncletopia | Chicago | 3 | All Maps | STV","players":[{"user_id":574,"name":"self sufficient kitten","steam_id":76561197960592612,"connected_time":409000000000,"state":"active","ping":90},{"user_id":575,"name":"Frongus","steam_id":76561197979056451,"connected_time":408000000000,"state":"active","ping":90},{"user_id":570,"name":"lezed1","steam_id":76561198025547814,"connected_time":602000000000,"state":"active","ping":61},{"user_id":581,"name":"vibenomo","steam_id":76561198152690088,"connected_time":230000000000,"state":"active","ping":70},{"user_id":555,"name":"Here for the beer","steam_id":76561198152574890,"connected_time":1326000000000,"state":"active","ping":66},{"user_id":584,"name":"Mythius","steam_id":76561198401392472,"connected_time":51000000000,"state":"active","ping":69},{"user_id":552,"name":"Ta5K","steam_id":76561198939558155,"connected_time":1546000000000,"state":"active","ping":45},{"user_id":582,"name":"Drindy","steam_id":76561198275479142,"connected_time":97000000000,"state":"active","ping":44},{"user_id":529,"name":"mac_cheese","steam_id":76561198071334162,"connected_time":3440000000000,"state":"active","ping":99},{"user_id":577,"name":"fig newton enjoyer","steam_id":76561198110046630,"connected_time":309000000000,"state":"active","ping":55},{"user_id":532,"name":"T1grrr","steam_id":76561198126252583,"connected_time":3428000000000,"state":"active","ping":89},{"user_id":557,"name":"KTB","steam_id":76561197990744614,"connected_time":1103000000000,"state":"active","ping":45},{"user_id":496,"name":"dyragu","steam_id":76561198172046883,"connected_time":6427000000000,"state":"active","ping":60},{"user_id":534,"name":"SpockASD #ikeepitG6","steam_id":76561198307516731,"connected_time":3400000000000,"state":"active","ping":76},{"user_id":566,"name":"honked off the bobo","steam_id":76561198123287268,"connected_time":714000000000,"state":"active","ping":47},{"user_id":512,"name":"carloseolartec","steam_id":76561198396648023,"connected_time":4868000000000,"state":"active","ping":67},{"user_id":528,"name":"M3rrily Batel","steam_id":76561198179888142,"connected_time":3443000000000,"state":"active","ping":58},{"user_id":567,"name":"Merry Matches_","steam_id":76561198048925904,"connected_time":714000000000,"state":"active","ping":115},{"user_id":578,"name":"Dealyo","steam_id":76561198282395338,"connected_time":305000000000,"state":"active","ping":67},{"user_id":483,"name":"Guy From Canada","steam_id":76561199190195411,"connected_time":7714000000000,"state":"active","ping":75},{"user_id":565,"name":"lag","steam_id":76561197963872739,"connected_time":805000000000,"state":"active","ping":82},{"user_id":579,"name":"Friends of Tina Kotek","steam_id":76561198257921898,"connected_time":290000000000,"state":"active","ping":130},{"user_id":580,"name":"mccheese","steam_id":76561198027481329,"connected_time":276000000000,"state":"active","ping":48},{"user_id":542,"name":"CHILD GROOMER GAMING","steam_id":76561199151780779,"connected_time":2514000000000,"state":"active","ping":76}]},{"server_id":403,"name":"Uncletopia | Chicago | 4 | All Maps","name_short":"chi-4","host":"chi-1.us.uncletopia.com","port":27045,"enabled":true,"region":"us-central","cc":"us","latitude":41.881832,"longitude":-87.62318,"reserved":0,"last_update":"0001-01-01T00:00:00Z","name_a2s":"Uncletopia | Chicago | 4 | All Maps","protocol":17,"map":"koth_viaduct","folder":"tf","game":"Team Fortress","app_id":440,"player_count":0,"max_players":24,"Bots":0,"server_type":"Dedicated","server_os":"Linux","password":true,"vac":true,"version":"7723704","steam_id":85568392924515193,"keywords":["cp","nocrits","nodmgspread","uncletopia"],"game_id":440,"stv_port":27046,"stv_name":"Uncletopia | Chicago | 4 | All Maps | STV","players":null},{"server_id":36,"name":"Uncletopia | Chicago | 5 | All Maps","name_short":"chi-5","host":"chi-2.us.uncletopia.com","port":27015,"enabled":true,"region":"us-central","cc":"us","latitude":41.881832,"longitude":-87.62318,"reserved":0,"last_update":"0001-01-01T00:00:00Z","name_a2s":"Uncletopia | Chicago | 5 | All Maps","protocol":17,"map":"pl_coal_event","folder":"tf","game":"Team Fortress","app_id":440,"player_count":24,"max_players":24,"Bots":0,"server_type":"Dedicated","server_os":"Linux","password":true,"vac":true,"version":"7723704","steam_id":85568392924866362,"keywords":["nocrits","nodmgspread","payload","uncletopia"],"game_id":440,"stv_port":27016,"stv_name":"Uncletopia | Chicago | 5 | All Maps | STV","players":[{"user_id":309,"name":"a crazy hobo","steam_id":76561198289650060,"connected_time":977000000000,"state":"active","ping":84},{"user_id":290,"name":"SpyBaconLord","steam_id":76561198238139802,"connected_time":2505000000000,"state":"active","ping":57},{"user_id":312,"name":"LILOSAMA","steam_id":76561198316332462,"connected_time":792000000000,"state":"active","ping":55},{"user_id":272,"name":"Pika","steam_id":76561198068063436,"connected_time":3680000000000,"state":"active","ping":46},{"user_id":320,"name":"Octavia360","steam_id":76561198234960416,"connected_time":154000000000,"state":"active","ping":86},{"user_id":308,"name":"Kamin","steam_id":76561198255299559,"connected_time":1037000000000,"state":"active","ping":89},{"user_id":317,"name":"KingTinkerer","steam_id":76561198226856548,"connected_time":284000000000,"state":"active","ping":84},{"user_id":315,"name":"Fisherman","steam_id":76561198071026825,"connected_time":467000000000,"state":"active","ping":70},{"user_id":279,"name":"Motherflygon","steam_id":76561198127183141,"connected_time":3364000000000,"state":"active","ping":51},{"user_id":291,"name":"Money Collector","steam_id":76561198046249467,"connected_time":2452000000000,"state":"active","ping":72},{"user_id":305,"name":"Nightfall","steam_id":76561198169718867,"connected_time":1151000000000,"state":"active","ping":116},{"user_id":322,"name":"TheKyleB","steam_id":76561198202515104,"connected_time":45000000000,"state":"active","ping":59},{"user_id":246,"name":"TheGhostThatWas","steam_id":76561198055836483,"connected_time":5739000000000,"state":"active","ping":62},{"user_id":254,"name":"A whole ass deer","steam_id":76561199138880533,"connected_time":4714000000000,"state":"active","ping":81},{"user_id":297,"name":"im on mac with a vm of windows","steam_id":76561198392603077,"connected_time":1812000000000,"state":"active","ping":101},{"user_id":313,"name":"Hatless","steam_id":76561198146296243,"connected_time":728000000000,"state":"active","ping":79},{"user_id":283,"name":"Wug","steam_id":76561198084112264,"connected_time":3153000000000,"state":"active","ping":77},{"user_id":248,"name":"Among Us Booster Pack","steam_id":76561198068538473,"connected_time":5153000000000,"state":"active","ping":83},{"user_id":284,"name":"Mystic Knight","steam_id":76561198042035621,"connected_time":3149000000000,"state":"active","ping":61},{"user_id":319,"name":"loco503","steam_id":76561198827495121,"connected_time":161000000000,"state":"active","ping":116},{"user_id":295,"name":"Splinto","steam_id":76561198111260488,"connected_time":1944000000000,"state":"active","ping":50},{"user_id":288,"name":"Metic","steam_id":76561198047294521,"connected_time":2955000000000,"state":"active","ping":78},{"user_id":259,"name":"foody","steam_id":76561199009856614,"connected_time":4627000000000,"state":"active","ping":119},{"user_id":321,"name":"Gabagool","steam_id":76561198365935179,"connected_time":87000000000,"state":"active","ping":93}]},{"server_id":37,"name":"Uncletopia | Chicago | 6 | All Maps","name_short":"chi-6","host":"chi-2.us.uncletopia.com","port":27025,"enabled":true,"region":"us-central","cc":"us","latitude":41.881832,"longitude":-87.62318,"reserved":0,"last_update":"0001-01-01T00:00:00Z","name_a2s":"Uncletopia | Chicago | 6 | All Maps","protocol":17,"map":"pl_pier","folder":"tf","game":"Team Fortress","app_id":440,"player_count":0,"max_players":24,"Bots":0,"server_type":"Dedicated","server_os":"Linux","password":true,"vac":true,"version":"7723704","steam_id":85568392924866363,"keywords":["nocrits","nodmgspread","payload","uncletopia"],"game_id":440,"stv_port":27026,"stv_name":"Uncletopia | Chicago | 6 | All Maps | STV","players":null},{"server_id":38,"name":"Uncletopia | Chicago | 7 | Stopwatch (test)","name_short":"chi-7","host":"chi-2.us.uncletopia.com","port":27035,"enabled":true,"region":"us-central","cc":"us","latitude":41.881832,"longitude":-87.62318,"reserved":0,"last_update":"0001-01-01T00:00:00Z","name_a2s":"Uncletopia | Chicago | 7 | Stopwatch (test)","protocol":17,"map":"workshop/koth_clearcut_b15.ugc2107050255","folder":"tf","game":"Team Fortress","app_id":440,"player_count":0,"max_players":24,"Bots":0,"server_type":"Dedicated","server_os":"Linux","password":true,"vac":true,"version":"7723704","steam_id":85568392924866364,"keywords":["cp","nocrits","nodmgspread","uncletopia"],"game_id":440,"stv_port":27036,"stv_name":"Uncletopia | Chicago | 7 | Stopwatch (test) | STV","players":null},{"server_id":39,"name":"Uncletopia | Chicago | 8 | Community","name_short":"chi-8","host":"chi-2.us.uncletopia.com","port":27045,"enabled":true,"region":"us-central","cc":"us","latitude":41.881832,"longitude":-87.62318,"reserved":0,"last_update":"0001-01-01T00:00:00Z","name_a2s":"Uncletopia | Chicago | 8 | Community","protocol":17,"map":"workshop/pl_barnblitz_pro7.ugc582280235","folder":"tf","game":"Team Fortress","app_id":440,"player_count":7,"max_players":24,"Bots":0,"server_type":"Dedicated","server_os":"Linux","password":true,"vac":true,"version":"7723704","steam_id":85568392924866365,"keywords":["nocrits","nodmgspread","payload","uncletopia"],"game_id":440,"stv_port":27046,"stv_name":"Uncletopia | Chicago | 8 | Community | STV","players":[{"user_id":12,"name":"[SNOW] Mr.ColdFront","steam_id":76561198068102523,"connected_time":4312000000000,"state":"active","ping":80},{"user_id":15,"name":"‚ä∞Aero‚ä±","steam_id":76561198084648457,"connected_time":4261000000000,"state":"active","ping":60},{"user_id":17,"name":"EGG GIVER ;)","steam_id":76561198106280342,"connected_time":4215000000000,"state":"active","ping":75},{"user_id":33,"name":"sheep","steam_id":76561198172943006,"connected_time":519000000000,"state":"active","ping":46},{"user_id":34,"name":"Die-Sas","steam_id":76561198987794008,"connected_time":298000000000,"state":"active","ping":83},{"user_id":35,"name":"speakers","steam_id":76561198138221795,"connected_time":249000000000,"state":"active","ping":71},{"user_id":23,"name":"Orange","steam_id":76561198169914315,"connected_time":2363000000000,"state":"active","ping":93}]},{"server_id":8,"name":"Uncletopia | Dallas | 1 | All Maps","name_short":"dal-1","host":"dal-1.us.uncletopia.com","port":27015,"enabled":true,"region":"us-central","cc":"us","latitude":32.779167,"longitude":-96.80889,"reserved":0,"last_update":"0001-01-01T00:00:00Z","name_a2s":"Uncletopia | Dallas | 1 | All Maps","protocol":17,"map":"cp_5gorge","folder":"tf","game":"Team Fortress","app_id":440,"player_count":0,"max_players":24,"Bots":0,"server_type":"Dedicated","server_os":"Linux","password":true,"vac":true,"version":"7723704","steam_id":85568392924469986,"keywords":["cp","nocrits","nodmgspread","uncletopia"],"game_id":440,"stv_port":27016,"stv_name":"Uncletopia | Dallas | 1 | All Maps | STV","players":null},{"server_id":108,"name":"Uncletopia | Dallas | 2 | All Maps","name_short":"dal-2","host":"dal-1.us.uncletopia.com","port":27025,"enabled":true,"region":"us-central","cc":"us","latitude":32.779167,"longitude":-96.80889,"reserved":0,"last_update":"0001-01-01T00:00:00Z","name_a2s":"Uncletopia | Dallas | 2 | All Maps","protocol":17,"map":"pl_snowycoast","folder":"tf","game":"Team Fortress","app_id":440,"player_count":24,"max_players":24,"Bots":0,"server_type":"Dedicated","server_os":"Linux","password":true,"vac":true,"version":"7723704","steam_id":85568392924469988,"keywords":["nocrits","nodmgspread","payload","uncletopia"],"game_id":440,"stv_port":27026,"stv_name":"Uncletopia | Dallas | 2 | All Maps | STV","players":[{"user_id":272,"name":"Silvercoat's Stargazer","steam_id":76561198399525329,"connected_time":11006000000000,"state":"active","ping":81},{"user_id":437,"name":"Literally A Bottle Of Syrup","steam_id":76561199160678219,"connected_time":2184000000000,"state":"active","ping":66},{"user_id":403,"name":"The Ultimate Coomer","steam_id":76561199128833757,"connected_time":5573000000000,"state":"active","ping":104},{"user_id":191,"name":"My controller broke","steam_id":76561198157280577,"connected_time":13452000000000,"state":"active","ping":38},{"user_id":388,"name":"The Squid Gamer‚Ñ¢","steam_id":76561198340621517,"connected_time":6274000000000,"state":"active","ping":86},{"user_id":435,"name":"the cats name is misty","steam_id":76561198366828434,"connected_time":2269000000000,"state":"active","ping":113},{"user_id":438,"name":"[PROFILE REDACTED]","steam_id":76561198817953928,"connected_time":2114000000000,"state":"active","ping":73},{"user_id":442,"name":"Valenhart","steam_id":76561198354036240,"connected_time":1563000000000,"state":"active","ping":63},{"user_id":455,"name":"-W3E- grim10465","steam_id":76561198045698581,"connected_time":23000000000,"state":"active","ping":75},{"user_id":391,"name":"Reed","steam_id":76561198048226025,"connected_time":6253000000000,"state":"active","ping":75},{"user_id":443,"name":"SLJhammer","steam_id":76561198236320848,"connected_time":1507000000000,"state":"active","ping":98},{"user_id":423,"name":"Krow","steam_id":76561198010392099,"connected_time":2980000000000,"state":"active","ping":48},{"user_id":430,"name":"bushy","steam_id":76561198138088830,"connected_time":2395000000000,"state":"active","ping":45},{"user_id":427,"name":"GameGuru the Green Gryphon","steam_id":76561198118495354,"connected_time":2635000000000,"state":"active","ping":60},{"user_id":392,"name":"amyroseWHOA","steam_id":76561198284518326,"connected_time":6239000000000,"state":"active","ping":99},{"user_id":432,"name":"wyatt","steam_id":76561198035096199,"connected_time":2322000000000,"state":"active","ping":60},{"user_id":452,"name":"Blink","steam_id":76561197986181277,"connected_time":1042000000000,"state":"active","ping":45},{"user_id":436,"name":"Marc G","steam_id":76561198062650363,"connected_time":2201000000000,"state":"active","ping":45},{"user_id":456,"name":"Moonflower ‚ú¶","steam_id":76561198191782483,"connected_time":0,"state":"spawning","ping":35},{"user_id":440,"name":"hforce11","steam_id":76561198087647130,"connected_time":2092000000000,"state":"active","ping":56},{"user_id":454,"name":"iluvtoust","steam_id":76561198869269207,"connected_time":58000000000,"state":"active","ping":45},{"user_id":453,"name":"SaintSage80","steam_id":76561198852533262,"connected_time":609000000000,"state":"active","ping":88},{"user_id":450,"name":"Bullwinkle J. Moose","steam_id":76561198075977196,"connected_time":1305000000000,"state":"active","ping":59},{"user_id":271,"name":"The Winter Medic","steam_id":76561198197112922,"connected_time":11025000000000,"state":"active","ping":85}]},{"server_id":5,"name":"Uncletopia | Frankfurt | 1 | All Maps","name_short":"frk-1","host":"frk-1.de.uncletopia.com","port":27015,"enabled":true,"region":"eu","cc":"de","latitude":50.110924,"longitude":8.682127,"reserved":0,"last_update":"0001-01-01T00:00:00Z","name_a2s":"Uncletopia | Frankfurt | 1 | All Maps","protocol":17,"map":"koth_harvest_final","folder":"tf","game":"Team Fortress","app_id":440,"player_count":0,"max_players":24,"Bots":0,"server_type":"Dedicated","server_os":"Linux","password":true,"vac":true,"version":"7723704","steam_id":85568392924469989,"keywords":["cp","nocrits","nodmgspread","uncletopia"],"game_id":440,"stv_port":27016,"stv_name":"Uncletopia | Frankfurt | 1 | All Maps | STV","players":null},{"server_id":110,"name":"Uncletopia | Frankfurt | 2 | All Maps","name_short":"frk-2","host":"frk-1.de.uncletopia.com","port":27025,"enabled":true,"region":"eu","cc":"de","latitude":50.110924,"longitude":8.682127,"reserved":0,"last_update":"0001-01-01T00:00:00Z","name_a2s":"Uncletopia | Frankfurt | 2 | All Maps","protocol":17,"map":"cp_dustbowl","folder":"tf","game":"Team Fortress","app_id":440,"player_count":0,"max_players":24,"Bots":0,"server_type":"Dedicated","server_os":"Linux","password":true,"vac":true,"version":"7723704","steam_id":85568392924469990,"keywords":["cp","nocrits","nodmgspread","uncletopia"],"game_id":440,"stv_port":27026,"stv_name":"Uncletopia | Frankfurt | 2 | All Maps | STV","players":null},{"server_id":308,"name":"Uncletopia | Frankfurt | 3 | All Maps","name_short":"frk-3","host":"frk-1.de.uncletopia.com","port":27035,"enabled":true,"region":"eu","cc":"de","latitude":50.110924,"longitude":8.682127,"reserved":0,"last_update":"0001-01-01T00:00:00Z","name_a2s":"Uncletopia | Frankfurt | 3 | All Maps","protocol":17,"map":"koth_cascade","folder":"tf","game":"Team Fortress","app_id":440,"player_count":0,"max_players":24,"Bots":0,"server_type":"Dedicated","server_os":"Linux","password":true,"vac":true,"version":"7723704","steam_id":85568392924504274,"keywords":["cp","nocrits","nodmgspread","uncletopia"],"game_id":440,"stv_port":27036,"stv_name":"Uncletopia | Frankfurt | 3 | All Maps | STV","players":null},{"server_id":309,"name":"Uncletopia | Frankfurt | 4 | All Maps","name_short":"frk-4","host":"frk-1.de.uncletopia.com","port":27045,"enabled":true,"region":"eu","cc":"de","latitude":50.110924,"longitude":8.682127,"reserved":0,"last_update":"0001-01-01T00:00:00Z","name_a2s":"Uncletopia | Frankfurt | 4 | All Maps","protocol":17,"map":"koth_lakeside_final","folder":"tf","game":"Team Fortress","app_id":440,"player_count":0,"max_players":24,"Bots":0,"server_type":"Dedicated","server_os":"Linux","password":true,"vac":true,"version":"7723704","steam_id":85568392924504275,"keywords":["cp","nocrits","nodmgspread","uncletopia"],"game_id":440,"stv_port":27046,"stv_name":"Uncletopia | Frankfurt | 4 | All Maps | STV","players":null},{"server_id":310,"name":"Uncletopia | Frankfurt | 5 | All Maps","name_short":"frk-5","host":"frk-1.de.uncletopia.com","port":27055,"enabled":true,"region":"eu","cc":"de","latitude":50.110924,"longitude":8.682127,"reserved":0,"last_update":"0001-01-01T00:00:00Z","name_a2s":"Uncletopia | Frankfurt | 5 | All Maps","protocol":17,"map":"plr_hightower","folder":"tf","game":"Team Fortress","app_id":440,"player_count":0,"max_players":24,"Bots":0,"server_type":"Dedicated","server_os":"Linux","password":true,"vac":true,"version":"7723704","steam_id":85568392924504277,"keywords":["nocrits","nodmgspread","payload","uncletopia"],"game_id":440,"stv_port":27056,"stv_name":"Uncletopia | Frankfurt | 5 | All Maps | STV","players":null},{"server_id":311,"name":"Uncletopia | Frankfurt | 6 | All Maps","name_short":"frk-6","host":"frk-1.de.uncletopia.com","port":27065,"enabled":true,"region":"eu","cc":"de","latitude":50.110924,"longitude":8.682127,"reserved":0,"last_update":"0001-01-01T00:00:00Z","name_a2s":"Uncletopia | Frankfurt | 6 | All Maps","protocol":17,"map":"pl_frontier_final","folder":"tf","game":"Team Fortress","app_id":440,"player_count":0,"max_players":24,"Bots":0,"server_type":"Dedicated","server_os":"Linux","password":true,"vac":true,"version":"7723704","steam_id":85568392924504278,"keywords":["nocrits","nodmgspread","payload","uncletopia"],"game_id":440,"stv_port":27066,"stv_name":"Uncletopia | Frankfurt | 6 | All Maps | STV","players":null},{"server_id":23,"name":"Uncletopia | Frankfurt | 7 | No Payload","name_short":"frk-7","host":"frk-1.de.uncletopia.com","port":27075,"enabled":true,"region":"eu","cc":"de","latitude":50.110924,"longitude":8.682127,"reserved":0,"last_update":"0001-01-01T00:00:00Z","name_a2s":"Uncletopia | Frankfurt | 7 | No Payload","protocol":17,"map":"cp_mountainlab","folder":"tf","game":"Team Fortress","app_id":440,"player_count":0,"max_players":24,"Bots":0,"server_type":"Dedicated","server_os":"Linux","password":true,"vac":true,"version":"7723704","steam_id":85568392924742827,"keywords":["cp","nocrits","nodmgspread","uncletopia"],"game_id":440,"stv_port":27076,"stv_name":"Uncletopia | Frankfurt | 7 | No Payload | STV","players":null},{"server_id":24,"name":"Uncletopia | Frankfurt | 8 | Community","name_short":"frk-8","host":"frk-1.de.uncletopia.com","port":27085,"enabled":true,"region":"eu","cc":"de","latitude":50.110924,"longitude":8.682127,"reserved":0,"last_update":"0001-01-01T00:00:00Z","name_a2s":"Uncletopia | Frankfurt | 8 | Community","protocol":17,"map":"workshop/cp_sulfur_rc2.ugc619869471","folder":"tf","game":"Team Fortress","app_id":440,"player_count":0,"max_players":24,"Bots":0,"server_type":"Dedicated","server_os":"Linux","password":true,"vac":true,"version":"7723704","steam_id":85568392924742828,"keywords":["cp","nocrits","nodmgspread","uncletopia"],"game_id":440,"stv_port":27086,"stv_name":"Uncletopia | Frankfurt | 8 | Community | STV","players":null},{"server_id":202,"name":"Uncletopia | Hong Kong | 1 | All Maps","name_short":"hgk-1","host":"hgk-1.hk.uncletopia.com","port":27015,"enabled":true,"region":"asia","cc":"hk","latitude":22.302711,"longitude":114.177216,"reserved":0,"last_update":"0001-01-01T00:00:00Z","name_a2s":"Uncletopia | Hong Kong | 1 | All Maps","protocol":17,"map":"pl_upward","folder":"tf","game":"Team Fortress","app_id":440,"player_count":0,"max_players":24,"Bots":0,"server_type":"Dedicated","server_os":"Linux","password":true,"vac":true,"version":"7723704","steam_id":85568392924494504,"keywords":["nocrits","nodmgspread","payload","uncletopia"],"game_id":440,"stv_port":27016,"stv_name":"Uncletopia | Hong Kong | 1 | All Maps | STV","players":null},{"server_id":1,"name":"Uncletopia | Los Angeles | 1 | All Maps","name_short":"lax-1","host":"lax-1.us.uncletopia.com","port":27015,"enabled":true,"region":"us-west","cc":"us","latitude":33.94279,"longitude":-118.41004,"reserved":0,"last_update":"0001-01-01T00:00:00Z","name_a2s":"Uncletopia | Los Angeles | 1 | All Maps","protocol":17,"map":"pl_upward","folder":"tf","game":"Team Fortress","app_id":440,"player_count":24,"max_players":24,"Bots":0,"server_type":"Dedicated","server_os":"Linux","password":true,"vac":true,"version":"7723704","steam_id":85568392924469991,"keywords":["nocrits","nodmgspread","payload","uncletopia"],"game_id":440,"stv_port":27016,"stv_name":"Uncletopia | Los Angeles | 1 | All Maps | STV","players":[{"user_id":235,"name":"puffer","steam_id":76561199049164456,"connected_time":1396000000000,"state":"active","ping":77},{"user_id":211,"name":"NotAWeeb","steam_id":76561198165530739,"connected_time":3971000000000,"state":"active","ping":51},{"user_id":224,"name":"Mignyanne :3","steam_id":76561198048754056,"connected_time":2853000000000,"state":"active","ping":55},{"user_id":208,"name":"in the balls (kick)","steam_id":76561199277633460,"connected_time":4101000000000,"state":"active","ping":41},{"user_id":185,"name":"Y'all are Garage","steam_id":76561198012829324,"connected_time":5210000000000,"state":"active","ping":64},{"user_id":245,"name":"Captain Olimar Balancer of team","steam_id":76561198141737300,"connected_time":366000000000,"state":"active","ping":59},{"user_id":246,"name":"turnip","steam_id":76561197999375941,"connected_time":345000000000,"state":"active","ping":77},{"user_id":201,"name":"pandora da king","steam_id":76561198075490385,"connected_time":4771000000000,"state":"active","ping":50},{"user_id":237,"name":"Prokofiev","steam_id":76561198318126190,"connected_time":1256000000000,"state":"active","ping":157},{"user_id":249,"name":"Sarbanes-Oxley","steam_id":76561197975898479,"connected_time":144000000000,"state":"active","ping":82},{"user_id":250,"name":"futmaus","steam_id":76561199063130278,"connected_time":142000000000,"state":"active","ping":50},{"user_id":247,"name":"narwhal1517","steam_id":76561198847177672,"connected_time":321000000000,"state":"active","ping":67},{"user_id":238,"name":"‚àÜ","steam_id":76561198263582482,"connected_time":1186000000000,"state":"active","ping":105},{"user_id":242,"name":"An00bissmas","steam_id":76561198044084508,"connected_time":990000000000,"state":"active","ping":45},{"user_id":225,"name":"AriaOkagi","steam_id":76561198243107882,"connected_time":2387000000000,"state":"active","ping":62},{"user_id":214,"name":"NRMN","steam_id":76561198086863106,"connected_time":3900000000000,"state":"active","ping":78},{"user_id":223,"name":"kr1tsurf3r","steam_id":76561198076402476,"connected_time":3363000000000,"state":"active","ping":64},{"user_id":202,"name":"jello","steam_id":76561198094320477,"connected_time":4767000000000,"state":"active","ping":78},{"user_id":117,"name":"Pyrotek‚Å¥","steam_id":76561198072747672,"connected_time":10370000000000,"state":"active","ping":45},{"user_id":241,"name":"sora","steam_id":76561198094256973,"connected_time":1010000000000,"state":"active","ping":57},{"user_id":239,"name":"spot","steam_id":76561198151135298,"connected_time":1185000000000,"state":"active","ping":35},{"user_id":248,"name":"how did i get here?","steam_id":76561198130869908,"connected_time":306000000000,"state":"active","ping":113},{"user_id":194,"name":"meow_the_cat","steam_id":76561198294347721,"connected_time":5132000000000,"state":"active","ping":66},{"user_id":227,"name":"The Clown","steam_id":76561199085524751,"connected_time":2100000000000,"state":"active","ping":45}]},{"server_id":112,"name":"Uncletopia | Los Angeles | 2 | All Maps","name_short":"lax-2","host":"lax-1.us.uncletopia.com","port":27025,"enabled":true,"region":"us-west","cc":"us","latitude":33.94279,"longitude":-118.41004,"reserved":0,"last_update":"0001-01-01T00:00:00Z","name_a2s":"Uncletopia | Los Angeles | 2 | All Maps","protocol":17,"map":"pl_barnblitz","folder":"tf","game":"Team Fortress","app_id":440,"player_count":0,"max_players":24,"Bots":0,"server_type":"Dedicated","server_os":"Linux","password":true,"vac":true,"version":"7723704","steam_id":85568392924469992,"keywords":["nocrits","nodmgspread","payload","uncletopia"],"game_id":440,"stv_port":27026,"stv_name":"Uncletopia | Los Angeles | 2 | All Maps | STV","players":null},{"server_id":324,"name":"Uncletopia | Los Angeles | 3 | All Maps","name_short":"lax-3","host":"lax-1.us.uncletopia.com","port":27035,"enabled":true,"region":"us-west","cc":"us","latitude":33.94279,"longitude":-118.41004,"reserved":0,"last_update":"0001-01-01T00:00:00Z","name_a2s":"Uncletopia | Los Angeles | 3 | All Maps","protocol":17,"map":"ctf_well","folder":"tf","game":"Team Fortress","app_id":440,"player_count":0,"max_players":24,"Bots":0,"server_type":"Dedicated","server_os":"Linux","password":true,"vac":true,"version":"7723704","steam_id":85568392924510198,"keywords":["ctf","nocrits","nodmgspread","uncletopia"],"game_id":440,"stv_port":27036,"stv_name":"Uncletopia | Los Angeles | 3 | All Maps | STV","players":null},{"server_id":25,"name":"Uncletopia | Los Angeles | 4 | No Payload","name_short":"lax-4","host":"lax-1.us.uncletopia.com","port":27045,"enabled":true,"region":"us-west","cc":"us","latitude":33.94279,"longitude":-118.41004,"reserved":0,"last_update":"0001-01-01T00:00:00Z","name_a2s":"Uncletopia | Los Angeles | 4 | No Payload","protocol":17,"map":"cp_altitude","folder":"tf","game":"Team Fortress","app_id":440,"player_count":0,"max_players":24,"Bots":0,"server_type":"Dedicated","server_os":"Linux","password":true,"vac":true,"version":"7723704","steam_id":85568392924510199,"keywords":["cp","nocrits","nodmgspread","uncletopia"],"game_id":440,"stv_port":27046,"stv_name":"Uncletopia | Los Angeles | 4 | No Payload | STV","players":null},{"server_id":11,"name":"Uncletopia | London | 1 | All Maps","name_short":"lon-1","host":"lon-1.uk.uncletopia.com","port":27015,"enabled":true,"region":"eu","cc":"gb","latitude":51.509865,"longitude":-0.118092,"reserved":0,"last_update":"0001-01-01T00:00:00Z","name_a2s":"Uncletopia | London | 1 | All Maps","protocol":17,"map":"koth_cascade","folder":"tf","game":"Team Fortress","app_id":440,"player_count":0,"max_players":24,"Bots":0,"server_type":"Dedicated","server_os":"Linux","password":true,"vac":true,"version":"7723704","steam_id":85568392924367362,"keywords":["cp","nocrits","nodmgspread","uncletopia"],"game_id":440,"stv_port":27016,"stv_name":"Uncletopia | London | 1 | All Maps | STV","players":null},{"server_id":114,"name":"Uncletopia | London | 2 | All Maps","name_short":"lon-2","host":"lon-1.uk.uncletopia.com","port":27025,"enabled":true,"region":"eu","cc":"gb","latitude":51.509865,"longitude":-0.118092,"reserved":0,"last_update":"0001-01-01T00:00:00Z","name_a2s":"Uncletopia | London | 2 | All Maps","protocol":17,"map":"pl_borneo","folder":"tf","game":"Team Fortress","app_id":440,"player_count":24,"max_players":24,"Bots":0,"server_type":"Dedicated","server_os":"Linux","password":true,"vac":true,"version":"7723704","steam_id":85568392924470941,"keywords":["nocrits","nodmgspread","payload","uncletopia"],"game_id":440,"stv_port":27026,"stv_name":"Uncletopia | London | 2 | All Maps | STV","players":[{"user_id":511,"name":"Wymonso","steam_id":76561198018654071,"connected_time":707000000000,"state":"active","ping":173},{"user_id":468,"name":"Enigmus","steam_id":76561197994063627,"connected_time":4687000000000,"state":"active","ping":75},{"user_id":462,"name":"dairy","steam_id":76561198117033273,"connected_time":4942000000000,"state":"active","ping":58},{"user_id":492,"name":"Shun Rosen","steam_id":76561198012823909,"connected_time":2802000000000,"state":"active","ping":139},{"user_id":502,"name":"Wiki","steam_id":76561198148455642,"connected_time":1309000000000,"state":"active","ping":45},{"user_id":510,"name":"Emotional Reassurance Pyro","steam_id":76561198213498127,"connected_time":770000000000,"state":"active","ping":107},{"user_id":506,"name":"tf2pam","steam_id":76561198946788727,"connected_time":894000000000,"state":"active","ping":60},{"user_id":503,"name":"techno","steam_id":76561198172101254,"connected_time":1236000000000,"state":"active","ping":76},{"user_id":507,"name":"üíÄ","steam_id":76561198331329777,"connected_time":868000000000,"state":"active","ping":65},{"user_id":517,"name":"senior pomidor","steam_id":76561198123659806,"connected_time":274000000000,"state":"active","ping":88},{"user_id":508,"name":"sonorium","steam_id":76561199216855285,"connected_time":818000000000,"state":"active","ping":65},{"user_id":465,"name":"MrClyde","steam_id":76561198132627420,"connected_time":4868000000000,"state":"active","ping":73},{"user_id":493,"name":"Jiggie","steam_id":76561198018134884,"connected_time":2790000000000,"state":"active","ping":80},{"user_id":497,"name":"thekoolest88","steam_id":76561199022415672,"connected_time":2359000000000,"state":"active","ping":138},{"user_id":499,"name":"r0la","steam_id":76561198128315340,"connected_time":2316000000000,"state":"active","ping":82},{"user_id":512,"name":"outin","steam_id":76561198137734730,"connected_time":655000000000,"state":"active","ping":60},{"user_id":487,"name":"--","steam_id":76561199065917088,"connected_time":3290000000000,"state":"active","ping":89},{"user_id":514,"name":"bee","steam_id":76561198267267081,"connected_time":481000000000,"state":"active","ping":160},{"user_id":515,"name":"lura","steam_id":76561199096875267,"connected_time":432000000000,"state":"active","ping":74},{"user_id":494,"name":"Doomz","steam_id":76561198029147860,"connected_time":2789000000000,"state":"active","ping":134},{"user_id":516,"name":"varven","steam_id":76561197965907387,"connected_time":409000000000,"state":"active","ping":44},{"user_id":441,"name":"dorak","steam_id":76561198818037965,"connected_time":7356000000000,"state":"active","ping":109},{"user_id":518,"name":"BlindHorse [Appreciate ya!]","steam_id":76561198001846502,"connected_time":267000000000,"state":"active","ping":163},{"user_id":519,"name":"Not Sussy Tanuki","steam_id":76561198137289375,"connected_time":134000000000,"state":"active","ping":110}]},{"server_id":320,"name":"Uncletopia | London | 3 | All Maps","name_short":"lon-3","host":"lon-1.uk.uncletopia.com","port":27035,"enabled":true,"region":"eu","cc":"gb","latitude":51.509865,"longitude":-0.118092,"reserved":0,"last_update":"0001-01-01T00:00:00Z","name_a2s":"Uncletopia | London | 3 | All Maps","protocol":17,"map":"cp_dustbowl","folder":"tf","game":"Team Fortress","app_id":440,"player_count":0,"max_players":24,"Bots":0,"server_type":"Dedicated","server_os":"Linux","password":true,"vac":true,"version":"7723704","steam_id":85568392924510192,"keywords":["cp","nocrits","nodmgspread","uncletopia"],"game_id":440,"stv_port":27036,"stv_name":"Uncletopia | London | 3 | All Maps | STV","players":null},{"server_id":321,"name":"Uncletopia | London | 4 | All Maps","name_short":"lon-4","host":"lon-1.uk.uncletopia.com","port":27045,"enabled":true,"region":"eu","cc":"gb","latitude":51.509865,"longitude":-0.118092,"reserved":0,"last_update":"0001-01-01T00:00:00Z","name_a2s":"Uncletopia | London | 4 | All Maps","protocol":17,"map":"koth_cascade","folder":"tf","game":"Team Fortress","app_id":440,"player_count":0,"max_players":24,"Bots":0,"server_type":"Dedicated","server_os":"Linux","password":true,"vac":true,"version":"7723704","steam_id":85568392924510193,"keywords":["cp","nocrits","nodmgspread","uncletopia"],"game_id":440,"stv_port":27046,"stv_name":"Uncletopia | London | 4 | All Maps | STV","players":null},{"server_id":21,"name":"Uncletopia | London | 5 | All Maps","name_short":"lon-5","host":"lon-1.uk.uncletopia.com","port":27055,"enabled":true,"region":"eu","cc":"gb","latitude":51.509865,"longitude":-0.118092,"reserved":0,"last_update":"0001-01-01T00:00:00Z","name_a2s":"Uncletopia | London | 5 | All Maps","protocol":17,"map":"koth_lakeside_final","folder":"tf","game":"Team Fortress","app_id":440,"player_count":0,"max_players":24,"Bots":0,"server_type":"Dedicated","server_os":"Linux","password":true,"vac":true,"version":"7723704","steam_id":85568392924742829,"keywords":["cp","nocrits","nodmgspread","uncletopia"],"game_id":440,"stv_port":27056,"stv_name":"Uncletopia | London | 5 | All Maps | STV","players":null},{"server_id":22,"name":"Uncletopia | London | 6 | All Maps","name_short":"lon-6","host":"lon-1.uk.uncletopia.com","port":27065,"enabled":true,"region":"eu","cc":"gb","latitude":51.509865,"longitude":-0.118092,"reserved":0,"last_update":"0001-01-01T00:00:00Z","name_a2s":"Uncletopia | London | 6 | All Maps","protocol":17,"map":"cp_dustbowl","folder":"tf","game":"Team Fortress","app_id":440,"player_count":0,"max_players":24,"Bots":0,"server_type":"Dedicated","server_os":"Linux","password":true,"vac":true,"version":"7723704","steam_id":85568392924742830,"keywords":["cp","nocrits","nodmgspread","uncletopia"],"game_id":440,"stv_port":27066,"stv_name":"Uncletopia | London | 6 | All Maps | STV","players":null},{"server_id":40,"name":"Uncletopia | London | 7 | No Payload","name_short":"lon-7","host":"lon-1.uk.uncletopia.com","port":27075,"enabled":true,"region":"eu","cc":"gb","latitude":51.509865,"longitude":-0.118092,"reserved":0,"last_update":"0001-01-01T00:00:00Z","name_a2s":"Uncletopia | London | 7 | No Payload","protocol":17,"map":"koth_cascade","folder":"tf","game":"Team Fortress","app_id":440,"player_count":0,"max_players":24,"Bots":0,"server_type":"Dedicated","server_os":"Linux","password":true,"vac":true,"version":"7723704","steam_id":85568392924964314,"keywords":["cp","nocrits","nodmgspread","uncletopia"],"game_id":440,"stv_port":27076,"stv_name":"Uncletopia | London | 7 | No Payload | STV","players":null},{"server_id":41,"name":"Uncletopia | London | 8 | Community","name_short":"lon-8","host":"lon-1.uk.uncletopia.com","port":27085,"enabled":true,"region":"eu","cc":"gb","latitude":51.509865,"longitude":-0.118092,"reserved":0,"last_update":"0001-01-01T00:00:00Z","name_a2s":"Uncletopia | London | 8 | Community","protocol":17,"map":"workshop/koth_ramjam_v2_b2.ugc2865676487","folder":"tf","game":"Team Fortress","app_id":440,"player_count":0,"max_players":24,"Bots":0,"server_type":"Dedicated","server_os":"Linux","password":true,"vac":true,"version":"7723704","steam_id":85568392924964315,"keywords":["cp","nocrits","nodmgspread","uncletopia"],"game_id":440,"stv_port":27086,"stv_name":"Uncletopia | London | 8 | Community | STV","players":null},{"server_id":300,"name":"Uncletopia | Montr√©al | 1 | All Maps","name_short":"mtl-1","host":"mtl-1.ca.uncletopia.com","port":27015,"enabled":true,"region":"us-east","cc":"ca","latitude":45.50889,"longitude":-73.56167,"reserved":0,"last_update":"0001-01-01T00:00:00Z","name_a2s":"Uncletopia | Montr√©al | 1 | All Maps","protocol":17,"map":"koth_highpass","folder":"tf","game":"Team Fortress","app_id":440,"player_count":0,"max_players":24,"Bots":0,"server_type":"Dedicated","server_os":"Linux","password":true,"vac":true,"version":"7723704","steam_id":85568392924500087,"keywords":["cp","nocrits","nodmgspread","uncletopia"],"game_id":440,"stv_port":27016,"stv_name":"Uncletopia | Montr√©al | 1 | All Maps | STV","players":null},{"server_id":301,"name":"Uncletopia | Montr√©al | 2 | All Maps","name_short":"mtl-2","host":"mtl-1.ca.uncletopia.com","port":27025,"enabled":true,"region":"us-east","cc":"ca","latitude":45.50889,"longitude":-73.56167,"reserved":0,"last_update":"0001-01-01T00:00:00Z","name_a2s":"Uncletopia | Montr√©al | 2 | All Maps","protocol":17,"map":"cp_sunshine","folder":"tf","game":"Team Fortress","app_id":440,"player_count":0,"max_players":24,"Bots":0,"server_type":"Dedicated","server_os":"Linux","password":true,"vac":true,"version":"7723704","steam_id":85568392924500088,"keywords":["cp","nocrits","nodmgspread","uncletopia"],"game_id":440,"stv_port":27026,"stv_name":"Uncletopia | Montr√©al | 2 | All Maps | STV","players":null},{"server_id":302,"name":"Uncletopia | Montr√©al | 3 | All Maps","name_short":"mtl-3","host":"mtl-1.ca.uncletopia.com","port":27035,"enabled":true,"region":"us-east","cc":"ca","latitude":45.50889,"longitude":-73.56167,"reserved":0,"last_update":"0001-01-01T00:00:00Z","name_a2s":"Uncletopia | Montr√©al | 3 | All Maps","protocol":17,"map":"cp_dustbowl","folder":"tf","game":"Team Fortress","app_id":440,"player_count":0,"max_players":24,"Bots":0,"server_type":"Dedicated","server_os":"Linux","password":true,"vac":true,"version":"7723704","steam_id":85568392924500089,"keywords":["cp","nocrits","nodmgspread","uncletopia"],"game_id":440,"stv_port":27036,"stv_name":"Uncletopia | Montr√©al | 3 | All Maps | STV","players":null},{"server_id":303,"name":"Uncletopia | Montr√©al | 4 | No Payload","name_short":"mtl-4","host":"mtl-1.ca.uncletopia.com","port":27045,"enabled":true,"region":"us-east","cc":"ca","latitude":45.50889,"longitude":-73.56167,"reserved":0,"last_update":"0001-01-01T00:00:00Z","name_a2s":"Uncletopia | Montr√©al | 4 | No Payload","protocol":17,"map":"koth_nucleus","folder":"tf","game":"Team Fortress","app_id":440,"player_count":0,"max_players":24,"Bots":0,"server_type":"Dedicated","server_os":"Linux","password":true,"vac":true,"version":"7723704","steam_id":85568392924500090,"keywords":["cp","nocrits","nodmgspread","uncletopia"],"game_id":440,"stv_port":27046,"stv_name":"Uncletopia | Montr√©al | 4 | No Payload | STV","players":null},{"server_id":13,"name":"Uncletopia | New York City | 1 | All Maps","name_short":"nyc-1","host":"nyc-1.us.uncletopia.com","port":27015,"enabled":true,"region":"us-east","cc":"us","latitude":40.73061,"longitude":-73.93524,"reserved":0,"last_update":"0001-01-01T00:00:00Z","name_a2s":"Uncletopia | New York City | 1 | All Maps","protocol":17,"map":"cp_coldfront","folder":"tf","game":"Team Fortress","app_id":440,"player_count":23,"max_players":24,"Bots":0,"server_type":"Dedicated","server_os":"Linux","password":true,"vac":true,"version":"7723704","steam_id":85568392924469993,"keywords":["cp","nocrits","nodmgspread","uncletopia"],"game_id":440,"stv_port":27016,"stv_name":"Uncletopia | New York City | 1 | All Maps | STV","players":[{"user_id":651,"name":"Stacks","steam_id":76561197998075471,"connected_time":301000000000,"state":"active","ping":42},{"user_id":637,"name":"mudturtle","steam_id":76561198292734035,"connected_time":895000000000,"state":"active","ping":31},{"user_id":647,"name":"veinti","steam_id":76561198138109149,"connected_time":483000000000,"state":"active","ping":59},{"user_id":613,"name":"Docchi","steam_id":76561198040761854,"connected_time":2878000000000,"state":"active","ping":89},{"user_id":648,"name":"Milk T34","steam_id":76561198116115227,"connected_time":447000000000,"state":"active","ping":99},{"user_id":625,"name":"Rabbitone","steam_id":76561198132691749,"connected_time":2036000000000,"state":"active","ping":116},{"user_id":638,"name":"AlecTheNefarious","steam_id":76561198035291230,"connected_time":894000000000,"state":"active","ping":75},{"user_id":578,"name":"rikka","steam_id":76561197987763785,"connected_time":6128000000000,"state":"active","ping":56},{"user_id":652,"name":"nalezinik","steam_id":76561198030026119,"connected_time":278000000000,"state":"active","ping":65},{"user_id":565,"name":"Fudgely","steam_id":76561198039425862,"connected_time":7203000000000,"state":"active","ping":66},{"user_id":653,"name":"Lo-Pan","steam_id":76561198085670133,"connected_time":245000000000,"state":"active","ping":103},{"user_id":614,"name":"Totouri","steam_id":76561198004229789,"connected_time":2871000000000,"state":"active","ping":63},{"user_id":601,"name":"willy longenharde","steam_id":76561198000564263,"connected_time":4009000000000,"state":"active","ping":74},{"user_id":640,"name":"King","steam_id":76561198010019214,"connected_time":866000000000,"state":"active","ping":35},{"user_id":573,"name":"Wallem","steam_id":76561198052361822,"connected_time":6960000000000,"state":"active","ping":51},{"user_id":606,"name":"p00l","steam_id":76561198060142652,"connected_time":3293000000000,"state":"active","ping":50},{"user_id":656,"name":"Hauntedtoaster","steam_id":76561198034655610,"connected_time":64000000000,"state":"active","ping":77},{"user_id":650,"name":"Slug Warrior","steam_id":76561197996052704,"connected_time":411000000000,"state":"active","ping":65},{"user_id":623,"name":"lanoc","steam_id":76561198055415367,"connected_time":2267000000000,"state":"active","ping":75},{"user_id":643,"name":"Parth Makeo","steam_id":76561198002516581,"connected_time":807000000000,"state":"active","ping":52},{"user_id":644,"name":"slimey guy","steam_id":76561198057652694,"connected_time":646000000000,"state":"active","ping":83},{"user_id":604,"name":"java","steam_id":76561198030276792,"connected_time":3956000000000,"state":"active","ping":68},{"user_id":562,"name":"Nuclearlala","steam_id":76561198009342477,"connected_time":7521000000000,"state":"active","ping":50}]},{"server_id":14,"name":"Uncletopia | New York City | 2 | All Maps","name_short":"nyc-2","host":"nyc-1.us.uncletopia.com","port":27025,"enabled":true,"region":"us-east","cc":"us","latitude":40.73061,"longitude":-73.93524,"reserved":0,"last_update":"0001-01-01T00:00:00Z","name_a2s":"Uncletopia | New York City | 2 | All Maps","protocol":17,"map":"koth_lakeside_final","folder":"tf","game":"Team Fortress","app_id":440,"player_count":23,"max_players":24,"Bots":0,"server_type":"Dedicated","server_os":"Linux","password":true,"vac":true,"version":"7723704","steam_id":85568392924469994,"keywords":["cp","nocrits","nodmgspread","uncletopia"],"game_id":440,"stv_port":27026,"stv_name":"Uncletopia | New York City | 2 | All Maps | STV","players":[{"user_id":401,"name":"crybaby","steam_id":76561199383952901,"connected_time":1230000000000,"state":"active","ping":69},{"user_id":402,"name":"holden ford","steam_id":76561198124810219,"connected_time":1211000000000,"state":"active","ping":52},{"user_id":414,"name":"larsvik","steam_id":76561198077948794,"connected_time":432000000000,"state":"active","ping":50},{"user_id":413,"name":"febfowl","steam_id":76561198023888890,"connected_time":448000000000,"state":"active","ping":76},{"user_id":410,"name":"Antwan","steam_id":76561198246200638,"connected_time":504000000000,"state":"active","ping":77},{"user_id":418,"name":"Quansen","steam_id":76561198151594550,"connected_time":351000000000,"state":"active","ping":68},{"user_id":411,"name":"Snazzi","steam_id":76561198085208276,"connected_time":502000000000,"state":"active","ping":74},{"user_id":317,"name":"StuartBell511","steam_id":76561198060931721,"connected_time":7618000000000,"state":"active","ping":61},{"user_id":349,"name":"I'M SO FULL OF CIGARETTES, YUM!","steam_id":76561198294013916,"connected_time":4629000000000,"state":"active","ping":45},{"user_id":415,"name":"NEGUSSS","steam_id":76561198303869203,"connected_time":404000000000,"state":"active","ping":63},{"user_id":423,"name":"Tom","steam_id":76561198139202942,"connected_time":161000000000,"state":"active","ping":71},{"user_id":419,"name":"Captain Matt","steam_id":76561198015374828,"connected_time":342000000000,"state":"active","ping":86},{"user_id":425,"name":"Zenith_","steam_id":76561198093948741,"connected_time":105000000000,"state":"active","ping":79},{"user_id":422,"name":"eryn üó∫","steam_id":76561198004433070,"connected_time":204000000000,"state":"active","ping":96},{"user_id":424,"name":"Alucard","steam_id":76561198411176566,"connected_time":144000000000,"state":"active","ping":59},{"user_id":400,"name":"totally not a pile of beans","steam_id":76561198119851931,"connected_time":1400000000000,"state":"active","ping":64},{"user_id":370,"name":"DaBaby","steam_id":76561198067814189,"connected_time":3321000000000,"state":"active","ping":59},{"user_id":405,"name":"Domino Jones","steam_id":76561198202195792,"connected_time":914000000000,"state":"active","ping":70},{"user_id":408,"name":"Phat_nibba29","steam_id":76561198165661855,"connected_time":673000000000,"state":"active","ping":103},{"user_id":367,"name":"SE X","steam_id":76561198094525829,"connected_time":3449000000000,"state":"active","ping":53},{"user_id":368,"name":"Dihsar","steam_id":76561198065169821,"connected_time":3416000000000,"state":"active","ping":52},{"user_id":409,"name":"Jake","steam_id":76561198051872227,"connected_time":637000000000,"state":"active","ping":64},{"user_id":380,"name":"Great Value Rice Crispers","steam_id":76561198211512619,"connected_time":2840000000000,"state":"active","ping":89}]},{"server_id":15,"name":"Uncletopia | New York City | 3 | All Maps","name_short":"nyc-3","host":"nyc-1.us.uncletopia.com","port":27035,"enabled":true,"region":"us-east","cc":"us","latitude":40.73061,"longitude":-73.93524,"reserved":0,"last_update":"0001-01-01T00:00:00Z","name_a2s":"Uncletopia | New York City | 3 | All Maps","protocol":17,"map":"koth_cascade","folder":"tf","game":"Team Fortress","app_id":440,"player_count":0,"max_players":24,"Bots":0,"server_type":"Dedicated","server_os":"Linux","password":true,"vac":true,"version":"7723704","steam_id":85568392924742820,"keywords":["cp","nocrits","nodmgspread","uncletopia"],"game_id":440,"stv_port":27036,"stv_name":"Uncletopia | New York City | 3 | All Maps | STV","players":null},{"server_id":16,"name":"Uncletopia | New York City | 4 | Community","name_short":"nyc-4","host":"nyc-1.us.uncletopia.com","port":27045,"enabled":true,"region":"us-east","cc":"us","latitude":40.73061,"longitude":-73.93524,"reserved":0,"last_update":"0001-01-01T00:00:00Z","name_a2s":"Uncletopia | New York City | 4 | Community","protocol":17,"map":"workshop/koth_product_final.ugc454272353","folder":"tf","game":"Team Fortress","app_id":440,"player_count":0,"max_players":24,"Bots":0,"server_type":"Dedicated","server_os":"Linux","password":true,"vac":true,"version":"7723704","steam_id":85568392924742821,"keywords":["cp","nocrits","nodmgspread","uncletopia"],"game_id":440,"stv_port":27046,"stv_name":"Uncletopia | New York City | 4 | Community | STV","players":null},{"server_id":142,"name":"Uncletopia | S√£o Paulo | 1 | All Maps","name_short":"sao-1","host":"sao-1.br.uncletopia.com","port":27015,"enabled":true,"region":"sa","cc":"br","latitude":-23.533773,"longitude":-46.62529,"reserved":0,"last_update":"0001-01-01T00:00:00Z","name_a2s":"Uncletopia | S√£o Paulo | 1 | All Maps","protocol":17,"map":"pl_frontier_final","folder":"tf","game":"Team Fortress","app_id":440,"player_count":0,"max_players":24,"Bots":0,"server_type":"Dedicated","server_os":"Linux","password":true,"vac":true,"version":"7723704","steam_id":85568392924469996,"keywords":["nocrits","nodmgspread","payload","uncletopia"],"game_id":440,"stv_port":27016,"stv_name":"Uncletopia | S√£o Paulo | 1 | All Maps | STV","players":null},{"server_id":143,"name":"Uncletopia | S√£o Paulo | 2 | All Maps","name_short":"sao-2","host":"sao-2.br.uncletopia.com","port":27015,"enabled":true,"region":"sa","cc":"br","latitude":-23.533773,"longitude":-46.62529,"reserved":0,"last_update":"0001-01-01T00:00:00Z","name_a2s":"Uncletopia | S√£o Paulo | 2 | All Maps","protocol":17,"map":"koth_lakeside_final","folder":"tf","game":"Team Fortress","app_id":440,"player_count":0,"max_players":24,"Bots":0,"server_type":"Dedicated","server_os":"Linux","password":true,"vac":true,"version":"7723704","steam_id":85568392924485349,"keywords":["cp","nocrits","nodmgspread","uncletopia"],"game_id":440,"stv_port":27016,"stv_name":"Uncletopia | S√£o Paulo | 2 | All Maps | STV","players":null},{"server_id":7,"name":"Uncletopia | Seattle | 1 | All Maps","name_short":"sea-1","host":"sea-1.us.uncletopia.com","port":27015,"enabled":true,"region":"us-west","cc":"us","latitude":47.608013,"longitude":-122.33517,"reserved":0,"last_update":"0001-01-01T00:00:00Z","name_a2s":"Uncletopia | Seattle | 1 | All Maps","protocol":17,"map":"cp_dustbowl","folder":"tf","game":"Team Fortress","app_id":440,"player_count":24,"max_players":24,"Bots":0,"server_type":"Dedicated","server_os":"Linux","password":true,"vac":true,"version":"7723704","steam_id":85568392924469997,"keywords":["cp","nocrits","nodmgspread","uncletopia"],"game_id":440,"stv_port":27016,"stv_name":"Uncletopia | Seattle | 1 | All Maps | STV","players":[{"user_id":430,"name":"Ayayahuasca","steam_id":76561199002906056,"connected_time":858000000000,"state":"active","ping":50},{"user_id":395,"name":"Aardappel","steam_id":76561198030894676,"connected_time":3666000000000,"state":"active","ping":67},{"user_id":405,"name":"ThePriceIsRice","steam_id":76561198079069543,"connected_time":2979000000000,"state":"active","ping":62},{"user_id":435,"name":"paj","steam_id":76561198080026026,"connected_time":553000000000,"state":"active","ping":82},{"user_id":439,"name":"Twoxer","steam_id":76561199072232012,"connected_time":373000000000,"state":"active","ping":49},{"user_id":410,"name":"cannabinoid","steam_id":76561198271939793,"connected_time":2457000000000,"state":"active","ping":46},{"user_id":445,"name":"PunishedCrab","steam_id":76561198079650017,"connected_time":75000000000,"state":"active","ping":92},{"user_id":416,"name":"lol","steam_id":76561198026491738,"connected_time":1651000000000,"state":"active","ping":73},{"user_id":417,"name":"General Fisticuffs","steam_id":76561198255721392,"connected_time":1643000000000,"state":"active","ping":123},{"user_id":446,"name":"melon_eater","steam_id":76561198018714084,"connected_time":60000000000,"state":"active","ping":38},{"user_id":440,"name":"jason2483","steam_id":76561197985954059,"connected_time":353000000000,"state":"active","ping":75},{"user_id":433,"name":"citrus","steam_id":76561198294606679,"connected_time":605000000000,"state":"active","ping":124},{"user_id":412,"name":"TinoDKong","steam_id":76561198854933208,"connected_time":2061000000000,"state":"active","ping":94},{"user_id":425,"name":"BolognaWithOlives","steam_id":76561198101262668,"connected_time":1408000000000,"state":"active","ping":89},{"user_id":431,"name":"Smile","steam_id":76561198110008786,"connected_time":642000000000,"state":"active","ping":57},{"user_id":392,"name":"squash","steam_id":76561198150281353,"connected_time":3903000000000,"state":"active","ping":56},{"user_id":441,"name":"Daddy Thickkums","steam_id":76561198023417023,"connected_time":265000000000,"state":"active","ping":113},{"user_id":442,"name":"MantisTobboggan","steam_id":76561197969447887,"connected_time":258000000000,"state":"active","ping":69},{"user_id":393,"name":"DrD","steam_id":76561198067266383,"connected_time":3883000000000,"state":"active","ping":39},{"user_id":414,"name":"spenca","steam_id":76561198025371154,"connected_time":1776000000000,"state":"active","ping":77},{"user_id":429,"name":"Common","steam_id":76561198041083863,"connected_time":874000000000,"state":"active","ping":57},{"user_id":420,"name":"MegaBron James","steam_id":76561198066091050,"connected_time":1621000000000,"state":"active","ping":58},{"user_id":444,"name":"Poptobob","steam_id":76561198113983792,"connected_time":192000000000,"state":"active","ping":44},{"user_id":409,"name":"Sniff","steam_id":76561198010270922,"connected_time":2488000000000,"state":"active","ping":45}]},{"server_id":119,"name":"Uncletopia | Seattle | 2 | All Maps","name_short":"sea-2","host":"sea-1.us.uncletopia.com","port":27025,"enabled":true,"region":"us-west","cc":"us","latitude":47.608013,"longitude":-122.33517,"reserved":0,"last_update":"0001-01-01T00:00:00Z","name_a2s":"Uncletopia | Seattle | 2 | All Maps","protocol":17,"map":"cp_process_final","folder":"tf","game":"Team Fortress","app_id":440,"player_count":24,"max_players":24,"Bots":0,"server_type":"Dedicated","server_os":"Linux","password":true,"vac":true,"version":"7723704","steam_id":85568392924469998,"keywords":["cp","nocrits","nodmgspread","uncletopia"],"game_id":440,"stv_port":27026,"stv_name":"Uncletopia | Seattle | 2 | All Maps | STV","players":[{"user_id":272,"name":"Rude Dog","steam_id":76561197980385816,"connected_time":1704000000000,"state":"active","ping":44},{"user_id":251,"name":"User Interface","steam_id":76561198049238840,"connected_time":4859000000000,"state":"active","ping":88},{"user_id":273,"name":"exephur","steam_id":76561198135763234,"connected_time":1612000000000,"state":"active","ping":62},{"user_id":263,"name":"Whip_the_Rabbit","steam_id":76561198049896057,"connected_time":3214000000000,"state":"active","ping":90},{"user_id":256,"name":"lili.winters","steam_id":76561199391478575,"connected_time":4040000000000,"state":"active","ping":84},{"user_id":278,"name":"ice cream (ÂÜ∞Ê∑áÊ∑ã)","steam_id":76561198976530881,"connected_time":1232000000000,"state":"active","ping":60},{"user_id":227,"name":"Mr.Pan","steam_id":76561198069030613,"connected_time":6355000000000,"state":"active","ping":76},{"user_id":264,"name":"lgbtq rights","steam_id":76561198022967929,"connected_time":3214000000000,"state":"active","ping":89},{"user_id":286,"name":"goldhed","steam_id":76561198051751133,"connected_time":40000000000,"state":"spawning","ping":64},{"user_id":283,"name":"Bulk","steam_id":76561199009814535,"connected_time":750000000000,"state":"active","ping":117},{"user_id":274,"name":"naked markiplier shark attack","steam_id":76561198269476149,"connected_time":1534000000000,"state":"active","ping":84},{"user_id":276,"name":"Sparks","steam_id":76561198050950496,"connected_time":1486000000000,"state":"active","ping":90},{"user_id":284,"name":"d.em","steam_id":76561198057179683,"connected_time":257000000000,"state":"active","ping":61},{"user_id":282,"name":"Tmiracle","steam_id":76561198052375275,"connected_time":782000000000,"state":"active","ping":75},{"user_id":267,"name":"Unk","steam_id":76561198329242141,"connected_time":2748000000000,"state":"active","ping":50},{"user_id":280,"name":"Dogg wader","steam_id":76561199090314340,"connected_time":946000000000,"state":"active","ping":62},{"user_id":254,"name":"Ball Pain Enthusiast","steam_id":76561198141855402,"connected_time":4573000000000,"state":"active","ping":64},{"user_id":233,"name":"Jiggling for Justice","steam_id":76561198077272494,"connected_time":5875000000000,"state":"active","ping":100},{"user_id":244,"name":"Beep","steam_id":76561198166649901,"connected_time":5645000000000,"state":"active","ping":60},{"user_id":252,"name":"MarshallMellows","steam_id":76561198231561020,"connected_time":4729000000000,"state":"active","ping":60},{"user_id":270,"name":"Displaced","steam_id":76561197980647751,"connected_time":1897000000000,"state":"active","ping":90},{"user_id":204,"name":"riley","steam_id":76561198133142520,"connected_time":8837000000000,"state":"active","ping":126},{"user_id":231,"name":"dyke","steam_id":76561198079111954,"connected_time":6018000000000,"state":"active","ping":48},{"user_id":271,"name":"11 lbs. of wax","steam_id":76561198112705880,"connected_time":1897000000000,"state":"active","ping":65}]},{"server_id":17,"name":"Uncletopia | San Francisco | 1 | All Maps","name_short":"sfo-1","host":"sfo-1.us.uncletopia.com","port":27015,"enabled":true,"region":"us-west","cc":"us","latitude":37.77397,"longitude":-122.4313,"reserved":0,"last_update":"0001-01-01T00:00:00Z","name_a2s":"Uncletopia | San Francisco | 1 | All Maps","protocol":17,"map":"koth_viaduct","folder":"tf","game":"Team Fortress","app_id":440,"player_count":8,"max_players":24,"Bots":0,"server_type":"Dedicated","server_os":"Linux","password":true,"vac":true,"version":"7723704","steam_id":85568392924469999,"keywords":["cp","nocrits","nodmgspread","uncletopia"],"game_id":440,"stv_port":27016,"stv_name":"Uncletopia | San Francisco | 1 | All Maps | STV","players":[{"user_id":5,"name":"TheBoss","steam_id":76561198850333104,"connected_time":715000000000,"state":"active","ping":66},{"user_id":6,"name":"young thug weaponry","steam_id":76561198363821364,"connected_time":709000000000,"state":"active","ping":32},{"user_id":7,"name":"-fishy-","steam_id":76561199019154932,"connected_time":688000000000,"state":"active","ping":66},{"user_id":8,"name":"That_Blue_Tiefling","steam_id":76561198276721412,"connected_time":546000000000,"state":"active","ping":114},{"user_id":9,"name":"Krow Lyngin (she/her)","steam_id":76561198085410622,"connected_time":446000000000,"state":"active","ping":64},{"user_id":10,"name":"Dethscream","steam_id":76561197997322964,"connected_time":108000000000,"state":"active","ping":45},{"user_id":11,"name":"socially anxious kid","steam_id":76561198249946198,"connected_time":91000000000,"state":"active","ping":55},{"user_id":12,"name":"Ch4rl33","steam_id":76561198037008621,"connected_time":41000000000,"state":"active","ping":97}]},{"server_id":18,"name":"Uncletopia | San Francisco | 2 | All Maps","name_short":"sfo-2","host":"sfo-1.us.uncletopia.com","port":27025,"enabled":true,"region":"us-west","cc":"us","latitude":37.77397,"longitude":-122.4313,"reserved":0,"last_update":"0001-01-01T00:00:00Z","name_a2s":"Uncletopia | San Francisco | 2 | All Maps","protocol":17,"map":"pl_frontier_final","folder":"tf","game":"Team Fortress","app_id":440,"player_count":24,"max_players":24,"Bots":0,"server_type":"Dedicated","server_os":"Linux","password":true,"vac":true,"version":"7723704","steam_id":85568392924470000,"keywords":["nocrits","nodmgspread","payload","uncletopia"],"game_id":440,"stv_port":27026,"stv_name":"Uncletopia | San Francisco | 2 | All Maps | STV","players":[{"user_id":66,"name":"choi","steam_id":76561198053669887,"connected_time":912000000000,"state":"active","ping":74},{"user_id":65,"name":"Claaws","steam_id":76561198159589471,"connected_time":928000000000,"state":"active","ping":68},{"user_id":70,"name":"ASCII | Dr.keinmann","steam_id":76561198360305514,"connected_time":23000000000,"state":"active","ping":69},{"user_id":52,"name":"Eggnog","steam_id":76561197968179862,"connected_time":1928000000000,"state":"active","ping":73},{"user_id":69,"name":"Boring101","steam_id":76561198300662918,"connected_time":654000000000,"state":"active","ping":105},{"user_id":34,"name":"The_Dart_One","steam_id":76561198968354443,"connected_time":2945000000000,"state":"active","ping":72},{"user_id":15,"name":"silly","steam_id":76561198311564850,"connected_time":3973000000000,"state":"active","ping":61},{"user_id":59,"name":"Zephyrtf","steam_id":76561198019820961,"connected_time":1219000000000,"state":"active","ping":53},{"user_id":46,"name":"Lonka","steam_id":76561199008415182,"connected_time":2231000000000,"state":"active","ping":55},{"user_id":18,"name":"Urine Enthusiast","steam_id":76561198067798973,"connected_time":3878000000000,"state":"active","ping":68},{"user_id":19,"name":"Big Pete","steam_id":76561198100754827,"connected_time":3771000000000,"state":"active","ping":67},{"user_id":21,"name":"DiscoTraveler","steam_id":76561199240168088,"connected_time":3513000000000,"state":"active","ping":101},{"user_id":22,"name":"Mr. Big Quack","steam_id":76561198062219416,"connected_time":3491000000000,"state":"active","ping":55},{"user_id":23,"name":"Spearit5464","steam_id":76561199241807676,"connected_time":3486000000000,"state":"active","ping":66},{"user_id":24,"name":"scout.tf2","steam_id":76561199262262606,"connected_time":3452000000000,"state":"active","ping":79},{"user_id":68,"name":"Dionysian Alpaca (They/Them)","steam_id":76561198418274111,"connected_time":799000000000,"state":"active","ping":129},{"user_id":50,"name":"Swamp Fever","steam_id":76561198096836451,"connected_time":2084000000000,"state":"active","ping":47},{"user_id":27,"name":"B.A.S.E","steam_id":76561198065324447,"connected_time":3223000000000,"state":"active","ping":57},{"user_id":55,"name":"Volkan","steam_id":76561198401314312,"connected_time":1726000000000,"state":"active","ping":70},{"user_id":64,"name":"MayoMateo","steam_id":76561198360809933,"connected_time":958000000000,"state":"active","ping":60},{"user_id":40,"name":"Myagic","steam_id":76561198123746755,"connected_time":2614000000000,"state":"active","ping":97},{"user_id":45,"name":"oil","steam_id":76561198099980149,"connected_time":2448000000000,"state":"active","ping":59},{"user_id":56,"name":"Ravioli","steam_id":76561198958036204,"connected_time":1666000000000,"state":"active","ping":52},{"user_id":43,"name":"Dim Strike","steam_id":76561199087298816,"connected_time":2537000000000,"state":"active","ping":57}]},{"server_id":19,"name":"Uncletopia | San Francisco | 3 | No Payload","name_short":"sfo-3","host":"sfo-1.us.uncletopia.com","port":27035,"enabled":true,"region":"us-west","cc":"us","latitude":37.77397,"longitude":-122.4313,"reserved":0,"last_update":"0001-01-01T00:00:00Z","name_a2s":"Uncletopia | San Francisco | 3 | No Payload","protocol":17,"map":"cp_foundry","folder":"tf","game":"Team Fortress","app_id":440,"player_count":0,"max_players":24,"Bots":0,"server_type":"Dedicated","server_os":"Linux","password":true,"vac":true,"version":"7723704","steam_id":85568392924742824,"keywords":["cp","nocrits","nodmgspread","uncletopia"],"game_id":440,"stv_port":27036,"stv_name":"Uncletopia | San Francisco | 3 | No Payload | STV","players":null},{"server_id":20,"name":"Uncletopia | San Francisco | 4 | Community","name_short":"sfo-4","host":"sfo-1.us.uncletopia.com","port":27045,"enabled":true,"region":"us-west","cc":"us","latitude":37.77397,"longitude":-122.4313,"reserved":0,"last_update":"0001-01-01T00:00:00Z","name_a2s":"Uncletopia | San Francisco | 4 | Community","protocol":17,"map":"workshop/cp_villa_b19.ugc2113052569","folder":"tf","game":"Team Fortress","app_id":440,"player_count":0,"max_players":24,"Bots":0,"server_type":"Dedicated","server_os":"Linux","password":true,"vac":true,"version":"7723704","steam_id":85568392924742826,"keywords":["cp","nocrits","nodmgspread","uncletopia"],"game_id":440,"stv_port":27046,"stv_name":"Uncletopia | San Francisco | 4 | Community | STV","players":null},{"server_id":141,"name":"Uncletopia | Sydney | 1 | All Maps","name_short":"syd-1","host":"syd-1.au.uncletopia.com","port":27015,"enabled":true,"region":"au","cc":"au","latitude":-33.865143,"longitude":151.2099,"reserved":0,"last_update":"0001-01-01T00:00:00Z","name_a2s":"Uncletopia | Sydney | 1 | All Maps","protocol":17,"map":"pl_snowycoast","folder":"tf","game":"Team Fortress","app_id":440,"player_count":24,"max_players":24,"Bots":0,"server_type":"Dedicated","server_os":"Linux","password":true,"vac":true,"version":"7723704","steam_id":85568392924470001,"keywords":["nocrits","nodmgspread","payload","uncletopia"],"game_id":440,"stv_port":27016,"stv_name":"Uncletopia | Sydney | 1 | All Maps | STV","players":[{"user_id":204,"name":"Michaelsoft Binbows","steam_id":76561198422847304,"connected_time":522000000000,"state":"active","ping":60},{"user_id":190,"name":"Griffin","steam_id":76561198024926514,"connected_time":2097000000000,"state":"active","ping":89},{"user_id":191,"name":"Kouler","steam_id":76561197960804719,"connected_time":2038000000000,"state":"active","ping":58},{"user_id":170,"name":"CheeseFlag126","steam_id":76561199262769917,"connected_time":3608000000000,"state":"active","ping":60},{"user_id":197,"name":"Comedy Mode","steam_id":76561198293250088,"connected_time":1351000000000,"state":"active","ping":94},{"user_id":155,"name":"monocrumb","steam_id":76561199126588682,"connected_time":4812000000000,"state":"active","ping":65},{"user_id":192,"name":"weakest engineer main","steam_id":76561199011086094,"connected_time":2033000000000,"state":"active","ping":48},{"user_id":194,"name":"bro","steam_id":76561198310908346,"connected_time":1967000000000,"state":"active","ping":60},{"user_id":201,"name":"Lateralus","steam_id":76561198007865860,"connected_time":761000000000,"state":"active","ping":114},{"user_id":181,"name":"NaCl","steam_id":76561198176111621,"connected_time":3045000000000,"state":"active","ping":91},{"user_id":199,"name":"Stayfucking1.5metresaway","steam_id":76561198070569251,"connected_time":1240000000000,"state":"active","ping":61},{"user_id":136,"name":"Fatass Yoshi","steam_id":76561198033784848,"connected_time":6781000000000,"state":"active","ping":52},{"user_id":188,"name":"bird","steam_id":76561198258514103,"connected_time":2164000000000,"state":"active","ping":61},{"user_id":109,"name":"DIY Miracle (real)","steam_id":76561198046228152,"connected_time":8909000000000,"state":"active","ping":61},{"user_id":169,"name":"Mungbean","steam_id":76561198192300679,"connected_time":3633000000000,"state":"active","ping":74},{"user_id":205,"name":"Zort","steam_id":76561198056414289,"connected_time":391000000000,"state":"active","ping":65},{"user_id":184,"name":"gongaga","steam_id":76561198072382387,"connected_time":2756000000000,"state":"active","ping":62},{"user_id":193,"name":"Performance Issues","steam_id":76561198202341454,"connected_time":2031000000000,"state":"active","ping":66},{"user_id":183,"name":"bookman","steam_id":76561198989168133,"connected_time":2867000000000,"state":"active","ping":138},{"user_id":195,"name":"hawk","steam_id":76561198135164277,"connected_time":1727000000000,"state":"active","ping":47},{"user_id":208,"name":"AfroNinja","steam_id":76561198120372011,"connected_time":57000000000,"state":"active","ping":67},{"user_id":202,"name":"man ahhh","steam_id":76561198129577552,"connected_time":725000000000,"state":"active","ping":80},{"user_id":152,"name":"deadmoi27","steam_id":76561198157061007,"connected_time":5437000000000,"state":"active","ping":62},{"user_id":176,"name":"Blazey ‰ºäÈÅî ÊîøÂÆó","steam_id":76561197971082275,"connected_time":3440000000000,"state":"active","ping":118}]},{"server_id":123,"name":"Uncletopia | Sydney | 2 | All Maps","name_short":"syd-2","host":"syd-1.au.uncletopia.com","port":27025,"enabled":true,"region":"au","cc":"au","latitude":-33.865143,"longitude":151.2099,"reserved":0,"last_update":"0001-01-01T00:00:00Z","name_a2s":"Uncletopia | Sydney | 2 | All Maps","protocol":17,"map":"koth_viaduct","folder":"tf","game":"Team Fortress","app_id":440,"player_count":0,"max_players":24,"Bots":0,"server_type":"Dedicated","server_os":"Linux","password":true,"vac":true,"version":"7723704","steam_id":85568392924470002,"keywords":["cp","nocrits","nodmgspread","uncletopia"],"game_id":440,"stv_port":27026,"stv_name":"Uncletopia | Sydney | 2 | All Maps | STV","players":null},{"server_id":395,"name":"Uncletopia | Sydney | 3 | All Maps","name_short":"syd-3","host":"syd-1.au.uncletopia.com","port":27035,"enabled":true,"region":"au","cc":"au","latitude":-33.865143,"longitude":151.2099,"reserved":0,"last_update":"0001-01-01T00:00:00Z","name_a2s":"Uncletopia | Sydney | 3 | All Maps","protocol":17,"map":"pl_borneo","folder":"tf","game":"Team Fortress","app_id":440,"player_count":11,"max_players":24,"Bots":0,"server_type":"Dedicated","server_os":"Linux","password":true,"vac":true,"version":"7723704","steam_id":85568392925194467,"keywords":["nocrits","nodmgspread","payload","uncletopia"],"game_id":440,"stv_port":27036,"stv_name":"Uncletopia | Sydney | 3 | All Maps | STV","players":[{"user_id":60,"name":"Tas","steam_id":76561198041224384,"connected_time":302000000000,"state":"active","ping":36},{"user_id":29,"name":"the man from rizzouri","steam_id":76561198044522636,"connected_time":2695000000000,"state":"active","ping":30},{"user_id":41,"name":"ziah","steam_id":76561198159375596,"connected_time":1891000000000,"state":"active","ping":50},{"user_id":62,"name":"kcajnosbod","steam_id":76561198400431574,"connected_time":121000000000,"state":"active","ping":56},{"user_id":63,"name":"voxii","steam_id":76561198099698281,"connected_time":114000000000,"state":"active","ping":65},{"user_id":56,"name":"lofty","steam_id":76561198380588357,"connected_time":642000000000,"state":"active","ping":69},{"user_id":64,"name":"camchoobies","steam_id":76561198951609539,"connected_time":32000000000,"state":"active","ping":58},{"user_id":27,"name":"voice_enable 0","steam_id":76561198122259040,"connected_time":2708000000000,"state":"active","ping":39},{"user_id":47,"name":"Mission","steam_id":76561199218935728,"connected_time":1275000000000,"state":"active","ping":69},{"user_id":28,"name":"Not Quite My Tempo","steam_id":76561198101357494,"connected_time":2702000000000,"state":"active","ping":44},{"user_id":30,"name":"cross","steam_id":76561198068952127,"connected_time":2692000000000,"state":"active","ping":34}]},{"server_id":396,"name":"Uncletopia | Sydney | 4 | All Maps","name_short":"syd-4","host":"syd-1.au.uncletopia.com","port":27045,"enabled":true,"region":"au","cc":"au","latitude":-33.865143,"longitude":151.2099,"reserved":0,"last_update":"0001-01-01T00:00:00Z","name_a2s":"Uncletopia | Sydney | 4 | All Maps","protocol":17,"map":"pl_wutville_event","folder":"tf","game":"Team Fortress","app_id":440,"player_count":0,"max_players":24,"Bots":0,"server_type":"Dedicated","server_os":"Linux","password":true,"vac":true,"version":"7723704","steam_id":85568392925397958,"keywords":["nocrits","nodmgspread","payload","uncletopia"],"game_id":440,"stv_port":27046,"stv_name":"Uncletopia | Sydney | 4 | All Maps | STV","players":null},{"server_id":58,"name":"Uncletopia | Sydney | 5 | No Payload","name_short":"syd-5","host":"syd-1.au.uncletopia.com","port":27055,"enabled":true,"region":"au","cc":"au","latitude":-33.865143,"longitude":151.2099,"reserved":0,"last_update":"0001-01-01T00:00:00Z","name_a2s":"Uncletopia | Sydney | 5 | No Payload","protocol":17,"map":"koth_sawmill","folder":"tf","game":"Team Fortress","app_id":440,"player_count":0,"max_players":24,"Bots":0,"server_type":"Dedicated","server_os":"Linux","password":true,"vac":true,"version":"7723704","steam_id":85568392925397959,"keywords":["cp","nocrits","nodmgspread","uncletopia"],"game_id":440,"stv_port":27056,"stv_name":"Uncletopia | Sydney | 5 | No Payload | STV","players":null},{"server_id":59,"name":"Uncletopia | Sydney | 6 | Community","name_short":"syd-6","host":"syd-1.au.uncletopia.com","port":27065,"enabled":true,"region":"au","cc":"au","latitude":-33.865143,"longitude":151.2099,"reserved":0,"last_update":"0001-01-01T00:00:00Z","name_a2s":"Uncletopia | Sydney | 6 | Community","protocol":17,"map":"workshop/rd_asteroid_redux_rc9.ugc2154902912","folder":"tf","game":"Team Fortress","app_id":440,"player_count":0,"max_players":24,"Bots":0,"server_type":"Dedicated","server_os":"Linux","password":true,"vac":true,"version":"7723704","steam_id":85568392925397960,"keywords":["beta","nocrits","nodmgspread","rd","uncletopia"],"game_id":440,"stv_port":27066,"stv_name":"Uncletopia | Sydney | 6 | Community | STV","players":null},{"server_id":49,"name":"Uncletopia | Warsaw | 1 | All Maps","name_short":"waw-1","host":"waw-1.pl.uncletopia.com","port":27015,"enabled":true,"region":"eu","cc":"pl","latitude":52.2297,"longitude":21.017532,"reserved":0,"last_update":"0001-01-01T00:00:00Z","name_a2s":"Uncletopia | Warsaw | 1 | All Maps","protocol":17,"map":"koth_cascade","folder":"tf","game":"Team Fortress","app_id":440,"player_count":0,"max_players":24,"Bots":0,"server_type":"Dedicated","server_os":"Linux","password":true,"vac":true,"version":"7723704","steam_id":85568392925397850,"keywords":["cp","nocrits","nodmgspread","uncletopia"],"game_id":440,"stv_port":27016,"stv_name":"Uncletopia | Warsaw | 1 | All Maps | STV","players":null},{"server_id":50,"name":"Uncletopia | Warsaw | 2 | All Maps","name_short":"waw-2","host":"waw-1.pl.uncletopia.com","port":27025,"enabled":true,"region":"eu","cc":"pl","latitude":52.2297,"longitude":21.017532,"reserved":0,"last_update":"0001-01-01T00:00:00Z","name_a2s":"Uncletopia | Warsaw | 2 | All Maps","protocol":17,"map":"koth_highpass","folder":"tf","game":"Team Fortress","app_id":440,"player_count":0,"max_players":24,"Bots":0,"server_type":"Dedicated","server_os":"Linux","password":true,"vac":true,"version":"7723704","steam_id":85568392925397851,"keywords":["cp","nocrits","nodmgspread","uncletopia"],"game_id":440,"stv_port":27026,"stv_name":"Uncletopia | Warsaw | 2 | All Maps | STV","players":null},{"server_id":51,"name":"Uncletopia | Warsaw | 3 | All Maps","name_short":"waw-3","host":"waw-1.pl.uncletopia.com","port":27035,"enabled":true,"region":"eu","cc":"pl","latitude":52.2297,"longitude":21.017532,"reserved":0,"last_update":"0001-01-01T00:00:00Z","name_a2s":"Uncletopia | Warsaw | 3 | All Maps","protocol":17,"map":"koth_lakeside_final","folder":"tf","game":"Team Fortress","app_id":440,"player_count":0,"max_players":24,"Bots":0,"server_type":"Dedicated","server_os":"Linux","password":true,"vac":true,"version":"7723704","steam_id":85568392925397852,"keywords":["cp","nocrits","nodmgspread","uncletopia"],"game_id":440,"stv_port":27036,"stv_name":"Uncletopia | Warsaw | 3 | All Maps | STV","players":null},{"server_id":52,"name":"Uncletopia | Warsaw | 4 | All Maps","name_short":"waw-4","host":"waw-1.pl.uncletopia.com","port":27045,"enabled":true,"region":"eu","cc":"pl","latitude":52.2297,"longitude":21.017532,"reserved":0,"last_update":"0001-01-01T00:00:00Z","name_a2s":"Uncletopia | Warsaw | 4 | All Maps","protocol":17,"map":"pl_frontier_final","folder":"tf","game":"Team Fortress","app_id":440,"player_count":0,"max_players":24,"Bots":0,"server_type":"Dedicated","server_os":"Linux","password":true,"vac":true,"version":"7723704","steam_id":85568392925397853,"keywords":["nocrits","nodmgspread","payload","uncletopia"],"game_id":440,"stv_port":27046,"stv_name":"Uncletopia | Warsaw | 4 | All Maps | STV","players":null},{"server_id":53,"name":"Uncletopia | Warsaw | 5 | No Payload","name_short":"waw-5","host":"waw-1.pl.uncletopia.com","port":27055,"enabled":true,"region":"eu","cc":"pl","latitude":52.2297,"longitude":21.017532,"reserved":0,"last_update":"0001-01-01T00:00:00Z","name_a2s":"Uncletopia | Warsaw | 5 | No Payload","protocol":17,"map":"koth_highpass","folder":"tf","game":"Team Fortress","app_id":440,"player_count":0,"max_players":24,"Bots":0,"server_type":"Dedicated","server_os":"Linux","password":true,"vac":true,"version":"7723704","steam_id":85568392925397854,"keywords":["cp","nocrits","nodmgspread","uncletopia"],"game_id":440,"stv_port":27056,"stv_name":"Uncletopia | Warsaw | 5 | No Payload | STV","players":null},{"server_id":54,"name":"Uncletopia | Warsaw | 6 | Community","name_short":"waw-6","host":"waw-1.pl.uncletopia.com","port":27065,"enabled":true,"region":"eu","cc":"pl","latitude":52.2297,"longitude":21.017532,"reserved":0,"last_update":"0001-01-01T00:00:00Z","name_a2s":"Uncletopia | Warsaw | 6 | Community","protocol":17,"map":"workshop/pl_fifthcurve_rc1.ugc648227046","folder":"tf","game":"Team Fortress","app_id":440,"player_count":0,"max_players":24,"Bots":0,"server_type":"Dedicated","server_os":"Linux","password":true,"vac":true,"version":"7723704","steam_id":85568392925397856,"keywords":["nocrits","nodmgspread","payload","uncletopia"],"game_id":440,"stv_port":27066,"stv_name":"Uncletopia | Warsaw | 6 | Community | STV","players":null}]}