{"status":true,"message":"","result":[{"server_id":9,"name":"Uncletopia | Atlanta | 1 | All Maps","name_short":"atl-1","host":"atl-1.us.uncletopia.com","port":27015,"enabled":true,"region":"us-east","cc":"us","latitude":33.753746,"longitude":-84.38633,"reserved":0,"last_update":"0001-01-01T00:00:00Z","name_a2s":"Uncletopia | Atlanta | 1 | All Maps","protocol":17,"map":"pl_swiftwater_final1","folder":"tf","game":"Team Fortress","app_id":440,"player_count":24,"max_players":24,"Bots":0,"server_type":"Dedicated","server_os":"Linux","password":true,"vac":true,"version":"7742253","steam_id":85568392924469982,"keywords":["nocrits","nodmgspread","payload","uncletopia"],"game_id":440,"stv_port":27016,"stv_name":"Uncletopia | Atlanta | 1 | All Maps | STV","players":[{"user_id":299,"name":"floofy","steam_id":76561198389769098,"connected_time":894000000000,"state":"active","ping":82},{"user_id":282,"name":"aversa","steam_id":76561198840460101,"connected_time":1815000000000,"state":"active","ping":67},{"user_id":307,"name":"harry gooch","steam_id":76561198024817457,"connected_time":457000000000,"state":"active","ping":62},{"user_id":182,"name":"Tonie","steam_id":76561198022261119,"connected_time":9567000000000,"state":"active","ping":122},{"user_id":258,"name":"ndvr","steam_id":76561199379200102,"connected_time":3701000000000,"state":"active","ping":64},{"user_id":301,"name":"Louis","steam_id":76561198152010204,"connected_time":841000000000,"state":"active","ping":71},{"user_id":283,"name":"FK {ATL1} SloppyBJDevil","steam_id":76561198819545533,"connected_time":1799000000000,"state":"active","ping":84},{"user_id":292,"name":"John Darksoul","steam_id":76561198999712284,"connected_time":1425000000000,"state":"active","ping":93},{"user_id":270,"name":"David De Bergerac","steam_id":76561198010306294,"connected_time":2627000000000,"state":"active","ping":80},{"user_id":305,"name":"The Power","steam_id":76561198060566884,"connected_time":766000000000,"state":"active","ping":146},{"user_id":298,"name":"Alt","steam_id":76561197992591984,"connected_time":913000000000,"state":"active","ping":89},{"user_id":288,"name":"fkATL1 | kyu","steam_id":76561199245670274,"connected_time":1679000000000,"state":"active","ping":107},{"user_id":203,"name":"Bunt","steam_id":76561198124477567,"connected_time":7660000000000,"state":"active","ping":46},{"user_id":215,"name":"lost in the sauce","steam_id":76561199043827112,"connected_time":6555000000000,"state":"active","ping":77},{"user_id":306,"name":"MUG! spaps","steam_id":76561198123364734,"connected_time":569000000000,"state":"active","ping":78},{"user_id":281,"name":"JA","steam_id":76561198308183330,"connected_time":1854000000000,"state":"active","ping":58},{"user_id":222,"name":"SomeRandomPerson (f2p)","steam_id":76561198977045933,"connected_time":5804000000000,"state":"active","ping":76},{"user_id":125,"name":"--_Cook_--","steam_id":76561198080855748,"connected_time":14896000000000,"state":"active","ping":62},{"user_id":294,"name":"ATL1 | Pango","steam_id":76561198069811545,"connected_time":1114000000000,"state":"active","ping":48},{"user_id":308,"name":"Terror","steam_id":76561198188685728,"connected_time":65000000000,"state":"active","ping":59},{"user_id":223,"name":"meghan trainor's bass","steam_id":76561198075858067,"connected_time":5753000000000,"state":"active","ping":63},{"user_id":302,"name":"alt1 kosher","steam_id":76561198171099271,"connected_time":840000000000,"state":"active","ping":61},{"user_id":309,"name":"Bad Day to be Some Cheeks","steam_id":76561198083251763,"connected_time":62000000000,"state":"active","ping":44},{"user_id":310,"name":"jdt631","steam_id":76561198271999934,"connected_time":24000000000,"state":"active","ping":88}]},{"server_id":400,"name":"Uncletopia | Atlanta | 3 | Stopwatch Beta","name_short":"atl-3","host":"atl-1.us.uncletopia.com","port":27035,"enabled":true,"region":"us-east","cc":"us","latitude":33.753746,"longitude":-84.38633,"reserved":0,"last_update":"0001-01-01T00:00:00Z","name_a2s":"Uncletopia | Atlanta | 3 | Stopwatch Beta","protocol":17,"map":"workshop/pl_barnblitz_pro7.ugc582280235","folder":"tf","game":"Team Fortress","app_id":440,"player_count":2,"max_players":24,"Bots":0,"server_type":"Dedicated","server_os":"Linux","password":true,"vac":true,"version":"7742253","steam_id":85568392924515187,"keywords":["nocrits","nodmgspread","payload","uncletopia"],"game_id":440,"stv_port":27036,"stv_name":"Uncletopia | Atlanta | 3 | Stopwatch Beta | STV","players":[{"user_id":7,"name":"xyt0nix","steam_id":76561199437938235,"connected_time":91000000000,"state":"active","ping":55},{"user_id":8,"name":"sys","steam_id":76561198300912581,"connected_time":83000000000,"state":"active","ping":53}]},{"server_id":401,"name":"Uncletopia | Atlanta | 4 | No Payload","name_short":"atl-4","host":"atl-1.us.uncletopia.com","port":27045,"enabled":true,"region":"us-east","cc":"us","latitude":33.753746,"longitude":-84.38633,"reserved":0,"last_update":"0001-01-01T00:00:00Z","name_a2s":"Uncletopia | Atlanta | 4 | No Payload","protocol":17,"map":"pl_pier","folder":"tf","game":"Team Fortress","app_id":440,"player_count":0,"max_players":24,"Bots":0,"server_type":"Dedicated","server_os":"Linux","password":true,"vac":true,"version":"7723704","steam_id":85568392924515188,"keywords":["nocrits","nodmgspread","payload","uncletopia"],"game_id":440,"stv_port":27046,"stv_name":"Uncletopia | Atlanta | 4 | No Payload | STV","players":null},{"server_id":2,"name":"Uncletopia | Chicago | 1 | All Maps","name_short":"chi-1","host":"chi-1.us.uncletopia.com","port":27015,"enabled":true,"region":"us-central","cc":"us","latitude":41.881832,"longitude":-87.62318,"reserved":0,"last_update":"0001-01-01T00:00:00Z","name_a2s":"Uncletopia | Chicago | 1 | All Maps","protocol":17,"map":"ctf_doublecross_snowy","folder":"tf","game":"Team Fortress","app_id":440,"player_count":24,"max_players":24,"Bots":0,"server_type":"Dedicated","server_os":"Linux","password":true,"vac":true,"version":"7742253","steam_id":85568392924469984,"keywords":["ctf","nocrits","nodmgspread","uncletopia"],"game_id":440,"stv_port":27016,"stv_name":"Uncletopia | Chicago | 1 | All Maps | STV","players":[{"user_id":197,"name":"Mike Ehrmantraut","steam_id":76561198082446459,"connected_time":522000000000,"state":"active","ping":70},{"user_id":103,"name":"Average Gibus Enjoyer","steam_id":76561198300953867,"connected_time":8269000000000,"state":"active","ping":81},{"user_id":205,"name":"ALI7854","steam_id":76561199039316326,"connected_time":43000000000,"state":"active","ping":66},{"user_id":201,"name":"JaegerB4","steam_id":76561199225138429,"connected_time":473000000000,"state":"active","ping":60},{"user_id":202,"name":"The Pan Man From Slavic Land","steam_id":76561198401875841,"connected_time":338000000000,"state":"active","ping":45},{"user_id":194,"name":"Furry Saul Goodman","steam_id":76561198069580305,"connected_time":787000000000,"state":"active","ping":56},{"user_id":172,"name":"I will end thee","steam_id":76561198258126130,"connected_time":2570000000000,"state":"active","ping":71},{"user_id":174,"name":"arashsmash","steam_id":76561198277649058,"connected_time":2401000000000,"state":"active","ping":65},{"user_id":170,"name":"Heisengirth","steam_id":76561198321521526,"connected_time":2673000000000,"state":"active","ping":76},{"user_id":97,"name":"debin","steam_id":76561198070711217,"connected_time":8913000000000,"state":"active","ping":44},{"user_id":188,"name":"SpartanOne22","steam_id":76561199006361788,"connected_time":1627000000000,"state":"active","ping":81},{"user_id":187,"name":"Potato","steam_id":76561198883934935,"connected_time":1792000000000,"state":"active","ping":190},{"user_id":196,"name":"JFK Gamer","steam_id":76561199229169396,"connected_time":556000000000,"state":"active","ping":64},{"user_id":139,"name":"Ferguson (Airblast Hater)","steam_id":76561198121349387,"connected_time":4779000000000,"state":"active","ping":56},{"user_id":149,"name":"Legion","steam_id":76561199036242643,"connected_time":4412000000000,"state":"active","ping":63},{"user_id":167,"name":"unethical rizzness practices","steam_id":76561198167207112,"connected_time":2926000000000,"state":"active","ping":74},{"user_id":180,"name":"Bird watcher","steam_id":76561199201098634,"connected_time":2077000000000,"state":"active","ping":55},{"user_id":86,"name":"ccat","steam_id":76561198281773224,"connected_time":9735000000000,"state":"active","ping":93},{"user_id":136,"name":"stop","steam_id":76561198268686419,"connected_time":5401000000000,"state":"active","ping":56},{"user_id":203,"name":"Snowberry Kush(nosound)","steam_id":76561198392280580,"connected_time":318000000000,"state":"active","ping":74},{"user_id":190,"name":"Floris","steam_id":76561198001717422,"connected_time":1500000000000,"state":"active","ping":140},{"user_id":189,"name":"Kataklysm","steam_id":76561199025168404,"connected_time":1603000000000,"state":"active","ping":76},{"user_id":191,"name":"Shwa","steam_id":76561198122613101,"connected_time":1397000000000,"state":"active","ping":76},{"user_id":200,"name":"Back with the milk","steam_id":76561199020105501,"connected_time":489000000000,"state":"active","ping":81}]},{"server_id":106,"name":"Uncletopia | Chicago | 2 | All Maps","name_short":"chi-2","host":"chi-1.us.uncletopia.com","port":27025,"enabled":true,"region":"us-central","cc":"us","latitude":41.881832,"longitude":-87.62318,"reserved":0,"last_update":"0001-01-01T00:00:00Z","name_a2s":"Uncletopia | Chicago | 2 | All Maps","protocol":17,"map":"pl_pier","folder":"tf","game":"Team Fortress","app_id":440,"player_count":24,"max_players":24,"Bots":0,"server_type":"Dedicated","server_os":"Linux","password":true,"vac":true,"version":"7742253","steam_id":85568392924469985,"keywords":["nocrits","nodmgspread","payload","uncletopia"],"game_id":440,"stv_port":27026,"stv_name":"Uncletopia | Chicago | 2 | All Maps | STV","players":[{"user_id":330,"name":"St4pps","steam_id":76561198449842958,"connected_time":772000000000,"state":"active","ping":60},{"user_id":326,"name":"Johnny Lawrence #JohnnyMaxxing","steam_id":76561199367141671,"connected_time":905000000000,"state":"active","ping":59},{"user_id":331,"name":"SwingDickerson","steam_id":76561198045542926,"connected_time":758000000000,"state":"active","ping":80},{"user_id":336,"name":"Rukks","steam_id":76561197993918954,"connected_time":428000000000,"state":"active","ping":62},{"user_id":328,"name":"clgoode1","steam_id":76561198005652660,"connected_time":871000000000,"state":"active","ping":57},{"user_id":315,"name":"Koishi","steam_id":76561198054541054,"connected_time":1200000000000,"state":"active","ping":56},{"user_id":316,"name":"Aquark","steam_id":76561198328155605,"connected_time":1172000000000,"state":"active","ping":53},{"user_id":299,"name":"Terium","steam_id":76561198331234327,"connected_time":3014000000000,"state":"active","ping":56},{"user_id":332,"name":"wizardheap","steam_id":76561198085951272,"connected_time":571000000000,"state":"active","ping":68},{"user_id":301,"name":"Geloman","steam_id":76561198005501322,"connected_time":2877000000000,"state":"active","ping":80},{"user_id":296,"name":"guh","steam_id":76561197972342286,"connected_time":3115000000000,"state":"active","ping":75},{"user_id":280,"name":"Pills","steam_id":76561198799440163,"connected_time":4328000000000,"state":"active","ping":103},{"user_id":335,"name":"Yukon Cornelius","steam_id":76561198261512781,"connected_time":440000000000,"state":"active","ping":77},{"user_id":282,"name":"Froman Joe","steam_id":76561197991243253,"connected_time":4286000000000,"state":"active","ping":82},{"user_id":303,"name":"DiHMO","steam_id":76561198030130169,"connected_time":2141000000000,"state":"active","ping":45},{"user_id":334,"name":"ThisDOT","steam_id":76561199011823773,"connected_time":463000000000,"state":"active","ping":89},{"user_id":319,"name":"Chicken","steam_id":76561199187641532,"connected_time":1142000000000,"state":"active","ping":76},{"user_id":306,"name":"SussusAmogus","steam_id":76561198870275051,"connected_time":1842000000000,"state":"active","ping":66},{"user_id":337,"name":"cop disliker","steam_id":76561198026297963,"connected_time":401000000000,"state":"active","ping":70},{"user_id":333,"name":"matchstick","steam_id":76561198190100027,"connected_time":512000000000,"state":"active","ping":64},{"user_id":298,"name":"Viking Seagull","steam_id":76561198806994127,"connected_time":3066000000000,"state":"active","ping":65},{"user_id":300,"name":"crippling fumo addiction","steam_id":76561198115874625,"connected_time":3006000000000,"state":"active","ping":67},{"user_id":324,"name":"LukeBeMe","steam_id":76561198872468968,"connected_time":1016000000000,"state":"active","ping":87},{"user_id":322,"name":"Krellah","steam_id":76561198287045069,"connected_time":1106000000000,"state":"active","ping":60}]},{"server_id":402,"name":"Uncletopia | Chicago | 3 | All Maps","name_short":"chi-3","host":"chi-1.us.uncletopia.com","port":27035,"enabled":true,"region":"us-central","cc":"us","latitude":41.881832,"longitude":-87.62318,"reserved":0,"last_update":"0001-01-01T00:00:00Z","name_a2s":"Uncletopia | Chicago | 3 | All Maps","protocol":17,"map":"koth_cascade","folder":"tf","game":"Team Fortress","app_id":440,"player_count":8,"max_players":24,"Bots":0,"server_type":"Dedicated","server_os":"Linux","password":true,"vac":true,"version":"7742253","steam_id":85568392924515191,"keywords":["cp","nocrits","nodmgspread","uncletopia"],"game_id":440,"stv_port":27036,"stv_name":"Uncletopia | Chicago | 3 | All Maps | STV","players":[{"user_id":38,"name":"aphexjh","steam_id":76561197985854658,"connected_time":2252000000000,"state":"active","ping":50},{"user_id":39,"name":"zanealcannon","steam_id":76561198409950668,"connected_time":1240000000000,"state":"active","ping":65},{"user_id":40,"name":"TRS Gaming","steam_id":76561198449317611,"connected_time":1079000000000,"state":"active","ping":99},{"user_id":41,"name":"Jesus Loves You57","steam_id":76561199058833769,"connected_time":965000000000,"state":"active","ping":90},{"user_id":42,"name":"peepeeroni","steam_id":76561198382877812,"connected_time":368000000000,"state":"active","ping":60},{"user_id":43,"name":"Lucas Rafael","steam_id":76561198189233230,"connected_time":347000000000,"state":"active","ping":169},{"user_id":44,"name":"ploperdoo","steam_id":76561198359149032,"connected_time":228000000000,"state":"active","ping":134},{"user_id":45,"name":"the grootkeeper","steam_id":76561198082858261,"connected_time":168000000000,"state":"active","ping":60}]},{"server_id":403,"name":"Uncletopia | Chicago | 4 | All Maps","name_short":"chi-4","host":"chi-1.us.uncletopia.com","port":27045,"enabled":true,"region":"us-central","cc":"us","latitude":41.881832,"longitude":-87.62318,"reserved":0,"last_update":"0001-01-01T00:00:00Z","name_a2s":"Uncletopia | Chicago | 4 | All Maps","protocol":17,"map":"cp_mountainlab","folder":"tf","game":"Team Fortress","app_id":440,"player_count":22,"max_players":24,"Bots":0,"server_type":"Dedicated","server_os":"Linux","password":true,"vac":true,"version":"7742253","steam_id":85568392924515193,"keywords":["cp","nocrits","nodmgspread","uncletopia"],"game_id":440,"stv_port":27046,"stv_name":"Uncletopia | Chicago | 4 | All Maps | STV","players":[{"user_id":285,"name":"Panthera","steam_id":76561198095641424,"connected_time":68000000000,"state":"active","ping":71},{"user_id":276,"name":"JoCaleb02","steam_id":76561198272389829,"connected_time":413000000000,"state":"active","ping":75},{"user_id":277,"name":"kramer","steam_id":76561198117761965,"connected_time":400000000000,"state":"active","ping":61},{"user_id":224,"name":"DoorMan","steam_id":76561199028039753,"connected_time":4125000000000,"state":"active","ping":75},{"user_id":279,"name":"MR.meeseeks","steam_id":76561198294943420,"connected_time":312000000000,"state":"active","ping":69},{"user_id":177,"name":"Razz","steam_id":76561198158027533,"connected_time":7110000000000,"state":"active","ping":50},{"user_id":286,"name":"Sicko Mode (Chris Pratt Cover)","steam_id":76561198315786174,"connected_time":41000000000,"state":"active","ping":98},{"user_id":274,"name":"Candy Quill","steam_id":76561198044092009,"connected_time":683000000000,"state":"active","ping":96},{"user_id":280,"name":"Iron Sheik","steam_id":76561198069980923,"connected_time":275000000000,"state":"active","ping":82},{"user_id":281,"name":"Fudgely","steam_id":76561198039425862,"connected_time":260000000000,"state":"active","ping":74},{"user_id":282,"name":"The Zoidberg Medic","steam_id":76561197994285087,"connected_time":228000000000,"state":"active","ping":59},{"user_id":271,"name":"ZenkoZSprite","steam_id":76561198190132250,"connected_time":1371000000000,"state":"active","ping":60},{"user_id":272,"name":"Sprucelass","steam_id":76561197998391724,"connected_time":804000000000,"state":"active","ping":45},{"user_id":238,"name":"Rainbow","steam_id":76561199036658795,"connected_time":3889000000000,"state":"active","ping":83},{"user_id":159,"name":"Wilhelmktx","steam_id":76561198158102295,"connected_time":8666000000000,"state":"active","ping":58},{"user_id":287,"name":"Room","steam_id":76561199174579733,"connected_time":0,"state":"spawning","ping":26},{"user_id":203,"name":"noot noot","steam_id":76561198318446417,"connected_time":5544000000000,"state":"active","ping":77},{"user_id":242,"name":"big goku","steam_id":76561198206864612,"connected_time":3679000000000,"state":"active","ping":86},{"user_id":273,"name":"EmeraldCola","steam_id":76561198066663687,"connected_time":766000000000,"state":"active","ping":72},{"user_id":284,"name":"„ÄåSaint„Äç","steam_id":76561198241943070,"connected_time":220000000000,"state":"active","ping":75},{"user_id":254,"name":"-flagellum","steam_id":76561198006297974,"connected_time":2310000000000,"state":"active","ping":50},{"user_id":260,"name":"bluebird","steam_id":76561198065219155,"connected_time":1877000000000,"state":"active","ping":45}]},{"server_id":36,"name":"Uncletopia | Chicago | 5 | All Maps","name_short":"chi-5","host":"chi-2.us.uncletopia.com","port":27015,"enabled":true,"region":"us-central","cc":"us","latitude":41.881832,"longitude":-87.62318,"reserved":0,"last_update":"0001-01-01T00:00:00Z","name_a2s":"Uncletopia | Chicago | 5 | All Maps","protocol":17,"map":"pl_barnblitz","folder":"tf","game":"Team Fortress","app_id":440,"player_count":24,"max_players":24,"Bots":0,"server_type":"Dedicated","server_os":"Linux","password":true,"vac":true,"version":"7742253","steam_id":85568392924866362,"keywords":["nocrits","nodmgspread","payload","uncletopia"],"game_id":440,"stv_port":27016,"stv_name":"Uncletopia | Chicago | 5 | All Maps | STV","players":[{"user_id":504,"name":"agb 4FUN","steam_id":76561198094512992,"connected_time":1428000000000,"state":"active","ping":44},{"user_id":498,"name":"i am splatoon (ALL)","steam_id":76561198035698704,"connected_time":1915000000000,"state":"active","ping":100},{"user_id":502,"name":"stunt or die","steam_id":76561198449857428,"connected_time":1545000000000,"state":"active","ping":92},{"user_id":473,"name":"Turbo Sun Geyser","steam_id":76561198013975080,"connected_time":3096000000000,"state":"active","ping":88},{"user_id":433,"name":"Discount","steam_id":76561198228825336,"connected_time":7060000000000,"state":"active","ping":95},{"user_id":520,"name":"WastefulTrash","steam_id":76561198119003597,"connected_time":191000000000,"state":"active","ping":68},{"user_id":458,"name":"tsaide","steam_id":76561198384120999,"connected_time":4350000000000,"state":"active","ping":77},{"user_id":420,"name":"vandeer","steam_id":76561198120124007,"connected_time":7420000000000,"state":"active","ping":80},{"user_id":509,"name":"-|FG|- Hamilkar Barca","steam_id":76561198091666474,"connected_time":1198000000000,"state":"active","ping":67},{"user_id":518,"name":"bbboomer37","steam_id":76561199126411204,"connected_time":233000000000,"state":"active","ping":65},{"user_id":521,"name":"The Escaper","steam_id":76561198850419297,"connected_time":177000000000,"state":"active","ping":77},{"user_id":513,"name":"Watch Bee \u0026 Puppycat on Netflix","steam_id":76561198039423448,"connected_time":674000000000,"state":"active","ping":75},{"user_id":515,"name":"heywaitasecond","steam_id":76561199064548292,"connected_time":569000000000,"state":"active","ping":75},{"user_id":472,"name":"den","steam_id":76561198323514812,"connected_time":3216000000000,"state":"active","ping":48},{"user_id":456,"name":"phx74golden","steam_id":76561199036201022,"connected_time":5212000000000,"state":"active","ping":47},{"user_id":494,"name":"Ecliptica","steam_id":76561198171951333,"connected_time":2115000000000,"state":"active","ping":91},{"user_id":497,"name":"Soda","steam_id":76561198219209367,"connected_time":1926000000000,"state":"active","ping":66},{"user_id":517,"name":"Depresso Amber","steam_id":76561198074209737,"connected_time":348000000000,"state":"active","ping":63},{"user_id":491,"name":"$50 amazon gift card","steam_id":76561198978797171,"connected_time":2306000000000,"state":"active","ping":80},{"user_id":477,"name":"Do not [REDACTED] the Fox","steam_id":76561198081971317,"connected_time":2717000000000,"state":"active","ping":57},{"user_id":519,"name":"rapscallion","steam_id":76561198188722751,"connected_time":228000000000,"state":"active","ping":98},{"user_id":516,"name":"atlas","steam_id":76561198398383076,"connected_time":453000000000,"state":"active","ping":118},{"user_id":522,"name":"floppy muppet","steam_id":76561198003076261,"connected_time":176000000000,"state":"active","ping":94},{"user_id":483,"name":"Samsiel","steam_id":76561198094134951,"connected_time":2632000000000,"state":"active","ping":91}]},{"server_id":37,"name":"Uncletopia | Chicago | 6 | All Maps","name_short":"chi-6","host":"chi-2.us.uncletopia.com","port":27025,"enabled":true,"region":"us-central","cc":"us","latitude":41.881832,"longitude":-87.62318,"reserved":0,"last_update":"0001-01-01T00:00:00Z","name_a2s":"Uncletopia | Chicago | 6 | All Maps","protocol":17,"map":"cp_mountainlab","folder":"tf","game":"Team Fortress","app_id":440,"player_count":0,"max_players":24,"Bots":0,"server_type":"Dedicated","server_os":"Linux","password":true,"vac":true,"version":"7742253","steam_id":85568392924866363,"keywords":["cp","nocrits","nodmgspread","uncletopia"],"game_id":440,"stv_port":27026,"stv_name":"Uncletopia | Chicago | 6 | All Maps | STV","players":null},{"server_id":38,"name":"Uncletopia | Chicago | 7 | Stopwatch Beta","name_short":"chi-7","host":"chi-2.us.uncletopia.com","port":27035,"enabled":true,"region":"us-central","cc":"us","latitude":41.881832,"longitude":-87.62318,"reserved":0,"last_update":"0001-01-01T00:00:00Z","name_a2s":"Uncletopia | Chicago | 7 | Stopwatch Beta","protocol":17,"map":"koth_lakeside_final","folder":"tf","game":"Team Fortress","app_id":440,"player_count":0,"max_players":24,"Bots":0,"server_type":"Dedicated","server_os":"Linux","password":true,"vac":true,"version":"7742253","steam_id":85568392924866364,"keywords":["cp","nocrits","nodmgspread","uncletopia"],"game_id":440,"stv_port":27036,"stv_name":"Uncletopia | Chicago | 7 | Stopwatch Beta | STV","players":null},{"server_id":39,"name":"Uncletopia | Chicago | 8 | Community","name_short":"chi-8","host":"chi-2.us.uncletopia.com","port":27045,"enabled":true,"region":"us-central","cc":"us","latitude":41.881832,"longitude":-87.62318,"reserved":0,"last_update":"0001-01-01T00:00:00Z","name_a2s":"Uncletopia | Chicago | 8 | Community","protocol":17,"map":"koth_lakeside_final","folder":"tf","game":"Team Fortress","app_id":440,"player_count":0,"max_players":24,"Bots":0,"server_type":"Dedicated","server_os":"Linux","password":true,"vac":true,"version":"7742253","steam_id":85568392924866365,"keywords":["cp","nocrits","nodmgspread","uncletopia"],"game_id":440,"stv_port":27046,"stv_name":"Uncletopia | Chicago | 8 | Community | STV","players":null},{"server_id":8,"name":"Uncletopia | Dallas | 1 | All Maps","name_short":"dal-1","host":"dal-1.us.uncletopia.com","port":27015,"enabled":true,"region":"us-central","cc":"us","latitude":32.779167,"longitude":-96.80889,"reserved":0,"last_update":"0001-01-01T00:00:00Z","name_a2s":"Uncletopia | Dallas | 1 | All Maps","protocol":17,"map":"cp_snakewater_final1","folder":"tf","game":"Team Fortress","app_id":440,"player_count":24,"max_players":24,"Bots":0,"server_type":"Dedicated","server_os":"Linux","password":true,"vac":true,"version":"7742253","steam_id":85568392924469986,"keywords":["cp","nocrits","nodmgspread","uncletopia"],"game_id":440,"stv_port":27016,"stv_name":"Uncletopia | Dallas | 1 | All Maps | STV","players":[{"user_id":202,"name":"Jasdocks","steam_id":76561198072275036,"connected_time":980000000000,"state":"active","ping":56},{"user_id":203,"name":"Bloodbane's pocket medic GF","steam_id":76561198931541704,"connected_time":892000000000,"state":"active","ping":78},{"user_id":211,"name":"Just Another Stoned Eevee","steam_id":76561198262852705,"connected_time":256000000000,"state":"active","ping":78},{"user_id":209,"name":"The Caretaker","steam_id":76561198125241411,"connected_time":294000000000,"state":"active","ping":98},{"user_id":208,"name":"blubby blubster","steam_id":76561198175955138,"connected_time":310000000000,"state":"active","ping":92},{"user_id":168,"name":"cup","steam_id":76561198121245586,"connected_time":4165000000000,"state":"active","ping":79},{"user_id":174,"name":"Pork44","steam_id":76561198005773170,"connected_time":3329000000000,"state":"active","ping":49},{"user_id":198,"name":"Ben Shapiro","steam_id":76561198861436861,"connected_time":1669000000000,"state":"active","ping":70},{"user_id":217,"name":"Johan","steam_id":76561197999517316,"connected_time":198000000000,"state":"active","ping":175},{"user_id":199,"name":"WiredGecko","steam_id":76561199121958430,"connected_time":1485000000000,"state":"active","ping":91},{"user_id":213,"name":"breathing meat donut","steam_id":76561198123566649,"connected_time":253000000000,"state":"active","ping":53},{"user_id":157,"name":"Drowse","steam_id":76561198029794548,"connected_time":5557000000000,"state":"active","ping":81},{"user_id":194,"name":"GuyGoom","steam_id":76561198254522178,"connected_time":1782000000000,"state":"active","ping":82},{"user_id":221,"name":"TheBrocklobster","steam_id":76561198039682984,"connected_time":97000000000,"state":"active","ping":84},{"user_id":173,"name":"Motorol¬™","steam_id":76561198358119669,"connected_time":3499000000000,"state":"active","ping":132},{"user_id":219,"name":"concussion","steam_id":76561198273481187,"connected_time":162000000000,"state":"active","ping":65},{"user_id":223,"name":"clraffell","steam_id":76561198904469197,"connected_time":50000000000,"state":"active","ping":163},{"user_id":215,"name":"DrCrent","steam_id":76561198182204161,"connected_time":220000000000,"state":"active","ping":81},{"user_id":224,"name":"Andromeda","steam_id":76561198113620464,"connected_time":38000000000,"state":"spawning","ping":107},{"user_id":216,"name":"grillkrydder","steam_id":76561198305131881,"connected_time":206000000000,"state":"active","ping":173},{"user_id":220,"name":"Awildrock","steam_id":76561198040401086,"connected_time":128000000000,"state":"active","ping":53},{"user_id":222,"name":"Exidy","steam_id":76561198036216584,"connected_time":88000000000,"state":"active","ping":85},{"user_id":225,"name":"thebadspy","steam_id":76561199213624583,"connected_time":30000000000,"state":"active","ping":86},{"user_id":47,"name":"NovaMonkey","steam_id":76561198157828317,"connected_time":13412000000000,"state":"active","ping":83}]},{"server_id":108,"name":"Uncletopia | Dallas | 2 | All Maps","name_short":"dal-2","host":"dal-1.us.uncletopia.com","port":27025,"enabled":true,"region":"us-central","cc":"us","latitude":32.779167,"longitude":-96.80889,"reserved":0,"last_update":"0001-01-01T00:00:00Z","name_a2s":"Uncletopia | Dallas | 2 | All Maps","protocol":17,"map":"pl_barnblitz","folder":"tf","game":"Team Fortress","app_id":440,"player_count":24,"max_players":24,"Bots":0,"server_type":"Dedicated","server_os":"Linux","password":true,"vac":true,"version":"7742253","steam_id":85568392924469988,"keywords":["nocrits","nodmgspread","payload","uncletopia"],"game_id":440,"stv_port":27026,"stv_name":"Uncletopia | Dallas | 2 | All Maps | STV","players":[{"user_id":265,"name":"Doc_Eevee","steam_id":76561199289204820,"connected_time":2044000000000,"state":"active","ping":53},{"user_id":296,"name":"Mr.maxpax","steam_id":76561198209845743,"connected_time":597000000000,"state":"active","ping":47},{"user_id":292,"name":"KhorneBread Ô∏ª„Éá ‰∏Ä","steam_id":76561198097069958,"connected_time":631000000000,"state":"active","ping":86},{"user_id":274,"name":"LameNameJame","steam_id":76561198164714852,"connected_time":1698000000000,"state":"active","ping":76},{"user_id":124,"name":"Yiff Police","steam_id":76561198103938356,"connected_time":12808000000000,"state":"active","ping":63},{"user_id":303,"name":"crs22","steam_id":76561198120149196,"connected_time":383000000000,"state":"active","ping":54},{"user_id":258,"name":"t h e n a","steam_id":76561198169736062,"connected_time":2369000000000,"state":"active","ping":62},{"user_id":290,"name":"eBay","steam_id":76561198061214569,"connected_time":675000000000,"state":"active","ping":80},{"user_id":285,"name":"Chinese Eggroll","steam_id":76561198119577056,"connected_time":1092000000000,"state":"active","ping":78},{"user_id":276,"name":"Squiliam","steam_id":76561198025278006,"connected_time":1652000000000,"state":"active","ping":43},{"user_id":295,"name":"Ziggy Q","steam_id":76561197995360978,"connected_time":614000000000,"state":"active","ping":90},{"user_id":293,"name":"bunter3","steam_id":76561198238828276,"connected_time":629000000000,"state":"active","ping":72},{"user_id":294,"name":"Samblueeyes15","steam_id":76561198952464155,"connected_time":624000000000,"state":"active","ping":59},{"user_id":297,"name":"Bart simpson","steam_id":76561198380666998,"connected_time":592000000000,"state":"active","ping":110},{"user_id":298,"name":"glumbo","steam_id":76561199023327176,"connected_time":562000000000,"state":"active","ping":86},{"user_id":304,"name":"darkesther0","steam_id":76561198858282525,"connected_time":376000000000,"state":"active","ping":88},{"user_id":236,"name":"Marc Antony","steam_id":76561198011366517,"connected_time":4191000000000,"state":"active","ping":75},{"user_id":305,"name":"CryoCrab12","steam_id":76561198398818373,"connected_time":332000000000,"state":"active","ping":84},{"user_id":306,"name":"xZackAttack27x","steam_id":76561198035446639,"connected_time":330000000000,"state":"active","ping":44},{"user_id":284,"name":"Mina's Ninas","steam_id":76561198046502179,"connected_time":1160000000000,"state":"active","ping":75},{"user_id":307,"name":"bo scrungulus","steam_id":76561198038036122,"connected_time":304000000000,"state":"active","ping":75},{"user_id":232,"name":"spot (paradise edition)","steam_id":76561198151135298,"connected_time":4581000000000,"state":"active","ping":70},{"user_id":246,"name":"ÔºîÔºê Ôº¶Ôº∞Ôº≥","steam_id":76561198272394965,"connected_time":3471000000000,"state":"active","ping":165},{"user_id":288,"name":"Okas8","steam_id":76561198100697096,"connected_time":990000000000,"state":"active","ping":161}]},{"server_id":5,"name":"Uncletopia | Frankfurt | 1 | All Maps","name_short":"frk-1","host":"frk-1.de.uncletopia.com","port":27015,"enabled":true,"region":"eu","cc":"de","latitude":50.110924,"longitude":8.682127,"reserved":0,"last_update":"0001-01-01T00:00:00Z","name_a2s":"Uncletopia | Frankfurt | 1 | All Maps","protocol":17,"map":"pl_barnblitz","folder":"tf","game":"Team Fortress","app_id":440,"player_count":24,"max_players":24,"Bots":0,"server_type":"Dedicated","server_os":"Linux","password":true,"vac":true,"version":"7742253","steam_id":85568392924469989,"keywords":["nocrits","nodmgspread","payload","uncletopia"],"game_id":440,"stv_port":27016,"stv_name":"Uncletopia | Frankfurt | 1 | All Maps | STV","players":[{"user_id":847,"name":"Marc","steam_id":76561198869851742,"connected_time":317000000000,"state":"active","ping":63},{"user_id":848,"name":"El Guacamole","steam_id":76561198290313144,"connected_time":302000000000,"state":"active","ping":64},{"user_id":850,"name":"jovi_","steam_id":76561198449280552,"connected_time":275000000000,"state":"active","ping":59},{"user_id":829,"name":"Cuthbert","steam_id":76561198204649481,"connected_time":1940000000000,"state":"active","ping":100},{"user_id":822,"name":"Zateske","steam_id":76561198047446276,"connected_time":2998000000000,"state":"active","ping":59},{"user_id":849,"name":"SIGMA BALLS","steam_id":76561198302623594,"connected_time":300000000000,"state":"active","ping":91},{"user_id":826,"name":"üòà COCKDESTROYER üòà","steam_id":76561198042846999,"connected_time":2331000000000,"state":"active","ping":74},{"user_id":844,"name":"Taipan66","steam_id":76561198154094423,"connected_time":816000000000,"state":"active","ping":79},{"user_id":823,"name":"After8","steam_id":76561198090750865,"connected_time":2994000000000,"state":"active","ping":61},{"user_id":756,"name":"NiNY√É","steam_id":76561197995685294,"connected_time":7978000000000,"state":"active","ping":60},{"user_id":840,"name":"Julez","steam_id":76561198045505082,"connected_time":1070000000000,"state":"active","ping":70},{"user_id":856,"name":"jones","steam_id":76561198044434971,"connected_time":59000000000,"state":"active","ping":60},{"user_id":855,"name":"[Leslie]Nielsen","steam_id":76561198062714717,"connected_time":103000000000,"state":"active","ping":62},{"user_id":698,"name":"Cippo95","steam_id":76561198255311582,"connected_time":11553000000000,"state":"active","ping":75},{"user_id":820,"name":"Penis Contortionist","steam_id":76561198073663784,"connected_time":3040000000000,"state":"active","ping":56},{"user_id":787,"name":"Sneakykindaham","steam_id":76561198158743287,"connected_time":5536000000000,"state":"active","ping":55},{"user_id":841,"name":"eggslut","steam_id":76561198010752241,"connected_time":1067000000000,"state":"active","ping":70},{"user_id":842,"name":"your opinion \u003c my shit after a ","steam_id":76561198152620745,"connected_time":898000000000,"state":"active","ping":67},{"user_id":839,"name":"HanhiGaming","steam_id":76561198877007477,"connected_time":1122000000000,"state":"active","ping":89},{"user_id":852,"name":"nut","steam_id":76561198114892991,"connected_time":266000000000,"state":"active","ping":66},{"user_id":853,"name":"RevoNine","steam_id":76561198163866206,"connected_time":238000000000,"state":"active","ping":65},{"user_id":825,"name":"MarioThePlumber","steam_id":76561198314229530,"connected_time":2637000000000,"state":"active","ping":69},{"user_id":838,"name":"huell.","steam_id":76561198271776391,"connected_time":1191000000000,"state":"active","ping":61},{"user_id":854,"name":"‚Ä¢stepbro‚Ä¢","steam_id":76561198119607160,"connected_time":217000000000,"state":"active","ping":67}]},{"server_id":110,"name":"Uncletopia | Frankfurt | 2 | All Maps","name_short":"frk-2","host":"frk-1.de.uncletopia.com","port":27025,"enabled":true,"region":"eu","cc":"de","latitude":50.110924,"longitude":8.682127,"reserved":0,"last_update":"0001-01-01T00:00:00Z","name_a2s":"Uncletopia | Frankfurt | 2 | All Maps","protocol":17,"map":"koth_lakeside_final","folder":"tf","game":"Team Fortress","app_id":440,"player_count":4,"max_players":24,"Bots":0,"server_type":"Dedicated","server_os":"Linux","password":true,"vac":true,"version":"7742253","steam_id":85568392924469990,"keywords":["cp","nocrits","nodmgspread","uncletopia"],"game_id":440,"stv_port":27026,"stv_name":"Uncletopia | Frankfurt | 2 | All Maps | STV","players":[{"user_id":572,"name":"fried","steam_id":76561198307522022,"connected_time":323000000000,"state":"active","ping":45},{"user_id":563,"name":"alex","steam_id":76561199193938910,"connected_time":4338000000000,"state":"active","ping":52},{"user_id":574,"name":"SprintSnail","steam_id":76561198037950814,"connected_time":132000000000,"state":"active","ping":60},{"user_id":569,"name":"KatTheCookiCat","steam_id":76561199054643392,"connected_time":2942000000000,"state":"active","ping":45}]},{"server_id":308,"name":"Uncletopia | Frankfurt | 3 | All Maps","name_short":"frk-3","host":"frk-1.de.uncletopia.com","port":27035,"enabled":true,"region":"eu","cc":"de","latitude":50.110924,"longitude":8.682127,"reserved":0,"last_update":"0001-01-01T00:00:00Z","name_a2s":"Uncletopia | Frankfurt | 3 | All Maps","protocol":17,"map":"pl_pier","folder":"tf","game":"Team Fortress","app_id":440,"player_count":24,"max_players":24,"Bots":0,"server_type":"Dedicated","server_os":"Linux","password":true,"vac":true,"version":"7742253","steam_id":85568392924504274,"keywords":["nocrits","nodmgspread","payload","uncletopia"],"game_id":440,"stv_port":27036,"stv_name":"Uncletopia | Frankfurt | 3 | All Maps | STV","players":[{"user_id":237,"name":"LasagnaLarry22","steam_id":76561198089478290,"connected_time":1729000000000,"state":"active","ping":55},{"user_id":254,"name":"PlacebO.-","steam_id":76561197973577950,"connected_time":1100000000000,"state":"active","ping":55},{"user_id":154,"name":"Kaero","steam_id":76561197998641279,"connected_time":9638000000000,"state":"active","ping":60},{"user_id":240,"name":"Rubi","steam_id":76561198139410003,"connected_time":1483000000000,"state":"active","ping":72},{"user_id":232,"name":"murderfucker","steam_id":76561198038753296,"connected_time":2363000000000,"state":"active","ping":75},{"user_id":241,"name":"DVous","steam_id":76561198121737111,"connected_time":1476000000000,"state":"active","ping":43},{"user_id":246,"name":"Wumbo","steam_id":76561198958839601,"connected_time":1303000000000,"state":"active","ping":180},{"user_id":212,"name":"Subnet001","steam_id":76561198029163028,"connected_time":3683000000000,"state":"active","ping":66},{"user_id":243,"name":"DrauconeTMDS","steam_id":76561198083510257,"connected_time":1461000000000,"state":"active","ping":43},{"user_id":219,"name":"Hexabit","steam_id":76561198028625661,"connected_time":3565000000000,"state":"active","ping":68},{"user_id":227,"name":"dn4k","steam_id":76561199221755690,"connected_time":3106000000000,"state":"active","ping":81},{"user_id":248,"name":"PK Blizzard","steam_id":76561198039836567,"connected_time":1245000000000,"state":"active","ping":60},{"user_id":260,"name":"Better Call Medic","steam_id":76561198939711234,"connected_time":418000000000,"state":"active","ping":92},{"user_id":245,"name":"Hunter64","steam_id":76561199121947938,"connected_time":1390000000000,"state":"active","ping":109},{"user_id":71,"name":"Fat Pigeon","steam_id":76561198817940142,"connected_time":15344000000000,"state":"active","ping":60},{"user_id":220,"name":"just jimmy","steam_id":76561198329056035,"connected_time":3561000000000,"state":"active","ping":58},{"user_id":221,"name":"Truck-Sama's Victim","steam_id":76561198826861582,"connected_time":3560000000000,"state":"active","ping":96},{"user_id":257,"name":"ikc159","steam_id":76561198020559026,"connected_time":662000000000,"state":"active","ping":61},{"user_id":249,"name":"”ã‘º◊ü.maS","steam_id":76561198114953928,"connected_time":1240000000000,"state":"active","ping":64},{"user_id":258,"name":"Mati [EST]","steam_id":76561197994743813,"connected_time":638000000000,"state":"active","ping":96},{"user_id":251,"name":"Lennox","steam_id":76561198069063554,"connected_time":1219000000000,"state":"active","ping":45},{"user_id":259,"name":"manKe","steam_id":76561198008564860,"connected_time":638000000000,"state":"active","ping":60},{"user_id":256,"name":"VioBeeyo ‚ô•","steam_id":76561198066258544,"connected_time":835000000000,"state":"active","ping":53},{"user_id":253,"name":"Milca_11","steam_id":76561198848650365,"connected_time":1202000000000,"state":"active","ping":94}]},{"server_id":309,"name":"Uncletopia | Frankfurt | 4 | All Maps","name_short":"frk-4","host":"frk-1.de.uncletopia.com","port":27045,"enabled":true,"region":"eu","cc":"de","latitude":50.110924,"longitude":8.682127,"reserved":0,"last_update":"0001-01-01T00:00:00Z","name_a2s":"Uncletopia | Frankfurt | 4 | All Maps","protocol":17,"map":"pl_barnblitz","folder":"tf","game":"Team Fortress","app_id":440,"player_count":24,"max_players":24,"Bots":0,"server_type":"Dedicated","server_os":"Linux","password":true,"vac":true,"version":"7742253","steam_id":85568392924504275,"keywords":["nocrits","nodmgspread","payload","uncletopia"],"game_id":440,"stv_port":27046,"stv_name":"Uncletopia | Frankfurt | 4 | All Maps | STV","players":[{"user_id":275,"name":"Wi‚Äèldfap","steam_id":76561199465637794,"connected_time":166000000000,"state":"active","ping":72},{"user_id":251,"name":"Illecillewaet","steam_id":76561198005935655,"connected_time":1425000000000,"state":"active","ping":114},{"user_id":279,"name":"Krim","steam_id":76561199070070579,"connected_time":113000000000,"state":"active","ping":64},{"user_id":266,"name":"very creative","steam_id":76561199140859634,"connected_time":670000000000,"state":"active","ping":61},{"user_id":268,"name":"üÉî Nugg1t(sme/lly)","steam_id":76561198065652251,"connected_time":498000000000,"state":"active","ping":39},{"user_id":277,"name":"BaTTLe","steam_id":76561198003936517,"connected_time":144000000000,"state":"active","ping":60},{"user_id":280,"name":"cucotruco","steam_id":76561198144907754,"connected_time":111000000000,"state":"active","ping":73},{"user_id":194,"name":"a gangsta","steam_id":76561198086709652,"connected_time":4170000000000,"state":"active","ping":59},{"user_id":260,"name":"Surfyx","steam_id":76561199110545477,"connected_time":1154000000000,"state":"active","ping":51},{"user_id":258,"name":"Speibsackerl","steam_id":76561198058135257,"connected_time":1284000000000,"state":"active","ping":57},{"user_id":242,"name":"fruit bowl","steam_id":76561198232398568,"connected_time":2015000000000,"state":"active","ping":84},{"user_id":281,"name":"o_o","steam_id":76561198113045011,"connected_time":108000000000,"state":"active","ping":89},{"user_id":245,"name":"zdX","steam_id":76561198163735277,"connected_time":1784000000000,"state":"active","ping":52},{"user_id":273,"name":"Seail_M","steam_id":76561198002405605,"connected_time":281000000000,"state":"active","ping":50},{"user_id":282,"name":"big boi","steam_id":76561198033467299,"connected_time":93000000000,"state":"active","ping":130},{"user_id":265,"name":"Salih","steam_id":76561198287934839,"connected_time":706000000000,"state":"active","ping":56},{"user_id":270,"name":"Boycie","steam_id":76561198179116027,"connected_time":469000000000,"state":"active","ping":67},{"user_id":203,"name":"Crab that ate amelia earhart","steam_id":76561198103175187,"connected_time":3976000000000,"state":"active","ping":66},{"user_id":284,"name":"soup","steam_id":76561198386933065,"connected_time":83000000000,"state":"active","ping":57},{"user_id":287,"name":"Lolipop120","steam_id":76561199001403237,"connected_time":38000000000,"state":"active","ping":56},{"user_id":286,"name":"\u003e:3","steam_id":76561198368312026,"connected_time":70000000000,"state":"active","ping":75},{"user_id":288,"name":"kaelan!","steam_id":76561198001425310,"connected_time":37000000000,"state":"active","ping":75},{"user_id":289,"name":"LittleNatalie120","steam_id":76561199189207810,"connected_time":33000000000,"state":"active","ping":381},{"user_id":262,"name":"GAJtheSPY","steam_id":76561198256080023,"connected_time":910000000000,"state":"active","ping":61}]},{"server_id":310,"name":"Uncletopia | Frankfurt | 5 | All Maps","name_short":"frk-5","host":"frk-1.de.uncletopia.com","port":27055,"enabled":true,"region":"eu","cc":"de","latitude":50.110924,"longitude":8.682127,"reserved":0,"last_update":"0001-01-01T00:00:00Z","name_a2s":"Uncletopia | Frankfurt | 5 | All Maps","protocol":17,"map":"pl_badwater","folder":"tf","game":"Team Fortress","app_id":440,"player_count":24,"max_players":24,"Bots":0,"server_type":"Dedicated","server_os":"Linux","password":true,"vac":true,"version":"7742253","steam_id":85568392924504277,"keywords":["nocrits","nodmgspread","payload","uncletopia"],"game_id":440,"stv_port":27056,"stv_name":"Uncletopia | Frankfurt | 5 | All Maps | STV","players":[{"user_id":490,"name":"Reece","steam_id":76561198148030229,"connected_time":799000000000,"state":"active","ping":76},{"user_id":435,"name":"The Pyro Chef","steam_id":76561198069610259,"connected_time":3991000000000,"state":"active","ping":54},{"user_id":483,"name":"cinny","steam_id":76561198832112629,"connected_time":1381000000000,"state":"active","ping":76},{"user_id":436,"name":"Tresnov","steam_id":76561198068106802,"connected_time":3980000000000,"state":"active","ping":53},{"user_id":437,"name":"Keelan","steam_id":76561198013665543,"connected_time":3911000000000,"state":"active","ping":80},{"user_id":496,"name":"Hardway","steam_id":76561198272529254,"connected_time":211000000000,"state":"active","ping":60},{"user_id":458,"name":"Aesthetic Alcoholism","steam_id":76561198044418968,"connected_time":2502000000000,"state":"active","ping":37},{"user_id":497,"name":"stormcrow","steam_id":76561198030259899,"connected_time":193000000000,"state":"active","ping":75},{"user_id":392,"name":"Raxor","steam_id":76561198239927434,"connected_time":6523000000000,"state":"active","ping":91},{"user_id":495,"name":"eduardo","steam_id":76561198014491925,"connected_time":421000000000,"state":"active","ping":75},{"user_id":393,"name":"Miiukade","steam_id":76561198089157860,"connected_time":6470000000000,"state":"active","ping":146},{"user_id":453,"name":"The Last Username Left","steam_id":76561198121432981,"connected_time":2695000000000,"state":"active","ping":67},{"user_id":491,"name":"Bunnygirl Stalin","steam_id":76561199044101274,"connected_time":791000000000,"state":"active","ping":65},{"user_id":498,"name":"Koda","steam_id":76561198142696299,"connected_time":189000000000,"state":"active","ping":62},{"user_id":499,"name":"Tomfool","steam_id":76561197993256481,"connected_time":181000000000,"state":"active","ping":75},{"user_id":488,"name":"Lukas","steam_id":76561198454286820,"connected_time":1020000000000,"state":"active","ping":63},{"user_id":500,"name":"O. Wilson","steam_id":76561198090751331,"connected_time":181000000000,"state":"active","ping":66},{"user_id":493,"name":"noodles19","steam_id":76561198965900071,"connected_time":591000000000,"state":"active","ping":87},{"user_id":476,"name":"Decadence","steam_id":76561198206829379,"connected_time":1581000000000,"state":"active","ping":77},{"user_id":477,"name":"mt","steam_id":76561197961319303,"connected_time":1519000000000,"state":"active","ping":45},{"user_id":478,"name":"Borat","steam_id":76561198122226417,"connected_time":1517000000000,"state":"active","ping":59},{"user_id":501,"name":"Dolphin2011","steam_id":76561197997323419,"connected_time":177000000000,"state":"active","ping":94},{"user_id":489,"name":"RattaGams","steam_id":76561198866259365,"connected_time":1001000000000,"state":"active","ping":85},{"user_id":502,"name":"Dee","steam_id":76561198257836694,"connected_time":164000000000,"state":"active","ping":58}]},{"server_id":311,"name":"Uncletopia | Frankfurt | 6 | All Maps","name_short":"frk-6","host":"frk-1.de.uncletopia.com","port":27065,"enabled":true,"region":"eu","cc":"de","latitude":50.110924,"longitude":8.682127,"reserved":0,"last_update":"0001-01-01T00:00:00Z","name_a2s":"Uncletopia | Frankfurt | 6 | All Maps","protocol":17,"map":"pl_borneo","folder":"tf","game":"Team Fortress","app_id":440,"player_count":24,"max_players":24,"Bots":0,"server_type":"Dedicated","server_os":"Linux","password":true,"vac":true,"version":"7742253","steam_id":85568392924504278,"keywords":["nocrits","nodmgspread","payload","uncletopia"],"game_id":440,"stv_port":27066,"stv_name":"Uncletopia | Frankfurt | 6 | All Maps | STV","players":[{"user_id":491,"name":"AforeKingDwarf","steam_id":76561198043562926,"connected_time":2959000000000,"state":"active","ping":57},{"user_id":531,"name":"Heracles slayer of Hydra","steam_id":76561198067204908,"connected_time":1000000000000,"state":"active","ping":71},{"user_id":523,"name":"smell_my_cheese","steam_id":76561198008517427,"connected_time":1475000000000,"state":"active","ping":58},{"user_id":526,"name":"Pong Lenis","steam_id":76561198039251333,"connected_time":1227000000000,"state":"active","ping":106},{"user_id":532,"name":"Hydra #2","steam_id":76561198170609049,"connected_time":883000000000,"state":"active","ping":76},{"user_id":527,"name":"noxy","steam_id":76561197998939137,"connected_time":1226000000000,"state":"active","ping":55},{"user_id":533,"name":"Hydra","steam_id":76561198097507847,"connected_time":878000000000,"state":"active","ping":75},{"user_id":519,"name":"sesw","steam_id":76561198057332404,"connected_time":1799000000000,"state":"active","ping":51},{"user_id":524,"name":"√ì√∞inn","steam_id":76561198132690562,"connected_time":1413000000000,"state":"active","ping":60},{"user_id":536,"name":"MAJAX","steam_id":76561198254828632,"connected_time":755000000000,"state":"active","ping":67},{"user_id":528,"name":"heheheha","steam_id":76561198875472890,"connected_time":1213000000000,"state":"active","ping":81},{"user_id":529,"name":"Fishul","steam_id":76561198074001910,"connected_time":1141000000000,"state":"active","ping":78},{"user_id":496,"name":"dogfush79","steam_id":76561198013612846,"connected_time":2897000000000,"state":"active","ping":72},{"user_id":513,"name":"PlebCord","steam_id":76561198120685803,"connected_time":1986000000000,"state":"active","ping":83},{"user_id":535,"name":"Penguin with Pens","steam_id":76561198015278564,"connected_time":868000000000,"state":"active","ping":85},{"user_id":546,"name":"ribs","steam_id":76561198354735240,"connected_time":137000000000,"state":"active","ping":70},{"user_id":538,"name":"GAMEler","steam_id":76561198121624163,"connected_time":614000000000,"state":"active","ping":67},{"user_id":547,"name":"Max","steam_id":76561198138959361,"connected_time":95000000000,"state":"active","ping":52},{"user_id":540,"name":"Steen","steam_id":76561198122992510,"connected_time":484000000000,"state":"active","ping":46},{"user_id":541,"name":"Sin","steam_id":76561198975489819,"connected_time":464000000000,"state":"active","ping":55},{"user_id":542,"name":"Moskvin","steam_id":76561198089170010,"connected_time":460000000000,"state":"active","ping":60},{"user_id":543,"name":"Tumajarbisaun","steam_id":76561198029296012,"connected_time":447000000000,"state":"active","ping":64},{"user_id":544,"name":"Th√§as","steam_id":76561198264708239,"connected_time":413000000000,"state":"active","ping":60},{"user_id":545,"name":"Chad","steam_id":76561198408707875,"connected_time":398000000000,"state":"active","ping":82}]},{"server_id":23,"name":"Uncletopia | Frankfurt | 7 | Stopwatch Beta","name_short":"frk-7","host":"frk-1.de.uncletopia.com","port":27075,"enabled":true,"region":"eu","cc":"de","latitude":50.110924,"longitude":8.682127,"reserved":0,"last_update":"0001-01-01T00:00:00Z","name_a2s":"Uncletopia | Frankfurt | 7 | Stopwatch Beta","protocol":17,"map":"pl_badwater","folder":"tf","game":"Team Fortress","app_id":440,"player_count":0,"max_players":24,"Bots":0,"server_type":"Dedicated","server_os":"Linux","password":true,"vac":true,"version":"7742253","steam_id":85568392924742827,"keywords":["nocrits","nodmgspread","payload","uncletopia"],"game_id":440,"stv_port":27076,"stv_name":"Uncletopia | Frankfurt | 7 | Stopwatch Beta | STV","players":null},{"server_id":24,"name":"Uncletopia | Frankfurt | 8 | Community","name_short":"frk-8","host":"frk-1.de.uncletopia.com","port":27085,"enabled":true,"region":"eu","cc":"de","latitude":50.110924,"longitude":8.682127,"reserved":0,"last_update":"0001-01-01T00:00:00Z","name_a2s":"Uncletopia | Frankfurt | 8 | Community","protocol":17,"map":"workshop/cp_villa_b19.ugc2113052569","folder":"tf","game":"Team Fortress","app_id":440,"player_count":8,"max_players":24,"Bots":0,"server_type":"Dedicated","server_os":"Linux","password":true,"vac":true,"version":"7742253","steam_id":85568392924742828,"keywords":["cp","nocrits","nodmgspread","uncletopia"],"game_id":440,"stv_port":27086,"stv_name":"Uncletopia | Frankfurt | 8 | Community | STV","players":[{"user_id":168,"name":"K'aax Itzam","steam_id":76561198044024509,"connected_time":2043000000000,"state":"active","ping":77},{"user_id":159,"name":"Hamst123","steam_id":76561198957312452,"connected_time":2697000000000,"state":"active","ping":49},{"user_id":193,"name":"Welder","steam_id":76561198355300561,"connected_time":102000000000,"state":"active","ping":64},{"user_id":187,"name":"Marry Pussy Poppins","steam_id":76561198108030171,"connected_time":385000000000,"state":"active","ping":49},{"user_id":154,"name":"Joe","steam_id":76561198061717026,"connected_time":2860000000000,"state":"active","ping":60},{"user_id":189,"name":"mommy x_x","steam_id":76561199204257697,"connected_time":311000000000,"state":"active","ping":48},{"user_id":175,"name":"EEEEEH","steam_id":76561198126717413,"connected_time":1219000000000,"state":"active","ping":74},{"user_id":156,"name":"hatsune mike","steam_id":76561198051582865,"connected_time":2785000000000,"state":"active","ping":61}]},{"server_id":202,"name":"Uncletopia | Hong Kong | 1 | All Maps","name_short":"hgk-1","host":"hgk-1.hk.uncletopia.com","port":27015,"enabled":true,"region":"asia","cc":"hk","latitude":22.302711,"longitude":114.177216,"reserved":0,"last_update":"0001-01-01T00:00:00Z","name_a2s":"Uncletopia | Hong Kong | 1 | All Maps","protocol":17,"map":"pl_badwater","folder":"tf","game":"Team Fortress","app_id":440,"player_count":0,"max_players":24,"Bots":0,"server_type":"Dedicated","server_os":"Linux","password":true,"vac":true,"version":"7742253","steam_id":85568392924494504,"keywords":["nocrits","nodmgspread","payload","uncletopia"],"game_id":440,"stv_port":27016,"stv_name":"Uncletopia | Hong Kong | 1 | All Maps | STV","players":null},{"server_id":1,"name":"Uncletopia | Los Angeles | 1 | All Maps","name_short":"lax-1","host":"lax-1.us.uncletopia.com","port":27015,"enabled":true,"region":"us-west","cc":"us","latitude":33.94279,"longitude":-118.41004,"reserved":0,"last_update":"0001-01-01T00:00:00Z","name_a2s":"Uncletopia | Los Angeles | 1 | All Maps","protocol":17,"map":"pl_frontier_final","folder":"tf","game":"Team Fortress","app_id":440,"player_count":22,"max_players":24,"Bots":0,"server_type":"Dedicated","server_os":"Linux","password":true,"vac":true,"version":"7742253","steam_id":85568392924469991,"keywords":["nocrits","nodmgspread","payload","uncletopia"],"game_id":440,"stv_port":27016,"stv_name":"Uncletopia | Los Angeles | 1 | All Maps | STV","players":[{"user_id":182,"name":"truck freak (festive)","steam_id":76561198062712676,"connected_time":1134000000000,"state":"active","ping":72},{"user_id":183,"name":"Strong Milk","steam_id":76561198089715954,"connected_time":1109000000000,"state":"active","ping":85},{"user_id":184,"name":"HOWARD HAMLIN #FRUITBYTHEFOOT","steam_id":76561198263004448,"connected_time":1091000000000,"state":"active","ping":49},{"user_id":132,"name":"TapKetchup","steam_id":76561198307946533,"connected_time":4832000000000,"state":"active","ping":116},{"user_id":161,"name":"king in the north!","steam_id":76561198035780415,"connected_time":2428000000000,"state":"active","ping":52},{"user_id":143,"name":"solveig","steam_id":76561198271713106,"connected_time":3849000000000,"state":"active","ping":125},{"user_id":155,"name":"Yoozer","steam_id":76561198420257694,"connected_time":3208000000000,"state":"active","ping":37},{"user_id":179,"name":"sly1","steam_id":76561198049014977,"connected_time":1484000000000,"state":"active","ping":58},{"user_id":177,"name":"fortzei","steam_id":76561198210920541,"connected_time":1514000000000,"state":"active","ping":56},{"user_id":147,"name":"Schnitz","steam_id":76561198265484253,"connected_time":3434000000000,"state":"active","ping":60},{"user_id":128,"name":"Cosmiccz","steam_id":76561198073232442,"connected_time":4899000000000,"state":"active","ping":99},{"user_id":185,"name":"Shalom","steam_id":76561198410005222,"connected_time":1047000000000,"state":"active","ping":66},{"user_id":186,"name":"Testicular Torsion","steam_id":76561197968179862,"connected_time":1011000000000,"state":"active","ping":66},{"user_id":176,"name":"jungus","steam_id":76561198129862008,"connected_time":1550000000000,"state":"active","ping":41},{"user_id":162,"name":"kebo","steam_id":76561198237159430,"connected_time":2303000000000,"state":"active","ping":62},{"user_id":160,"name":"Sewer","steam_id":76561198803732690,"connected_time":2573000000000,"state":"active","ping":53},{"user_id":173,"name":"Zed","steam_id":76561198881598484,"connected_time":1912000000000,"state":"active","ping":65},{"user_id":192,"name":"Silverkeys","steam_id":76561197986012496,"connected_time":522000000000,"state":"active","ping":108},{"user_id":139,"name":"overgrown teakettle","steam_id":76561198059041027,"connected_time":4239000000000,"state":"active","ping":82},{"user_id":106,"name":"Lucy Got Fired","steam_id":76561198149063013,"connected_time":6407000000000,"state":"active","ping":92},{"user_id":193,"name":"BlueBruh","steam_id":76561199078613052,"connected_time":441000000000,"state":"active","ping":85},{"user_id":191,"name":"JimmySquid","steam_id":76561198254242530,"connected_time":588000000000,"state":"active","ping":86}]},{"server_id":112,"name":"Uncletopia | Los Angeles | 2 | All Maps","name_short":"lax-2","host":"lax-1.us.uncletopia.com","port":27025,"enabled":true,"region":"us-west","cc":"us","latitude":33.94279,"longitude":-118.41004,"reserved":0,"last_update":"0001-01-01T00:00:00Z","name_a2s":"Uncletopia | Los Angeles | 2 | All Maps","protocol":17,"map":"koth_highpass","folder":"tf","game":"Team Fortress","app_id":440,"player_count":0,"max_players":24,"Bots":0,"server_type":"Dedicated","server_os":"Linux","password":true,"vac":true,"version":"7742253","steam_id":85568392924469992,"keywords":["cp","nocrits","nodmgspread","uncletopia"],"game_id":440,"stv_port":27026,"stv_name":"Uncletopia | Los Angeles | 2 | All Maps | STV","players":null},{"server_id":324,"name":"Uncletopia | Los Angeles | 3 | All Maps","name_short":"lax-3","host":"lax-1.us.uncletopia.com","port":27035,"enabled":true,"region":"us-west","cc":"us","latitude":33.94279,"longitude":-118.41004,"reserved":0,"last_update":"0001-01-01T00:00:00Z","name_a2s":"Uncletopia | Los Angeles | 3 | All Maps","protocol":17,"map":"koth_viaduct","folder":"tf","game":"Team Fortress","app_id":440,"player_count":0,"max_players":24,"Bots":0,"server_type":"Dedicated","server_os":"Linux","password":true,"vac":true,"version":"7742253","steam_id":85568392924510198,"keywords":["cp","nocrits","nodmgspread","uncletopia"],"game_id":440,"stv_port":27036,"stv_name":"Uncletopia | Los Angeles | 3 | All Maps | STV","players":null},{"server_id":25,"name":"Uncletopia | Los Angeles | 4 | Stopwatch Beta","name_short":"lax-4","host":"lax-1.us.uncletopia.com","port":27045,"enabled":true,"region":"us-west","cc":"us","latitude":33.94279,"longitude":-118.41004,"reserved":0,"last_update":"0001-01-01T00:00:00Z","name_a2s":"Uncletopia | Los Angeles | 4 | Stopwatch Beta","protocol":17,"map":"pl_upward","folder":"tf","game":"Team Fortress","app_id":440,"player_count":0,"max_players":24,"Bots":0,"server_type":"Dedicated","server_os":"Linux","password":true,"vac":true,"version":"7742253","steam_id":85568392924510199,"keywords":["nocrits","nodmgspread","payload","uncletopia"],"game_id":440,"stv_port":27046,"stv_name":"Uncletopia | Los Angeles | 4 | Stopwatch Beta | STV","players":null},{"server_id":11,"name":"Uncletopia | London | 1 | All Maps","name_short":"lon-1","host":"lon-1.uk.uncletopia.com","port":27015,"enabled":true,"region":"eu","cc":"gb","latitude":51.509865,"longitude":-0.118092,"reserved":0,"last_update":"0001-01-01T00:00:00Z","name_a2s":"Uncletopia | London | 1 | All Maps","protocol":17,"map":"pl_pier","folder":"tf","game":"Team Fortress","app_id":440,"player_count":24,"max_players":24,"Bots":0,"server_type":"Dedicated","server_os":"Linux","password":true,"vac":true,"version":"7742253","steam_id":85568392924367362,"keywords":["nocrits","nodmgspread","payload","uncletopia"],"game_id":440,"stv_port":27016,"stv_name":"Uncletopia | London | 1 | All Maps | STV","players":[{"user_id":476,"name":"Rocadinis","steam_id":76561198095910616,"connected_time":2864000000000,"state":"active","ping":96},{"user_id":445,"name":"ScarredPixel123","steam_id":76561199165112703,"connected_time":4533000000000,"state":"active","ping":79},{"user_id":540,"name":"jones","steam_id":76561198073975078,"connected_time":1379000000000,"state":"active","ping":44},{"user_id":560,"name":"Fred","steam_id":76561198107137362,"connected_time":1014000000000,"state":"active","ping":53},{"user_id":473,"name":"NotFionn","steam_id":76561198890525176,"connected_time":3118000000000,"state":"active","ping":75},{"user_id":485,"name":"p!ke","steam_id":76561198416081952,"connected_time":2587000000000,"state":"active","ping":63},{"user_id":577,"name":"C1nnamon_cookie","steam_id":76561199155374388,"connected_time":824000000000,"state":"active","ping":83},{"user_id":542,"name":"jorogumo","steam_id":76561198838277022,"connected_time":1366000000000,"state":"active","ping":62},{"user_id":442,"name":"GunGuy","steam_id":76561198124510978,"connected_time":4965000000000,"state":"active","ping":41},{"user_id":583,"name":"Weenie Hut Jr's","steam_id":76561198050515739,"connected_time":427000000000,"state":"active","ping":47},{"user_id":488,"name":"ViktorYoshi","steam_id":76561199157555246,"connected_time":2579000000000,"state":"active","ping":60},{"user_id":392,"name":"dairy","steam_id":76561198117033273,"connected_time":9126000000000,"state":"active","ping":60},{"user_id":578,"name":"SuperBob103","steam_id":76561199175360012,"connected_time":819000000000,"state":"active","ping":52},{"user_id":483,"name":"‚Ñ¢‚Åß‚Åß‰πÉ»ΩOOD PRINCŒû","steam_id":76561198137835796,"connected_time":2668000000000,"state":"active","ping":56},{"user_id":579,"name":"Toofy","steam_id":76561197989727907,"connected_time":808000000000,"state":"active","ping":38},{"user_id":448,"name":"Lyell","steam_id":76561198350329389,"connected_time":4471000000000,"state":"active","ping":81},{"user_id":500,"name":"SOPHIIEE","steam_id":76561198443798981,"connected_time":2391000000000,"state":"active","ping":55},{"user_id":501,"name":"BitterStep","steam_id":76561199103959197,"connected_time":2375000000000,"state":"active","ping":101},{"user_id":581,"name":"mq","steam_id":76561198091888948,"connected_time":646000000000,"state":"active","ping":62},{"user_id":574,"name":"LavenderJayJay","steam_id":76561198966667657,"connected_time":847000000000,"state":"active","ping":43},{"user_id":456,"name":"Vitamin Weee","steam_id":76561199183937747,"connected_time":4113000000000,"state":"active","ping":94},{"user_id":494,"name":"LOBZIK","steam_id":76561198114830120,"connected_time":2500000000000,"state":"active","ping":81},{"user_id":576,"name":"–ì–¥–µ –º–æ—Ä–µ?","steam_id":76561197979625544,"connected_time":836000000000,"state":"active","ping":95},{"user_id":584,"name":"ArekanPL","steam_id":76561198306811916,"connected_time":401000000000,"state":"active","ping":76}]},{"server_id":114,"name":"Uncletopia | London | 2 | All Maps","name_short":"lon-2","host":"lon-1.uk.uncletopia.com","port":27025,"enabled":true,"region":"eu","cc":"gb","latitude":51.509865,"longitude":-0.118092,"reserved":0,"last_update":"0001-01-01T00:00:00Z","name_a2s":"Uncletopia | London | 2 | All Maps","protocol":17,"map":"pl_barnblitz","folder":"tf","game":"Team Fortress","app_id":440,"player_count":24,"max_players":24,"Bots":0,"server_type":"Dedicated","server_os":"Linux","password":true,"vac":true,"version":"7742253","steam_id":85568392924470941,"keywords":["nocrits","nodmgspread","payload","uncletopia"],"game_id":440,"stv_port":27026,"stv_name":"Uncletopia | London | 2 | All Maps | STV","players":[{"user_id":713,"name":"Mr_Pulse_","steam_id":76561198095001602,"connected_time":454000000000,"state":"active","ping":96},{"user_id":714,"name":"FoOzTV","steam_id":76561197998636728,"connected_time":424000000000,"state":"active","ping":63},{"user_id":715,"name":"Tort","steam_id":76561198329646769,"connected_time":424000000000,"state":"active","ping":47},{"user_id":699,"name":"JJ_","steam_id":76561198146754482,"connected_time":1343000000000,"state":"active","ping":61},{"user_id":675,"name":"tamz","steam_id":76561198146873972,"connected_time":1973000000000,"state":"active","ping":30},{"user_id":710,"name":"mo","steam_id":76561198029399151,"connected_time":731000000000,"state":"active","ping":60},{"user_id":706,"name":"Doughy","steam_id":76561198044084210,"connected_time":1213000000000,"state":"active","ping":66},{"user_id":648,"name":"snowi","steam_id":76561198006502679,"connected_time":4245000000000,"state":"active","ping":59},{"user_id":667,"name":"C DAT SAW!?","steam_id":76561198117247903,"connected_time":2632000000000,"state":"active","ping":37},{"user_id":623,"name":"‚òÖ sat1ra","steam_id":76561198011382701,"connected_time":7134000000000,"state":"active","ping":78},{"user_id":660,"name":"TheBeardedM1G","steam_id":76561198040208946,"connected_time":3348000000000,"state":"active","ping":48},{"user_id":705,"name":"BlueBlueFox","steam_id":76561198053817230,"connected_time":1270000000000,"state":"active","ping":71},{"user_id":709,"name":"zinzyk","steam_id":76561198128011822,"connected_time":1029000000000,"state":"active","ping":68},{"user_id":673,"name":"dec","steam_id":76561198009660168,"connected_time":2326000000000,"state":"active","ping":60},{"user_id":716,"name":"Burgoo_King","steam_id":76561198133572225,"connected_time":415000000000,"state":"active","ping":76},{"user_id":702,"name":"Yes, 100 Percent","steam_id":76561198104896547,"connected_time":1316000000000,"state":"active","ping":85},{"user_id":633,"name":"sigma female","steam_id":76561198298576765,"connected_time":6410000000000,"state":"active","ping":71},{"user_id":717,"name":"kbbq","steam_id":76561198346638308,"connected_time":364000000000,"state":"active","ping":47},{"user_id":718,"name":"Caruzon - Obismal","steam_id":76561198036211170,"connected_time":209000000000,"state":"active","ping":74},{"user_id":681,"name":"Oliver","steam_id":76561198063523419,"connected_time":1858000000000,"state":"active","ping":50},{"user_id":683,"name":"Gi-Deuxi","steam_id":76561198121260981,"connected_time":1846000000000,"state":"active","ping":45},{"user_id":707,"name":"Marssie","steam_id":76561198071368131,"connected_time":1150000000000,"state":"active","ping":67},{"user_id":708,"name":"gnarly business","steam_id":76561198832688767,"connected_time":1083000000000,"state":"active","ping":52},{"user_id":712,"name":"SpilledMilk","steam_id":76561198174123971,"connected_time":613000000000,"state":"active","ping":63}]},{"server_id":320,"name":"Uncletopia | London | 3 | All Maps","name_short":"lon-3","host":"lon-1.uk.uncletopia.com","port":27035,"enabled":true,"region":"eu","cc":"gb","latitude":51.509865,"longitude":-0.118092,"reserved":0,"last_update":"0001-01-01T00:00:00Z","name_a2s":"Uncletopia | London | 3 | All Maps","protocol":17,"map":"cp_mountainlab","folder":"tf","game":"Team Fortress","app_id":440,"player_count":0,"max_players":24,"Bots":0,"server_type":"Dedicated","server_os":"Linux","password":true,"vac":true,"version":"7742253","steam_id":85568392924510192,"keywords":["cp","nocrits","nodmgspread","uncletopia"],"game_id":440,"stv_port":27036,"stv_name":"Uncletopia | London | 3 | All Maps | STV","players":null},{"server_id":321,"name":"Uncletopia | London | 4 | All Maps","name_short":"lon-4","host":"lon-1.uk.uncletopia.com","port":27045,"enabled":true,"region":"eu","cc":"gb","latitude":51.509865,"longitude":-0.118092,"reserved":0,"last_update":"0001-01-01T00:00:00Z","name_a2s":"Uncletopia | London | 4 | All Maps","protocol":17,"map":"cp_dustbowl","folder":"tf","game":"Team Fortress","app_id":440,"player_count":24,"max_players":24,"Bots":0,"server_type":"Dedicated","server_os":"Linux","password":true,"vac":true,"version":"7742253","steam_id":85568392924510193,"keywords":["cp","nocrits","nodmgspread","uncletopia"],"game_id":440,"stv_port":27046,"stv_name":"Uncletopia | London | 4 | All Maps | STV","players":[{"user_id":661,"name":"Baron","steam_id":76561198021901783,"connected_time":2689000000000,"state":"active","ping":53},{"user_id":690,"name":"Intheweb33","steam_id":76561198082873786,"connected_time":1020000000000,"state":"active","ping":78},{"user_id":663,"name":"Horo","steam_id":76561198009504508,"connected_time":2523000000000,"state":"active","ping":61},{"user_id":698,"name":"Ze","steam_id":76561198314901652,"connected_time":762000000000,"state":"active","ping":65},{"user_id":656,"name":"Foxyz","steam_id":76561198040642992,"connected_time":3437000000000,"state":"active","ping":103},{"user_id":640,"name":"my m*rge","steam_id":76561198106049954,"connected_time":4097000000000,"state":"active","ping":75},{"user_id":664,"name":"Lubrsi","steam_id":76561198040208195,"connected_time":2441000000000,"state":"active","ping":46},{"user_id":682,"name":"Micha≈Ç","steam_id":76561198320346362,"connected_time":1764000000000,"state":"active","ping":66},{"user_id":691,"name":"Florua","steam_id":76561198182297846,"connected_time":999000000000,"state":"active","ping":62},{"user_id":707,"name":"Fenguin","steam_id":76561199089543933,"connected_time":342000000000,"state":"active","ping":38},{"user_id":699,"name":"b√•lly","steam_id":76561198037922597,"connected_time":738000000000,"state":"active","ping":59},{"user_id":694,"name":"Vince","steam_id":76561199103000131,"connected_time":963000000000,"state":"active","ping":45},{"user_id":637,"name":"homer conundrum","steam_id":76561198043601838,"connected_time":4569000000000,"state":"active","ping":60},{"user_id":701,"name":"Post-Christmas Ketamine","steam_id":76561198073769916,"connected_time":693000000000,"state":"active","ping":55},{"user_id":662,"name":"Teecho","steam_id":76561197995269610,"connected_time":2678000000000,"state":"active","ping":53},{"user_id":693,"name":"AmadStatistician","steam_id":76561198163654770,"connected_time":992000000000,"state":"active","ping":55},{"user_id":706,"name":"sad","steam_id":76561199439030016,"connected_time":601000000000,"state":"active","ping":116},{"user_id":671,"name":"Kaypher","steam_id":76561198858124606,"connected_time":2254000000000,"state":"active","ping":81},{"user_id":683,"name":"Turencko.Danila","steam_id":76561199381190549,"connected_time":1759000000000,"state":"active","ping":97},{"user_id":708,"name":"TxrraFINN","steam_id":76561199006591691,"connected_time":296000000000,"state":"active","ping":47},{"user_id":696,"name":"JP3","steam_id":76561197970963576,"connected_time":961000000000,"state":"active","ping":70},{"user_id":697,"name":"GodOfGobboz","steam_id":76561198154677956,"connected_time":952000000000,"state":"active","ping":76},{"user_id":705,"name":"BSantos57","steam_id":76561198000597094,"connected_time":606000000000,"state":"active","ping":86},{"user_id":709,"name":"The Stupid Fucking Gamer","steam_id":76561198068213670,"connected_time":263000000000,"state":"active","ping":60}]},{"server_id":21,"name":"Uncletopia | London | 5 | All Maps","name_short":"lon-5","host":"lon-1.uk.uncletopia.com","port":27055,"enabled":true,"region":"eu","cc":"gb","latitude":51.509865,"longitude":-0.118092,"reserved":0,"last_update":"0001-01-01T00:00:00Z","name_a2s":"Uncletopia | London | 5 | All Maps","protocol":17,"map":"pl_swiftwater_final1","folder":"tf","game":"Team Fortress","app_id":440,"player_count":24,"max_players":24,"Bots":0,"server_type":"Dedicated","server_os":"Linux","password":true,"vac":true,"version":"7742253","steam_id":85568392924742829,"keywords":["nocrits","nodmgspread","payload","uncletopia"],"game_id":440,"stv_port":27056,"stv_name":"Uncletopia | London | 5 | All Maps | STV","players":[{"user_id":203,"name":"Speedy","steam_id":76561198250108732,"connected_time":1395000000000,"state":"active","ping":185},{"user_id":178,"name":"CapnFang","steam_id":76561198042687780,"connected_time":2165000000000,"state":"active","ping":88},{"user_id":210,"name":"Craig Crusade","steam_id":76561199225918086,"connected_time":771000000000,"state":"active","ping":61},{"user_id":163,"name":"IX","steam_id":76561198039589783,"connected_time":3847000000000,"state":"active","ping":55},{"user_id":179,"name":"Hot Coffee","steam_id":76561198106868468,"connected_time":2160000000000,"state":"active","ping":52},{"user_id":180,"name":"Chester","steam_id":76561198039253727,"connected_time":2157000000000,"state":"active","ping":74},{"user_id":193,"name":"Gorgeous Freeman","steam_id":76561198064957238,"connected_time":1809000000000,"state":"active","ping":53},{"user_id":206,"name":"D-boi","steam_id":76561199001837576,"connected_time":1027000000000,"state":"active","ping":56},{"user_id":202,"name":"Yony","steam_id":76561199070569941,"connected_time":1494000000000,"state":"active","ping":66},{"user_id":208,"name":"Rick Astley's left foot","steam_id":76561198177287273,"connected_time":849000000000,"state":"active","ping":51},{"user_id":209,"name":"Pinroe","steam_id":76561198968160899,"connected_time":826000000000,"state":"active","ping":60},{"user_id":194,"name":"OgnistY","steam_id":76561198131700369,"connected_time":1800000000000,"state":"active","ping":61},{"user_id":225,"name":"Stuf","steam_id":76561198077202296,"connected_time":168000000000,"state":"active","ping":41},{"user_id":222,"name":"Dr Sex","steam_id":76561198029044617,"connected_time":276000000000,"state":"active","ping":45},{"user_id":226,"name":"Pizza/Cheese/Pepperoni","steam_id":76561198174510235,"connected_time":145000000000,"state":"active","ping":52},{"user_id":227,"name":"Gaben Claus","steam_id":76561198080215997,"connected_time":133000000000,"state":"active","ping":140},{"user_id":217,"name":"Believe it's magic!","steam_id":76561198152918354,"connected_time":439000000000,"state":"active","ping":60},{"user_id":228,"name":"redlix-AA-","steam_id":76561198119413461,"connected_time":128000000000,"state":"active","ping":81},{"user_id":219,"name":"Ibelieveto","steam_id":76561198831479712,"connected_time":427000000000,"state":"active","ping":38},{"user_id":220,"name":"Barb√Ätrou","steam_id":76561199439141531,"connected_time":423000000000,"state":"active","ping":53},{"user_id":229,"name":"Rizzy","steam_id":76561198164237267,"connected_time":125000000000,"state":"active","ping":74},{"user_id":232,"name":"FeminineAtom","steam_id":76561198311208470,"connected_time":96000000000,"state":"active","ping":50},{"user_id":231,"name":"coelacanth","steam_id":76561198055573915,"connected_time":100000000000,"state":"active","ping":46},{"user_id":234,"name":"arcSolver","steam_id":76561198212013944,"connected_time":55000000000,"state":"active","ping":69}]},{"server_id":22,"name":"Uncletopia | London | 6 | All Maps","name_short":"lon-6","host":"lon-1.uk.uncletopia.com","port":27065,"enabled":true,"region":"eu","cc":"gb","latitude":51.509865,"longitude":-0.118092,"reserved":0,"last_update":"0001-01-01T00:00:00Z","name_a2s":"Uncletopia | London | 6 | All Maps","protocol":17,"map":"koth_lakeside_final","folder":"tf","game":"Team Fortress","app_id":440,"player_count":0,"max_players":24,"Bots":0,"server_type":"Dedicated","server_os":"Linux","password":true,"vac":true,"version":"7742253","steam_id":85568392924742830,"keywords":["cp","nocrits","nodmgspread","uncletopia"],"game_id":440,"stv_port":27066,"stv_name":"Uncletopia | London | 6 | All Maps | STV","players":null},{"server_id":40,"name":"Uncletopia | London | 7 | No Payload","name_short":"lon-7","host":"lon-1.uk.uncletopia.com","port":27075,"enabled":true,"region":"eu","cc":"gb","latitude":51.509865,"longitude":-0.118092,"reserved":0,"last_update":"0001-01-01T00:00:00Z","name_a2s":"Uncletopia | London | 7 | No Payload","protocol":17,"map":"plr_bananabay","folder":"tf","game":"Team Fortress","app_id":440,"player_count":0,"max_players":24,"Bots":0,"server_type":"Dedicated","server_os":"Linux","password":true,"vac":true,"version":"7742253","steam_id":85568392924964314,"keywords":["nocrits","nodmgspread","payload","uncletopia"],"game_id":440,"stv_port":27076,"stv_name":"Uncletopia | London | 7 | No Payload | STV","players":null},{"server_id":41,"name":"Uncletopia | London | 8 | Community","name_short":"lon-8","host":"lon-1.uk.uncletopia.com","port":27085,"enabled":true,"region":"eu","cc":"gb","latitude":51.509865,"longitude":-0.118092,"reserved":0,"last_update":"0001-01-01T00:00:00Z","name_a2s":"Uncletopia | London | 8 | Community","protocol":17,"map":"workshop/koth_ramjam_rc1.ugc459778887","folder":"tf","game":"Team Fortress","app_id":440,"player_count":0,"max_players":24,"Bots":0,"server_type":"Dedicated","server_os":"Linux","password":true,"vac":true,"version":"7742253","steam_id":85568392924964315,"keywords":["cp","nocrits","nodmgspread","uncletopia"],"game_id":440,"stv_port":27086,"stv_name":"Uncletopia | London | 8 | Community | STV","players":null},{"server_id":300,"name":"Uncletopia | Montr√©al | 1 | All Maps","name_short":"mtl-1","host":"mtl-1.ca.uncletopia.com","port":27015,"enabled":true,"region":"us-east","cc":"ca","latitude":45.50889,"longitude":-73.56167,"reserved":0,"last_update":"0001-01-01T00:00:00Z","name_a2s":"Uncletopia | Montr√©al | 1 | All Maps","protocol":17,"map":"pl_swiftwater_final1","folder":"tf","game":"Team Fortress","app_id":440,"player_count":0,"max_players":24,"Bots":0,"server_type":"Dedicated","server_os":"Linux","password":true,"vac":true,"version":"7742253","steam_id":85568392924500087,"keywords":["nocrits","nodmgspread","payload","uncletopia"],"game_id":440,"stv_port":27016,"stv_name":"Uncletopia | Montr√©al | 1 | All Maps | STV","players":null},{"server_id":301,"name":"Uncletopia | Montr√©al | 2 | All Maps","name_short":"mtl-2","host":"mtl-1.ca.uncletopia.com","port":27025,"enabled":true,"region":"us-east","cc":"ca","latitude":45.50889,"longitude":-73.56167,"reserved":0,"last_update":"0001-01-01T00:00:00Z","name_a2s":"Uncletopia | Montr√©al | 2 | All Maps","protocol":17,"map":"cp_sunshine","folder":"tf","game":"Team Fortress","app_id":440,"player_count":4,"max_players":24,"Bots":0,"server_type":"Dedicated","server_os":"Linux","password":true,"vac":true,"version":"7742253","steam_id":85568392924500088,"keywords":["cp","nocrits","nodmgspread","uncletopia"],"game_id":440,"stv_port":27026,"stv_name":"Uncletopia | Montr√©al | 2 | All Maps | STV","players":[{"user_id":24,"name":"Enderpanda24","steam_id":76561199461170521,"connected_time":5399000000000,"state":"active","ping":126},{"user_id":37,"name":"Japanese Rabbit Enthusiast","steam_id":76561199134895220,"connected_time":2923000000000,"state":"active","ping":48},{"user_id":46,"name":"KindaSnowy","steam_id":76561198972407911,"connected_time":1230000000000,"state":"active","ping":45},{"user_id":39,"name":"Floofy Femboy","steam_id":76561198872384806,"connected_time":2591000000000,"state":"active","ping":61}]},{"server_id":302,"name":"Uncletopia | Montr√©al | 3 | All Maps","name_short":"mtl-3","host":"mtl-1.ca.uncletopia.com","port":27035,"enabled":true,"region":"us-east","cc":"ca","latitude":45.50889,"longitude":-73.56167,"reserved":0,"last_update":"0001-01-01T00:00:00Z","name_a2s":"Uncletopia | Montr√©al | 3 | All Maps","protocol":17,"map":"cp_process_final","folder":"tf","game":"Team Fortress","app_id":440,"player_count":0,"max_players":24,"Bots":0,"server_type":"Dedicated","server_os":"Linux","password":true,"vac":true,"version":"7742253","steam_id":85568392924500089,"keywords":["cp","nocrits","nodmgspread","uncletopia"],"game_id":440,"stv_port":27036,"stv_name":"Uncletopia | Montr√©al | 3 | All Maps | STV","players":null},{"server_id":303,"name":"Uncletopia | Montr√©al | 4 | No Payload","name_short":"mtl-4","host":"mtl-1.ca.uncletopia.com","port":27045,"enabled":true,"region":"us-east","cc":"ca","latitude":45.50889,"longitude":-73.56167,"reserved":0,"last_update":"0001-01-01T00:00:00Z","name_a2s":"Uncletopia | Montr√©al | 4 | No Payload","protocol":17,"map":"cp_snakewater_final1","folder":"tf","game":"Team Fortress","app_id":440,"player_count":0,"max_players":24,"Bots":0,"server_type":"Dedicated","server_os":"Linux","password":true,"vac":true,"version":"7742253","steam_id":85568392924500090,"keywords":["cp","nocrits","nodmgspread","uncletopia"],"game_id":440,"stv_port":27046,"stv_name":"Uncletopia | Montr√©al | 4 | No Payload | STV","players":null},{"server_id":13,"name":"Uncletopia | New York City | 1 | All Maps","name_short":"nyc-1","host":"nyc-1.us.uncletopia.com","port":27015,"enabled":true,"region":"us-east","cc":"us","latitude":40.73061,"longitude":-73.93524,"reserved":0,"last_update":"0001-01-01T00:00:00Z","name_a2s":"Uncletopia | New York City | 1 | All Maps","protocol":17,"map":"pl_borneo","folder":"tf","game":"Team Fortress","app_id":440,"player_count":24,"max_players":24,"Bots":0,"server_type":"Dedicated","server_os":"Linux","password":true,"vac":true,"version":"7742253","steam_id":85568392924469993,"keywords":["nocrits","nodmgspread","payload","uncletopia"],"game_id":440,"stv_port":27016,"stv_name":"Uncletopia | New York City | 1 | All Maps | STV","players":[{"user_id":369,"name":"2fort lesbian","steam_id":76561198055490517,"connected_time":405000000000,"state":"active","ping":59},{"user_id":319,"name":"lloydc99","steam_id":76561198024999815,"connected_time":3782000000000,"state":"active","ping":42},{"user_id":341,"name":"Inevitable","steam_id":76561198210050169,"connected_time":2082000000000,"state":"active","ping":45},{"user_id":358,"name":"$$$","steam_id":76561198218897541,"connected_time":1070000000000,"state":"active","ping":55},{"user_id":345,"name":"Undertime Slopper","steam_id":76561198396789061,"connected_time":1740000000000,"state":"active","ping":88},{"user_id":362,"name":"ŸàŸàŸÉÿ± ÿßŸÑÿ¨ÿ≠ŸäŸÖ","steam_id":76561198815385916,"connected_time":859000000000,"state":"active","ping":128},{"user_id":371,"name":"Sky Tree","steam_id":76561198027103242,"connected_time":396000000000,"state":"active","ping":41},{"user_id":354,"name":"The Muffin Man","steam_id":76561199088286427,"connected_time":1316000000000,"state":"active","ping":113},{"user_id":317,"name":"Qinxnix","steam_id":76561198091538771,"connected_time":3891000000000,"state":"active","ping":107},{"user_id":353,"name":"cia","steam_id":76561198287124402,"connected_time":1342000000000,"state":"active","ping":75},{"user_id":378,"name":"drifloy","steam_id":76561198153437083,"connected_time":50000000000,"state":"active","ping":47},{"user_id":357,"name":"gertchy","steam_id":76561199111932529,"connected_time":1209000000000,"state":"active","ping":51},{"user_id":367,"name":"coffee bagel","steam_id":76561198141198352,"connected_time":583000000000,"state":"active","ping":61},{"user_id":373,"name":"Toygar","steam_id":76561198023679830,"connected_time":338000000000,"state":"active","ping":70},{"user_id":347,"name":"Dilbert","steam_id":76561198195613682,"connected_time":1683000000000,"state":"active","ping":75},{"user_id":368,"name":"carrot cake","steam_id":76561198055174915,"connected_time":568000000000,"state":"active","ping":79},{"user_id":308,"name":"the deadliest pyroshark","steam_id":76561198374227766,"connected_time":4492000000000,"state":"active","ping":61},{"user_id":117,"name":"PizzaPasta","steam_id":76561199125109082,"connected_time":14850000000000,"state":"active","ping":66},{"user_id":333,"name":"Ronin Grinch","steam_id":76561198041439581,"connected_time":2504000000000,"state":"active","ping":55},{"user_id":375,"name":"Xavibite","steam_id":76561198209380493,"connected_time":185000000000,"state":"active","ping":46},{"user_id":349,"name":"Bee_Pirate","steam_id":76561199000599111,"connected_time":1620000000000,"state":"active","ping":60},{"user_id":328,"name":"blob","steam_id":76561198122375328,"connected_time":3070000000000,"state":"active","ping":74},{"user_id":355,"name":"Kilbert","steam_id":76561198254454239,"connected_time":1233000000000,"state":"active","ping":82},{"user_id":377,"name":"cornealvase9152","steam_id":76561198851958868,"connected_time":106000000000,"state":"active","ping":140}]},{"server_id":14,"name":"Uncletopia | New York City | 2 | All Maps","name_short":"nyc-2","host":"nyc-1.us.uncletopia.com","port":27025,"enabled":true,"region":"us-east","cc":"us","latitude":40.73061,"longitude":-73.93524,"reserved":0,"last_update":"0001-01-01T00:00:00Z","name_a2s":"Uncletopia | New York City | 2 | All Maps","protocol":17,"map":"koth_cascade","folder":"tf","game":"Team Fortress","app_id":440,"player_count":0,"max_players":24,"Bots":0,"server_type":"Dedicated","server_os":"Linux","password":true,"vac":true,"version":"7742253","steam_id":85568392924469994,"keywords":["cp","nocrits","nodmgspread","uncletopia"],"game_id":440,"stv_port":27026,"stv_name":"Uncletopia | New York City | 2 | All Maps | STV","players":null},{"server_id":15,"name":"Uncletopia | New York City | 3 | Stopwatch Beta","name_short":"nyc-3","host":"nyc-1.us.uncletopia.com","port":27035,"enabled":true,"region":"us-east","cc":"us","latitude":40.73061,"longitude":-73.93524,"reserved":0,"last_update":"0001-01-01T00:00:00Z","name_a2s":"Uncletopia | New York City | 3 | Stopwatch Beta","protocol":17,"map":"pl_pier","folder":"tf","game":"Team Fortress","app_id":440,"player_count":0,"max_players":24,"Bots":0,"server_type":"Dedicated","server_os":"Linux","password":true,"vac":true,"version":"7742253","steam_id":85568392924742820,"keywords":["nocrits","nodmgspread","payload","uncletopia"],"game_id":440,"stv_port":27036,"stv_name":"Uncletopia | New York City | 3 | Stopwatch Beta | STV","players":null},{"server_id":16,"name":"Uncletopia | New York City | 4 | Community","name_short":"nyc-4","host":"nyc-1.us.uncletopia.com","port":27045,"enabled":true,"region":"us-east","cc":"us","latitude":40.73061,"longitude":-73.93524,"reserved":0,"last_update":"0001-01-01T00:00:00Z","name_a2s":"Uncletopia | New York City | 4 | Community","protocol":17,"map":"koth_viaduct","folder":"tf","game":"Team Fortress","app_id":440,"player_count":0,"max_players":24,"Bots":0,"server_type":"Dedicated","server_os":"Linux","password":true,"vac":true,"version":"7742253","steam_id":85568392924742821,"keywords":["cp","nocrits","nodmgspread","uncletopia"],"game_id":440,"stv_port":27046,"stv_name":"Uncletopia | New York City | 4 | Community | STV","players":null},{"server_id":142,"name":"Uncletopia | S√£o Paulo | 1 | All Maps","name_short":"sao-1","host":"sao-1.br.uncletopia.com","port":27015,"enabled":true,"region":"sa","cc":"br","latitude":-23.533773,"longitude":-46.62529,"reserved":0,"last_update":"0001-01-01T00:00:00Z","name_a2s":"Uncletopia | S√£o Paulo | 1 | All Maps","protocol":17,"map":"koth_viaduct","folder":"tf","game":"Team Fortress","app_id":440,"player_count":0,"max_players":24,"Bots":0,"server_type":"Dedicated","server_os":"Linux","password":true,"vac":true,"version":"7742253","steam_id":85568392924469996,"keywords":["cp","nocrits","nodmgspread","uncletopia"],"game_id":440,"stv_port":27016,"stv_name":"Uncletopia | S√£o Paulo | 1 | All Maps | STV","players":null},{"server_id":143,"name":"Uncletopia | S√£o Paulo | 2 | All Maps","name_short":"sao-2","host":"sao-2.br.uncletopia.com","port":27015,"enabled":true,"region":"sa","cc":"br","latitude":-23.533773,"longitude":-46.62529,"reserved":0,"last_update":"0001-01-01T00:00:00Z","name_a2s":"Uncletopia | S√£o Paulo | 2 | All Maps","protocol":17,"map":"koth_cascade","folder":"tf","game":"Team Fortress","app_id":440,"player_count":0,"max_players":24,"Bots":0,"server_type":"Dedicated","server_os":"Linux","password":true,"vac":true,"version":"7742253","steam_id":85568392924485349,"keywords":["cp","nocrits","nodmgspread","uncletopia"],"game_id":440,"stv_port":27016,"stv_name":"Uncletopia | S√£o Paulo | 2 | All Maps | STV","players":null},{"server_id":7,"name":"Uncletopia | Seattle | 1 | All Maps","name_short":"sea-1","host":"sea-1.us.uncletopia.com","port":27015,"enabled":true,"region":"us-west","cc":"us","latitude":47.608013,"longitude":-122.33517,"reserved":0,"last_update":"0001-01-01T00:00:00Z","name_a2s":"Uncletopia | Seattle | 1 | All Maps","protocol":17,"map":"pl_upward","folder":"tf","game":"Team Fortress","app_id":440,"player_count":20,"max_players":24,"Bots":0,"server_type":"Dedicated","server_os":"Linux","password":true,"vac":true,"version":"7742253","steam_id":85568392924469997,"keywords":["nocrits","nodmgspread","payload","uncletopia"],"game_id":440,"stv_port":27016,"stv_name":"Uncletopia | Seattle | 1 | All Maps | STV","players":[{"user_id":439,"name":"HavelMan","steam_id":76561198112360934,"connected_time":1123000000000,"state":"active","ping":72},{"user_id":389,"name":"ORANGE","steam_id":76561198000401769,"connected_time":3654000000000,"state":"active","ping":45},{"user_id":436,"name":"toptier","steam_id":76561199059257565,"connected_time":1323000000000,"state":"active","ping":120},{"user_id":449,"name":"The Classy Ferret","steam_id":76561198200961750,"connected_time":729000000000,"state":"active","ping":65},{"user_id":451,"name":"Blehnder","steam_id":76561198172097526,"connected_time":620000000000,"state":"active","ping":121},{"user_id":418,"name":"Mr. Electric","steam_id":76561198071962415,"connected_time":2218000000000,"state":"active","ping":131},{"user_id":390,"name":"Xin-xi Warrior","steam_id":76561198978418260,"connected_time":3624000000000,"state":"active","ping":72},{"user_id":452,"name":"_DrunkenGibberish_","steam_id":76561199123070071,"connected_time":595000000000,"state":"active","ping":111},{"user_id":441,"name":"Astro","steam_id":76561198035676106,"connected_time":1092000000000,"state":"active","ping":102},{"user_id":434,"name":"mooney","steam_id":76561199110622484,"connected_time":1412000000000,"state":"active","ping":58},{"user_id":446,"name":"stummy","steam_id":76561198403428019,"connected_time":828000000000,"state":"active","ping":78},{"user_id":456,"name":"Amogous Supreme","steam_id":76561198025476774,"connected_time":189000000000,"state":"active","ping":65},{"user_id":457,"name":"[GUT] RiDiK¬Æ","steam_id":76561197969756446,"connected_time":113000000000,"state":"active","ping":81},{"user_id":458,"name":"S Q U I S H E  T H A T  C A T","steam_id":76561198293865429,"connected_time":83000000000,"state":"active","ping":37},{"user_id":448,"name":"amigo del cartel","steam_id":76561198088938349,"connected_time":784000000000,"state":"active","ping":96},{"user_id":459,"name":"green screen","steam_id":76561198797877733,"connected_time":63000000000,"state":"spawning","ping":124},{"user_id":385,"name":"BLU3","steam_id":76561198059652670,"connected_time":3720000000000,"state":"active","ping":48},{"user_id":435,"name":"your friends dad","steam_id":76561199062326425,"connected_time":1386000000000,"state":"active","ping":55},{"user_id":460,"name":"Winter the Witchie","steam_id":76561198151971178,"connected_time":23000000000,"state":"active","ping":169},{"user_id":398,"name":"Square Square","steam_id":76561198070481423,"connected_time":3475000000000,"state":"active","ping":82}]},{"server_id":119,"name":"Uncletopia | Seattle | 2 | All Maps","name_short":"sea-2","host":"sea-1.us.uncletopia.com","port":27025,"enabled":true,"region":"us-west","cc":"us","latitude":47.608013,"longitude":-122.33517,"reserved":0,"last_update":"0001-01-01T00:00:00Z","name_a2s":"Uncletopia | Seattle | 2 | All Maps","protocol":17,"map":"pl_barnblitz","folder":"tf","game":"Team Fortress","app_id":440,"player_count":24,"max_players":24,"Bots":0,"server_type":"Dedicated","server_os":"Linux","password":true,"vac":true,"version":"7742253","steam_id":85568392924469998,"keywords":["nocrits","nodmgspread","payload","uncletopia"],"game_id":440,"stv_port":27026,"stv_name":"Uncletopia | Seattle | 2 | All Maps | STV","players":[{"user_id":151,"name":"Something useless","steam_id":76561199002772575,"connected_time":1064000000000,"state":"active","ping":46},{"user_id":159,"name":"Just a Random Dood","steam_id":76561198101538371,"connected_time":555000000000,"state":"active","ping":145},{"user_id":161,"name":"PTSleepyHead","steam_id":76561198037748705,"connected_time":269000000000,"state":"active","ping":70},{"user_id":119,"name":"Clay Pot","steam_id":76561199030644557,"connected_time":2928000000000,"state":"active","ping":119},{"user_id":153,"name":"plaiddd","steam_id":76561198353053169,"connected_time":888000000000,"state":"active","ping":134},{"user_id":162,"name":"Spectre","steam_id":76561198025652246,"connected_time":261000000000,"state":"active","ping":88},{"user_id":112,"name":"Nirvana","steam_id":76561198293556549,"connected_time":3604000000000,"state":"active","ping":45},{"user_id":135,"name":"Hyguy","steam_id":76561198193608742,"connected_time":1895000000000,"state":"active","ping":88},{"user_id":120,"name":"PapaFrita","steam_id":76561199071983367,"connected_time":2920000000000,"state":"active","ping":123},{"user_id":154,"name":"Butters495","steam_id":76561197998689042,"connected_time":850000000000,"state":"active","ping":121},{"user_id":163,"name":"hamdrinker985","steam_id":76561199241807676,"connected_time":244000000000,"state":"active","ping":55},{"user_id":156,"name":"FellowCum","steam_id":76561198809618726,"connected_time":819000000000,"state":"active","ping":84},{"user_id":81,"name":"Cambonieboo","steam_id":76561198139174433,"connected_time":6161000000000,"state":"active","ping":90},{"user_id":166,"name":"mudunit","steam_id":76561198811544015,"connected_time":42000000000,"state":"active","ping":114},{"user_id":95,"name":"Magik","steam_id":76561198200169706,"connected_time":4969000000000,"state":"active","ping":110},{"user_id":122,"name":"Dosario","steam_id":76561198298095535,"connected_time":2864000000000,"state":"active","ping":49},{"user_id":165,"name":"fruit brute fiend","steam_id":76561198811500361,"connected_time":232000000000,"state":"active","ping":51},{"user_id":155,"name":"Rock Nemesis","steam_id":76561198043115724,"connected_time":839000000000,"state":"active","ping":73},{"user_id":143,"name":"Dimple","steam_id":76561198980324190,"connected_time":1483000000000,"state":"active","ping":61},{"user_id":146,"name":"eraser cat","steam_id":76561199045570463,"connected_time":1408000000000,"state":"active","ping":44},{"user_id":157,"name":"obbeymaster19","steam_id":76561199197244143,"connected_time":771000000000,"state":"active","ping":133},{"user_id":129,"name":"incineratedbread","steam_id":76561198133619079,"connected_time":2414000000000,"state":"active","ping":42},{"user_id":150,"name":"ScoutWantsBobux69","steam_id":76561199316368867,"connected_time":1136000000000,"state":"active","ping":110},{"user_id":82,"name":"Dr. Hurrible","steam_id":76561198080070400,"connected_time":6096000000000,"state":"active","ping":122}]},{"server_id":406,"name":"Uncletopia | Seattle | 3 | Stopwatch Beta","name_short":"sea-3","host":"sea-1.us.uncletopia.com","port":27035,"enabled":true,"region":"us-west","cc":"us","latitude":47.608013,"longitude":-122.33517,"reserved":0,"last_update":"0001-01-01T00:00:00Z","name_a2s":"Uncletopia | Seattle | 3 | Stopwatch Beta","protocol":17,"map":"workshop/koth_bagel_rc5.ugc2514036946","folder":"tf","game":"Team Fortress","app_id":440,"player_count":0,"max_players":24,"Bots":0,"server_type":"Dedicated","server_os":"Linux","password":true,"vac":true,"version":"7742253","steam_id":85568392924515217,"keywords":["cp","nocrits","nodmgspread","uncletopia"],"game_id":440,"stv_port":27036,"stv_name":"Uncletopia | Seattle | 3 | Stopwatch Beta | STV","players":null},{"server_id":17,"name":"Uncletopia | San Francisco | 1 | All Maps","name_short":"sfo-1","host":"sfo-1.us.uncletopia.com","port":27015,"enabled":true,"region":"us-west","cc":"us","latitude":37.77397,"longitude":-122.4313,"reserved":0,"last_update":"0001-01-01T00:00:00Z","name_a2s":"Uncletopia | San Francisco | 1 | All Maps","protocol":17,"map":"cp_snakewater_final1","folder":"tf","game":"Team Fortress","app_id":440,"player_count":0,"max_players":24,"Bots":0,"server_type":"Dedicated","server_os":"Linux","password":true,"vac":true,"version":"7742253","steam_id":85568392924469999,"keywords":["cp","nocrits","nodmgspread","uncletopia"],"game_id":440,"stv_port":27016,"stv_name":"Uncletopia | San Francisco | 1 | All Maps | STV","players":null},{"server_id":18,"name":"Uncletopia | San Francisco | 2 | All Maps","name_short":"sfo-2","host":"sfo-1.us.uncletopia.com","port":27025,"enabled":true,"region":"us-west","cc":"us","latitude":37.77397,"longitude":-122.4313,"reserved":0,"last_update":"0001-01-01T00:00:00Z","name_a2s":"Uncletopia | San Francisco | 2 | All Maps","protocol":17,"map":"koth_viaduct","folder":"tf","game":"Team Fortress","app_id":440,"player_count":0,"max_players":24,"Bots":0,"server_type":"Dedicated","server_os":"Linux","password":true,"vac":true,"version":"7742253","steam_id":85568392924470000,"keywords":["cp","nocrits","nodmgspread","uncletopia"],"game_id":440,"stv_port":27026,"stv_name":"Uncletopia | San Francisco | 2 | All Maps | STV","players":null},{"server_id":19,"name":"Uncletopia | San Francisco | 3 | Stopwatch Beta","name_short":"sfo-3","host":"sfo-1.us.uncletopia.com","port":27035,"enabled":true,"region":"us-west","cc":"us","latitude":37.77397,"longitude":-122.4313,"reserved":0,"last_update":"0001-01-01T00:00:00Z","name_a2s":"Uncletopia | San Francisco | 3 | Stopwatch Beta","protocol":17,"map":"koth_highpass","folder":"tf","game":"Team Fortress","app_id":440,"player_count":0,"max_players":24,"Bots":0,"server_type":"Dedicated","server_os":"Linux","password":true,"vac":true,"version":"7742253","steam_id":85568392924742824,"keywords":["cp","nocrits","nodmgspread","uncletopia"],"game_id":440,"stv_port":27036,"stv_name":"Uncletopia | San Francisco | 3 | Stopwatch Beta | STV","players":null},{"server_id":20,"name":"Uncletopia | San Francisco | 4 | Community","name_short":"sfo-4","host":"sfo-1.us.uncletopia.com","port":27045,"enabled":true,"region":"us-west","cc":"us","latitude":37.77397,"longitude":-122.4313,"reserved":0,"last_update":"0001-01-01T00:00:00Z","name_a2s":"Uncletopia | San Francisco | 4 | Community","protocol":17,"map":"workshop/rd_asteroid_redux_rc9.ugc2154902912","folder":"tf","game":"Team Fortress","app_id":440,"player_count":0,"max_players":24,"Bots":0,"server_type":"Dedicated","server_os":"Linux","password":true,"vac":true,"version":"7742253","steam_id":85568392924742826,"keywords":["beta","nocrits","nodmgspread","rd","uncletopia"],"game_id":440,"stv_port":27046,"stv_name":"Uncletopia | San Francisco | 4 | Community | STV","players":null},{"server_id":141,"name":"Uncletopia | Sydney | 1 | All Maps","name_short":"syd-1","host":"syd-1.au.uncletopia.com","port":27015,"enabled":true,"region":"au","cc":"au","latitude":-33.865143,"longitude":151.2099,"reserved":0,"last_update":"0001-01-01T00:00:00Z","name_a2s":"Uncletopia | Sydney | 1 | All Maps","protocol":17,"map":"koth_lakeside_final","folder":"tf","game":"Team Fortress","app_id":440,"player_count":0,"max_players":24,"Bots":0,"server_type":"Dedicated","server_os":"Linux","password":true,"vac":true,"version":"7742253","steam_id":85568392924470001,"keywords":["cp","nocrits","nodmgspread","uncletopia"],"game_id":440,"stv_port":27016,"stv_name":"Uncletopia | Sydney | 1 | All Maps | STV","players":null},{"server_id":123,"name":"Uncletopia | Sydney | 2 | All Maps","name_short":"syd-2","host":"syd-1.au.uncletopia.com","port":27025,"enabled":true,"region":"au","cc":"au","latitude":-33.865143,"longitude":151.2099,"reserved":0,"last_update":"0001-01-01T00:00:00Z","name_a2s":"Uncletopia | Sydney | 2 | All Maps","protocol":17,"map":"cp_altitude","folder":"tf","game":"Team Fortress","app_id":440,"player_count":5,"max_players":24,"Bots":0,"server_type":"Dedicated","server_os":"Linux","password":true,"vac":true,"version":"7742253","steam_id":85568392924470002,"keywords":["cp","nocrits","nodmgspread","uncletopia"],"game_id":440,"stv_port":27026,"stv_name":"Uncletopia | Sydney | 2 | All Maps | STV","players":[{"user_id":31,"name":"Mr Gottem","steam_id":76561198004006228,"connected_time":977000000000,"state":"active","ping":52},{"user_id":30,"name":"themadlad67","steam_id":76561199309554436,"connected_time":1826000000000,"state":"active","ping":240},{"user_id":32,"name":"Œªlex","steam_id":76561198181194862,"connected_time":951000000000,"state":"active","ping":60},{"user_id":33,"name":"Klusterdash","steam_id":76561198115434016,"connected_time":860000000000,"state":"active","ping":258},{"user_id":35,"name":"RR H√∏se_ (t.tv/hose___)","steam_id":76561198987926475,"connected_time":131000000000,"state":"active","ping":83}]},{"server_id":395,"name":"Uncletopia | Sydney | 3 | All Maps","name_short":"syd-3","host":"syd-1.au.uncletopia.com","port":27035,"enabled":true,"region":"au","cc":"au","latitude":-33.865143,"longitude":151.2099,"reserved":0,"last_update":"0001-01-01T00:00:00Z","name_a2s":"Uncletopia | Sydney | 3 | All Maps","protocol":17,"map":"koth_viaduct","folder":"tf","game":"Team Fortress","app_id":440,"player_count":0,"max_players":24,"Bots":0,"server_type":"Dedicated","server_os":"Linux","password":true,"vac":true,"version":"7742253","steam_id":85568392925194467,"keywords":["cp","nocrits","nodmgspread","uncletopia"],"game_id":440,"stv_port":27036,"stv_name":"Uncletopia | Sydney | 3 | All Maps | STV","players":null},{"server_id":396,"name":"Uncletopia | Sydney | 4 | All Maps","name_short":"syd-4","host":"syd-1.au.uncletopia.com","port":27045,"enabled":true,"region":"au","cc":"au","latitude":-33.865143,"longitude":151.2099,"reserved":0,"last_update":"0001-01-01T00:00:00Z","name_a2s":"Uncletopia | Sydney | 4 | All Maps","protocol":17,"map":"pl_frontier_final","folder":"tf","game":"Team Fortress","app_id":440,"player_count":0,"max_players":24,"Bots":0,"server_type":"Dedicated","server_os":"Linux","password":true,"vac":true,"version":"7742253","steam_id":85568392925397958,"keywords":["nocrits","nodmgspread","payload","uncletopia"],"game_id":440,"stv_port":27046,"stv_name":"Uncletopia | Sydney | 4 | All Maps | STV","players":null},{"server_id":58,"name":"Uncletopia | Sydney | 5 | Stopwatch Beta","name_short":"syd-5","host":"syd-1.au.uncletopia.com","port":27055,"enabled":true,"region":"au","cc":"au","latitude":-33.865143,"longitude":151.2099,"reserved":0,"last_update":"0001-01-01T00:00:00Z","name_a2s":"Uncletopia | Sydney | 5 | Stopwatch Beta","protocol":17,"map":"cp_sunshine","folder":"tf","game":"Team Fortress","app_id":440,"player_count":0,"max_players":24,"Bots":0,"server_type":"Dedicated","server_os":"Linux","password":true,"vac":true,"version":"7742253","steam_id":85568392925397959,"keywords":["cp","nocrits","nodmgspread","uncletopia"],"game_id":440,"stv_port":27056,"stv_name":"Uncletopia | Sydney | 5 | Stopwatch Beta | STV","players":null},{"server_id":59,"name":"Uncletopia | Sydney | 6 | Community","name_short":"syd-6","host":"syd-1.au.uncletopia.com","port":27065,"enabled":true,"region":"au","cc":"au","latitude":-33.865143,"longitude":151.2099,"reserved":0,"last_update":"0001-01-01T00:00:00Z","name_a2s":"Uncletopia | Sydney | 6 | Community","protocol":17,"map":"cp_dustbowl","folder":"tf","game":"Team Fortress","app_id":440,"player_count":0,"max_players":24,"Bots":0,"server_type":"Dedicated","server_os":"Linux","password":true,"vac":true,"version":"7742253","steam_id":85568392925397960,"keywords":["cp","nocrits","nodmgspread","uncletopia"],"game_id":440,"stv_port":27066,"stv_name":"Uncletopia | Sydney | 6 | Community | STV","players":null},{"server_id":49,"name":"Uncletopia | Warsaw | 1 | All Maps","name_short":"waw-1","host":"waw-1.pl.uncletopia.com","port":27015,"enabled":true,"region":"eu","cc":"pl","latitude":52.2297,"longitude":21.017532,"reserved":0,"last_update":"0001-01-01T00:00:00Z","name_a2s":"","protocol":0,"map":"","folder":"","game":"","app_id":0,"player_count":0,"max_players":0,"Bots":0,"server_type":"","server_os":"","password":false,"vac":false,"version":"","steam_id":0,"keywords":null,"game_id":0,"stv_port":0,"stv_name":"","players":null},{"server_id":50,"name":"Uncletopia | Warsaw | 2 | All Maps","name_short":"waw-2","host":"waw-1.pl.uncletopia.com","port":27025,"enabled":true,"region":"eu","cc":"pl","latitude":52.2297,"longitude":21.017532,"reserved":0,"last_update":"0001-01-01T00:00:00Z","name_a2s":"Uncletopia | Warsaw | 2 | All Maps","protocol":17,"map":"koth_lakeside_final","folder":"tf","game":"Team Fortress","app_id":440,"player_count":0,"max_players":24,"Bots":0,"server_type":"Dedicated","server_os":"Linux","password":true,"vac":true,"version":"7742253","steam_id":85568392925397851,"keywords":["cp","nocrits","nodmgspread","uncletopia"],"game_id":440,"stv_port":27026,"stv_name":"Uncletopia | Warsaw | 2 | All Maps | STV","players":null},{"server_id":51,"name":"Uncletopia | Warsaw | 3 | All Maps","name_short":"waw-3","host":"waw-1.pl.uncletopia.com","port":27035,"enabled":true,"region":"eu","cc":"pl","latitude":52.2297,"longitude":21.017532,"reserved":0,"last_update":"0001-01-01T00:00:00Z","name_a2s":"Uncletopia | Warsaw | 3 | All Maps","protocol":17,"map":"koth_lakeside_final","folder":"tf","game":"Team Fortress","app_id":440,"player_count":0,"max_players":24,"Bots":0,"server_type":"Dedicated","server_os":"Linux","password":true,"vac":true,"version":"7742253","steam_id":85568392925397852,"keywords":["cp","nocrits","nodmgspread","uncletopia"],"game_id":440,"stv_port":27036,"stv_name":"Uncletopia | Warsaw | 3 | All Maps | STV","players":null},{"server_id":52,"name":"Uncletopia | Warsaw | 4 | All Maps","name_short":"waw-4","host":"waw-1.pl.uncletopia.com","port":27045,"enabled":true,"region":"eu","cc":"pl","latitude":52.2297,"longitude":21.017532,"reserved":0,"last_update":"0001-01-01T00:00:00Z","name_a2s":"Uncletopia | Warsaw | 4 | All Maps","protocol":17,"map":"pl_swiftwater_final1","folder":"tf","game":"Team Fortress","app_id":440,"player_count":0,"max_players":24,"Bots":0,"server_type":"Dedicated","server_os":"Linux","password":true,"vac":true,"version":"7742253","steam_id":85568392925397853,"keywords":["nocrits","nodmgspread","payload","uncletopia"],"game_id":440,"stv_port":27046,"stv_name":"Uncletopia | Warsaw | 4 | All Maps | STV","players":null},{"server_id":53,"name":"Uncletopia | Warsaw | 5 | Stopwatch Beta","name_short":"waw-5","host":"waw-1.pl.uncletopia.com","port":27055,"enabled":true,"region":"eu","cc":"pl","latitude":52.2297,"longitude":21.017532,"reserved":0,"last_update":"0001-01-01T00:00:00Z","name_a2s":"Uncletopia | Warsaw | 5 | Stopwatch Beta","protocol":17,"map":"pl_swiftwater_final1","folder":"tf","game":"Team Fortress","app_id":440,"player_count":0,"max_players":24,"Bots":0,"server_type":"Dedicated","server_os":"Linux","password":true,"vac":true,"version":"7742253","steam_id":85568392925397854,"keywords":["nocrits","nodmgspread","payload","uncletopia"],"game_id":440,"stv_port":27056,"stv_name":"Uncletopia | Warsaw | 5 | Stopwatch Beta | STV","players":null},{"server_id":54,"name":"Uncletopia | Warsaw | 6 | Community","name_short":"waw-6","host":"waw-1.pl.uncletopia.com","port":27065,"enabled":true,"region":"eu","cc":"pl","latitude":52.2297,"longitude":21.017532,"reserved":0,"last_update":"0001-01-01T00:00:00Z","name_a2s":"Uncletopia | Warsaw | 6 | Community","protocol":17,"map":"koth_highpass","folder":"tf","game":"Team Fortress","app_id":440,"player_count":0,"max_players":24,"Bots":0,"server_type":"Dedicated","server_os":"Linux","password":true,"vac":true,"version":"7742253","steam_id":85568392925397856,"keywords":["cp","nocrits","nodmgspread","uncletopia"],"game_id":440,"stv_port":27066,"stv_name":"Uncletopia | Warsaw | 6 | Community | STV","players":null}]}