{"status":true,"message":"","result":[{"server_id":9,"name":"Uncletopia | Atlanta | 1 | All Maps","name_short":"atl-1","host":"atl-1.us.uncletopia.com","port":27015,"enabled":true,"region":"us-east","cc":"us","latitude":33.753746,"longitude":-84.38633,"reserved":0,"last_update":"0001-01-01T00:00:00Z","name_a2s":"Uncletopia | Atlanta | 1 | All Maps","protocol":17,"map":"plr_nightfall_final","folder":"tf","game":"Team Fortress","app_id":440,"player_count":24,"max_players":24,"Bots":0,"server_type":"Dedicated","server_os":"Linux","password":true,"vac":true,"version":"7757534","steam_id":85568392924469982,"keywords":["nocrits","nodmgspread","payload","uncletopia"],"game_id":440,"stv_port":27016,"stv_name":"Uncletopia | Atlanta | 1 | All Maps | STV","players":[{"user_id":199,"name":"Bali","steam_id":76561198038693845,"connected_time":7604000000000,"state":"active","ping":69},{"user_id":230,"name":"Saggy","steam_id":76561198166706479,"connected_time":4826000000000,"state":"active","ping":86},{"user_id":237,"name":"Temujin","steam_id":76561198030936583,"connected_time":4068000000000,"state":"active","ping":59},{"user_id":276,"name":"yomo","steam_id":76561198063175935,"connected_time":1005000000000,"state":"active","ping":57},{"user_id":249,"name":"Mango","steam_id":76561199209533440,"connected_time":3686000000000,"state":"active","ping":71},{"user_id":265,"name":"Thotimus Begonimus","steam_id":76561197970275938,"connected_time":2216000000000,"state":"active","ping":45},{"user_id":278,"name":"puffy","steam_id":76561198411347037,"connected_time":734000000000,"state":"active","ping":62},{"user_id":280,"name":"Draconic Rift","steam_id":76561198044986440,"connected_time":702000000000,"state":"active","ping":71},{"user_id":281,"name":"Lost CS player","steam_id":76561198892387723,"connected_time":602000000000,"state":"active","ping":70},{"user_id":283,"name":"mayhem","steam_id":76561199246637881,"connected_time":230000000000,"state":"active","ping":60},{"user_id":269,"name":"Broken Cereal‚àö","steam_id":76561198087489795,"connected_time":2017000000000,"state":"active","ping":62},{"user_id":226,"name":"Wedgelord0‚Ñ¢","steam_id":76561198307648112,"connected_time":4953000000000,"state":"active","ping":106},{"user_id":271,"name":"427621","steam_id":76561198822069026,"connected_time":1635000000000,"state":"active","ping":98},{"user_id":217,"name":"G·ÑÇ√Æ∆¨·ÑÉŒâ-Œõ–Ø∆¨√Æ∆ß∆¨ùÖ†","steam_id":76561198829607485,"connected_time":5403000000000,"state":"active","ping":47},{"user_id":282,"name":"Caught a Thundah","steam_id":76561198054495572,"connected_time":242000000000,"state":"active","ping":76},{"user_id":270,"name":"Ashes!","steam_id":76561197998475441,"connected_time":1646000000000,"state":"active","ping":78},{"user_id":264,"name":"dirty30","steam_id":76561198021226566,"connected_time":2229000000000,"state":"active","ping":110},{"user_id":244,"name":"lu","steam_id":76561198080731872,"connected_time":3787000000000,"state":"active","ping":75},{"user_id":267,"name":"You Want Me","steam_id":76561198135492119,"connected_time":2065000000000,"state":"active","ping":71},{"user_id":213,"name":"3,000,000 merged Chihuahuas","steam_id":76561198130772096,"connected_time":5838000000000,"state":"active","ping":46},{"user_id":273,"name":"‚òÖ ‚òÖ AL ‚òÖ ‚òÖ","steam_id":76561199020764069,"connected_time":1062000000000,"state":"active","ping":93},{"user_id":260,"name":"vacuum cleaner","steam_id":76561198073474255,"connected_time":2809000000000,"state":"active","ping":54},{"user_id":262,"name":"David De Bergerac","steam_id":76561198010306294,"connected_time":2740000000000,"state":"active","ping":86},{"user_id":275,"name":"Trey The Awesome","steam_id":76561198370718264,"connected_time":1037000000000,"state":"active","ping":65}]},{"server_id":400,"name":"Uncletopia | Atlanta | 3 | Community","name_short":"atl-3","host":"atl-1.us.uncletopia.com","port":27035,"enabled":true,"region":"us-east","cc":"us","latitude":33.753746,"longitude":-84.38633,"reserved":0,"last_update":"0001-01-01T00:00:00Z","name_a2s":"Uncletopia | Atlanta | 3 | Community","protocol":17,"map":"workshop/koth_bagel_rc6.ugc2514036946","folder":"tf","game":"Team Fortress","app_id":440,"player_count":0,"max_players":24,"Bots":0,"server_type":"Dedicated","server_os":"Linux","password":true,"vac":true,"version":"7757534","steam_id":85568392924515187,"keywords":["cp","nocrits","nodmgspread","uncletopia"],"game_id":440,"stv_port":27036,"stv_name":"Uncletopia | Atlanta | 3 | Community | STV","players":null},{"server_id":401,"name":"Uncletopia | Atlanta | 4 | No Payload","name_short":"atl-4","host":"atl-1.us.uncletopia.com","port":27045,"enabled":true,"region":"us-east","cc":"us","latitude":33.753746,"longitude":-84.38633,"reserved":0,"last_update":"0001-01-01T00:00:00Z","name_a2s":"","protocol":0,"map":"","folder":"","game":"","app_id":0,"player_count":0,"max_players":0,"Bots":0,"server_type":"","server_os":"","password":false,"vac":false,"version":"","steam_id":0,"keywords":null,"game_id":0,"stv_port":0,"stv_name":"","players":null},{"server_id":2,"name":"Uncletopia | Chicago | 1 | All Maps","name_short":"chi-1","host":"chi-1.us.uncletopia.com","port":27015,"enabled":true,"region":"us-central","cc":"us","latitude":41.881832,"longitude":-87.62318,"reserved":0,"last_update":"0001-01-01T00:00:00Z","name_a2s":"Uncletopia | Chicago | 1 | All Maps","protocol":17,"map":"pl_barnblitz","folder":"tf","game":"Team Fortress","app_id":440,"player_count":24,"max_players":24,"Bots":0,"server_type":"Dedicated","server_os":"Linux","password":true,"vac":true,"version":"7757534","steam_id":85568392924469984,"keywords":["nocrits","nodmgspread","payload","uncletopia"],"game_id":440,"stv_port":27016,"stv_name":"Uncletopia | Chicago | 1 | All Maps | STV","players":[{"user_id":102,"name":"worker","steam_id":76561198039608940,"connected_time":871000000000,"state":"active","ping":139},{"user_id":94,"name":"sam","steam_id":76561198217362968,"connected_time":1146000000000,"state":"active","ping":75},{"user_id":68,"name":"floral green","steam_id":76561198332519926,"connected_time":3600000000000,"state":"active","ping":83},{"user_id":74,"name":"shake","steam_id":76561199064204750,"connected_time":3368000000000,"state":"active","ping":78},{"user_id":98,"name":"creeeeeee","steam_id":76561198392539722,"connected_time":1023000000000,"state":"active","ping":83},{"user_id":99,"name":"trappy (showered)","steam_id":76561198402801140,"connected_time":1000000000000,"state":"active","ping":64},{"user_id":20,"name":"MARIOPARTYDSFAN","steam_id":76561198872122117,"connected_time":6991000000000,"state":"active","ping":64},{"user_id":107,"name":"debin","steam_id":76561198070711217,"connected_time":669000000000,"state":"active","ping":49},{"user_id":96,"name":"edwinbrood","steam_id":76561198044848769,"connected_time":1102000000000,"state":"active","ping":59},{"user_id":23,"name":"Mr_Frosty","steam_id":76561199380389079,"connected_time":6892000000000,"state":"active","ping":97},{"user_id":110,"name":"Astoriae!","steam_id":76561199090168858,"connected_time":424000000000,"state":"active","ping":65},{"user_id":97,"name":"‚àÄ…ê","steam_id":76561198139718219,"connected_time":1085000000000,"state":"active","ping":84},{"user_id":87,"name":"vv","steam_id":76561198134813102,"connected_time":1503000000000,"state":"active","ping":55},{"user_id":89,"name":"@yo_grrt","steam_id":76561198012510968,"connected_time":1247000000000,"state":"active","ping":55},{"user_id":69,"name":"The Land Admiral","steam_id":76561198159356609,"connected_time":3599000000000,"state":"active","ping":72},{"user_id":100,"name":"frank","steam_id":76561198045436159,"connected_time":927000000000,"state":"active","ping":73},{"user_id":40,"name":"pelt","steam_id":76561197993593754,"connected_time":6217000000000,"state":"active","ping":48},{"user_id":91,"name":"Pickle_Fish","steam_id":76561198315172385,"connected_time":1243000000000,"state":"active","ping":76},{"user_id":101,"name":"StatesideSnake","steam_id":76561198272957048,"connected_time":920000000000,"state":"active","ping":95},{"user_id":103,"name":"Dr. Hashbrown","steam_id":76561198410780370,"connected_time":826000000000,"state":"active","ping":100},{"user_id":34,"name":"DUDE WEED LMAO 2k23","steam_id":76561198091111592,"connected_time":6576000000000,"state":"active","ping":64},{"user_id":109,"name":"Bad Rollout","steam_id":76561197971948876,"connected_time":524000000000,"state":"active","ping":70},{"user_id":63,"name":"qiulongtao","steam_id":76561198977558717,"connected_time":4578000000000,"state":"active","ping":81},{"user_id":37,"name":"HighJingo","steam_id":76561198846814390,"connected_time":6555000000000,"state":"active","ping":70}]},{"server_id":106,"name":"Uncletopia | Chicago | 2 | All Maps","name_short":"chi-2","host":"chi-1.us.uncletopia.com","port":27025,"enabled":true,"region":"us-central","cc":"us","latitude":41.881832,"longitude":-87.62318,"reserved":0,"last_update":"0001-01-01T00:00:00Z","name_a2s":"Uncletopia | Chicago | 2 | All Maps","protocol":17,"map":"pl_pier","folder":"tf","game":"Team Fortress","app_id":440,"player_count":0,"max_players":24,"Bots":0,"server_type":"Dedicated","server_os":"Linux","password":true,"vac":true,"version":"7757534","steam_id":85568392924469985,"keywords":["nocrits","nodmgspread","payload","uncletopia"],"game_id":440,"stv_port":27026,"stv_name":"Uncletopia | Chicago | 2 | All Maps | STV","players":null},{"server_id":402,"name":"Uncletopia | Chicago | 3 | All Maps","name_short":"chi-3","host":"chi-1.us.uncletopia.com","port":27035,"enabled":true,"region":"us-central","cc":"us","latitude":41.881832,"longitude":-87.62318,"reserved":0,"last_update":"0001-01-01T00:00:00Z","name_a2s":"Uncletopia | Chicago | 3 | All Maps","protocol":17,"map":"koth_highpass","folder":"tf","game":"Team Fortress","app_id":440,"player_count":24,"max_players":24,"Bots":0,"server_type":"Dedicated","server_os":"Linux","password":true,"vac":true,"version":"7757534","steam_id":85568392924515191,"keywords":["cp","nocrits","nodmgspread","uncletopia"],"game_id":440,"stv_port":27036,"stv_name":"Uncletopia | Chicago | 3 | All Maps | STV","players":[{"user_id":53,"name":"Henk_de_Patatman","steam_id":76561198070103191,"connected_time":881000000000,"state":"active","ping":132},{"user_id":85,"name":"Possessd Pyro","steam_id":76561198389830988,"connected_time":59000000000,"state":"active","ping":61},{"user_id":78,"name":"Zuffin","steam_id":76561198072968677,"connected_time":209000000000,"state":"active","ping":61},{"user_id":59,"name":"alolan duntski","steam_id":76561198038826744,"connected_time":618000000000,"state":"active","ping":54},{"user_id":58,"name":"UNIT 220","steam_id":76561198042243497,"connected_time":652000000000,"state":"active","ping":65},{"user_id":62,"name":"Parmajohn","steam_id":76561198037302579,"connected_time":558000000000,"state":"active","ping":73},{"user_id":79,"name":"Garfield","steam_id":76561198427292932,"connected_time":190000000000,"state":"active","ping":57},{"user_id":74,"name":"girlpeen supreme","steam_id":76561198031242903,"connected_time":306000000000,"state":"active","ping":66},{"user_id":75,"name":"The Drunk Clown","steam_id":76561197986850426,"connected_time":284000000000,"state":"active","ping":76},{"user_id":64,"name":"Your Benefactor","steam_id":76561198273275624,"connected_time":517000000000,"state":"active","ping":82},{"user_id":65,"name":"Hob-Goblin Jim The IV","steam_id":76561199046650666,"connected_time":505000000000,"state":"active","ping":51},{"user_id":40,"name":"Chicanery","steam_id":76561198977589038,"connected_time":1883000000000,"state":"active","ping":69},{"user_id":76,"name":"LegendaryMister151","steam_id":76561198064890524,"connected_time":284000000000,"state":"active","ping":87},{"user_id":67,"name":"FIREPOW!!","steam_id":76561198111259720,"connected_time":499000000000,"state":"active","ping":63},{"user_id":80,"name":"What The Hell Fried Chicken","steam_id":76561198117434605,"connected_time":183000000000,"state":"active","ping":74},{"user_id":69,"name":"Roadhog (real)","steam_id":76561198948401045,"connected_time":458000000000,"state":"active","ping":69},{"user_id":70,"name":"ChillyJones","steam_id":76561198017658702,"connected_time":452000000000,"state":"active","ping":83},{"user_id":86,"name":"SlooperSoaker","steam_id":76561198121050895,"connected_time":43000000000,"state":"active","ping":77},{"user_id":82,"name":"Basil Gaming","steam_id":76561199150611560,"connected_time":133000000000,"state":"active","ping":73},{"user_id":83,"name":"rustyorion","steam_id":76561198439186347,"connected_time":102000000000,"state":"active","ping":97},{"user_id":84,"name":"Alexhcgar„ÉÖ","steam_id":76561198085706389,"connected_time":82000000000,"state":"active","ping":109},{"user_id":51,"name":"Ty","steam_id":76561198132068284,"connected_time":1607000000000,"state":"active","ping":73},{"user_id":87,"name":"maS","steam_id":76561198033846407,"connected_time":43000000000,"state":"active","ping":57},{"user_id":88,"name":"CrunchySaturns","steam_id":76561198126780534,"connected_time":36000000000,"state":"spawning","ping":61}]},{"server_id":403,"name":"Uncletopia | Chicago | 4 | All Maps","name_short":"chi-4","host":"chi-1.us.uncletopia.com","port":27045,"enabled":true,"region":"us-central","cc":"us","latitude":41.881832,"longitude":-87.62318,"reserved":0,"last_update":"0001-01-01T00:00:00Z","name_a2s":"Uncletopia | Chicago | 4 | All Maps","protocol":17,"map":"koth_suijin","folder":"tf","game":"Team Fortress","app_id":440,"player_count":9,"max_players":24,"Bots":0,"server_type":"Dedicated","server_os":"Linux","password":true,"vac":true,"version":"7757534","steam_id":85568392924515193,"keywords":["cp","nocrits","nodmgspread","uncletopia"],"game_id":440,"stv_port":27046,"stv_name":"Uncletopia | Chicago | 4 | All Maps | STV","players":[{"user_id":432,"name":"Am37000","steam_id":76561198872232094,"connected_time":107000000000,"state":"active","ping":96},{"user_id":430,"name":"guess","steam_id":76561198140846580,"connected_time":543000000000,"state":"active","ping":58},{"user_id":411,"name":"Ivan I","steam_id":76561198341781527,"connected_time":1471000000000,"state":"active","ping":86},{"user_id":404,"name":"psy","steam_id":76561198013195018,"connected_time":1724000000000,"state":"active","ping":72},{"user_id":431,"name":"User","steam_id":76561198123471222,"connected_time":341000000000,"state":"active","ping":37},{"user_id":426,"name":"SinkPinkles","steam_id":76561197987805095,"connected_time":906000000000,"state":"active","ping":77},{"user_id":419,"name":"Capt. Grins","steam_id":76561198032663494,"connected_time":1289000000000,"state":"active","ping":67},{"user_id":427,"name":"atomico","steam_id":76561198844320551,"connected_time":872000000000,"state":"active","ping":144},{"user_id":384,"name":"Artsias","steam_id":76561198076607410,"connected_time":3011000000000,"state":"active","ping":72}]},{"server_id":36,"name":"Uncletopia | Chicago | 5 | All Maps","name_short":"chi-5","host":"chi-2.us.uncletopia.com","port":27015,"enabled":true,"region":"us-central","cc":"us","latitude":41.881832,"longitude":-87.62318,"reserved":0,"last_update":"0001-01-01T00:00:00Z","name_a2s":"Uncletopia | Chicago | 5 | All Maps","protocol":17,"map":"koth_lakeside_final","folder":"tf","game":"Team Fortress","app_id":440,"player_count":1,"max_players":24,"Bots":0,"server_type":"Dedicated","server_os":"Linux","password":true,"vac":true,"version":"7757534","steam_id":85568392924866362,"keywords":["cp","nocrits","nodmgspread","uncletopia"],"game_id":440,"stv_port":27016,"stv_name":"Uncletopia | Chicago | 5 | All Maps | STV","players":[{"user_id":5,"name":"DotBozo","steam_id":76561199131091835,"connected_time":617000000000,"state":"active","ping":55}]},{"server_id":37,"name":"Uncletopia | Chicago | 6 | All Maps","name_short":"chi-6","host":"chi-2.us.uncletopia.com","port":27025,"enabled":true,"region":"us-central","cc":"us","latitude":41.881832,"longitude":-87.62318,"reserved":0,"last_update":"0001-01-01T00:00:00Z","name_a2s":"Uncletopia | Chicago | 6 | All Maps","protocol":17,"map":"cp_altitude","folder":"tf","game":"Team Fortress","app_id":440,"player_count":0,"max_players":24,"Bots":0,"server_type":"Dedicated","server_os":"Linux","password":true,"vac":true,"version":"7757534","steam_id":85568392924866363,"keywords":["cp","nocrits","nodmgspread","uncletopia"],"game_id":440,"stv_port":27026,"stv_name":"Uncletopia | Chicago | 6 | All Maps | STV","players":null},{"server_id":38,"name":"Uncletopia | Chicago | 7 | Stopwatch Beta","name_short":"chi-7","host":"chi-2.us.uncletopia.com","port":27035,"enabled":true,"region":"us-central","cc":"us","latitude":41.881832,"longitude":-87.62318,"reserved":0,"last_update":"0001-01-01T00:00:00Z","name_a2s":"Uncletopia | Chicago | 7 | Stopwatch Beta","protocol":17,"map":"koth_viaduct","folder":"tf","game":"Team Fortress","app_id":440,"player_count":0,"max_players":24,"Bots":0,"server_type":"Dedicated","server_os":"Linux","password":true,"vac":true,"version":"7757534","steam_id":85568392924866364,"keywords":["cp","nocrits","nodmgspread","uncletopia"],"game_id":440,"stv_port":27036,"stv_name":"Uncletopia | Chicago | 7 | Stopwatch Beta | STV","players":null},{"server_id":39,"name":"Uncletopia | Chicago | 8 | Community","name_short":"chi-8","host":"chi-2.us.uncletopia.com","port":27045,"enabled":true,"region":"us-central","cc":"us","latitude":41.881832,"longitude":-87.62318,"reserved":0,"last_update":"0001-01-01T00:00:00Z","name_a2s":"Uncletopia | Chicago | 8 | Community","protocol":17,"map":"koth_lakeside_final","folder":"tf","game":"Team Fortress","app_id":440,"player_count":0,"max_players":24,"Bots":0,"server_type":"Dedicated","server_os":"Linux","password":true,"vac":true,"version":"7757534","steam_id":85568392924866365,"keywords":["cp","nocrits","nodmgspread","uncletopia"],"game_id":440,"stv_port":27046,"stv_name":"Uncletopia | Chicago | 8 | Community | STV","players":null},{"server_id":8,"name":"Uncletopia | Dallas | 1 | All Maps","name_short":"dal-1","host":"dal-1.us.uncletopia.com","port":27015,"enabled":true,"region":"us-central","cc":"us","latitude":32.779167,"longitude":-96.80889,"reserved":0,"last_update":"0001-01-01T00:00:00Z","name_a2s":"Uncletopia | Dallas | 1 | All Maps","protocol":17,"map":"cp_process_final","folder":"tf","game":"Team Fortress","app_id":440,"player_count":23,"max_players":24,"Bots":0,"server_type":"Dedicated","server_os":"Linux","password":true,"vac":true,"version":"7757534","steam_id":85568392924469986,"keywords":["cp","nocrits","nodmgspread","uncletopia"],"game_id":440,"stv_port":27016,"stv_name":"Uncletopia | Dallas | 1 | All Maps | STV","players":[{"user_id":147,"name":"Zerow","steam_id":76561198362623418,"connected_time":1725000000000,"state":"active","ping":45},{"user_id":126,"name":"samsoeder","steam_id":76561198293741183,"connected_time":3089000000000,"state":"active","ping":66},{"user_id":69,"name":"Bo","steam_id":76561198023975550,"connected_time":8642000000000,"state":"active","ping":163},{"user_id":110,"name":"Scrimms Bingle","steam_id":76561198094085803,"connected_time":5189000000000,"state":"active","ping":92},{"user_id":175,"name":"ƒ†1 ‚ô¶ Synth","steam_id":76561198058660228,"connected_time":4000000000,"state":"spawning","ping":44},{"user_id":165,"name":"a_person","steam_id":76561199038072811,"connected_time":188000000000,"state":"active","ping":76},{"user_id":169,"name":"Koco","steam_id":76561198039063999,"connected_time":116000000000,"state":"active","ping":191},{"user_id":156,"name":"Firedust19","steam_id":76561198153238631,"connected_time":907000000000,"state":"active","ping":93},{"user_id":167,"name":"Noat","steam_id":76561198440133310,"connected_time":149000000000,"state":"active","ping":83},{"user_id":92,"name":"Shun Rosen","steam_id":76561198012823909,"connected_time":6461000000000,"state":"active","ping":90},{"user_id":159,"name":"Silvermace","steam_id":76561198090696843,"connected_time":683000000000,"state":"active","ping":59},{"user_id":162,"name":"gatorbelt","steam_id":76561198145784505,"connected_time":417000000000,"state":"active","ping":75},{"user_id":168,"name":"Mr.Friendly Reminders","steam_id":76561199067294491,"connected_time":146000000000,"state":"active","ping":77},{"user_id":171,"name":"Periergos","steam_id":76561198062030412,"connected_time":91000000000,"state":"active","ping":57},{"user_id":163,"name":"Prof. Eggnog","steam_id":76561198193389166,"connected_time":264000000000,"state":"active","ping":98},{"user_id":133,"name":"bottom pride burger","steam_id":76561198322247602,"connected_time":2929000000000,"state":"active","ping":85},{"user_id":143,"name":"F_L BongRipper","steam_id":76561198047136927,"connected_time":2143000000000,"state":"active","ping":76},{"user_id":53,"name":"colondi","steam_id":76561199000786530,"connected_time":9874000000000,"state":"active","ping":71},{"user_id":172,"name":"jimbo","steam_id":76561198046059770,"connected_time":85000000000,"state":"active","ping":75},{"user_id":174,"name":"Sock #NEWTF2Hunt","steam_id":76561198069090237,"connected_time":29000000000,"state":"active","ping":55},{"user_id":111,"name":"mel","steam_id":76561198097124190,"connected_time":5120000000000,"state":"active","ping":45},{"user_id":117,"name":"icm2008","steam_id":76561199277408836,"connected_time":4486000000000,"state":"active","ping":90},{"user_id":158,"name":"Luffa Rigno","steam_id":76561197998700507,"connected_time":806000000000,"state":"active","ping":117}]},{"server_id":108,"name":"Uncletopia | Dallas | 2 | All Maps","name_short":"dal-2","host":"dal-1.us.uncletopia.com","port":27025,"enabled":true,"region":"us-central","cc":"us","latitude":32.779167,"longitude":-96.80889,"reserved":0,"last_update":"0001-01-01T00:00:00Z","name_a2s":"Uncletopia | Dallas | 2 | All Maps","protocol":17,"map":"pl_pier","folder":"tf","game":"Team Fortress","app_id":440,"player_count":0,"max_players":24,"Bots":0,"server_type":"Dedicated","server_os":"Linux","password":true,"vac":true,"version":"7757534","steam_id":85568392924469988,"keywords":["nocrits","nodmgspread","payload","uncletopia"],"game_id":440,"stv_port":27026,"stv_name":"Uncletopia | Dallas | 2 | All Maps | STV","players":null},{"server_id":5,"name":"Uncletopia | Frankfurt | 1 | All Maps","name_short":"frk-1","host":"frk-1.de.uncletopia.com","port":27015,"enabled":true,"region":"eu","cc":"de","latitude":50.110924,"longitude":8.682127,"reserved":0,"last_update":"0001-01-01T00:00:00Z","name_a2s":"Uncletopia | Frankfurt | 1 | All Maps","protocol":17,"map":"koth_viaduct","folder":"tf","game":"Team Fortress","app_id":440,"player_count":0,"max_players":24,"Bots":0,"server_type":"Dedicated","server_os":"Linux","password":true,"vac":true,"version":"7757534","steam_id":85568392924469989,"keywords":["cp","nocrits","nodmgspread","uncletopia"],"game_id":440,"stv_port":27016,"stv_name":"Uncletopia | Frankfurt | 1 | All Maps | STV","players":null},{"server_id":110,"name":"Uncletopia | Frankfurt | 2 | All Maps","name_short":"frk-2","host":"frk-1.de.uncletopia.com","port":27025,"enabled":true,"region":"eu","cc":"de","latitude":50.110924,"longitude":8.682127,"reserved":0,"last_update":"0001-01-01T00:00:00Z","name_a2s":"Uncletopia | Frankfurt | 2 | All Maps","protocol":17,"map":"pl_borneo","folder":"tf","game":"Team Fortress","app_id":440,"player_count":24,"max_players":24,"Bots":0,"server_type":"Dedicated","server_os":"Linux","password":true,"vac":true,"version":"7757534","steam_id":85568392924469990,"keywords":["nocrits","nodmgspread","payload","uncletopia"],"game_id":440,"stv_port":27026,"stv_name":"Uncletopia | Frankfurt | 2 | All Maps | STV","players":[{"user_id":248,"name":"Gimli","steam_id":76561198004149706,"connected_time":6289000000000,"state":"active","ping":72},{"user_id":292,"name":"wasps","steam_id":76561198049485054,"connected_time":3245000000000,"state":"active","ping":82},{"user_id":325,"name":"hananamanna","steam_id":76561198006570285,"connected_time":940000000000,"state":"active","ping":112},{"user_id":293,"name":"fl1p","steam_id":76561198148565659,"connected_time":3186000000000,"state":"active","ping":78},{"user_id":280,"name":"john fortress","steam_id":76561198013237629,"connected_time":4456000000000,"state":"active","ping":96},{"user_id":337,"name":"vani","steam_id":76561197991778291,"connected_time":250000000000,"state":"active","ping":75},{"user_id":326,"name":"Cheddar","steam_id":76561198094192281,"connected_time":707000000000,"state":"active","ping":62},{"user_id":329,"name":"blazeeight","steam_id":76561198159456502,"connected_time":578000000000,"state":"active","ping":66},{"user_id":322,"name":"Doriian","steam_id":76561198071438810,"connected_time":965000000000,"state":"active","ping":82},{"user_id":294,"name":"ü¶ê Tust ü¶ê","steam_id":76561198045694677,"connected_time":3158000000000,"state":"active","ping":64},{"user_id":330,"name":"—Ç–æ–ª—è","steam_id":76561199098518615,"connected_time":569000000000,"state":"active","ping":84},{"user_id":336,"name":"YuraGreek","steam_id":76561198050182252,"connected_time":353000000000,"state":"active","ping":69},{"user_id":323,"name":"tosti_tower","steam_id":76561198153445364,"connected_time":965000000000,"state":"active","ping":62},{"user_id":312,"name":"monky","steam_id":76561199380595946,"connected_time":2087000000000,"state":"active","ping":48},{"user_id":332,"name":"The Empire Ant","steam_id":76561198082466790,"connected_time":560000000000,"state":"active","ping":60},{"user_id":333,"name":"Mass","steam_id":76561198432195204,"connected_time":554000000000,"state":"active","ping":49},{"user_id":334,"name":"After8","steam_id":76561198090750865,"connected_time":536000000000,"state":"active","ping":63},{"user_id":262,"name":"‚òÖpoyo‚òÖ","steam_id":76561198150078959,"connected_time":5346000000000,"state":"active","ping":81},{"user_id":335,"name":"wave","steam_id":76561198014688238,"connected_time":528000000000,"state":"active","ping":73},{"user_id":314,"name":"whatever","steam_id":76561198095943461,"connected_time":1993000000000,"state":"active","ping":60},{"user_id":233,"name":"Birdseye","steam_id":76561198025852216,"connected_time":7783000000000,"state":"active","ping":60},{"user_id":290,"name":"Amandus","steam_id":76561198036281079,"connected_time":3601000000000,"state":"active","ping":66},{"user_id":320,"name":"I was good before.","steam_id":76561198187045217,"connected_time":1182000000000,"state":"active","ping":76},{"user_id":236,"name":"Space","steam_id":76561198021572167,"connected_time":7751000000000,"state":"active","ping":60}]},{"server_id":308,"name":"Uncletopia | Frankfurt | 3 | All Maps","name_short":"frk-3","host":"frk-1.de.uncletopia.com","port":27035,"enabled":true,"region":"eu","cc":"de","latitude":50.110924,"longitude":8.682127,"reserved":0,"last_update":"0001-01-01T00:00:00Z","name_a2s":"Uncletopia | Frankfurt | 3 | All Maps","protocol":17,"map":"pl_upward","folder":"tf","game":"Team Fortress","app_id":440,"player_count":23,"max_players":24,"Bots":0,"server_type":"Dedicated","server_os":"Linux","password":true,"vac":true,"version":"7757534","steam_id":85568392924504274,"keywords":["nocrits","nodmgspread","payload","uncletopia"],"game_id":440,"stv_port":27036,"stv_name":"Uncletopia | Frankfurt | 3 | All Maps | STV","players":[{"user_id":366,"name":"TryX","steam_id":76561199356781475,"connected_time":2833000000000,"state":"active","ping":60},{"user_id":396,"name":"Kira","steam_id":76561198204168909,"connected_time":453000000000,"state":"active","ping":110},{"user_id":404,"name":"‚ô´‚òÖXriasp‚òÖ‚ô´","steam_id":76561198104721321,"connected_time":43000000000,"state":"active","ping":69},{"user_id":386,"name":"Lennox","steam_id":76561198069063554,"connected_time":1504000000000,"state":"active","ping":41},{"user_id":353,"name":"Milfshake","steam_id":76561198208740557,"connected_time":3587000000000,"state":"active","ping":46},{"user_id":362,"name":"Ablativus","steam_id":76561198025698470,"connected_time":3068000000000,"state":"active","ping":74},{"user_id":343,"name":"Adrenaline","steam_id":76561197970852048,"connected_time":4094000000000,"state":"active","ping":59},{"user_id":369,"name":"generic alias","steam_id":76561198271607226,"connected_time":2464000000000,"state":"active","ping":90},{"user_id":378,"name":"Joff-tchoff-tchoffo-tchoffo-tch","steam_id":76561198044167743,"connected_time":2080000000000,"state":"active","ping":96},{"user_id":352,"name":"Hot Lizard Mom","steam_id":76561198060638325,"connected_time":3589000000000,"state":"active","ping":44},{"user_id":381,"name":"ok","steam_id":76561198320042443,"connected_time":1816000000000,"state":"active","ping":105},{"user_id":367,"name":"Mr. Mundy","steam_id":76561198132008918,"connected_time":2799000000000,"state":"active","ping":79},{"user_id":397,"name":"Hexagon","steam_id":76561198151205758,"connected_time":452000000000,"state":"active","ping":51},{"user_id":388,"name":"alphawarrior999","steam_id":76561199001580062,"connected_time":1428000000000,"state":"active","ping":152},{"user_id":390,"name":"caps.","steam_id":76561198116528817,"connected_time":1068000000000,"state":"active","ping":66},{"user_id":401,"name":"Moonlightexel","steam_id":76561198262044897,"connected_time":396000000000,"state":"active","ping":84},{"user_id":395,"name":"Gabys","steam_id":76561198282892553,"connected_time":487000000000,"state":"active","ping":74},{"user_id":376,"name":"a hot weiner grandmother","steam_id":76561198381120660,"connected_time":2250000000000,"state":"active","ping":89},{"user_id":403,"name":"the joy of recycling","steam_id":76561198415564349,"connected_time":188000000000,"state":"active","ping":60},{"user_id":297,"name":"Hot Wizard Mom","steam_id":76561198253734265,"connected_time":6578000000000,"state":"active","ping":92},{"user_id":385,"name":"HOT LOIS","steam_id":76561198302623594,"connected_time":1516000000000,"state":"active","ping":111},{"user_id":359,"name":"–Ω–æ—á—å –Ω–∞ –ª–∞–¥–æ–Ω–µ","steam_id":76561197994492154,"connected_time":3289000000000,"state":"active","ping":62},{"user_id":394,"name":"nedilya","steam_id":76561198039692077,"connected_time":514000000000,"state":"active","ping":57}]},{"server_id":309,"name":"Uncletopia | Frankfurt | 4 | All Maps","name_short":"frk-4","host":"frk-1.de.uncletopia.com","port":27045,"enabled":true,"region":"eu","cc":"de","latitude":50.110924,"longitude":8.682127,"reserved":0,"last_update":"0001-01-01T00:00:00Z","name_a2s":"Uncletopia | Frankfurt | 4 | All Maps","protocol":17,"map":"cp_powerhouse","folder":"tf","game":"Team Fortress","app_id":440,"player_count":24,"max_players":24,"Bots":0,"server_type":"Dedicated","server_os":"Linux","password":true,"vac":true,"version":"7757534","steam_id":85568392924504275,"keywords":["cp","nocrits","nodmgspread","uncletopia"],"game_id":440,"stv_port":27046,"stv_name":"Uncletopia | Frankfurt | 4 | All Maps | STV","players":[{"user_id":296,"name":"TJ1212","steam_id":76561199013575313,"connected_time":938000000000,"state":"active","ping":57},{"user_id":308,"name":"b√°j√∂nik√∂l","steam_id":76561198273042780,"connected_time":145000000000,"state":"active","ping":62},{"user_id":284,"name":"tua","steam_id":76561198034955422,"connected_time":1490000000000,"state":"active","ping":75},{"user_id":285,"name":"Joey Lemons","steam_id":76561198068104187,"connected_time":1484000000000,"state":"active","ping":147},{"user_id":194,"name":"citronous","steam_id":76561198093290934,"connected_time":7274000000000,"state":"active","ping":59},{"user_id":305,"name":"m√®x","steam_id":76561197975951572,"connected_time":659000000000,"state":"active","ping":47},{"user_id":275,"name":"poliakov.noam","steam_id":76561199259322961,"connected_time":1973000000000,"state":"active","ping":104},{"user_id":283,"name":"Sin-T Gaming","steam_id":76561199105173837,"connected_time":1549000000000,"state":"active","ping":69},{"user_id":292,"name":"Taez","steam_id":76561198261820803,"connected_time":1225000000000,"state":"active","ping":68},{"user_id":243,"name":"Penis Contortionist","steam_id":76561198073663784,"connected_time":3505000000000,"state":"active","ping":51},{"user_id":276,"name":"Dranos","steam_id":76561198057197287,"connected_time":1881000000000,"state":"active","ping":59},{"user_id":286,"name":"Vershal Smershal","steam_id":76561198116223995,"connected_time":1456000000000,"state":"active","ping":59},{"user_id":299,"name":"Endi","steam_id":76561198914938199,"connected_time":892000000000,"state":"active","ping":90},{"user_id":293,"name":"silenk","steam_id":76561198367689055,"connected_time":1148000000000,"state":"active","ping":61},{"user_id":282,"name":"God's Goofiest Goober","steam_id":76561198103175187,"connected_time":1562000000000,"state":"active","ping":65},{"user_id":251,"name":"Kvicha Kvaratskhelia","steam_id":76561198179339326,"connected_time":2646000000000,"state":"active","ping":76},{"user_id":300,"name":"Solymr ibn Wali Barad","steam_id":76561198044008976,"connected_time":871000000000,"state":"active","ping":75},{"user_id":307,"name":"_Shkoot","steam_id":76561198318170398,"connected_time":297000000000,"state":"active","ping":54},{"user_id":279,"name":"Doctor Mobius","steam_id":76561197971281806,"connected_time":1620000000000,"state":"active","ping":66},{"user_id":303,"name":"yang","steam_id":76561198078647081,"connected_time":785000000000,"state":"active","ping":74},{"user_id":306,"name":"plazma","steam_id":76561198886594048,"connected_time":561000000000,"state":"active","ping":126},{"user_id":310,"name":"=^_^=","steam_id":76561198076494034,"connected_time":42000000000,"state":"active","ping":58},{"user_id":274,"name":"Pootis penser","steam_id":76561198944032480,"connected_time":2001000000000,"state":"active","ping":89},{"user_id":266,"name":"Nugget","steam_id":76561198338916407,"connected_time":2227000000000,"state":"active","ping":81}]},{"server_id":310,"name":"Uncletopia | Frankfurt | 5 | All Maps","name_short":"frk-5","host":"frk-1.de.uncletopia.com","port":27055,"enabled":true,"region":"eu","cc":"de","latitude":50.110924,"longitude":8.682127,"reserved":0,"last_update":"0001-01-01T00:00:00Z","name_a2s":"Uncletopia | Frankfurt | 5 | All Maps","protocol":17,"map":"koth_highpass","folder":"tf","game":"Team Fortress","app_id":440,"player_count":0,"max_players":24,"Bots":0,"server_type":"Dedicated","server_os":"Linux","password":true,"vac":true,"version":"7757534","steam_id":85568392924504277,"keywords":["cp","nocrits","nodmgspread","uncletopia"],"game_id":440,"stv_port":27056,"stv_name":"Uncletopia | Frankfurt | 5 | All Maps | STV","players":null},{"server_id":311,"name":"Uncletopia | Frankfurt | 6 | All Maps","name_short":"frk-6","host":"frk-1.de.uncletopia.com","port":27065,"enabled":true,"region":"eu","cc":"de","latitude":50.110924,"longitude":8.682127,"reserved":0,"last_update":"0001-01-01T00:00:00Z","name_a2s":"Uncletopia | Frankfurt | 6 | All Maps","protocol":17,"map":"koth_highpass","folder":"tf","game":"Team Fortress","app_id":440,"player_count":21,"max_players":24,"Bots":0,"server_type":"Dedicated","server_os":"Linux","password":true,"vac":true,"version":"7757534","steam_id":85568392924504278,"keywords":["cp","nocrits","nodmgspread","uncletopia"],"game_id":440,"stv_port":27066,"stv_name":"Uncletopia | Frankfurt | 6 | All Maps | STV","players":[{"user_id":14,"name":"Lukero","steam_id":76561198301594341,"connected_time":957000000000,"state":"active","ping":64},{"user_id":23,"name":"Rickario","steam_id":76561199068338969,"connected_time":507000000000,"state":"active","ping":55},{"user_id":13,"name":"PaperBagGuy ‚å´","steam_id":76561198419513196,"connected_time":1365000000000,"state":"active","ping":72},{"user_id":15,"name":"meatsoupcube","steam_id":76561198276802249,"connected_time":953000000000,"state":"active","ping":106},{"user_id":16,"name":"cof","steam_id":76561199128417805,"connected_time":943000000000,"state":"active","ping":69},{"user_id":17,"name":"Carrot Arc","steam_id":76561198164957006,"connected_time":791000000000,"state":"active","ping":84},{"user_id":18,"name":"Unfortunate","steam_id":76561198125500777,"connected_time":702000000000,"state":"active","ping":85},{"user_id":20,"name":"Bob.","steam_id":76561198330093822,"connected_time":667000000000,"state":"active","ping":76},{"user_id":21,"name":"Chaine","steam_id":76561198088660956,"connected_time":662000000000,"state":"active","ping":86},{"user_id":22,"name":"Utkunator","steam_id":76561198967463151,"connected_time":619000000000,"state":"active","ping":90},{"user_id":26,"name":"A BIG SHAWARMA","steam_id":76561199094088600,"connected_time":363000000000,"state":"active","ping":98},{"user_id":25,"name":"SantiTzePug","steam_id":76561199049615996,"connected_time":467000000000,"state":"active","ping":77},{"user_id":27,"name":"JO√ÉO MIGUEL","steam_id":76561198066297489,"connected_time":330000000000,"state":"active","ping":80},{"user_id":30,"name":"East#","steam_id":76561198126240609,"connected_time":260000000000,"state":"active","ping":84},{"user_id":29,"name":"lousof71","steam_id":76561199104427894,"connected_time":292000000000,"state":"active","ping":89},{"user_id":31,"name":"Jeivan ¬Ω","steam_id":76561198254637614,"connected_time":212000000000,"state":"active","ping":111},{"user_id":32,"name":"David Copperfield","steam_id":76561198254030118,"connected_time":115000000000,"state":"active","ping":45},{"user_id":33,"name":"Vischan but worse","steam_id":76561199371650805,"connected_time":61000000000,"state":"active","ping":94},{"user_id":34,"name":"\u003eSix in swedish + y","steam_id":76561198372971096,"connected_time":51000000000,"state":"active","ping":80},{"user_id":35,"name":"MpJens","steam_id":76561198000347669,"connected_time":24000000000,"state":"active","ping":51},{"user_id":36,"name":"(wm) Das Fleisch","steam_id":76561198001250715,"connected_time":12000000000,"state":"spawning","ping":43}]},{"server_id":23,"name":"Uncletopia | Frankfurt | 7 | Stopwatch Beta","name_short":"frk-7","host":"frk-1.de.uncletopia.com","port":27075,"enabled":true,"region":"eu","cc":"de","latitude":50.110924,"longitude":8.682127,"reserved":0,"last_update":"0001-01-01T00:00:00Z","name_a2s":"Uncletopia | Frankfurt | 7 | Stopwatch Beta","protocol":17,"map":"pl_borneo","folder":"tf","game":"Team Fortress","app_id":440,"player_count":0,"max_players":24,"Bots":0,"server_type":"Dedicated","server_os":"Linux","password":true,"vac":true,"version":"7757534","steam_id":85568392924742827,"keywords":["nocrits","nodmgspread","payload","uncletopia"],"game_id":440,"stv_port":27076,"stv_name":"Uncletopia | Frankfurt | 7 | Stopwatch Beta | STV","players":null},{"server_id":24,"name":"Uncletopia | Frankfurt | 8 | Community","name_short":"frk-8","host":"frk-1.de.uncletopia.com","port":27085,"enabled":true,"region":"eu","cc":"de","latitude":50.110924,"longitude":8.682127,"reserved":0,"last_update":"0001-01-01T00:00:00Z","name_a2s":"Uncletopia | Frankfurt | 8 | Community","protocol":17,"map":"workshop/pl_corrode_rc2.ugc546577989","folder":"tf","game":"Team Fortress","app_id":440,"player_count":24,"max_players":24,"Bots":0,"server_type":"Dedicated","server_os":"Linux","password":true,"vac":true,"version":"7757534","steam_id":85568392924742828,"keywords":["nocrits","nodmgspread","payload","uncletopia"],"game_id":440,"stv_port":27086,"stv_name":"Uncletopia | Frankfurt | 8 | Community | STV","players":[{"user_id":81,"name":"mejt","steam_id":76561198106666604,"connected_time":2702000000000,"state":"active","ping":71},{"user_id":35,"name":"Irbynx","steam_id":76561197980421195,"connected_time":4603000000000,"state":"active","ping":88},{"user_id":110,"name":"√°rv√≠zt≈±r≈ë t√ºk√∂rf√∫r√≥g√©p","steam_id":76561198296643061,"connected_time":1173000000000,"state":"active","ping":65},{"user_id":80,"name":"GMsU | Rebikas","steam_id":76561198077053764,"connected_time":2743000000000,"state":"active","ping":49},{"user_id":37,"name":"AYE","steam_id":76561198181368101,"connected_time":4577000000000,"state":"active","ping":55},{"user_id":117,"name":"Fat Pigeon","steam_id":76561198817940142,"connected_time":581000000000,"state":"active","ping":56},{"user_id":56,"name":"silicon based life form","steam_id":76561199127121346,"connected_time":3919000000000,"state":"active","ping":71},{"user_id":122,"name":"Fucken Tony","steam_id":76561198332613369,"connected_time":334000000000,"state":"active","ping":153},{"user_id":119,"name":"BlinkedUp","steam_id":76561198249985618,"connected_time":581000000000,"state":"active","ping":56},{"user_id":123,"name":"yaldabaoth","steam_id":76561198084606869,"connected_time":71000000000,"state":"active","ping":138},{"user_id":111,"name":"Pingu","steam_id":76561198207966532,"connected_time":1058000000000,"state":"active","ping":68},{"user_id":120,"name":"Kotlet schabowy","steam_id":76561198048983509,"connected_time":532000000000,"state":"active","ping":72},{"user_id":75,"name":"Gearless","steam_id":76561198362367074,"connected_time":2894000000000,"state":"active","ping":83},{"user_id":84,"name":"lov¬£","steam_id":76561198046396310,"connected_time":2478000000000,"state":"active","ping":91},{"user_id":121,"name":"Egor Pomidor","steam_id":76561199175688390,"connected_time":509000000000,"state":"active","ping":77},{"user_id":109,"name":"[JT]Reefer","steam_id":76561197988333655,"connected_time":1175000000000,"state":"active","ping":60},{"user_id":102,"name":"grandpa's post-mortem photo","steam_id":76561198130116078,"connected_time":1386000000000,"state":"active","ping":90},{"user_id":78,"name":"GMsU | DaLuigi","steam_id":76561198054486188,"connected_time":2853000000000,"state":"active","ping":46},{"user_id":82,"name":"GMsU | AuxiliusM","steam_id":76561198071903356,"connected_time":2682000000000,"state":"active","ping":43},{"user_id":112,"name":"SaltyCupcakes","steam_id":76561198256386417,"connected_time":1008000000000,"state":"active","ping":63},{"user_id":116,"name":"Veritasket","steam_id":76561198090074093,"connected_time":734000000000,"state":"active","ping":62},{"user_id":63,"name":"plepek","steam_id":76561198042959598,"connected_time":3698000000000,"state":"active","ping":85},{"user_id":91,"name":"Rezkey","steam_id":76561198206079048,"connected_time":2195000000000,"state":"active","ping":61},{"user_id":79,"name":"DelT","steam_id":76561198204007537,"connected_time":2838000000000,"state":"active","ping":47}]},{"server_id":202,"name":"Uncletopia | Hong Kong | 1 | All Maps","name_short":"hgk-1","host":"hgk-1.hk.uncletopia.com","port":27015,"enabled":true,"region":"asia","cc":"hk","latitude":22.302711,"longitude":114.177216,"reserved":0,"last_update":"0001-01-01T00:00:00Z","name_a2s":"Uncletopia | Hong Kong | 1 | All Maps","protocol":17,"map":"koth_lakeside_final","folder":"tf","game":"Team Fortress","app_id":440,"player_count":0,"max_players":24,"Bots":0,"server_type":"Dedicated","server_os":"Linux","password":true,"vac":true,"version":"7757534","steam_id":85568392924494504,"keywords":["cp","nocrits","nodmgspread","uncletopia"],"game_id":440,"stv_port":27016,"stv_name":"Uncletopia | Hong Kong | 1 | All Maps | STV","players":null},{"server_id":1,"name":"Uncletopia | Los Angeles | 1 | All Maps","name_short":"lax-1","host":"lax-1.us.uncletopia.com","port":27015,"enabled":true,"region":"us-west","cc":"us","latitude":33.94279,"longitude":-118.41004,"reserved":0,"last_update":"0001-01-01T00:00:00Z","name_a2s":"Uncletopia | Los Angeles | 1 | All Maps","protocol":17,"map":"cp_sunshine","folder":"tf","game":"Team Fortress","app_id":440,"player_count":0,"max_players":24,"Bots":0,"server_type":"Dedicated","server_os":"Linux","password":true,"vac":true,"version":"7757534","steam_id":85568392924469991,"keywords":["cp","nocrits","nodmgspread","uncletopia"],"game_id":440,"stv_port":27016,"stv_name":"Uncletopia | Los Angeles | 1 | All Maps | STV","players":null},{"server_id":112,"name":"Uncletopia | Los Angeles | 2 | All Maps","name_short":"lax-2","host":"lax-1.us.uncletopia.com","port":27025,"enabled":true,"region":"us-west","cc":"us","latitude":33.94279,"longitude":-118.41004,"reserved":0,"last_update":"0001-01-01T00:00:00Z","name_a2s":"Uncletopia | Los Angeles | 2 | All Maps","protocol":17,"map":"koth_viaduct","folder":"tf","game":"Team Fortress","app_id":440,"player_count":0,"max_players":24,"Bots":0,"server_type":"Dedicated","server_os":"Linux","password":true,"vac":true,"version":"7757534","steam_id":85568392924469992,"keywords":["cp","nocrits","nodmgspread","uncletopia"],"game_id":440,"stv_port":27026,"stv_name":"Uncletopia | Los Angeles | 2 | All Maps | STV","players":null},{"server_id":324,"name":"Uncletopia | Los Angeles | 3 | All Maps","name_short":"lax-3","host":"lax-1.us.uncletopia.com","port":27035,"enabled":true,"region":"us-west","cc":"us","latitude":33.94279,"longitude":-118.41004,"reserved":0,"last_update":"0001-01-01T00:00:00Z","name_a2s":"Uncletopia | Los Angeles | 3 | All Maps","protocol":17,"map":"pl_swiftwater_final1","folder":"tf","game":"Team Fortress","app_id":440,"player_count":0,"max_players":24,"Bots":0,"server_type":"Dedicated","server_os":"Linux","password":true,"vac":true,"version":"7757534","steam_id":85568392924510198,"keywords":["nocrits","nodmgspread","payload","uncletopia"],"game_id":440,"stv_port":27036,"stv_name":"Uncletopia | Los Angeles | 3 | All Maps | STV","players":null},{"server_id":25,"name":"Uncletopia | Los Angeles | 4 | Stopwatch Beta","name_short":"lax-4","host":"lax-1.us.uncletopia.com","port":27045,"enabled":true,"region":"us-west","cc":"us","latitude":33.94279,"longitude":-118.41004,"reserved":0,"last_update":"0001-01-01T00:00:00Z","name_a2s":"Uncletopia | Los Angeles | 4 | Stopwatch Beta","protocol":17,"map":"workshop/koth_product_final.ugc454272353","folder":"tf","game":"Team Fortress","app_id":440,"player_count":0,"max_players":24,"Bots":0,"server_type":"Dedicated","server_os":"Linux","password":true,"vac":true,"version":"7757534","steam_id":85568392924510199,"keywords":["cp","nocrits","nodmgspread","uncletopia"],"game_id":440,"stv_port":27046,"stv_name":"Uncletopia | Los Angeles | 4 | Stopwatch Beta | STV","players":null},{"server_id":11,"name":"Uncletopia | London | 1 | All Maps","name_short":"lon-1","host":"lon-1.uk.uncletopia.com","port":27015,"enabled":true,"region":"eu","cc":"gb","latitude":51.509865,"longitude":-0.118092,"reserved":0,"last_update":"0001-01-01T00:00:00Z","name_a2s":"Uncletopia | London | 1 | All Maps","protocol":17,"map":"cp_dustbowl","folder":"tf","game":"Team Fortress","app_id":440,"player_count":24,"max_players":24,"Bots":0,"server_type":"Dedicated","server_os":"Linux","password":true,"vac":true,"version":"7757534","steam_id":85568392924367362,"keywords":["cp","nocrits","nodmgspread","uncletopia"],"game_id":440,"stv_port":27016,"stv_name":"Uncletopia | London | 1 | All Maps | STV","players":[{"user_id":426,"name":"Steen","steam_id":76561198122992510,"connected_time":219000000000,"state":"active","ping":45},{"user_id":422,"name":"SketchyEtchaSketch","steam_id":76561198143747486,"connected_time":266000000000,"state":"active","ping":172},{"user_id":424,"name":"Zy","steam_id":76561198402301900,"connected_time":237000000000,"state":"active","ping":67},{"user_id":352,"name":"Chad Slav","steam_id":76561198160103841,"connected_time":5272000000000,"state":"active","ping":78},{"user_id":427,"name":"Cane","steam_id":76561197976831215,"connected_time":187000000000,"state":"active","ping":90},{"user_id":373,"name":"Yanniki","steam_id":76561197986058110,"connected_time":4403000000000,"state":"active","ping":65},{"user_id":425,"name":"C.H.E.R.E.P.","steam_id":76561198026938595,"connected_time":232000000000,"state":"active","ping":76},{"user_id":413,"name":"Proto-arc","steam_id":76561198012776747,"connected_time":883000000000,"state":"active","ping":47},{"user_id":417,"name":"Svilar","steam_id":76561198828348612,"connected_time":411000000000,"state":"active","ping":75},{"user_id":418,"name":"nudjura","steam_id":76561198281986139,"connected_time":388000000000,"state":"active","ping":37},{"user_id":411,"name":"Cheese pizza connoisseur","steam_id":76561199062160061,"connected_time":1354000000000,"state":"active","ping":50},{"user_id":409,"name":"Your Lovely Medic","steam_id":76561198039326848,"connected_time":1409000000000,"state":"active","ping":50},{"user_id":315,"name":"Max Andrew","steam_id":76561198158955194,"connected_time":7361000000000,"state":"active","ping":68},{"user_id":419,"name":"skilltissues","steam_id":76561198025828664,"connected_time":358000000000,"state":"active","ping":55},{"user_id":358,"name":"SpyCrab  Erik Twice","steam_id":76561198009710309,"connected_time":5123000000000,"state":"active","ping":59},{"user_id":420,"name":"SausageRoll","steam_id":76561197994072622,"connected_time":300000000000,"state":"active","ping":45},{"user_id":376,"name":"Bumpin'Scrunts","steam_id":76561198069641252,"connected_time":3604000000000,"state":"active","ping":57},{"user_id":406,"name":"CarrotFlowers","steam_id":76561198154714698,"connected_time":1711000000000,"state":"active","ping":48},{"user_id":421,"name":"ejch","steam_id":76561198050434553,"connected_time":285000000000,"state":"active","ping":44},{"user_id":429,"name":"boom stick enjoyer","steam_id":76561198972038742,"connected_time":173000000000,"state":"active","ping":74},{"user_id":392,"name":"Taskyy","steam_id":76561198134901175,"connected_time":2797000000000,"state":"active","ping":84},{"user_id":393,"name":"brokenphilip","steam_id":76561198080960604,"connected_time":2794000000000,"state":"active","ping":82},{"user_id":396,"name":"Mapavri","steam_id":76561198370196400,"connected_time":2715000000000,"state":"active","ping":90},{"user_id":397,"name":"gaz","steam_id":76561198843714742,"connected_time":2702000000000,"state":"active","ping":137}]},{"server_id":114,"name":"Uncletopia | London | 2 | All Maps","name_short":"lon-2","host":"lon-1.uk.uncletopia.com","port":27025,"enabled":true,"region":"eu","cc":"gb","latitude":51.509865,"longitude":-0.118092,"reserved":0,"last_update":"0001-01-01T00:00:00Z","name_a2s":"Uncletopia | London | 2 | All Maps","protocol":17,"map":"pl_swiftwater_final1","folder":"tf","game":"Team Fortress","app_id":440,"player_count":16,"max_players":24,"Bots":0,"server_type":"Dedicated","server_os":"Linux","password":true,"vac":true,"version":"7757534","steam_id":85568392924470941,"keywords":["nocrits","nodmgspread","payload","uncletopia"],"game_id":440,"stv_port":27026,"stv_name":"Uncletopia | London | 2 | All Maps | STV","players":[{"user_id":289,"name":"Bronze Age GRINDSET","steam_id":76561198859118263,"connected_time":113000000000,"state":"active","ping":129},{"user_id":287,"name":"Heimerdinger","steam_id":76561198008653022,"connected_time":243000000000,"state":"active","ping":50},{"user_id":274,"name":"Autumnsky","steam_id":76561198055161203,"connected_time":1151000000000,"state":"active","ping":60},{"user_id":281,"name":"Jon (alt)","steam_id":76561199380849468,"connected_time":699000000000,"state":"active","ping":61},{"user_id":224,"name":"antlionguard","steam_id":76561198072747143,"connected_time":3433000000000,"state":"active","ping":106},{"user_id":290,"name":"randompixel","steam_id":76561198003941207,"connected_time":98000000000,"state":"active","ping":56},{"user_id":282,"name":"leonardini.w #SaveTF2","steam_id":76561199097963071,"connected_time":664000000000,"state":"active","ping":91},{"user_id":291,"name":"Doctor Glizzy","steam_id":76561198315474018,"connected_time":46000000000,"state":"active","ping":68},{"user_id":279,"name":"threat detection system","steam_id":76561199026097466,"connected_time":904000000000,"state":"active","ping":71},{"user_id":277,"name":"Hatonfire","steam_id":76561198287372060,"connected_time":1048000000000,"state":"active","ping":33},{"user_id":257,"name":"kawaii+","steam_id":76561198005769065,"connected_time":1843000000000,"state":"active","ping":65},{"user_id":221,"name":"Milca_11","steam_id":76561198848650365,"connected_time":3556000000000,"state":"active","ping":75},{"user_id":276,"name":"The Knight","steam_id":76561198055320626,"connected_time":1070000000000,"state":"active","ping":103},{"user_id":286,"name":"Umbro","steam_id":76561198087930438,"connected_time":255000000000,"state":"active","ping":74},{"user_id":193,"name":"Vitamin Weee","steam_id":76561199183937747,"connected_time":4583000000000,"state":"active","ping":93},{"user_id":285,"name":"Craig Crusade","steam_id":76561199225918086,"connected_time":454000000000,"state":"active","ping":53}]},{"server_id":320,"name":"Uncletopia | London | 3 | All Maps","name_short":"lon-3","host":"lon-1.uk.uncletopia.com","port":27035,"enabled":true,"region":"eu","cc":"gb","latitude":51.509865,"longitude":-0.118092,"reserved":0,"last_update":"0001-01-01T00:00:00Z","name_a2s":"Uncletopia | London | 3 | All Maps","protocol":17,"map":"pl_upward","folder":"tf","game":"Team Fortress","app_id":440,"player_count":22,"max_players":24,"Bots":0,"server_type":"Dedicated","server_os":"Linux","password":true,"vac":true,"version":"7757534","steam_id":85568392924510192,"keywords":["nocrits","nodmgspread","payload","uncletopia"],"game_id":440,"stv_port":27036,"stv_name":"Uncletopia | London | 3 | All Maps | STV","players":[{"user_id":732,"name":"holykyckling","steam_id":76561198040661615,"connected_time":1689000000000,"state":"active","ping":75},{"user_id":697,"name":"Hoff","steam_id":76561198138540938,"connected_time":2625000000000,"state":"active","ping":81},{"user_id":744,"name":"Codex","steam_id":76561198068748584,"connected_time":1440000000000,"state":"active","ping":49},{"user_id":740,"name":"Bromoneto","steam_id":76561198876695014,"connected_time":1529000000000,"state":"active","ping":73},{"user_id":700,"name":"nafaszom","steam_id":76561198091175167,"connected_time":2592000000000,"state":"active","ping":74},{"user_id":524,"name":"Coco Pommel","steam_id":76561198043601838,"connected_time":9750000000000,"state":"active","ping":60},{"user_id":691,"name":"BRICK TOP","steam_id":76561198014366715,"connected_time":3013000000000,"state":"active","ping":42},{"user_id":761,"name":"Posture Check","steam_id":76561198053897197,"connected_time":658000000000,"state":"active","ping":46},{"user_id":738,"name":"ran is running","steam_id":76561199443185667,"connected_time":1602000000000,"state":"active","ping":144},{"user_id":766,"name":"bum","steam_id":76561198060105180,"connected_time":34000000000,"state":"active","ping":66},{"user_id":765,"name":"lettuce at 58p","steam_id":76561199401283123,"connected_time":88000000000,"state":"active","ping":43},{"user_id":737,"name":"Carrot","steam_id":76561198119340863,"connected_time":1632000000000,"state":"active","ping":40},{"user_id":764,"name":"NothingMan","steam_id":76561198051284446,"connected_time":300000000000,"state":"active","ping":49},{"user_id":763,"name":"justin_ (f2p) (real)","steam_id":76561198839843428,"connected_time":559000000000,"state":"active","ping":130},{"user_id":768,"name":"MLGJanitor","steam_id":76561198154572884,"connected_time":12000000000,"state":"active","ping":77},{"user_id":694,"name":"Big Knoxy","steam_id":76561198291107227,"connected_time":2642000000000,"state":"active","ping":74},{"user_id":752,"name":"powej","steam_id":76561198056381418,"connected_time":959000000000,"state":"active","ping":30},{"user_id":754,"name":"Noodle","steam_id":76561198306486695,"connected_time":856000000000,"state":"active","ping":71},{"user_id":734,"name":"bANji","steam_id":76561198108898161,"connected_time":1681000000000,"state":"active","ping":53},{"user_id":759,"name":"Swift","steam_id":76561197998799889,"connected_time":716000000000,"state":"active","ping":47},{"user_id":539,"name":"tarnce energy","steam_id":76561198106049954,"connected_time":9099000000000,"state":"active","ping":73},{"user_id":760,"name":"wtabs","steam_id":76561198831766743,"connected_time":715000000000,"state":"active","ping":81}]},{"server_id":321,"name":"Uncletopia | London | 4 | All Maps","name_short":"lon-4","host":"lon-1.uk.uncletopia.com","port":27045,"enabled":true,"region":"eu","cc":"gb","latitude":51.509865,"longitude":-0.118092,"reserved":0,"last_update":"0001-01-01T00:00:00Z","name_a2s":"Uncletopia | London | 4 | All Maps","protocol":17,"map":"pl_borneo","folder":"tf","game":"Team Fortress","app_id":440,"player_count":22,"max_players":24,"Bots":0,"server_type":"Dedicated","server_os":"Linux","password":true,"vac":true,"version":"7757534","steam_id":85568392924510193,"keywords":["nocrits","nodmgspread","payload","uncletopia"],"game_id":440,"stv_port":27046,"stv_name":"Uncletopia | London | 4 | All Maps | STV","players":[{"user_id":124,"name":"Teleporter (jessie)","steam_id":76561198063093802,"connected_time":2393000000000,"state":"active","ping":47},{"user_id":104,"name":"MEDiUM","steam_id":76561198112328561,"connected_time":3728000000000,"state":"active","ping":79},{"user_id":129,"name":"PadrePockets","steam_id":76561197993251606,"connected_time":2033000000000,"state":"active","ping":132},{"user_id":123,"name":"static","steam_id":76561198836825741,"connected_time":2413000000000,"state":"active","ping":44},{"user_id":69,"name":"gibb (official)","steam_id":76561198074097655,"connected_time":6755000000000,"state":"active","ping":30},{"user_id":92,"name":"get real (trans rights gaming)","steam_id":76561198239265962,"connected_time":4896000000000,"state":"active","ping":60},{"user_id":121,"name":"hud_saytext_time 0","steam_id":76561198010327228,"connected_time":2747000000000,"state":"active","ping":54},{"user_id":132,"name":"Certified Hood pybro (ua)","steam_id":76561198970562699,"connected_time":1411000000000,"state":"active","ping":50},{"user_id":109,"name":"Skuld","steam_id":76561198064734905,"connected_time":3676000000000,"state":"active","ping":102},{"user_id":106,"name":"Lognes","steam_id":76561198076569769,"connected_time":3707000000000,"state":"active","ping":56},{"user_id":128,"name":"Rachel","steam_id":76561199474256638,"connected_time":2091000000000,"state":"active","ping":71},{"user_id":130,"name":"Saint","steam_id":76561198003296382,"connected_time":1537000000000,"state":"active","ping":75},{"user_id":119,"name":"Captain Mac","steam_id":76561197971973906,"connected_time":2933000000000,"state":"active","ping":85},{"user_id":110,"name":"Symberzite #SaveTF2","steam_id":76561198028581774,"connected_time":3675000000000,"state":"active","ping":90},{"user_id":131,"name":"triangle","steam_id":76561198046838168,"connected_time":1523000000000,"state":"active","ping":60},{"user_id":133,"name":"SpeddyMeddy","steam_id":76561197999693825,"connected_time":1367000000000,"state":"active","ping":82},{"user_id":108,"name":"Young trunks","steam_id":76561198807869634,"connected_time":3699000000000,"state":"active","ping":62},{"user_id":103,"name":"spearfishNL","steam_id":76561199077022985,"connected_time":3997000000000,"state":"active","ping":57},{"user_id":136,"name":"SlipstreamMuzzle","steam_id":76561199116696395,"connected_time":648000000000,"state":"active","ping":91},{"user_id":111,"name":"Kylul_","steam_id":76561198042981061,"connected_time":3641000000000,"state":"active","ping":30},{"user_id":139,"name":"GEP Gun","steam_id":76561197981821003,"connected_time":159000000000,"state":"active","ping":54},{"user_id":140,"name":"Cosmonaut","steam_id":76561198239514504,"connected_time":81000000000,"state":"active","ping":72}]},{"server_id":21,"name":"Uncletopia | London | 5 | All Maps","name_short":"lon-5","host":"lon-1.uk.uncletopia.com","port":27055,"enabled":true,"region":"eu","cc":"gb","latitude":51.509865,"longitude":-0.118092,"reserved":0,"last_update":"0001-01-01T00:00:00Z","name_a2s":"Uncletopia | London | 5 | All Maps","protocol":17,"map":"koth_cascade","folder":"tf","game":"Team Fortress","app_id":440,"player_count":7,"max_players":24,"Bots":0,"server_type":"Dedicated","server_os":"Linux","password":true,"vac":true,"version":"7757534","steam_id":85568392924742829,"keywords":["cp","nocrits","nodmgspread","uncletopia"],"game_id":440,"stv_port":27056,"stv_name":"Uncletopia | London | 5 | All Maps | STV","players":[{"user_id":10,"name":"GezmeRR TF2","steam_id":76561198043814532,"connected_time":1279000000000,"state":"active","ping":59},{"user_id":13,"name":"Emo E-boy Twink","steam_id":76561198044624039,"connected_time":965000000000,"state":"active","ping":48},{"user_id":12,"name":"Danse","steam_id":76561198065545203,"connected_time":1165000000000,"state":"active","ping":66},{"user_id":14,"name":"Lord","steam_id":76561198065021271,"connected_time":937000000000,"state":"active","ping":72},{"user_id":15,"name":"^1MARAMA PALEX","steam_id":76561198311372563,"connected_time":481000000000,"state":"active","ping":70},{"user_id":16,"name":"da number one gamer","steam_id":76561199049633351,"connected_time":156000000000,"state":"active","ping":77},{"user_id":17,"name":"Thorpho","steam_id":76561198157173867,"connected_time":36000000000,"state":"active","ping":32}]},{"server_id":22,"name":"Uncletopia | London | 6 | All Maps","name_short":"lon-6","host":"lon-1.uk.uncletopia.com","port":27065,"enabled":true,"region":"eu","cc":"gb","latitude":51.509865,"longitude":-0.118092,"reserved":0,"last_update":"0001-01-01T00:00:00Z","name_a2s":"Uncletopia | London | 6 | All Maps","protocol":17,"map":"koth_highpass","folder":"tf","game":"Team Fortress","app_id":440,"player_count":0,"max_players":24,"Bots":0,"server_type":"Dedicated","server_os":"Linux","password":true,"vac":true,"version":"7757534","steam_id":85568392924742830,"keywords":["cp","nocrits","nodmgspread","uncletopia"],"game_id":440,"stv_port":27066,"stv_name":"Uncletopia | London | 6 | All Maps | STV","players":null},{"server_id":40,"name":"Uncletopia | London | 7 | No Payload","name_short":"lon-7","host":"lon-1.uk.uncletopia.com","port":27075,"enabled":true,"region":"eu","cc":"gb","latitude":51.509865,"longitude":-0.118092,"reserved":0,"last_update":"0001-01-01T00:00:00Z","name_a2s":"Uncletopia | London | 7 | No Payload","protocol":17,"map":"koth_highpass","folder":"tf","game":"Team Fortress","app_id":440,"player_count":0,"max_players":24,"Bots":0,"server_type":"Dedicated","server_os":"Linux","password":true,"vac":true,"version":"7757534","steam_id":85568392924964314,"keywords":["cp","nocrits","nodmgspread","uncletopia"],"game_id":440,"stv_port":27076,"stv_name":"Uncletopia | London | 7 | No Payload | STV","players":null},{"server_id":41,"name":"Uncletopia | London | 8 | Community","name_short":"lon-8","host":"lon-1.uk.uncletopia.com","port":27085,"enabled":true,"region":"eu","cc":"gb","latitude":51.509865,"longitude":-0.118092,"reserved":0,"last_update":"0001-01-01T00:00:00Z","name_a2s":"Uncletopia | London | 8 | Community","protocol":17,"map":"workshop/pl_boundary_final1.ugc456799153","folder":"tf","game":"Team Fortress","app_id":440,"player_count":0,"max_players":24,"Bots":0,"server_type":"Dedicated","server_os":"Linux","password":true,"vac":true,"version":"7757534","steam_id":85568392924964315,"keywords":["nocrits","nodmgspread","payload","uncletopia"],"game_id":440,"stv_port":27086,"stv_name":"Uncletopia | London | 8 | Community | STV","players":null},{"server_id":300,"name":"Uncletopia | Montr√©al | 1 | All Maps","name_short":"mtl-1","host":"mtl-1.ca.uncletopia.com","port":27015,"enabled":true,"region":"us-east","cc":"ca","latitude":45.50889,"longitude":-73.56167,"reserved":0,"last_update":"0001-01-01T00:00:00Z","name_a2s":"Uncletopia | Montr√©al | 1 | All Maps","protocol":17,"map":"pl_thundermountain","folder":"tf","game":"Team Fortress","app_id":440,"player_count":24,"max_players":24,"Bots":0,"server_type":"Dedicated","server_os":"Linux","password":true,"vac":true,"version":"7757534","steam_id":85568392924500087,"keywords":["nocrits","nodmgspread","payload","uncletopia"],"game_id":440,"stv_port":27016,"stv_name":"Uncletopia | Montr√©al | 1 | All Maps | STV","players":[{"user_id":216,"name":"bingle fantano 2","steam_id":76561197997139225,"connected_time":589000000000,"state":"active","ping":36},{"user_id":211,"name":"PapaCheungus","steam_id":76561198052262520,"connected_time":880000000000,"state":"active","ping":69},{"user_id":202,"name":"Edge","steam_id":76561198119826352,"connected_time":1919000000000,"state":"active","ping":77},{"user_id":205,"name":"Phat_nibba29","steam_id":76561198165661855,"connected_time":1430000000000,"state":"active","ping":111},{"user_id":212,"name":"Sexual Butt","steam_id":76561198102241399,"connected_time":784000000000,"state":"active","ping":81},{"user_id":160,"name":"W.iLd","steam_id":76561198026362836,"connected_time":4886000000000,"state":"active","ping":135},{"user_id":213,"name":"[OC2TM] CF-TF2","steam_id":76561198145893044,"connected_time":782000000000,"state":"active","ping":69},{"user_id":208,"name":"Zemy","steam_id":76561198058332549,"connected_time":987000000000,"state":"active","ping":44},{"user_id":209,"name":"Cory","steam_id":76561198058472570,"connected_time":977000000000,"state":"active","ping":73},{"user_id":219,"name":"Bostrash641","steam_id":76561199447225685,"connected_time":478000000000,"state":"active","ping":157},{"user_id":210,"name":"alex‚Ñ¢","steam_id":76561198027429711,"connected_time":958000000000,"state":"active","ping":102},{"user_id":206,"name":"Cousin Balki","steam_id":76561198070496395,"connected_time":1282000000000,"state":"active","ping":64},{"user_id":158,"name":"wlnecro1","steam_id":76561199157418402,"connected_time":4952000000000,"state":"active","ping":86},{"user_id":183,"name":"gghfgfgfg","steam_id":76561198064823861,"connected_time":3535000000000,"state":"active","ping":60},{"user_id":200,"name":"send dudes","steam_id":76561198084277762,"connected_time":2155000000000,"state":"active","ping":44},{"user_id":220,"name":"LErik9858","steam_id":76561198808654852,"connected_time":412000000000,"state":"active","ping":143},{"user_id":156,"name":"Lanecero","steam_id":76561198169864663,"connected_time":5165000000000,"state":"active","ping":76},{"user_id":184,"name":"PenguinJack","steam_id":76561198120680312,"connected_time":3517000000000,"state":"active","ping":97},{"user_id":90,"name":"laszlo","steam_id":76561198141198352,"connected_time":8097000000000,"state":"active","ping":60},{"user_id":214,"name":"Dino","steam_id":76561198085130361,"connected_time":734000000000,"state":"active","ping":99},{"user_id":179,"name":"Errrmmett","steam_id":76561198041314051,"connected_time":3882000000000,"state":"active","ping":49},{"user_id":222,"name":"Moopz","steam_id":76561198424507300,"connected_time":358000000000,"state":"active","ping":55},{"user_id":201,"name":"RyInc","steam_id":76561198874261643,"connected_time":2148000000000,"state":"active","ping":42},{"user_id":215,"name":"E$$ence","steam_id":76561198013374122,"connected_time":654000000000,"state":"active","ping":61}]},{"server_id":301,"name":"Uncletopia | Montr√©al | 2 | All Maps","name_short":"mtl-2","host":"mtl-1.ca.uncletopia.com","port":27025,"enabled":true,"region":"us-east","cc":"ca","latitude":45.50889,"longitude":-73.56167,"reserved":0,"last_update":"0001-01-01T00:00:00Z","name_a2s":"Uncletopia | Montr√©al | 2 | All Maps","protocol":17,"map":"cp_sunshine","folder":"tf","game":"Team Fortress","app_id":440,"player_count":0,"max_players":24,"Bots":0,"server_type":"Dedicated","server_os":"Linux","password":true,"vac":true,"version":"7757534","steam_id":85568392924500088,"keywords":["cp","nocrits","nodmgspread","uncletopia"],"game_id":440,"stv_port":27026,"stv_name":"Uncletopia | Montr√©al | 2 | All Maps | STV","players":null},{"server_id":302,"name":"Uncletopia | Montr√©al | 3 | All Maps","name_short":"mtl-3","host":"mtl-1.ca.uncletopia.com","port":27035,"enabled":true,"region":"us-east","cc":"ca","latitude":45.50889,"longitude":-73.56167,"reserved":0,"last_update":"0001-01-01T00:00:00Z","name_a2s":"Uncletopia | Montr√©al | 3 | All Maps","protocol":17,"map":"pl_frontier_final","folder":"tf","game":"Team Fortress","app_id":440,"player_count":0,"max_players":24,"Bots":0,"server_type":"Dedicated","server_os":"Linux","password":true,"vac":true,"version":"7757534","steam_id":85568392924500089,"keywords":["nocrits","nodmgspread","payload","uncletopia"],"game_id":440,"stv_port":27036,"stv_name":"Uncletopia | Montr√©al | 3 | All Maps | STV","players":null},{"server_id":303,"name":"Uncletopia | Montr√©al | 4 | No Payload","name_short":"mtl-4","host":"mtl-1.ca.uncletopia.com","port":27045,"enabled":true,"region":"us-east","cc":"ca","latitude":45.50889,"longitude":-73.56167,"reserved":0,"last_update":"0001-01-01T00:00:00Z","name_a2s":"Uncletopia | Montr√©al | 4 | No Payload","protocol":17,"map":"pl_pier","folder":"tf","game":"Team Fortress","app_id":440,"player_count":0,"max_players":24,"Bots":0,"server_type":"Dedicated","server_os":"Linux","password":true,"vac":true,"version":"7757534","steam_id":85568392924500090,"keywords":["nocrits","nodmgspread","payload","uncletopia"],"game_id":440,"stv_port":27046,"stv_name":"Uncletopia | Montr√©al | 4 | No Payload | STV","players":null},{"server_id":13,"name":"Uncletopia | New York City | 1 | All Maps","name_short":"nyc-1","host":"nyc-1.us.uncletopia.com","port":27015,"enabled":true,"region":"us-east","cc":"us","latitude":40.73061,"longitude":-73.93524,"reserved":0,"last_update":"0001-01-01T00:00:00Z","name_a2s":"Uncletopia | New York City | 1 | All Maps","protocol":17,"map":"koth_lakeside_final","folder":"tf","game":"Team Fortress","app_id":440,"player_count":0,"max_players":24,"Bots":0,"server_type":"Dedicated","server_os":"Linux","password":true,"vac":true,"version":"7757534","steam_id":85568392924469993,"keywords":["cp","nocrits","nodmgspread","uncletopia"],"game_id":440,"stv_port":27016,"stv_name":"Uncletopia | New York City | 1 | All Maps | STV","players":null},{"server_id":14,"name":"Uncletopia | New York City | 2 | All Maps","name_short":"nyc-2","host":"nyc-1.us.uncletopia.com","port":27025,"enabled":true,"region":"us-east","cc":"us","latitude":40.73061,"longitude":-73.93524,"reserved":0,"last_update":"0001-01-01T00:00:00Z","name_a2s":"Uncletopia | New York City | 2 | All Maps","protocol":17,"map":"koth_cascade","folder":"tf","game":"Team Fortress","app_id":440,"player_count":0,"max_players":24,"Bots":0,"server_type":"Dedicated","server_os":"Linux","password":true,"vac":true,"version":"7757534","steam_id":85568392924469994,"keywords":["cp","nocrits","nodmgspread","uncletopia"],"game_id":440,"stv_port":27026,"stv_name":"Uncletopia | New York City | 2 | All Maps | STV","players":null},{"server_id":15,"name":"Uncletopia | New York City | 3 | Stopwatch Beta","name_short":"nyc-3","host":"nyc-1.us.uncletopia.com","port":27035,"enabled":true,"region":"us-east","cc":"us","latitude":40.73061,"longitude":-73.93524,"reserved":0,"last_update":"0001-01-01T00:00:00Z","name_a2s":"Uncletopia | New York City | 3 | Stopwatch Beta","protocol":17,"map":"workshop/pl_barnblitz_pro7.ugc582280235","folder":"tf","game":"Team Fortress","app_id":440,"player_count":0,"max_players":24,"Bots":0,"server_type":"Dedicated","server_os":"Linux","password":true,"vac":true,"version":"7757534","steam_id":85568392924742820,"keywords":["nocrits","nodmgspread","payload","uncletopia"],"game_id":440,"stv_port":27036,"stv_name":"Uncletopia | New York City | 3 | Stopwatch Beta | STV","players":null},{"server_id":16,"name":"Uncletopia | New York City | 4 | Community","name_short":"nyc-4","host":"nyc-1.us.uncletopia.com","port":27045,"enabled":true,"region":"us-east","cc":"us","latitude":40.73061,"longitude":-73.93524,"reserved":0,"last_update":"0001-01-01T00:00:00Z","name_a2s":"Uncletopia | New York City | 4 | Community","protocol":17,"map":"workshop/koth_ashville_final.ugc2130459942","folder":"tf","game":"Team Fortress","app_id":440,"player_count":0,"max_players":24,"Bots":0,"server_type":"Dedicated","server_os":"Linux","password":true,"vac":true,"version":"7757534","steam_id":85568392924742821,"keywords":["cp","nocrits","nodmgspread","uncletopia"],"game_id":440,"stv_port":27046,"stv_name":"Uncletopia | New York City | 4 | Community | STV","players":null},{"server_id":142,"name":"Uncletopia | S√£o Paulo | 1 | All Maps","name_short":"sao-1","host":"sao-1.br.uncletopia.com","port":27015,"enabled":true,"region":"sa","cc":"br","latitude":-23.533773,"longitude":-46.62529,"reserved":0,"last_update":"0001-01-01T00:00:00Z","name_a2s":"Uncletopia | S√£o Paulo | 1 | All Maps","protocol":17,"map":"pl_snowycoast","folder":"tf","game":"Team Fortress","app_id":440,"player_count":0,"max_players":24,"Bots":0,"server_type":"Dedicated","server_os":"Linux","password":true,"vac":true,"version":"7757534","steam_id":85568392924469996,"keywords":["nocrits","nodmgspread","payload","uncletopia"],"game_id":440,"stv_port":27016,"stv_name":"Uncletopia | S√£o Paulo | 1 | All Maps | STV","players":null},{"server_id":143,"name":"Uncletopia | S√£o Paulo | 2 | All Maps","name_short":"sao-2","host":"sao-2.br.uncletopia.com","port":27015,"enabled":true,"region":"sa","cc":"br","latitude":-23.533773,"longitude":-46.62529,"reserved":0,"last_update":"0001-01-01T00:00:00Z","name_a2s":"Uncletopia | S√£o Paulo | 2 | All Maps","protocol":17,"map":"pl_badwater","folder":"tf","game":"Team Fortress","app_id":440,"player_count":3,"max_players":24,"Bots":0,"server_type":"Dedicated","server_os":"Linux","password":true,"vac":true,"version":"7757534","steam_id":85568392924485349,"keywords":["nocrits","nodmgspread","payload","uncletopia"],"game_id":440,"stv_port":27016,"stv_name":"Uncletopia | S√£o Paulo | 2 | All Maps | STV","players":[{"user_id":14,"name":"https://youtu.be/RvVdFXOFcjw","steam_id":76561198844048672,"connected_time":279000000000,"state":"active","ping":41},{"user_id":15,"name":"seu cu 2000","steam_id":76561199212649021,"connected_time":256000000000,"state":"active","ping":54},{"user_id":16,"name":"ORSI","steam_id":76561199445038412,"connected_time":173000000000,"state":"active","ping":47}]},{"server_id":7,"name":"Uncletopia | Seattle | 1 | All Maps","name_short":"sea-1","host":"sea-1.us.uncletopia.com","port":27015,"enabled":true,"region":"us-west","cc":"us","latitude":47.608013,"longitude":-122.33517,"reserved":0,"last_update":"0001-01-01T00:00:00Z","name_a2s":"Uncletopia | Seattle | 1 | All Maps","protocol":17,"map":"pl_frontier_final","folder":"tf","game":"Team Fortress","app_id":440,"player_count":24,"max_players":24,"Bots":0,"server_type":"Dedicated","server_os":"Linux","password":true,"vac":true,"version":"7757534","steam_id":85568392924469997,"keywords":["nocrits","nodmgspread","payload","uncletopia"],"game_id":440,"stv_port":27016,"stv_name":"Uncletopia | Seattle | 1 | All Maps | STV","players":[{"user_id":258,"name":"BoX_hEaD101","steam_id":76561198200875467,"connected_time":327000000000,"state":"active","ping":93},{"user_id":217,"name":"The Roof Guy","steam_id":76561198963469265,"connected_time":1603000000000,"state":"active","ping":93},{"user_id":260,"name":"Titocheeto","steam_id":76561198994684924,"connected_time":271000000000,"state":"active","ping":80},{"user_id":253,"name":"Dale Gribble","steam_id":76561198262816771,"connected_time":441000000000,"state":"active","ping":78},{"user_id":244,"name":"PheebsyDeebsy","steam_id":76561198101509436,"connected_time":619000000000,"state":"active","ping":60},{"user_id":254,"name":"ms. anthrope","steam_id":76561198063533082,"connected_time":439000000000,"state":"active","ping":45},{"user_id":193,"name":"SadFapping","steam_id":76561198076651049,"connected_time":3098000000000,"state":"active","ping":57},{"user_id":90,"name":"dust | she/it","steam_id":76561198045218909,"connected_time":11432000000000,"state":"active","ping":37},{"user_id":256,"name":"Gordon Ramsay","steam_id":76561198123893900,"connected_time":411000000000,"state":"active","ping":133},{"user_id":259,"name":"Quietsharp","steam_id":76561198277968438,"connected_time":283000000000,"state":"active","ping":86},{"user_id":221,"name":"forest","steam_id":76561198157960257,"connected_time":1270000000000,"state":"active","ping":45},{"user_id":197,"name":"Nekogaming1500","steam_id":76561198979123816,"connected_time":2312000000000,"state":"active","ping":54},{"user_id":225,"name":"Anita D. Spencer","steam_id":76561198049561586,"connected_time":1102000000000,"state":"active","ping":81},{"user_id":116,"name":"Joosh","steam_id":76561198214599739,"connected_time":10345000000000,"state":"active","ping":79},{"user_id":229,"name":"Lesbian Futa Mommy","steam_id":76561198130479030,"connected_time":892000000000,"state":"active","ping":105},{"user_id":139,"name":"Sakisano","steam_id":76561198245814880,"connected_time":8536000000000,"state":"active","ping":80},{"user_id":230,"name":"Rakk","steam_id":76561198855176174,"connected_time":876000000000,"state":"active","ping":80},{"user_id":242,"name":"GrumpyGrampaKoala","steam_id":76561198020441036,"connected_time":681000000000,"state":"active","ping":47},{"user_id":189,"name":"I AM GOING TO EAT YOUR FACE","steam_id":76561198277449857,"connected_time":3891000000000,"state":"active","ping":111},{"user_id":234,"name":"Patio","steam_id":76561197986082608,"connected_time":823000000000,"state":"active","ping":54},{"user_id":235,"name":"YellowShade","steam_id":76561198200828527,"connected_time":807000000000,"state":"active","ping":90},{"user_id":267,"name":"Trace #SAVETF2","steam_id":76561198009486000,"connected_time":26000000000,"state":"active","ping":155},{"user_id":163,"name":"Mignyanne :3","steam_id":76561198048754056,"connected_time":6484000000000,"state":"active","ping":70},{"user_id":209,"name":"isy","steam_id":76561198068017860,"connected_time":1792000000000,"state":"active","ping":78}]},{"server_id":119,"name":"Uncletopia | Seattle | 2 | All Maps","name_short":"sea-2","host":"sea-1.us.uncletopia.com","port":27025,"enabled":true,"region":"us-west","cc":"us","latitude":47.608013,"longitude":-122.33517,"reserved":0,"last_update":"0001-01-01T00:00:00Z","name_a2s":"Uncletopia | Seattle | 2 | All Maps","protocol":17,"map":"cp_dustbowl","folder":"tf","game":"Team Fortress","app_id":440,"player_count":24,"max_players":24,"Bots":0,"server_type":"Dedicated","server_os":"Linux","password":true,"vac":true,"version":"7757534","steam_id":85568392924469998,"keywords":["cp","nocrits","nodmgspread","uncletopia"],"game_id":440,"stv_port":27026,"stv_name":"Uncletopia | Seattle | 2 | All Maps | STV","players":[{"user_id":39,"name":"mista wayne","steam_id":76561198056249150,"connected_time":1680000000000,"state":"active","ping":99},{"user_id":9,"name":"Spoilt Pudding","steam_id":76561198001195423,"connected_time":3900000000000,"state":"active","ping":102},{"user_id":74,"name":"Gibus Man","steam_id":76561198257241062,"connected_time":258000000000,"state":"active","ping":53},{"user_id":40,"name":"Monorchid","steam_id":76561199008858355,"connected_time":1676000000000,"state":"active","ping":74},{"user_id":59,"name":"Mr8bittripper","steam_id":76561198133894229,"connected_time":844000000000,"state":"active","ping":46},{"user_id":16,"name":"Banzai Blitz","steam_id":76561198196503877,"connected_time":2880000000000,"state":"active","ping":47},{"user_id":28,"name":"Nibotshooter","steam_id":76561199284825579,"connected_time":2102000000000,"state":"active","ping":90},{"user_id":60,"name":"Wacks","steam_id":76561198079476100,"connected_time":807000000000,"state":"active","ping":70},{"user_id":73,"name":"Nixl","steam_id":76561198889717595,"connected_time":442000000000,"state":"active","ping":81},{"user_id":70,"name":"creepycrawler","steam_id":76561198352016831,"connected_time":559000000000,"state":"active","ping":107},{"user_id":29,"name":"Cloud","steam_id":76561198272454184,"connected_time":2097000000000,"state":"active","ping":174},{"user_id":24,"name":"BraggerCrab","steam_id":76561198153310992,"connected_time":2437000000000,"state":"active","ping":99},{"user_id":75,"name":"AuzzieJZ","steam_id":76561198134430439,"connected_time":251000000000,"state":"active","ping":120},{"user_id":76,"name":"Nukeboy","steam_id":76561198147058560,"connected_time":242000000000,"state":"active","ping":101},{"user_id":64,"name":"Sh3ba Spaniel","steam_id":76561198047412394,"connected_time":630000000000,"state":"active","ping":121},{"user_id":43,"name":"overwatch refugee","steam_id":76561199003985688,"connected_time":1628000000000,"state":"active","ping":91},{"user_id":56,"name":"Winter the Witchie","steam_id":76561198151971178,"connected_time":1102000000000,"state":"active","ping":114},{"user_id":45,"name":"Lazy","steam_id":76561198802747832,"connected_time":1562000000000,"state":"active","ping":55},{"user_id":67,"name":"BleeboBleebo","steam_id":76561198151549658,"connected_time":607000000000,"state":"active","ping":143},{"user_id":50,"name":"Voon","steam_id":76561198166843533,"connected_time":1428000000000,"state":"active","ping":133},{"user_id":68,"name":"Watatsuki no Yorihime","steam_id":76561198063315650,"connected_time":598000000000,"state":"active","ping":81},{"user_id":69,"name":"Nen","steam_id":76561198893347370,"connected_time":583000000000,"state":"active","ping":86},{"user_id":72,"name":"Mazdaspeed","steam_id":76561198278543998,"connected_time":519000000000,"state":"active","ping":81}]},{"server_id":406,"name":"Uncletopia | Seattle | 3 | Stopwatch Beta","name_short":"sea-3","host":"sea-1.us.uncletopia.com","port":27035,"enabled":true,"region":"us-west","cc":"us","latitude":47.608013,"longitude":-122.33517,"reserved":0,"last_update":"0001-01-01T00:00:00Z","name_a2s":"Uncletopia | Seattle | 3 | Stopwatch Beta","protocol":17,"map":"workshop/koth_ashville_final.ugc2130459942","folder":"tf","game":"Team Fortress","app_id":440,"player_count":0,"max_players":24,"Bots":0,"server_type":"Dedicated","server_os":"Linux","password":true,"vac":true,"version":"7757534","steam_id":85568392924515217,"keywords":["cp","nocrits","nodmgspread","uncletopia"],"game_id":440,"stv_port":27036,"stv_name":"Uncletopia | Seattle | 3 | Stopwatch Beta | STV","players":null},{"server_id":17,"name":"Uncletopia | San Francisco | 1 | All Maps","name_short":"sfo-1","host":"sfo-1.us.uncletopia.com","port":27015,"enabled":true,"region":"us-west","cc":"us","latitude":37.77397,"longitude":-122.4313,"reserved":0,"last_update":"0001-01-01T00:00:00Z","name_a2s":"Uncletopia | San Francisco | 1 | All Maps","protocol":17,"map":"pl_badwater","folder":"tf","game":"Team Fortress","app_id":440,"player_count":0,"max_players":24,"Bots":0,"server_type":"Dedicated","server_os":"Linux","password":true,"vac":true,"version":"7757534","steam_id":85568392924469999,"keywords":["nocrits","nodmgspread","payload","uncletopia"],"game_id":440,"stv_port":27016,"stv_name":"Uncletopia | San Francisco | 1 | All Maps | STV","players":null},{"server_id":18,"name":"Uncletopia | San Francisco | 2 | All Maps","name_short":"sfo-2","host":"sfo-1.us.uncletopia.com","port":27025,"enabled":true,"region":"us-west","cc":"us","latitude":37.77397,"longitude":-122.4313,"reserved":0,"last_update":"0001-01-01T00:00:00Z","name_a2s":"Uncletopia | San Francisco | 2 | All Maps","protocol":17,"map":"koth_viaduct","folder":"tf","game":"Team Fortress","app_id":440,"player_count":0,"max_players":24,"Bots":0,"server_type":"Dedicated","server_os":"Linux","password":true,"vac":true,"version":"7757534","steam_id":85568392924470000,"keywords":["cp","nocrits","nodmgspread","uncletopia"],"game_id":440,"stv_port":27026,"stv_name":"Uncletopia | San Francisco | 2 | All Maps | STV","players":null},{"server_id":19,"name":"Uncletopia | San Francisco | 3 | Stopwatch Beta","name_short":"sfo-3","host":"sfo-1.us.uncletopia.com","port":27035,"enabled":true,"region":"us-west","cc":"us","latitude":37.77397,"longitude":-122.4313,"reserved":0,"last_update":"0001-01-01T00:00:00Z","name_a2s":"Uncletopia | San Francisco | 3 | Stopwatch Beta","protocol":17,"map":"pl_swiftwater_final1","folder":"tf","game":"Team Fortress","app_id":440,"player_count":0,"max_players":24,"Bots":0,"server_type":"Dedicated","server_os":"Linux","password":true,"vac":true,"version":"7757534","steam_id":85568392924742824,"keywords":["nocrits","nodmgspread","payload","uncletopia"],"game_id":440,"stv_port":27036,"stv_name":"Uncletopia | San Francisco | 3 | Stopwatch Beta | STV","players":null},{"server_id":20,"name":"Uncletopia | San Francisco | 4 | Community","name_short":"sfo-4","host":"sfo-1.us.uncletopia.com","port":27045,"enabled":true,"region":"us-west","cc":"us","latitude":37.77397,"longitude":-122.4313,"reserved":0,"last_update":"0001-01-01T00:00:00Z","name_a2s":"Uncletopia | San Francisco | 4 | Community","protocol":17,"map":"workshop/koth_kemptown_rc1.ugc767410655","folder":"tf","game":"Team Fortress","app_id":440,"player_count":0,"max_players":24,"Bots":0,"server_type":"Dedicated","server_os":"Linux","password":true,"vac":true,"version":"7757534","steam_id":85568392924742826,"keywords":["cp","nocrits","nodmgspread","uncletopia"],"game_id":440,"stv_port":27046,"stv_name":"Uncletopia | San Francisco | 4 | Community | STV","players":null},{"server_id":141,"name":"Uncletopia | Sydney | 1 | All Maps","name_short":"syd-1","host":"syd-1.au.uncletopia.com","port":27015,"enabled":true,"region":"au","cc":"au","latitude":-33.865143,"longitude":151.2099,"reserved":0,"last_update":"0001-01-01T00:00:00Z","name_a2s":"Uncletopia | Sydney | 1 | All Maps","protocol":17,"map":"pl_borneo","folder":"tf","game":"Team Fortress","app_id":440,"player_count":0,"max_players":24,"Bots":0,"server_type":"Dedicated","server_os":"Linux","password":true,"vac":true,"version":"7757534","steam_id":85568392924470001,"keywords":["nocrits","nodmgspread","payload","uncletopia"],"game_id":440,"stv_port":27016,"stv_name":"Uncletopia | Sydney | 1 | All Maps | STV","players":null},{"server_id":123,"name":"Uncletopia | Sydney | 2 | All Maps","name_short":"syd-2","host":"syd-1.au.uncletopia.com","port":27025,"enabled":true,"region":"au","cc":"au","latitude":-33.865143,"longitude":151.2099,"reserved":0,"last_update":"0001-01-01T00:00:00Z","name_a2s":"Uncletopia | Sydney | 2 | All Maps","protocol":17,"map":"cp_snakewater_final1","folder":"tf","game":"Team Fortress","app_id":440,"player_count":0,"max_players":24,"Bots":0,"server_type":"Dedicated","server_os":"Linux","password":true,"vac":true,"version":"7757534","steam_id":85568392924470002,"keywords":["cp","nocrits","nodmgspread","uncletopia"],"game_id":440,"stv_port":27026,"stv_name":"Uncletopia | Sydney | 2 | All Maps | STV","players":null},{"server_id":395,"name":"Uncletopia | Sydney | 3 | All Maps","name_short":"syd-3","host":"syd-1.au.uncletopia.com","port":27035,"enabled":true,"region":"au","cc":"au","latitude":-33.865143,"longitude":151.2099,"reserved":0,"last_update":"0001-01-01T00:00:00Z","name_a2s":"Uncletopia | Sydney | 3 | All Maps","protocol":17,"map":"pl_borneo","folder":"tf","game":"Team Fortress","app_id":440,"player_count":0,"max_players":24,"Bots":0,"server_type":"Dedicated","server_os":"Linux","password":true,"vac":true,"version":"7757534","steam_id":85568392925194467,"keywords":["nocrits","nodmgspread","payload","uncletopia"],"game_id":440,"stv_port":27036,"stv_name":"Uncletopia | Sydney | 3 | All Maps | STV","players":null},{"server_id":396,"name":"Uncletopia | Sydney | 4 | All Maps","name_short":"syd-4","host":"syd-1.au.uncletopia.com","port":27045,"enabled":true,"region":"au","cc":"au","latitude":-33.865143,"longitude":151.2099,"reserved":0,"last_update":"0001-01-01T00:00:00Z","name_a2s":"Uncletopia | Sydney | 4 | All Maps","protocol":17,"map":"cp_process_final","folder":"tf","game":"Team Fortress","app_id":440,"player_count":0,"max_players":24,"Bots":0,"server_type":"Dedicated","server_os":"Linux","password":true,"vac":true,"version":"7757534","steam_id":85568392925397958,"keywords":["cp","nocrits","nodmgspread","uncletopia"],"game_id":440,"stv_port":27046,"stv_name":"Uncletopia | Sydney | 4 | All Maps | STV","players":null},{"server_id":58,"name":"Uncletopia | Sydney | 5 | Stopwatch Beta","name_short":"syd-5","host":"syd-1.au.uncletopia.com","port":27055,"enabled":true,"region":"au","cc":"au","latitude":-33.865143,"longitude":151.2099,"reserved":0,"last_update":"0001-01-01T00:00:00Z","name_a2s":"Uncletopia | Sydney | 5 | Stopwatch Beta","protocol":17,"map":"koth_cascade","folder":"tf","game":"Team Fortress","app_id":440,"player_count":0,"max_players":24,"Bots":0,"server_type":"Dedicated","server_os":"Linux","password":true,"vac":true,"version":"7757534","steam_id":85568392925397959,"keywords":["cp","nocrits","nodmgspread","uncletopia"],"game_id":440,"stv_port":27056,"stv_name":"Uncletopia | Sydney | 5 | Stopwatch Beta | STV","players":null},{"server_id":59,"name":"Uncletopia | Sydney | 6 | Community","name_short":"syd-6","host":"syd-1.au.uncletopia.com","port":27065,"enabled":true,"region":"au","cc":"au","latitude":-33.865143,"longitude":151.2099,"reserved":0,"last_update":"0001-01-01T00:00:00Z","name_a2s":"Uncletopia | Sydney | 6 | Community","protocol":17,"map":"pl_badwater","folder":"tf","game":"Team Fortress","app_id":440,"player_count":0,"max_players":24,"Bots":0,"server_type":"Dedicated","server_os":"Linux","password":true,"vac":true,"version":"7757534","steam_id":85568392925397960,"keywords":["nocrits","nodmgspread","payload","uncletopia"],"game_id":440,"stv_port":27066,"stv_name":"Uncletopia | Sydney | 6 | Community | STV","players":null},{"server_id":49,"name":"Uncletopia | Warsaw | 1 | All Maps","name_short":"waw-1","host":"waw-1.pl.uncletopia.com","port":27015,"enabled":true,"region":"eu","cc":"pl","latitude":52.2297,"longitude":21.017532,"reserved":0,"last_update":"0001-01-01T00:00:00Z","name_a2s":"","protocol":0,"map":"","folder":"","game":"","app_id":0,"player_count":0,"max_players":0,"Bots":0,"server_type":"","server_os":"","password":false,"vac":false,"version":"","steam_id":0,"keywords":null,"game_id":0,"stv_port":0,"stv_name":"","players":null},{"server_id":50,"name":"Uncletopia | Warsaw | 2 | All Maps","name_short":"waw-2","host":"waw-1.pl.uncletopia.com","port":27025,"enabled":true,"region":"eu","cc":"pl","latitude":52.2297,"longitude":21.017532,"reserved":0,"last_update":"0001-01-01T00:00:00Z","name_a2s":"Uncletopia | Warsaw | 2 | All Maps","protocol":17,"map":"pl_borneo","folder":"tf","game":"Team Fortress","app_id":440,"player_count":0,"max_players":24,"Bots":0,"server_type":"Dedicated","server_os":"Linux","password":true,"vac":true,"version":"7757534","steam_id":85568392925397851,"keywords":["nocrits","nodmgspread","payload","uncletopia"],"game_id":440,"stv_port":27026,"stv_name":"Uncletopia | Warsaw | 2 | All Maps | STV","players":null},{"server_id":51,"name":"Uncletopia | Warsaw | 3 | All Maps","name_short":"waw-3","host":"waw-1.pl.uncletopia.com","port":27035,"enabled":true,"region":"eu","cc":"pl","latitude":52.2297,"longitude":21.017532,"reserved":0,"last_update":"0001-01-01T00:00:00Z","name_a2s":"Uncletopia | Warsaw | 3 | All Maps","protocol":17,"map":"pl_barnblitz","folder":"tf","game":"Team Fortress","app_id":440,"player_count":0,"max_players":24,"Bots":0,"server_type":"Dedicated","server_os":"Linux","password":true,"vac":true,"version":"7757534","steam_id":85568392925397852,"keywords":["nocrits","nodmgspread","payload","uncletopia"],"game_id":440,"stv_port":27036,"stv_name":"Uncletopia | Warsaw | 3 | All Maps | STV","players":null},{"server_id":52,"name":"Uncletopia | Warsaw | 4 | All Maps","name_short":"waw-4","host":"waw-1.pl.uncletopia.com","port":27045,"enabled":true,"region":"eu","cc":"pl","latitude":52.2297,"longitude":21.017532,"reserved":0,"last_update":"0001-01-01T00:00:00Z","name_a2s":"Uncletopia | Warsaw | 4 | All Maps","protocol":17,"map":"pl_swiftwater_final1","folder":"tf","game":"Team Fortress","app_id":440,"player_count":2,"max_players":24,"Bots":0,"server_type":"Dedicated","server_os":"Linux","password":true,"vac":true,"version":"7757534","steam_id":85568392925397853,"keywords":["nocrits","nodmgspread","payload","uncletopia"],"game_id":440,"stv_port":27046,"stv_name":"Uncletopia | Warsaw | 4 | All Maps | STV","players":[{"user_id":29,"name":"Datenegassie","steam_id":76561198089417032,"connected_time":1739000000000,"state":"active","ping":80},{"user_id":28,"name":"mesoni","steam_id":76561199141290973,"connected_time":1796000000000,"state":"active","ping":106}]},{"server_id":53,"name":"Uncletopia | Warsaw | 5 | Stopwatch Beta","name_short":"waw-5","host":"waw-1.pl.uncletopia.com","port":27055,"enabled":true,"region":"eu","cc":"pl","latitude":52.2297,"longitude":21.017532,"reserved":0,"last_update":"0001-01-01T00:00:00Z","name_a2s":"Uncletopia | Warsaw | 5 | Stopwatch Beta","protocol":17,"map":"pl_pier","folder":"tf","game":"Team Fortress","app_id":440,"player_count":0,"max_players":24,"Bots":0,"server_type":"Dedicated","server_os":"Linux","password":true,"vac":true,"version":"7757534","steam_id":85568392925397854,"keywords":["nocrits","nodmgspread","payload","uncletopia"],"game_id":440,"stv_port":27056,"stv_name":"Uncletopia | Warsaw | 5 | Stopwatch Beta | STV","players":null},{"server_id":54,"name":"Uncletopia | Warsaw | 6 | Community","name_short":"waw-6","host":"waw-1.pl.uncletopia.com","port":27065,"enabled":true,"region":"eu","cc":"pl","latitude":52.2297,"longitude":21.017532,"reserved":0,"last_update":"0001-01-01T00:00:00Z","name_a2s":"Uncletopia | Warsaw | 6 | Community","protocol":17,"map":"koth_highpass","folder":"tf","game":"Team Fortress","app_id":440,"player_count":0,"max_players":24,"Bots":0,"server_type":"Dedicated","server_os":"Linux","password":true,"vac":true,"version":"7757534","steam_id":85568392925397856,"keywords":["cp","nocrits","nodmgspread","uncletopia"],"game_id":440,"stv_port":27066,"stv_name":"Uncletopia | Warsaw | 6 | Community | STV","players":null}]}