{"status":true,"message":"","result":[{"server_id":9,"name":"Uncletopia | Atlanta | 1 | All Maps","name_short":"atl-1","host":"atl-1.us.uncletopia.com","port":27015,"enabled":true,"region":"us-east","cc":"us","latitude":33.753746,"longitude":-84.38633,"reserved":0,"last_update":"0001-01-01T00:00:00Z","name_a2s":"Uncletopia | Atlanta | 1 | All Maps","protocol":17,"map":"pl_borneo","folder":"tf","game":"Team Fortress","app_id":440,"player_count":24,"max_players":24,"Bots":0,"server_type":"Dedicated","server_os":"Linux","password":true,"vac":true,"version":"7961495","steam_id":85568392924469982,"keywords":["nocrits","nodmgspread","payload","uncletopia"],"game_id":440,"stv_port":27016,"stv_name":"Uncletopia | Atlanta | 1 | All Maps | STV","players":null},{"server_id":104,"name":"Uncletopia | Atlanta | 2 | All Maps","name_short":"atl-2","host":"atl-1.us.uncletopia.com","port":27025,"enabled":true,"region":"us-east","cc":"us","latitude":33.753746,"longitude":-84.38633,"reserved":0,"last_update":"0001-01-01T00:00:00Z","name_a2s":"Uncletopia | Atlanta | 2 | All Maps","protocol":17,"map":"koth_cascade","folder":"tf","game":"Team Fortress","app_id":440,"player_count":0,"max_players":24,"Bots":0,"server_type":"Dedicated","server_os":"Linux","password":true,"vac":true,"version":"7961495","steam_id":85568392924469983,"keywords":["cp","nocrits","nodmgspread","uncletopia"],"game_id":440,"stv_port":27026,"stv_name":"Uncletopia | Atlanta | 2 | All Maps | STV","players":null},{"server_id":400,"name":"Uncletopia | Atlanta | 3 | Stopwatch","name_short":"atl-3","host":"atl-1.us.uncletopia.com","port":27035,"enabled":true,"region":"us-east","cc":"us","latitude":33.753746,"longitude":-84.38633,"reserved":0,"last_update":"0001-01-01T00:00:00Z","name_a2s":"Uncletopia | Atlanta | 3 | Stopwatch","protocol":17,"map":"cp_reckoner_rc6","folder":"tf","game":"Team Fortress","app_id":440,"player_count":0,"max_players":24,"Bots":0,"server_type":"Dedicated","server_os":"Linux","password":true,"vac":true,"version":"7961495","steam_id":85568392924515187,"keywords":["cp","nocrits","nodmgspread","uncletopia"],"game_id":440,"stv_port":27036,"stv_name":"Uncletopia | Atlanta | 3 | Stopwatch | STV","players":null},{"server_id":401,"name":"Uncletopia | Atlanta | 4 | Community","name_short":"atl-4","host":"atl-1.us.uncletopia.com","port":27045,"enabled":true,"region":"us-east","cc":"us","latitude":33.753746,"longitude":-84.38633,"reserved":0,"last_update":"0001-01-01T00:00:00Z","name_a2s":"Uncletopia | Atlanta | 4 | Community","protocol":17,"map":"koth_ashville_final","folder":"tf","game":"Team Fortress","app_id":440,"player_count":0,"max_players":24,"Bots":0,"server_type":"Dedicated","server_os":"Linux","password":true,"vac":true,"version":"7961495","steam_id":85568392924515188,"keywords":["cp","nocrits","nodmgspread","uncletopia"],"game_id":440,"stv_port":27046,"stv_name":"Uncletopia | Atlanta | 4 | Community | STV","players":null},{"server_id":2,"name":"Uncletopia | Chicago | 1 | All Maps","name_short":"chi-1","host":"chi-1.us.uncletopia.com","port":27015,"enabled":true,"region":"us-central","cc":"us","latitude":41.881832,"longitude":-87.62318,"reserved":0,"last_update":"0001-01-01T00:00:00Z","name_a2s":"Uncletopia | Chicago | 1 | All Maps","protocol":17,"map":"pl_snowycoast","folder":"tf","game":"Team Fortress","app_id":440,"player_count":24,"max_players":24,"Bots":0,"server_type":"Dedicated","server_os":"Linux","password":true,"vac":true,"version":"7961495","steam_id":85568392924469984,"keywords":["nocrits","nodmgspread","payload","uncletopia"],"game_id":440,"stv_port":27016,"stv_name":"Uncletopia | Chicago | 1 | All Maps | STV","players":[{"user_id":279,"name":"women in suits #transrights","steam_id":76561198103901723,"connected_time":8089000000000,"state":"active","ping":58},{"user_id":354,"name":"vv","steam_id":76561198134813102,"connected_time":2531000000000,"state":"active","ping":57},{"user_id":342,"name":"Bussy Bandit","steam_id":76561198034028769,"connected_time":3371000000000,"state":"active","ping":63},{"user_id":364,"name":"steakfarmasian","steam_id":76561198212754036,"connected_time":1918000000000,"state":"active","ping":47},{"user_id":320,"name":"Blithen","steam_id":76561197989955619,"connected_time":5471000000000,"state":"active","ping":113},{"user_id":338,"name":"Ras","steam_id":76561198123546775,"connected_time":3392000000000,"state":"active","ping":81},{"user_id":290,"name":"cotton candy ghooost","steam_id":76561198058998371,"connected_time":7223000000000,"state":"active","ping":62},{"user_id":368,"name":"twix","steam_id":76561198040912048,"connected_time":923000000000,"state":"active","ping":51},{"user_id":352,"name":"None of that $9.99 bullshit","steam_id":76561198116169903,"connected_time":2934000000000,"state":"active","ping":45},{"user_id":372,"name":"meta dependent merchant","steam_id":76561197962607364,"connected_time":737000000000,"state":"active","ping":63},{"user_id":377,"name":"loscemo","steam_id":76561197994884609,"connected_time":10000000000,"state":"spawning","ping":90},{"user_id":376,"name":"Acro","steam_id":76561198092451804,"connected_time":313000000000,"state":"active","ping":61},{"user_id":367,"name":"Rafl","steam_id":76561198055222756,"connected_time":960000000000,"state":"active","ping":65},{"user_id":359,"name":"Yam Jazzy Jim","steam_id":76561198000788950,"connected_time":2264000000000,"state":"active","ping":65},{"user_id":369,"name":"em0 cha0XD","steam_id":76561198100942212,"connected_time":922000000000,"state":"active","ping":78},{"user_id":313,"name":"4Lukaska","steam_id":76561198083515060,"connected_time":5967000000000,"state":"active","ping":52},{"user_id":355,"name":"Comradical","steam_id":76561197990808285,"connected_time":2365000000000,"state":"active","ping":70},{"user_id":294,"name":"fish ‚óè","steam_id":76561198999217575,"connected_time":7097000000000,"state":"active","ping":65},{"user_id":375,"name":"Paddy","steam_id":76561198037001457,"connected_time":352000000000,"state":"active","ping":73},{"user_id":304,"name":"ìÜèCayenne Pepper ìÜè","steam_id":76561198124881810,"connected_time":6882000000000,"state":"active","ping":120},{"user_id":366,"name":"[FT]Sponge","steam_id":76561197982284219,"connected_time":1438000000000,"state":"active","ping":96},{"user_id":370,"name":"L to the OG","steam_id":76561199215811448,"connected_time":898000000000,"state":"active","ping":78},{"user_id":363,"name":"Nut Commander","steam_id":76561198065989058,"connected_time":2084000000000,"state":"active","ping":60},{"user_id":371,"name":"Sunshine","steam_id":76561198885528098,"connected_time":860000000000,"state":"active","ping":64}]},{"server_id":106,"name":"Uncletopia | Chicago | 2 | All Maps","name_short":"chi-2","host":"chi-1.us.uncletopia.com","port":27025,"enabled":true,"region":"us-central","cc":"us","latitude":41.881832,"longitude":-87.62318,"reserved":0,"last_update":"0001-01-01T00:00:00Z","name_a2s":"Uncletopia | Chicago | 2 | All Maps","protocol":17,"map":"pl_borneo","folder":"tf","game":"Team Fortress","app_id":440,"player_count":24,"max_players":24,"Bots":0,"server_type":"Dedicated","server_os":"Linux","password":true,"vac":true,"version":"7961495","steam_id":85568392924469985,"keywords":["nocrits","nodmgspread","payload","uncletopia"],"game_id":440,"stv_port":27026,"stv_name":"Uncletopia | Chicago | 2 | All Maps | STV","players":[{"user_id":216,"name":"SandwitchSenpai","steam_id":76561198203609264,"connected_time":1686000000000,"state":"active","ping":61},{"user_id":165,"name":"that shit for the birds","steam_id":76561198142756572,"connected_time":4987000000000,"state":"active","ping":61},{"user_id":211,"name":"Dakota Sutcliffe","steam_id":76561198170660959,"connected_time":2547000000000,"state":"active","ping":67},{"user_id":187,"name":"Kazul","steam_id":76561198014925555,"connected_time":3899000000000,"state":"active","ping":49},{"user_id":224,"name":"Nigel","steam_id":76561198115574712,"connected_time":1108000000000,"state":"active","ping":49},{"user_id":168,"name":"mOoOoOoO","steam_id":76561198145615363,"connected_time":4445000000000,"state":"active","ping":75},{"user_id":222,"name":"tlar","steam_id":76561198060117460,"connected_time":1249000000000,"state":"active","ping":61},{"user_id":218,"name":"the12xu","steam_id":76561198197086561,"connected_time":1350000000000,"state":"active","ping":71},{"user_id":196,"name":"Krouton","steam_id":76561198037514022,"connected_time":2924000000000,"state":"active","ping":64},{"user_id":203,"name":"Genne","steam_id":76561198153434791,"connected_time":2873000000000,"state":"active","ping":72},{"user_id":223,"name":"Keymaster","steam_id":76561198881514228,"connected_time":1237000000000,"state":"active","ping":80},{"user_id":227,"name":"Discourse","steam_id":76561198984286678,"connected_time":533000000000,"state":"active","ping":58},{"user_id":217,"name":"Crow_Gunk","steam_id":76561198339843437,"connected_time":1386000000000,"state":"active","ping":73},{"user_id":220,"name":"Freyja","steam_id":76561198207412177,"connected_time":1307000000000,"state":"active","ping":70},{"user_id":213,"name":"cbv dasfgfcdesrye","steam_id":76561198304661367,"connected_time":2314000000000,"state":"active","ping":75},{"user_id":228,"name":"The jesus guy (FRNK)","steam_id":76561198237997622,"connected_time":436000000000,"state":"active","ping":179},{"user_id":204,"name":"Cherry Bomb!","steam_id":76561198017947020,"connected_time":2866000000000,"state":"active","ping":75},{"user_id":194,"name":"Sensei Wu From Ninjago","steam_id":76561198424670596,"connected_time":3105000000000,"state":"active","ping":98},{"user_id":201,"name":"Quartzalcoatl","steam_id":76561198044944584,"connected_time":2881000000000,"state":"active","ping":84},{"user_id":214,"name":"PixelGoat","steam_id":76561198122292109,"connected_time":2226000000000,"state":"active","ping":160},{"user_id":226,"name":"CoconutRice","steam_id":76561198114909164,"connected_time":648000000000,"state":"active","ping":52},{"user_id":229,"name":"njkni","steam_id":76561199061380038,"connected_time":298000000000,"state":"active","ping":73},{"user_id":212,"name":"Neon","steam_id":76561198089067907,"connected_time":2510000000000,"state":"active","ping":73},{"user_id":179,"name":"cheeserific","steam_id":76561198087598341,"connected_time":4206000000000,"state":"active","ping":81}]},{"server_id":402,"name":"Uncletopia | Chicago | 3 | All Maps","name_short":"chi-3","host":"chi-1.us.uncletopia.com","port":27035,"enabled":true,"region":"us-central","cc":"us","latitude":41.881832,"longitude":-87.62318,"reserved":0,"last_update":"0001-01-01T00:00:00Z","name_a2s":"Uncletopia | Chicago | 3 | All Maps","protocol":17,"map":"cp_fastlane","folder":"tf","game":"Team Fortress","app_id":440,"player_count":23,"max_players":24,"Bots":0,"server_type":"Dedicated","server_os":"Linux","password":true,"vac":true,"version":"7961495","steam_id":85568392924515191,"keywords":["cp","nocrits","nodmgspread","uncletopia"],"game_id":440,"stv_port":27036,"stv_name":"Uncletopia | Chicago | 3 | All Maps | STV","players":[{"user_id":89,"name":"Zeek","steam_id":76561197987204351,"connected_time":4192000000000,"state":"active","ping":58},{"user_id":103,"name":"rice","steam_id":76561198119326733,"connected_time":2651000000000,"state":"active","ping":84},{"user_id":93,"name":"Ockulus","steam_id":76561199069638460,"connected_time":3856000000000,"state":"active","ping":126},{"user_id":142,"name":"BeautifulDeer","steam_id":76561198119588300,"connected_time":200000000000,"state":"active","ping":70},{"user_id":138,"name":"Geriatric Disappointment","steam_id":76561198825840846,"connected_time":390000000000,"state":"active","ping":75},{"user_id":121,"name":"Hamz","steam_id":76561199287459211,"connected_time":1320000000000,"state":"active","ping":72},{"user_id":104,"name":"Crabby Patty","steam_id":76561198071150936,"connected_time":2609000000000,"state":"active","ping":79},{"user_id":141,"name":"Daperlin (Stunt)","steam_id":76561198091299113,"connected_time":250000000000,"state":"active","ping":89},{"user_id":143,"name":"BookBurner23","steam_id":76561198034771185,"connected_time":148000000000,"state":"active","ping":58},{"user_id":18,"name":"J The Jounin","steam_id":76561198034583622,"connected_time":8557000000000,"state":"active","ping":72},{"user_id":134,"name":"Pug_9492","steam_id":76561199078217640,"connected_time":567000000000,"state":"active","ping":121},{"user_id":144,"name":"Big Bill Haywood","steam_id":76561198142290733,"connected_time":123000000000,"state":"spawning","ping":61},{"user_id":139,"name":"sigma crack addict","steam_id":76561198159339442,"connected_time":379000000000,"state":"active","ping":65},{"user_id":116,"name":"wish you were here","steam_id":76561198282764599,"connected_time":1779000000000,"state":"active","ping":46},{"user_id":123,"name":"Gailus (She/Her)","steam_id":76561198319509387,"connected_time":1289000000000,"state":"active","ping":60},{"user_id":140,"name":"fishy","steam_id":76561198018622305,"connected_time":345000000000,"state":"active","ping":68},{"user_id":88,"name":"Blade Racer","steam_id":76561198155896703,"connected_time":4215000000000,"state":"active","ping":69},{"user_id":124,"name":"Post nut clarity","steam_id":76561198060246831,"connected_time":1278000000000,"state":"active","ping":84},{"user_id":125,"name":"Wafflehead","steam_id":76561198053539741,"connected_time":1227000000000,"state":"active","ping":74},{"user_id":75,"name":"Casual Costanza","steam_id":76561198024409325,"connected_time":5504000000000,"state":"active","ping":62},{"user_id":129,"name":"menace","steam_id":76561198319142233,"connected_time":1091000000000,"state":"active","ping":42},{"user_id":135,"name":"Still Grillby","steam_id":76561198161275243,"connected_time":566000000000,"state":"active","ping":74},{"user_id":69,"name":"Mythic","steam_id":76561198028616665,"connected_time":6141000000000,"state":"active","ping":56}]},{"server_id":403,"name":"Uncletopia | Chicago | 4 | All Maps","name_short":"chi-4","host":"chi-1.us.uncletopia.com","port":27045,"enabled":true,"region":"us-central","cc":"us","latitude":41.881832,"longitude":-87.62318,"reserved":0,"last_update":"0001-01-01T00:00:00Z","name_a2s":"Uncletopia | Chicago | 4 | All Maps","protocol":17,"map":"cp_mountainlab","folder":"tf","game":"Team Fortress","app_id":440,"player_count":24,"max_players":24,"Bots":0,"server_type":"Dedicated","server_os":"Linux","password":true,"vac":true,"version":"7961495","steam_id":85568392924515193,"keywords":["cp","nocrits","nodmgspread","uncletopia"],"game_id":440,"stv_port":27046,"stv_name":"Uncletopia | Chicago | 4 | All Maps | STV","players":[{"user_id":24,"name":"Mister Mystical Perfection","steam_id":76561198036444997,"connected_time":1137000000000,"state":"active","ping":91},{"user_id":13,"name":"Krustytoepaste","steam_id":76561198320265524,"connected_time":2157000000000,"state":"active","ping":96},{"user_id":22,"name":"Paul","steam_id":76561197996285195,"connected_time":1285000000000,"state":"active","ping":100},{"user_id":28,"name":"Venk","steam_id":76561198251131422,"connected_time":877000000000,"state":"active","ping":68},{"user_id":14,"name":"Scientific Triumph","steam_id":76561198815127418,"connected_time":1900000000000,"state":"active","ping":171},{"user_id":31,"name":"A_Malebolgia","steam_id":76561198097722818,"connected_time":692000000000,"state":"active","ping":87},{"user_id":25,"name":"da pwo","steam_id":76561198963115673,"connected_time":1133000000000,"state":"active","ping":69},{"user_id":15,"name":"Vip3r","steam_id":76561199077814151,"connected_time":1752000000000,"state":"active","ping":163},{"user_id":16,"name":"shitass (Reaping and Sowing)","steam_id":76561198210572481,"connected_time":1648000000000,"state":"active","ping":85},{"user_id":17,"name":"soarinlauren","steam_id":76561199482944619,"connected_time":1628000000000,"state":"active","ping":73},{"user_id":18,"name":"Weerk","steam_id":76561199209543551,"connected_time":1562000000000,"state":"active","ping":88},{"user_id":19,"name":"Ringo x Seiran","steam_id":76561198357437908,"connected_time":1562000000000,"state":"active","ping":66},{"user_id":38,"name":"Henry Ota-Clay","steam_id":76561198053232470,"connected_time":567000000000,"state":"active","ping":61},{"user_id":33,"name":"squid game","steam_id":76561199248960166,"connected_time":657000000000,"state":"active","ping":83},{"user_id":39,"name":"Albundy","steam_id":76561198075394127,"connected_time":541000000000,"state":"active","ping":78},{"user_id":35,"name":"hatsune miku","steam_id":76561199445009981,"connected_time":609000000000,"state":"active","ping":97},{"user_id":36,"name":"Bhop St. Awlk","steam_id":76561199499548494,"connected_time":606000000000,"state":"active","ping":167},{"user_id":40,"name":"Borked","steam_id":76561197984964095,"connected_time":516000000000,"state":"active","ping":104},{"user_id":47,"name":"Rornir","steam_id":76561198081829615,"connected_time":143000000000,"state":"active","ping":44},{"user_id":42,"name":"PepsiCorp","steam_id":76561198380467894,"connected_time":385000000000,"state":"active","ping":78},{"user_id":43,"name":"soltuno","steam_id":76561198074430565,"connected_time":337000000000,"state":"active","ping":120},{"user_id":44,"name":"breezewax","steam_id":76561198121702006,"connected_time":335000000000,"state":"active","ping":69},{"user_id":45,"name":"YOU WHAT?!","steam_id":76561198418679471,"connected_time":283000000000,"state":"active","ping":61},{"user_id":46,"name":"howtobepker","steam_id":76561198115053865,"connected_time":279000000000,"state":"active","ping":85}]},{"server_id":36,"name":"Uncletopia | Chicago | 5 | All Maps","name_short":"chi-5","host":"chi-2.us.uncletopia.com","port":27015,"enabled":true,"region":"us-central","cc":"us","latitude":41.881832,"longitude":-87.62318,"reserved":0,"last_update":"0001-01-01T00:00:00Z","name_a2s":"Uncletopia | Chicago | 5 | All Maps","protocol":17,"map":"koth_viaduct","folder":"tf","game":"Team Fortress","app_id":440,"player_count":0,"max_players":24,"Bots":0,"server_type":"Dedicated","server_os":"Linux","password":true,"vac":true,"version":"7961495","steam_id":85568392924866362,"keywords":["cp","nocrits","nodmgspread","uncletopia"],"game_id":440,"stv_port":27016,"stv_name":"Uncletopia | Chicago | 5 | All Maps | STV","players":null},{"server_id":37,"name":"Uncletopia | Chicago | 6 | All Maps","name_short":"chi-6","host":"chi-2.us.uncletopia.com","port":27025,"enabled":true,"region":"us-central","cc":"us","latitude":41.881832,"longitude":-87.62318,"reserved":0,"last_update":"0001-01-01T00:00:00Z","name_a2s":"Uncletopia | Chicago | 6 | All Maps","protocol":17,"map":"cp_coldfront","folder":"tf","game":"Team Fortress","app_id":440,"player_count":24,"max_players":24,"Bots":0,"server_type":"Dedicated","server_os":"Linux","password":true,"vac":true,"version":"7961495","steam_id":85568392924866363,"keywords":["cp","nocrits","nodmgspread","uncletopia"],"game_id":440,"stv_port":27026,"stv_name":"Uncletopia | Chicago | 6 | All Maps | STV","players":[{"user_id":308,"name":"Mog","steam_id":76561198025575870,"connected_time":99000000000,"state":"active","ping":60},{"user_id":257,"name":"misterspud","steam_id":76561198195306218,"connected_time":4077000000000,"state":"active","ping":52},{"user_id":277,"name":"DerpyNate","steam_id":76561198100249037,"connected_time":2694000000000,"state":"active","ping":38},{"user_id":309,"name":"ShofaX","steam_id":76561198199768014,"connected_time":83000000000,"state":"active","ping":76},{"user_id":271,"name":"Hazeyboi","steam_id":76561198130687838,"connected_time":3448000000000,"state":"active","ping":45},{"user_id":259,"name":"Gram Tokers Count Doinkula","steam_id":76561198112811565,"connected_time":4033000000000,"state":"active","ping":74},{"user_id":265,"name":"super clickteam fusion","steam_id":76561198275101482,"connected_time":3775000000000,"state":"active","ping":139},{"user_id":296,"name":"NUt","steam_id":76561198031007966,"connected_time":569000000000,"state":"active","ping":61},{"user_id":256,"name":"neet","steam_id":76561197968115168,"connected_time":4194000000000,"state":"active","ping":59},{"user_id":242,"name":"Domswish","steam_id":76561198331444240,"connected_time":5095000000000,"state":"active","ping":72},{"user_id":303,"name":"An Engineer","steam_id":76561198110381643,"connected_time":268000000000,"state":"active","ping":61},{"user_id":261,"name":"Dilly D","steam_id":76561198156643697,"connected_time":3998000000000,"state":"active","ping":69},{"user_id":298,"name":"AwesomenessPhD","steam_id":76561198152631718,"connected_time":511000000000,"state":"active","ping":92},{"user_id":301,"name":"OrangeShoes","steam_id":76561197971249940,"connected_time":320000000000,"state":"active","ping":75},{"user_id":302,"name":"violent monkey porn","steam_id":76561199285074344,"connected_time":314000000000,"state":"active","ping":68},{"user_id":290,"name":"chin chin","steam_id":76561198850458366,"connected_time":1011000000000,"state":"active","ping":74},{"user_id":311,"name":"Average Anarchist","steam_id":76561199175442910,"connected_time":8000000000,"state":"spawning","ping":68},{"user_id":278,"name":"TheSquirrelofHuscurl","steam_id":76561198073379623,"connected_time":2672000000000,"state":"active","ping":126},{"user_id":286,"name":"Visual Depression","steam_id":76561198825918366,"connected_time":1513000000000,"state":"active","ping":104},{"user_id":310,"name":"Oogle","steam_id":76561198041815877,"connected_time":68000000000,"state":"spawning","ping":66},{"user_id":253,"name":"rune simpa","steam_id":76561198046174848,"connected_time":4463000000000,"state":"active","ping":80},{"user_id":304,"name":"CaioXDD5","steam_id":76561198323025785,"connected_time":251000000000,"state":"active","ping":187},{"user_id":305,"name":"Dr_chilly","steam_id":76561198445383213,"connected_time":239000000000,"state":"active","ping":102},{"user_id":306,"name":"monkey squirts","steam_id":76561197983101644,"connected_time":193000000000,"state":"active","ping":107}]},{"server_id":38,"name":"Uncletopia | Chicago | 7 | Stopwatch","name_short":"chi-7","host":"chi-2.us.uncletopia.com","port":27035,"enabled":true,"region":"us-central","cc":"us","latitude":41.881832,"longitude":-87.62318,"reserved":0,"last_update":"0001-01-01T00:00:00Z","name_a2s":"Uncletopia | Chicago | 7 | Stopwatch","protocol":17,"map":"pl_badwater","folder":"tf","game":"Team Fortress","app_id":440,"player_count":0,"max_players":24,"Bots":0,"server_type":"Dedicated","server_os":"Linux","password":true,"vac":true,"version":"7961495","steam_id":85568392924866364,"keywords":["nocrits","nodmgspread","payload","uncletopia"],"game_id":440,"stv_port":27036,"stv_name":"Uncletopia | Chicago | 7 | Stopwatch | STV","players":null},{"server_id":39,"name":"Uncletopia | Chicago | 8 | Community","name_short":"chi-8","host":"chi-2.us.uncletopia.com","port":27045,"enabled":true,"region":"us-central","cc":"us","latitude":41.881832,"longitude":-87.62318,"reserved":0,"last_update":"0001-01-01T00:00:00Z","name_a2s":"Uncletopia | Chicago | 8 | Community","protocol":17,"map":"pl_pier","folder":"tf","game":"Team Fortress","app_id":440,"player_count":0,"max_players":24,"Bots":0,"server_type":"Dedicated","server_os":"Linux","password":true,"vac":true,"version":"7961495","steam_id":85568392924866365,"keywords":["nocrits","nodmgspread","payload","uncletopia"],"game_id":440,"stv_port":27046,"stv_name":"Uncletopia | Chicago | 8 | Community | STV","players":null},{"server_id":8,"name":"Uncletopia | Dallas | 1 | All Maps","name_short":"dal-1","host":"dal-1.us.uncletopia.com","port":27015,"enabled":true,"region":"us-central","cc":"us","latitude":32.779167,"longitude":-96.80889,"reserved":0,"last_update":"0001-01-01T00:00:00Z","name_a2s":"Uncletopia | Dallas | 1 | All Maps","protocol":17,"map":"pl_goldrush","folder":"tf","game":"Team Fortress","app_id":440,"player_count":24,"max_players":24,"Bots":0,"server_type":"Dedicated","server_os":"Linux","password":true,"vac":true,"version":"7961495","steam_id":85568392924469986,"keywords":["nocrits","nodmgspread","payload","uncletopia"],"game_id":440,"stv_port":27016,"stv_name":"Uncletopia | Dallas | 1 | All Maps | STV","players":[{"user_id":118,"name":"Don't Fuckle with Shuckle","steam_id":76561199020102367,"connected_time":3140000000000,"state":"active","ping":98},{"user_id":140,"name":"bouncyhousin","steam_id":76561198852902827,"connected_time":912000000000,"state":"active","ping":71},{"user_id":145,"name":"the keebler","steam_id":76561199486326945,"connected_time":613000000000,"state":"active","ping":74},{"user_id":141,"name":"Lee-Ch","steam_id":76561198164980622,"connected_time":808000000000,"state":"active","ping":75},{"user_id":105,"name":"Mellou","steam_id":76561198212048740,"connected_time":4180000000000,"state":"active","ping":49},{"user_id":143,"name":"Oh, Y'know :)","steam_id":76561198084110985,"connected_time":684000000000,"state":"active","ping":52},{"user_id":132,"name":"mkl","steam_id":76561197986401685,"connected_time":1683000000000,"state":"active","ping":55},{"user_id":144,"name":"prospike","steam_id":76561199491903111,"connected_time":637000000000,"state":"active","ping":101},{"user_id":114,"name":"Fraglin","steam_id":76561198124964000,"connected_time":3594000000000,"state":"active","ping":105},{"user_id":146,"name":"homestuck (fake)","steam_id":76561198193799961,"connected_time":583000000000,"state":"active","ping":106},{"user_id":147,"name":"KaosInfinite","steam_id":76561198009126350,"connected_time":569000000000,"state":"active","ping":76},{"user_id":124,"name":"Shadoe","steam_id":76561198218577281,"connected_time":2912000000000,"state":"active","ping":76},{"user_id":107,"name":"Snow Squid","steam_id":76561198201565674,"connected_time":4160000000000,"state":"active","ping":122},{"user_id":137,"name":"Withered Bonnie (Real)","steam_id":76561198423310113,"connected_time":964000000000,"state":"active","ping":56},{"user_id":126,"name":"floppy muppet","steam_id":76561198003076261,"connected_time":2233000000000,"state":"active","ping":86},{"user_id":120,"name":"penzfan","steam_id":76561198230422640,"connected_time":3110000000000,"state":"active","ping":75},{"user_id":148,"name":"plsplsplslol","steam_id":76561198868084626,"connected_time":527000000000,"state":"active","ping":88},{"user_id":149,"name":"Locomotive","steam_id":76561199152926930,"connected_time":429000000000,"state":"active","ping":70},{"user_id":153,"name":"Mimitoze","steam_id":76561199024242486,"connected_time":309000000000,"state":"active","ping":189},{"user_id":42,"name":"HOODOO_LOVER_2007","steam_id":76561199087691214,"connected_time":9679000000000,"state":"active","ping":100},{"user_id":151,"name":"Mr.Pancakes","steam_id":76561198014345864,"connected_time":341000000000,"state":"active","ping":150},{"user_id":134,"name":"pig","steam_id":76561198246492934,"connected_time":1087000000000,"state":"active","ping":81},{"user_id":154,"name":"Lefty [Gentlemen of Leisure]","steam_id":76561197980825914,"connected_time":166000000000,"state":"active","ping":87},{"user_id":90,"name":"Drained","steam_id":76561198081974528,"connected_time":6194000000000,"state":"active","ping":71}]},{"server_id":108,"name":"Uncletopia | Dallas | 2 | All Maps","name_short":"dal-2","host":"dal-1.us.uncletopia.com","port":27025,"enabled":true,"region":"us-central","cc":"us","latitude":32.779167,"longitude":-96.80889,"reserved":0,"last_update":"0001-01-01T00:00:00Z","name_a2s":"Uncletopia | Dallas | 2 | All Maps","protocol":17,"map":"ctf_sawmill","folder":"tf","game":"Team Fortress","app_id":440,"player_count":23,"max_players":24,"Bots":0,"server_type":"Dedicated","server_os":"Linux","password":true,"vac":true,"version":"7961495","steam_id":85568392924469988,"keywords":["ctf","nocrits","nodmgspread","uncletopia"],"game_id":440,"stv_port":27026,"stv_name":"Uncletopia | Dallas | 2 | All Maps | STV","players":[{"user_id":115,"name":"Tomorrows","steam_id":76561198043424567,"connected_time":545000000000,"state":"active","ping":81},{"user_id":114,"name":"HideThePainHarlod","steam_id":76561198393406361,"connected_time":613000000000,"state":"active","ping":175},{"user_id":111,"name":"SearingGustav #tG","steam_id":76561198040560786,"connected_time":688000000000,"state":"active","ping":146},{"user_id":112,"name":"hforce11","steam_id":76561198087647130,"connected_time":679000000000,"state":"active","ping":72},{"user_id":103,"name":"plink","steam_id":76561198057829889,"connected_time":912000000000,"state":"active","ping":57},{"user_id":102,"name":"RATMATIONS","steam_id":76561199490509775,"connected_time":938000000000,"state":"active","ping":169},{"user_id":28,"name":"Jarryl97","steam_id":76561198055451373,"connected_time":5768000000000,"state":"active","ping":68},{"user_id":104,"name":"YEETCEN","steam_id":76561198132335963,"connected_time":842000000000,"state":"active","ping":74},{"user_id":119,"name":"Adalbern","steam_id":76561197991785034,"connected_time":283000000000,"state":"active","ping":96},{"user_id":105,"name":"badass","steam_id":76561198404271005,"connected_time":835000000000,"state":"active","ping":75},{"user_id":75,"name":"Op banana","steam_id":76561198303231451,"connected_time":3190000000000,"state":"active","ping":46},{"user_id":35,"name":"CJAIME01345","steam_id":76561199091599141,"connected_time":5492000000000,"state":"active","ping":150},{"user_id":106,"name":"Luffliet.","steam_id":76561198186593707,"connected_time":796000000000,"state":"active","ping":52},{"user_id":95,"name":"Ahkmid the Emoji Turban Guy","steam_id":76561198142599650,"connected_time":1216000000000,"state":"active","ping":71},{"user_id":118,"name":"Frost Paraselene","steam_id":76561198007332517,"connected_time":295000000000,"state":"active","ping":61},{"user_id":120,"name":"Sckuish","steam_id":76561198297216345,"connected_time":276000000000,"state":"active","ping":45},{"user_id":113,"name":"Oopsie Daisy ‚ùã","steam_id":76561198042144492,"connected_time":647000000000,"state":"active","ping":74},{"user_id":51,"name":"ShapedSilver","steam_id":76561199073305310,"connected_time":4815000000000,"state":"active","ping":57},{"user_id":108,"name":"amberenix","steam_id":76561198805110908,"connected_time":778000000000,"state":"active","ping":72},{"user_id":74,"name":"The Great Eagle Scourge of 1822","steam_id":76561198325086209,"connected_time":3202000000000,"state":"active","ping":91},{"user_id":117,"name":"Hermanver","steam_id":76561198799269067,"connected_time":433000000000,"state":"active","ping":48},{"user_id":99,"name":"Asfedia","steam_id":76561199386836351,"connected_time":1085000000000,"state":"active","ping":186},{"user_id":122,"name":"MeKa4life","steam_id":76561198843713927,"connected_time":78000000000,"state":"active","ping":196}]},{"server_id":404,"name":"Uncletopia | Dallas | 3 | All Maps","name_short":"dal-3","host":"dal-1.us.uncletopia.com","port":27035,"enabled":true,"region":"us-central","cc":"us","latitude":32.779167,"longitude":-96.80889,"reserved":0,"last_update":"0001-01-01T00:00:00Z","name_a2s":"Uncletopia | Dallas | 3 | All Maps","protocol":17,"map":"cp_process_final","folder":"tf","game":"Team Fortress","app_id":440,"player_count":0,"max_players":24,"Bots":0,"server_type":"Dedicated","server_os":"Linux","password":true,"vac":true,"version":"7961495","steam_id":85568392924515219,"keywords":["cp","nocrits","nodmgspread","uncletopia"],"game_id":440,"stv_port":27036,"stv_name":"Uncletopia | Dallas | 3 | All Maps | STV","players":null},{"server_id":405,"name":"Uncletopia | Dallas | 4 | Community","name_short":"dal-4","host":"dal-1.us.uncletopia.com","port":27045,"enabled":true,"region":"us-central","cc":"us","latitude":32.779167,"longitude":-96.80889,"reserved":0,"last_update":"0001-01-01T00:00:00Z","name_a2s":"Uncletopia | Dallas | 4 | Community","protocol":17,"map":"workshop/pl_barnblitz_pro7.ugc582280235","folder":"tf","game":"Team Fortress","app_id":440,"player_count":0,"max_players":24,"Bots":0,"server_type":"Dedicated","server_os":"Linux","password":true,"vac":true,"version":"7961495","steam_id":85568392924515220,"keywords":["nocrits","nodmgspread","payload","uncletopia"],"game_id":440,"stv_port":27046,"stv_name":"Uncletopia | Dallas | 4 | Community | STV","players":null},{"server_id":5,"name":"Uncletopia | Frankfurt | 1 | All Maps","name_short":"frk-1","host":"frk-1.de.uncletopia.com","port":27015,"enabled":true,"region":"eu","cc":"de","latitude":50.110924,"longitude":8.682127,"reserved":0,"last_update":"0001-01-01T00:00:00Z","name_a2s":"Uncletopia | Frankfurt | 1 | All Maps","protocol":17,"map":"pl_pier","folder":"tf","game":"Team Fortress","app_id":440,"player_count":24,"max_players":24,"Bots":0,"server_type":"Dedicated","server_os":"Linux","password":true,"vac":true,"version":"7961495","steam_id":85568392924469989,"keywords":["nocrits","nodmgspread","payload","uncletopia"],"game_id":440,"stv_port":27016,"stv_name":"Uncletopia | Frankfurt | 1 | All Maps | STV","players":[{"user_id":430,"name":"James Deer","steam_id":76561198140014793,"connected_time":2811000000000,"state":"active","ping":70},{"user_id":472,"name":"Kardiol","steam_id":76561198122344852,"connected_time":114000000000,"state":"active","ping":69},{"user_id":458,"name":"Toasty5050","steam_id":76561198073540881,"connected_time":1747000000000,"state":"active","ping":46},{"user_id":431,"name":"fuyunoLuna","steam_id":76561198108237246,"connected_time":2794000000000,"state":"active","ping":62},{"user_id":432,"name":"Aiiden360","steam_id":76561198153073387,"connected_time":2788000000000,"state":"active","ping":77},{"user_id":467,"name":"Danger_665","steam_id":76561199075064273,"connected_time":597000000000,"state":"active","ping":93},{"user_id":455,"name":"Cosmetic brain","steam_id":76561198055936410,"connected_time":1921000000000,"state":"active","ping":90},{"user_id":471,"name":"Comrade_1917","steam_id":76561198452588605,"connected_time":267000000000,"state":"active","ping":45},{"user_id":435,"name":"Rimx","steam_id":76561198053034840,"connected_time":2638000000000,"state":"active","ping":90},{"user_id":436,"name":"pizzaboob (im funny)","steam_id":76561198097507847,"connected_time":2523000000000,"state":"active","ping":71},{"user_id":437,"name":"dzgnated","steam_id":76561198026927089,"connected_time":2521000000000,"state":"active","ping":103},{"user_id":438,"name":"Lazor","steam_id":76561198310376869,"connected_time":2504000000000,"state":"active","ping":123},{"user_id":439,"name":"tallen","steam_id":76561198061708595,"connected_time":2490000000000,"state":"active","ping":85},{"user_id":457,"name":"Cheshireycat (sladak sam)","steam_id":76561198067204908,"connected_time":1753000000000,"state":"active","ping":60},{"user_id":448,"name":"Hamburger side effect","steam_id":76561198265451304,"connected_time":2320000000000,"state":"active","ping":75},{"user_id":466,"name":"BOT","steam_id":76561197993423450,"connected_time":884000000000,"state":"active","ping":59},{"user_id":443,"name":"Piox","steam_id":76561198125689157,"connected_time":2464000000000,"state":"active","ping":62},{"user_id":463,"name":"JohkupohkuXD","steam_id":76561198391108762,"connected_time":983000000000,"state":"active","ping":95},{"user_id":445,"name":"least weird romanian","steam_id":76561198170609049,"connected_time":2394000000000,"state":"active","ping":80},{"user_id":469,"name":"Daruun","steam_id":76561198019068781,"connected_time":588000000000,"state":"active","ping":73},{"user_id":447,"name":"shr1mple","steam_id":76561198173537027,"connected_time":2347000000000,"state":"active","ping":41},{"user_id":465,"name":"Finnish Farmer","steam_id":76561198205366043,"connected_time":890000000000,"state":"active","ping":81},{"user_id":461,"name":"Salad side benefit","steam_id":76561198155602574,"connected_time":1118000000000,"state":"active","ping":120},{"user_id":470,"name":"Drip-O-bama","steam_id":76561199135631057,"connected_time":555000000000,"state":"active","ping":92}]},{"server_id":110,"name":"Uncletopia | Frankfurt | 2 | All Maps","name_short":"frk-2","host":"frk-1.de.uncletopia.com","port":27025,"enabled":true,"region":"eu","cc":"de","latitude":50.110924,"longitude":8.682127,"reserved":0,"last_update":"0001-01-01T00:00:00Z","name_a2s":"Uncletopia | Frankfurt | 2 | All Maps","protocol":17,"map":"cp_powerhouse","folder":"tf","game":"Team Fortress","app_id":440,"player_count":24,"max_players":24,"Bots":0,"server_type":"Dedicated","server_os":"Linux","password":true,"vac":true,"version":"7961495","steam_id":85568392924469990,"keywords":["cp","nocrits","nodmgspread","uncletopia"],"game_id":440,"stv_port":27026,"stv_name":"Uncletopia | Frankfurt | 2 | All Maps | STV","players":[{"user_id":193,"name":"lulu","steam_id":76561199147764133,"connected_time":7712000000000,"state":"active","ping":74},{"user_id":201,"name":"Hexakosioihexekontahexaphobia","steam_id":76561198070805240,"connected_time":6506000000000,"state":"active","ping":94},{"user_id":297,"name":"Saucisse","steam_id":76561198119955969,"connected_time":113000000000,"state":"active","ping":62},{"user_id":278,"name":"Proofmean","steam_id":76561198878552103,"connected_time":1349000000000,"state":"active","ping":59},{"user_id":258,"name":"After8","steam_id":76561198090750865,"connected_time":2826000000000,"state":"active","ping":60},{"user_id":270,"name":"‚ô†Anti_BOI‚ô†","steam_id":76561198274593231,"connected_time":1651000000000,"state":"active","ping":58},{"user_id":298,"name":"Makkie","steam_id":76561198118950916,"connected_time":110000000000,"state":"active","ping":76},{"user_id":299,"name":"Xertium","steam_id":76561198000592322,"connected_time":96000000000,"state":"active","ping":60},{"user_id":294,"name":"Croissant au chocolatine","steam_id":76561198162063872,"connected_time":203000000000,"state":"active","ping":67},{"user_id":290,"name":"Ramzus","steam_id":76561198012385070,"connected_time":534000000000,"state":"active","ping":89},{"user_id":244,"name":"skippy","steam_id":76561198171958773,"connected_time":3168000000000,"state":"active","ping":64},{"user_id":285,"name":"Milk","steam_id":76561198125876588,"connected_time":847000000000,"state":"active","ping":60},{"user_id":257,"name":"Nozzo","steam_id":76561198012367783,"connected_time":2876000000000,"state":"active","ping":67},{"user_id":300,"name":"sokige","steam_id":76561198167112371,"connected_time":38000000000,"state":"active","ping":90},{"user_id":268,"name":"lobzade","steam_id":76561198195685370,"connected_time":1889000000000,"state":"active","ping":45},{"user_id":265,"name":"‚ÜØ","steam_id":76561198055389492,"connected_time":2118000000000,"state":"active","ping":59},{"user_id":261,"name":"Erection Man","steam_id":76561198021714542,"connected_time":2275000000000,"state":"active","ping":57},{"user_id":288,"name":"Mayor Wank from Wanker Town","steam_id":76561197998253588,"connected_time":588000000000,"state":"active","ping":46},{"user_id":272,"name":"G-Smokesz Gaming","steam_id":76561198278095231,"connected_time":1644000000000,"state":"active","ping":71},{"user_id":291,"name":"Smilo","steam_id":76561198841481172,"connected_time":522000000000,"state":"active","ping":110},{"user_id":287,"name":"iloveducks","steam_id":76561199261764383,"connected_time":652000000000,"state":"active","ping":88},{"user_id":301,"name":"SpineJuice","steam_id":76561199084272069,"connected_time":28000000000,"state":"active","ping":73},{"user_id":302,"name":"Mass","steam_id":76561198432195204,"connected_time":24000000000,"state":"active","ping":49},{"user_id":296,"name":"Pegasir‚Ñ¢","steam_id":76561198041376808,"connected_time":150000000000,"state":"active","ping":50}]},{"server_id":308,"name":"Uncletopia | Frankfurt | 3 | All Maps","name_short":"frk-3","host":"frk-1.de.uncletopia.com","port":27035,"enabled":true,"region":"eu","cc":"de","latitude":50.110924,"longitude":8.682127,"reserved":0,"last_update":"0001-01-01T00:00:00Z","name_a2s":"Uncletopia | Frankfurt | 3 | All Maps","protocol":17,"map":"cp_snakewater_final1","folder":"tf","game":"Team Fortress","app_id":440,"player_count":24,"max_players":24,"Bots":0,"server_type":"Dedicated","server_os":"Linux","password":true,"vac":true,"version":"7961495","steam_id":85568392924504274,"keywords":["cp","nocrits","nodmgspread","uncletopia"],"game_id":440,"stv_port":27036,"stv_name":"Uncletopia | Frankfurt | 3 | All Maps | STV","players":[{"user_id":132,"name":"Mortis","steam_id":76561198160658223,"connected_time":573000000000,"state":"active","ping":59},{"user_id":133,"name":"dogot","steam_id":76561198880890519,"connected_time":569000000000,"state":"active","ping":75},{"user_id":131,"name":"I have no duck and I must quack","steam_id":76561198061920656,"connected_time":602000000000,"state":"active","ping":77},{"user_id":134,"name":"PiN hEaD","steam_id":76561198834713682,"connected_time":518000000000,"state":"active","ping":74},{"user_id":135,"name":"benny420 #SAVETF2","steam_id":76561198116162730,"connected_time":509000000000,"state":"active","ping":72},{"user_id":143,"name":"ChPerette üéÆ","steam_id":76561198060004887,"connected_time":288000000000,"state":"active","ping":47},{"user_id":136,"name":"Sam04","steam_id":76561199004535941,"connected_time":503000000000,"state":"active","ping":85},{"user_id":129,"name":"tealoverr.190","steam_id":76561199028497703,"connected_time":683000000000,"state":"active","ping":105},{"user_id":108,"name":"55555","steam_id":76561199060683386,"connected_time":2260000000000,"state":"active","ping":65},{"user_id":138,"name":"cheeselover5","steam_id":76561198105189907,"connected_time":439000000000,"state":"active","ping":45},{"user_id":144,"name":"Weegee","steam_id":76561198150308523,"connected_time":183000000000,"state":"active","ping":61},{"user_id":137,"name":"Olvustin","steam_id":76561198272011453,"connected_time":496000000000,"state":"active","ping":114},{"user_id":54,"name":"Heavy TF2 in irl?!","steam_id":76561198082502910,"connected_time":6905000000000,"state":"active","ping":63},{"user_id":139,"name":"rets_","steam_id":76561198061551392,"connected_time":403000000000,"state":"active","ping":60},{"user_id":140,"name":"finbar","steam_id":76561198056812396,"connected_time":392000000000,"state":"active","ping":76},{"user_id":141,"name":"Bulgur","steam_id":76561198015064675,"connected_time":372000000000,"state":"active","ping":66},{"user_id":142,"name":"Sabotat","steam_id":76561198985732740,"connected_time":348000000000,"state":"active","ping":86},{"user_id":119,"name":"midlpsyzl47","steam_id":76561199475972637,"connected_time":1883000000000,"state":"active","ping":84},{"user_id":145,"name":"Samuel L. Jackson","steam_id":76561198130427881,"connected_time":121000000000,"state":"active","ping":152},{"user_id":110,"name":"EagleDeath","steam_id":76561198282441198,"connected_time":2103000000000,"state":"active","ping":72},{"user_id":146,"name":"markotrichko4238","steam_id":76561199125036759,"connected_time":113000000000,"state":"active","ping":81},{"user_id":147,"name":"DaiDaiMu :3","steam_id":76561198052794823,"connected_time":11000000000,"state":"spawning","ping":49},{"user_id":148,"name":"Jewix","steam_id":76561198063457899,"connected_time":3000000000,"state":"spawning","ping":59},{"user_id":126,"name":"Imperial City Guard","steam_id":76561198083355845,"connected_time":1152000000000,"state":"active","ping":55}]},{"server_id":309,"name":"Uncletopia | Frankfurt | 4 | All Maps","name_short":"frk-4","host":"frk-1.de.uncletopia.com","port":27045,"enabled":true,"region":"eu","cc":"de","latitude":50.110924,"longitude":8.682127,"reserved":0,"last_update":"0001-01-01T00:00:00Z","name_a2s":"Uncletopia | Frankfurt | 4 | All Maps","protocol":17,"map":"koth_cascade","folder":"tf","game":"Team Fortress","app_id":440,"player_count":4,"max_players":24,"Bots":0,"server_type":"Dedicated","server_os":"Linux","password":true,"vac":true,"version":"7961495","steam_id":85568392924504275,"keywords":["cp","nocrits","nodmgspread","uncletopia"],"game_id":440,"stv_port":27046,"stv_name":"Uncletopia | Frankfurt | 4 | All Maps | STV","players":[{"user_id":25,"name":"Sheen (Khang)","steam_id":76561198371062974,"connected_time":74000000000,"state":"active","ping":85},{"user_id":23,"name":"paulosalatsides","steam_id":76561199497552790,"connected_time":680000000000,"state":"active","ping":109},{"user_id":20,"name":"Kekkonen","steam_id":76561198944072942,"connected_time":1103000000000,"state":"active","ping":83},{"user_id":24,"name":"I-I","steam_id":76561198267969436,"connected_time":592000000000,"state":"active","ping":62}]},{"server_id":310,"name":"Uncletopia | Frankfurt | 5 | All Maps","name_short":"frk-5","host":"frk-1.de.uncletopia.com","port":27055,"enabled":true,"region":"eu","cc":"de","latitude":50.110924,"longitude":8.682127,"reserved":0,"last_update":"0001-01-01T00:00:00Z","name_a2s":"Uncletopia | Frankfurt | 5 | All Maps","protocol":17,"map":"pl_badwater","folder":"tf","game":"Team Fortress","app_id":440,"player_count":24,"max_players":24,"Bots":0,"server_type":"Dedicated","server_os":"Linux","password":true,"vac":true,"version":"7961495","steam_id":85568392924504277,"keywords":["nocrits","nodmgspread","payload","uncletopia"],"game_id":440,"stv_port":27056,"stv_name":"Uncletopia | Frankfurt | 5 | All Maps | STV","players":[{"user_id":302,"name":"Puro ‚ô•","steam_id":76561198039016765,"connected_time":206000000000,"state":"active","ping":79},{"user_id":297,"name":"busgrabb","steam_id":76561198055768465,"connected_time":575000000000,"state":"active","ping":58},{"user_id":281,"name":"michalismallis6","steam_id":76561199191153072,"connected_time":1376000000000,"state":"active","ping":91},{"user_id":282,"name":"Egor Pomidor","steam_id":76561199175688390,"connected_time":1371000000000,"state":"active","ping":74},{"user_id":227,"name":"Saame","steam_id":76561198215525976,"connected_time":5962000000000,"state":"active","ping":85},{"user_id":301,"name":"FUKTARD2005","steam_id":76561198839121591,"connected_time":342000000000,"state":"active","ping":65},{"user_id":287,"name":"katten","steam_id":76561198163615254,"connected_time":1232000000000,"state":"active","ping":46},{"user_id":285,"name":"Mack","steam_id":76561197996171149,"connected_time":1314000000000,"state":"active","ping":64},{"user_id":170,"name":"Scandinavian sleeping and livin","steam_id":76561198241982958,"connected_time":10227000000000,"state":"active","ping":98},{"user_id":292,"name":"Pyrolander","steam_id":76561198050785450,"connected_time":775000000000,"state":"active","ping":49},{"user_id":225,"name":"Fat Pigeobn","steam_id":76561198817940142,"connected_time":6734000000000,"state":"active","ping":49},{"user_id":291,"name":"Albo","steam_id":76561198085170262,"connected_time":947000000000,"state":"active","ping":73},{"user_id":298,"name":"Aida","steam_id":76561198311044984,"connected_time":575000000000,"state":"active","ping":67},{"user_id":267,"name":"Carry Krypl","steam_id":76561198136938121,"connected_time":2221000000000,"state":"active","ping":61},{"user_id":276,"name":"team of thrones","steam_id":76561198141077221,"connected_time":1477000000000,"state":"active","ping":71},{"user_id":289,"name":"Glass Kon","steam_id":76561198000042666,"connected_time":1083000000000,"state":"active","ping":160},{"user_id":288,"name":"Dovakhin31","steam_id":76561198029884537,"connected_time":1217000000000,"state":"active","ping":70},{"user_id":240,"name":"Xtis","steam_id":76561198043837480,"connected_time":4095000000000,"state":"active","ping":67},{"user_id":283,"name":"Herm","steam_id":76561197982045677,"connected_time":1355000000000,"state":"active","ping":73},{"user_id":266,"name":"snacks","steam_id":76561198184674173,"connected_time":2333000000000,"state":"active","ping":91},{"user_id":300,"name":"Hey, I¬¥m Andy!","steam_id":76561198060337777,"connected_time":390000000000,"state":"active","ping":71},{"user_id":284,"name":"Buru","steam_id":76561198024146649,"connected_time":1354000000000,"state":"active","ping":46},{"user_id":299,"name":"LEGEND FUMO.","steam_id":76561198061033903,"connected_time":474000000000,"state":"active","ping":51},{"user_id":280,"name":"Roadkill","steam_id":76561198267445999,"connected_time":1397000000000,"state":"active","ping":71}]},{"server_id":311,"name":"Uncletopia | Frankfurt | 6 | All Maps","name_short":"frk-6","host":"frk-1.de.uncletopia.com","port":27065,"enabled":true,"region":"eu","cc":"de","latitude":50.110924,"longitude":8.682127,"reserved":0,"last_update":"0001-01-01T00:00:00Z","name_a2s":"Uncletopia | Frankfurt | 6 | All Maps","protocol":17,"map":"pl_swiftwater_final1","folder":"tf","game":"Team Fortress","app_id":440,"player_count":24,"max_players":24,"Bots":0,"server_type":"Dedicated","server_os":"Linux","password":true,"vac":true,"version":"7961495","steam_id":85568392924504278,"keywords":["nocrits","nodmgspread","payload","uncletopia"],"game_id":440,"stv_port":27066,"stv_name":"Uncletopia | Frankfurt | 6 | All Maps | STV","players":[{"user_id":193,"name":"Endi","steam_id":76561198914938199,"connected_time":261000000000,"state":"active","ping":131},{"user_id":184,"name":"hhhhhh","steam_id":76561198031982574,"connected_time":1014000000000,"state":"active","ping":55},{"user_id":179,"name":"Mega Man Legends 3","steam_id":76561198014110199,"connected_time":1620000000000,"state":"active","ping":47},{"user_id":158,"name":"Mr. Mundy","steam_id":76561198132008918,"connected_time":3521000000000,"state":"active","ping":69},{"user_id":190,"name":"Wardjebleh","steam_id":76561199016836213,"connected_time":287000000000,"state":"active","ping":93},{"user_id":156,"name":"d u k k i","steam_id":76561198071807437,"connected_time":3610000000000,"state":"active","ping":82},{"user_id":175,"name":"chair 2.0","steam_id":76561199233470150,"connected_time":1806000000000,"state":"active","ping":41},{"user_id":186,"name":"‚ô¨ ·¥õ·¥á·¥ã…™·¥õ ‚ô¨","steam_id":76561198111704722,"connected_time":682000000000,"state":"active","ping":77},{"user_id":188,"name":"√ÉNVS DR√ÉNVS","steam_id":76561198138733015,"connected_time":303000000000,"state":"active","ping":109},{"user_id":178,"name":"Zm4j","steam_id":76561198259465946,"connected_time":1682000000000,"state":"active","ping":94},{"user_id":108,"name":"Hexagon","steam_id":76561198151205758,"connected_time":6703000000000,"state":"active","ping":57},{"user_id":194,"name":"Glad","steam_id":76561198093397695,"connected_time":259000000000,"state":"active","ping":75},{"user_id":61,"name":"Marabosha","steam_id":76561198137599173,"connected_time":8947000000000,"state":"active","ping":108},{"user_id":171,"name":"berserk from guts","steam_id":76561198089585790,"connected_time":1907000000000,"state":"active","ping":55},{"user_id":117,"name":"Gator","steam_id":76561198065624683,"connected_time":5919000000000,"state":"active","ping":91},{"user_id":189,"name":"happyrain TF2.LT","steam_id":76561198216693185,"connected_time":302000000000,"state":"active","ping":66},{"user_id":195,"name":"mindas","steam_id":76561198056839438,"connected_time":36000000000,"state":"active","ping":60},{"user_id":162,"name":"Noob_with_source","steam_id":76561198870362103,"connected_time":3093000000000,"state":"active","ping":59},{"user_id":176,"name":"Kosmos Kitty","steam_id":76561198034865891,"connected_time":1746000000000,"state":"active","ping":56},{"user_id":154,"name":"The Daniella","steam_id":76561198023075547,"connected_time":3830000000000,"state":"active","ping":62},{"user_id":185,"name":"Rob","steam_id":76561198234139612,"connected_time":941000000000,"state":"active","ping":87},{"user_id":165,"name":"Rock..","steam_id":76561198004641963,"connected_time":2920000000000,"state":"active","ping":75},{"user_id":140,"name":"twitch.tv/vision515","steam_id":76561198065293729,"connected_time":4914000000000,"state":"active","ping":179}]},{"server_id":23,"name":"Uncletopia | Frankfurt | 7 | Stopwatch","name_short":"frk-7","host":"frk-1.de.uncletopia.com","port":27075,"enabled":true,"region":"eu","cc":"de","latitude":50.110924,"longitude":8.682127,"reserved":0,"last_update":"0001-01-01T00:00:00Z","name_a2s":"Uncletopia | Frankfurt | 7 | Stopwatch","protocol":17,"map":"workshop/koth_bagel_rc6.ugc2514036946","folder":"tf","game":"Team Fortress","app_id":440,"player_count":2,"max_players":24,"Bots":0,"server_type":"Dedicated","server_os":"Linux","password":true,"vac":true,"version":"7961495","steam_id":85568392924742827,"keywords":["cp","nocrits","nodmgspread","uncletopia"],"game_id":440,"stv_port":27076,"stv_name":"Uncletopia | Frankfurt | 7 | Stopwatch | STV","players":[{"user_id":11,"name":"CRANK","steam_id":76561198188720263,"connected_time":851000000000,"state":"active","ping":58},{"user_id":12,"name":"Nickbro101","steam_id":76561198044271692,"connected_time":845000000000,"state":"active","ping":50}]},{"server_id":24,"name":"Uncletopia | Frankfurt | 8 | Community","name_short":"frk-8","host":"frk-1.de.uncletopia.com","port":27085,"enabled":true,"region":"eu","cc":"de","latitude":50.110924,"longitude":8.682127,"reserved":0,"last_update":"0001-01-01T00:00:00Z","name_a2s":"Uncletopia | Frankfurt | 8 | Community","protocol":17,"map":"workshop/koth_kemptown_rc1.ugc767410655","folder":"tf","game":"Team Fortress","app_id":440,"player_count":0,"max_players":24,"Bots":0,"server_type":"Dedicated","server_os":"Linux","password":true,"vac":true,"version":"7961495","steam_id":85568392924742828,"keywords":["cp","nocrits","nodmgspread","uncletopia"],"game_id":440,"stv_port":27086,"stv_name":"Uncletopia | Frankfurt | 8 | Community | STV","players":null},{"server_id":202,"name":"Uncletopia | Hong Kong | 1 | All Maps","name_short":"hgk-1","host":"hgk-1.hk.uncletopia.com","port":27015,"enabled":true,"region":"asia","cc":"hk","latitude":22.302711,"longitude":114.177216,"reserved":0,"last_update":"0001-01-01T00:00:00Z","name_a2s":"Uncletopia | Hong Kong | 1 | All Maps","protocol":17,"map":"koth_viaduct","folder":"tf","game":"Team Fortress","app_id":440,"player_count":0,"max_players":24,"Bots":0,"server_type":"Dedicated","server_os":"Linux","password":true,"vac":true,"version":"7961495","steam_id":85568392924494504,"keywords":["cp","nocrits","nodmgspread","uncletopia"],"game_id":440,"stv_port":27016,"stv_name":"Uncletopia | Hong Kong | 1 | All Maps | STV","players":null},{"server_id":1,"name":"Uncletopia | Los Angeles | 1 | All Maps","name_short":"lax-1","host":"lax-1.us.uncletopia.com","port":27015,"enabled":true,"region":"us-west","cc":"us","latitude":33.94279,"longitude":-118.41004,"reserved":0,"last_update":"0001-01-01T00:00:00Z","name_a2s":"Uncletopia | Los Angeles | 1 | All Maps","protocol":17,"map":"pl_snowycoast","folder":"tf","game":"Team Fortress","app_id":440,"player_count":0,"max_players":24,"Bots":0,"server_type":"Dedicated","server_os":"Linux","password":true,"vac":true,"version":"7961495","steam_id":85568392924469991,"keywords":["nocrits","nodmgspread","payload","uncletopia"],"game_id":440,"stv_port":27016,"stv_name":"Uncletopia | Los Angeles | 1 | All Maps | STV","players":null},{"server_id":112,"name":"Uncletopia | Los Angeles | 2 | All Maps","name_short":"lax-2","host":"lax-1.us.uncletopia.com","port":27025,"enabled":true,"region":"us-west","cc":"us","latitude":33.94279,"longitude":-118.41004,"reserved":0,"last_update":"0001-01-01T00:00:00Z","name_a2s":"Uncletopia | Los Angeles | 2 | All Maps","protocol":17,"map":"koth_lakeside_final","folder":"tf","game":"Team Fortress","app_id":440,"player_count":5,"max_players":24,"Bots":0,"server_type":"Dedicated","server_os":"Linux","password":true,"vac":true,"version":"7961495","steam_id":85568392924469992,"keywords":["cp","nocrits","nodmgspread","uncletopia"],"game_id":440,"stv_port":27026,"stv_name":"Uncletopia | Los Angeles | 2 | All Maps | STV","players":[{"user_id":7,"name":"Petrivus","steam_id":76561198202152453,"connected_time":665000000000,"state":"active","ping":73},{"user_id":6,"name":"roach","steam_id":76561198354811369,"connected_time":905000000000,"state":"active","ping":44},{"user_id":8,"name":"Plague Medic","steam_id":76561198035784649,"connected_time":522000000000,"state":"active","ping":34},{"user_id":10,"name":"zinnk","steam_id":76561198092081825,"connected_time":147000000000,"state":"active","ping":44},{"user_id":11,"name":"usedhalfcart","steam_id":76561198072621852,"connected_time":36000000000,"state":"active","ping":73}]},{"server_id":324,"name":"Uncletopia | Los Angeles | 3 | All Maps","name_short":"lax-3","host":"lax-1.us.uncletopia.com","port":27035,"enabled":true,"region":"us-west","cc":"us","latitude":33.94279,"longitude":-118.41004,"reserved":0,"last_update":"0001-01-01T00:00:00Z","name_a2s":"Uncletopia | Los Angeles | 3 | All Maps","protocol":17,"map":"pl_frontier_final","folder":"tf","game":"Team Fortress","app_id":440,"player_count":0,"max_players":24,"Bots":0,"server_type":"Dedicated","server_os":"Linux","password":true,"vac":true,"version":"7961495","steam_id":85568392924510198,"keywords":["nocrits","nodmgspread","payload","uncletopia"],"game_id":440,"stv_port":27036,"stv_name":"Uncletopia | Los Angeles | 3 | All Maps | STV","players":null},{"server_id":25,"name":"Uncletopia | Los Angeles | 4 | Stopwatch","name_short":"lax-4","host":"lax-1.us.uncletopia.com","port":27045,"enabled":true,"region":"us-west","cc":"us","latitude":33.94279,"longitude":-118.41004,"reserved":0,"last_update":"0001-01-01T00:00:00Z","name_a2s":"Uncletopia | Los Angeles | 4 | Stopwatch","protocol":17,"map":"cp_snakewater_final1","folder":"tf","game":"Team Fortress","app_id":440,"player_count":0,"max_players":24,"Bots":0,"server_type":"Dedicated","server_os":"Linux","password":true,"vac":true,"version":"7961495","steam_id":85568392924510199,"keywords":["cp","nocrits","nodmgspread","uncletopia"],"game_id":440,"stv_port":27046,"stv_name":"Uncletopia | Los Angeles | 4 | Stopwatch | STV","players":null},{"server_id":11,"name":"Uncletopia | London | 1 | All Maps","name_short":"lon-1","host":"lon-1.uk.uncletopia.com","port":27015,"enabled":true,"region":"eu","cc":"gb","latitude":51.509865,"longitude":-0.118092,"reserved":0,"last_update":"0001-01-01T00:00:00Z","name_a2s":"Uncletopia | London | 1 | All Maps","protocol":17,"map":"pl_borneo","folder":"tf","game":"Team Fortress","app_id":440,"player_count":24,"max_players":24,"Bots":0,"server_type":"Dedicated","server_os":"Linux","password":true,"vac":true,"version":"7961495","steam_id":85568392924367362,"keywords":["nocrits","nodmgspread","payload","uncletopia"],"game_id":440,"stv_port":27016,"stv_name":"Uncletopia | London | 1 | All Maps | STV","players":[{"user_id":504,"name":"Plep","steam_id":76561198840259819,"connected_time":5115000000000,"state":"active","ping":59},{"user_id":525,"name":"azzy","steam_id":76561198061293740,"connected_time":3843000000000,"state":"active","ping":78},{"user_id":539,"name":"SpacePig","steam_id":76561198044662873,"connected_time":2554000000000,"state":"active","ping":101},{"user_id":546,"name":"KnugenIV","steam_id":76561198127091993,"connected_time":1782000000000,"state":"active","ping":59},{"user_id":439,"name":"bark (analogy)","steam_id":76561198010662796,"connected_time":9260000000000,"state":"active","ping":45},{"user_id":550,"name":"moo (idiom)","steam_id":76561198015876799,"connected_time":1452000000000,"state":"active","ping":68},{"user_id":540,"name":"Noam","steam_id":76561198279133820,"connected_time":2286000000000,"state":"active","ping":98},{"user_id":549,"name":"keleos82","steam_id":76561198123916013,"connected_time":1581000000000,"state":"active","ping":70},{"user_id":551,"name":"hisham","steam_id":76561198414437290,"connected_time":1379000000000,"state":"active","ping":115},{"user_id":523,"name":"who is spikey mike?","steam_id":76561199169534004,"connected_time":4034000000000,"state":"active","ping":48},{"user_id":498,"name":"map","steam_id":76561198370196400,"connected_time":5383000000000,"state":"active","ping":123},{"user_id":536,"name":"trite","steam_id":76561197983765323,"connected_time":2818000000000,"state":"active","ping":52},{"user_id":554,"name":"shooer!","steam_id":76561198110531281,"connected_time":1343000000000,"state":"active","ping":74},{"user_id":531,"name":"yup that extream78711","steam_id":76561198106049954,"connected_time":3625000000000,"state":"active","ping":81},{"user_id":556,"name":"AWildTamim","steam_id":76561198048060652,"connected_time":1277000000000,"state":"active","ping":45},{"user_id":552,"name":"Sherlock Bond","steam_id":76561198042045955,"connected_time":1373000000000,"state":"active","ping":57},{"user_id":481,"name":"maciejkrzysteczko","steam_id":76561199140822962,"connected_time":6557000000000,"state":"active","ping":83},{"user_id":535,"name":"breakfast burrito","steam_id":76561198148606969,"connected_time":3114000000000,"state":"active","ping":81},{"user_id":528,"name":"Princess Peach","steam_id":76561198260272240,"connected_time":3719000000000,"state":"active","ping":51},{"user_id":553,"name":"Baba Sraka","steam_id":76561198128292318,"connected_time":1368000000000,"state":"active","ping":144},{"user_id":469,"name":"quack (metaphor)","steam_id":76561198046873337,"connected_time":7361000000000,"state":"active","ping":56},{"user_id":545,"name":"Maya","steam_id":76561198128616615,"connected_time":1789000000000,"state":"active","ping":77},{"user_id":541,"name":"Rumf","steam_id":76561197993957541,"connected_time":2207000000000,"state":"active","ping":48},{"user_id":544,"name":"Purps","steam_id":76561198053886680,"connected_time":1980000000000,"state":"active","ping":48}]},{"server_id":114,"name":"Uncletopia | London | 2 | All Maps","name_short":"lon-2","host":"lon-1.uk.uncletopia.com","port":27025,"enabled":true,"region":"eu","cc":"gb","latitude":51.509865,"longitude":-0.118092,"reserved":0,"last_update":"0001-01-01T00:00:00Z","name_a2s":"Uncletopia | London | 2 | All Maps","protocol":17,"map":"koth_viaduct","folder":"tf","game":"Team Fortress","app_id":440,"player_count":24,"max_players":24,"Bots":0,"server_type":"Dedicated","server_os":"Linux","password":true,"vac":true,"version":"7961495","steam_id":85568392924470941,"keywords":["cp","nocrits","nodmgspread","uncletopia"],"game_id":440,"stv_port":27026,"stv_name":"Uncletopia | London | 2 | All Maps | STV","players":[{"user_id":704,"name":"Jude!","steam_id":76561197983597798,"connected_time":409000000000,"state":"active","ping":37},{"user_id":702,"name":"Jeffrey Harpen","steam_id":76561199073314677,"connected_time":505000000000,"state":"active","ping":78},{"user_id":690,"name":"Niccole","steam_id":76561198126998695,"connected_time":2193000000000,"state":"active","ping":153},{"user_id":667,"name":"Detonator20bomb","steam_id":76561199121742336,"connected_time":3637000000000,"state":"active","ping":58},{"user_id":705,"name":"epic anal cum","steam_id":76561198077421906,"connected_time":404000000000,"state":"active","ping":50},{"user_id":701,"name":"s a i","steam_id":76561197970379754,"connected_time":1253000000000,"state":"active","ping":63},{"user_id":712,"name":"Reimu","steam_id":76561198101532240,"connected_time":222000000000,"state":"active","ping":56},{"user_id":700,"name":"Flying skyhigh","steam_id":76561198372971096,"connected_time":1296000000000,"state":"active","ping":84},{"user_id":706,"name":"Be_kind","steam_id":76561198053996691,"connected_time":401000000000,"state":"active","ping":104},{"user_id":720,"name":"Repa24","steam_id":76561198033016390,"connected_time":15000000000,"state":"active","ping":85},{"user_id":703,"name":"Coconuttii","steam_id":76561198006974800,"connected_time":498000000000,"state":"active","ping":47},{"user_id":719,"name":"MommyMilf69","steam_id":76561198313280312,"connected_time":25000000000,"state":"spawning","ping":43},{"user_id":714,"name":"I have","steam_id":76561199184873889,"connected_time":172000000000,"state":"active","ping":69},{"user_id":717,"name":"Max Andrew","steam_id":76561198158955194,"connected_time":73000000000,"state":"active","ping":58},{"user_id":715,"name":"Mastenbier","steam_id":76561199067658590,"connected_time":169000000000,"state":"active","ping":146},{"user_id":699,"name":"King Goomba","steam_id":76561198146467813,"connected_time":1316000000000,"state":"active","ping":68},{"user_id":716,"name":"Kahvi","steam_id":76561198723244199,"connected_time":165000000000,"state":"active","ping":74},{"user_id":721,"name":"escapadelogeossimulador2022","steam_id":76561198880042335,"connected_time":12000000000,"state":"spawning","ping":118},{"user_id":722,"name":"Strix","steam_id":76561198015322735,"connected_time":11000000000,"state":"spawning","ping":57},{"user_id":693,"name":"Sandvich","steam_id":76561199079493666,"connected_time":2126000000000,"state":"active","ping":89},{"user_id":664,"name":"whatsapp man","steam_id":76561198802028634,"connected_time":3912000000000,"state":"active","ping":51},{"user_id":669,"name":"LemonLeCitron","steam_id":76561198215545267,"connected_time":3500000000000,"state":"active","ping":85},{"user_id":685,"name":"MangoL","steam_id":76561199169391713,"connected_time":2476000000000,"state":"active","ping":93},{"user_id":723,"name":"Scary Mandus","steam_id":76561199129808514,"connected_time":3000000000,"state":"spawning","ping":80}]},{"server_id":320,"name":"Uncletopia | London | 3 | All Maps","name_short":"lon-3","host":"lon-1.uk.uncletopia.com","port":27035,"enabled":true,"region":"eu","cc":"gb","latitude":51.509865,"longitude":-0.118092,"reserved":0,"last_update":"0001-01-01T00:00:00Z","name_a2s":"Uncletopia | London | 3 | All Maps","protocol":17,"map":"pl_badwater","folder":"tf","game":"Team Fortress","app_id":440,"player_count":24,"max_players":24,"Bots":0,"server_type":"Dedicated","server_os":"Linux","password":true,"vac":true,"version":"7961495","steam_id":85568392924510192,"keywords":["nocrits","nodmgspread","payload","uncletopia"],"game_id":440,"stv_port":27036,"stv_name":"Uncletopia | London | 3 | All Maps | STV","players":[{"user_id":474,"name":"ILoveMyMom420Blaze","steam_id":76561198981016492,"connected_time":1844000000000,"state":"active","ping":75},{"user_id":475,"name":"123","steam_id":76561198084517952,"connected_time":1766000000000,"state":"active","ping":72},{"user_id":476,"name":"GMsU | Smiley","steam_id":76561198121494414,"connected_time":1741000000000,"state":"active","ping":88},{"user_id":477,"name":"Aristotle Voulton","steam_id":76561198100174923,"connected_time":1732000000000,"state":"active","ping":73},{"user_id":480,"name":"General Dummkopfs","steam_id":76561198071315425,"connected_time":1706000000000,"state":"active","ping":70},{"user_id":481,"name":"Circlefly_","steam_id":76561198138960827,"connected_time":1704000000000,"state":"active","ping":60},{"user_id":483,"name":"no pain--\u003eno pain train","steam_id":76561198237752098,"connected_time":1642000000000,"state":"active","ping":94},{"user_id":332,"name":"yuno appreciator","steam_id":76561198083286511,"connected_time":10308000000000,"state":"active","ping":41},{"user_id":508,"name":"Keke","steam_id":76561198042032908,"connected_time":661000000000,"state":"active","ping":74},{"user_id":503,"name":"Trans Femtress 2","steam_id":76561198014056212,"connected_time":939000000000,"state":"active","ping":85},{"user_id":504,"name":"I'm bored","steam_id":76561198380504471,"connected_time":892000000000,"state":"active","ping":54},{"user_id":485,"name":"deflox","steam_id":76561198087450635,"connected_time":1553000000000,"state":"active","ping":50},{"user_id":442,"name":"Mr_Draegoth","steam_id":76561198045226420,"connected_time":3680000000000,"state":"active","ping":39},{"user_id":511,"name":"Noah","steam_id":76561198866042884,"connected_time":619000000000,"state":"active","ping":62},{"user_id":509,"name":"Bobo","steam_id":76561198052308399,"connected_time":643000000000,"state":"active","ping":68},{"user_id":489,"name":"shmax","steam_id":76561198889012709,"connected_time":1466000000000,"state":"active","ping":91},{"user_id":490,"name":"Vee","steam_id":76561198173065294,"connected_time":1463000000000,"state":"active","ping":62},{"user_id":510,"name":"yardy","steam_id":76561198079410772,"connected_time":636000000000,"state":"active","ping":69},{"user_id":507,"name":"Krabs","steam_id":76561198161679477,"connected_time":675000000000,"state":"active","ping":58},{"user_id":498,"name":"Brisket \u003c3","steam_id":76561198047291354,"connected_time":1251000000000,"state":"active","ping":122},{"user_id":494,"name":"Osmo","steam_id":76561199286764992,"connected_time":1422000000000,"state":"active","ping":83},{"user_id":495,"name":"sloppy transgirl toppy","steam_id":76561198057092208,"connected_time":1421000000000,"state":"active","ping":75},{"user_id":497,"name":"hyvakii705","steam_id":76561198086630552,"connected_time":1406000000000,"state":"active","ping":75},{"user_id":501,"name":"Rad","steam_id":76561199001560866,"connected_time":1160000000000,"state":"active","ping":75}]},{"server_id":321,"name":"Uncletopia | London | 4 | All Maps","name_short":"lon-4","host":"lon-1.uk.uncletopia.com","port":27045,"enabled":true,"region":"eu","cc":"gb","latitude":51.509865,"longitude":-0.118092,"reserved":0,"last_update":"0001-01-01T00:00:00Z","name_a2s":"Uncletopia | London | 4 | All Maps","protocol":17,"map":"plr_bananabay","folder":"tf","game":"Team Fortress","app_id":440,"player_count":23,"max_players":24,"Bots":0,"server_type":"Dedicated","server_os":"Linux","password":true,"vac":true,"version":"7961495","steam_id":85568392924510193,"keywords":["nocrits","nodmgspread","payload","uncletopia"],"game_id":440,"stv_port":27046,"stv_name":"Uncletopia | London | 4 | All Maps | STV","players":[{"user_id":444,"name":"CalzoneCarl456","steam_id":76561198846982793,"connected_time":583000000000,"state":"active","ping":48},{"user_id":398,"name":"Rodak","steam_id":76561199135986344,"connected_time":4295000000000,"state":"active","ping":72},{"user_id":413,"name":"oskaroku00","steam_id":76561199025360128,"connected_time":2555000000000,"state":"active","ping":64},{"user_id":443,"name":"Ullr","steam_id":76561198140547483,"connected_time":596000000000,"state":"active","ping":45},{"user_id":442,"name":"sareena","steam_id":76561198810194062,"connected_time":743000000000,"state":"active","ping":71},{"user_id":424,"name":"—è —Å–ª—É—à–∞—é –∑–µ–º—Ñ–∏—Ä—É","steam_id":76561198324357479,"connected_time":2248000000000,"state":"active","ping":81},{"user_id":416,"name":"Mr_Pulse_","steam_id":76561198095001602,"connected_time":2447000000000,"state":"active","ping":102},{"user_id":293,"name":"Pan Piotr","steam_id":76561198140016126,"connected_time":10212000000000,"state":"active","ping":89},{"user_id":440,"name":"jermany (not jerma)","steam_id":76561198126599355,"connected_time":772000000000,"state":"active","ping":51},{"user_id":446,"name":"WAEEEJ","steam_id":76561198135626480,"connected_time":504000000000,"state":"active","ping":43},{"user_id":447,"name":"ANABOLIC HAMPSTER 2009","steam_id":76561198163081194,"connected_time":477000000000,"state":"active","ping":45},{"user_id":391,"name":"cister0","steam_id":76561198130195469,"connected_time":4447000000000,"state":"active","ping":88},{"user_id":452,"name":"agent youppii","steam_id":76561198055264447,"connected_time":233000000000,"state":"active","ping":61},{"user_id":448,"name":"choob303","steam_id":76561198206375860,"connected_time":443000000000,"state":"active","ping":58},{"user_id":453,"name":"xavier","steam_id":76561198076494034,"connected_time":115000000000,"state":"active","ping":50},{"user_id":451,"name":"Tandoorifoil716","steam_id":76561198158414472,"connected_time":297000000000,"state":"active","ping":70},{"user_id":439,"name":"Pilaarius","steam_id":76561198120273212,"connected_time":1007000000000,"state":"active","ping":103},{"user_id":431,"name":"Zor","steam_id":76561198009851383,"connected_time":1958000000000,"state":"active","ping":73},{"user_id":436,"name":"ASSEMBLE FROYO BROS","steam_id":76561198116223995,"connected_time":1209000000000,"state":"active","ping":56},{"user_id":433,"name":"Pip","steam_id":76561198049587565,"connected_time":1900000000000,"state":"active","ping":54},{"user_id":426,"name":"SuperKaratePunch","steam_id":76561199055996844,"connected_time":2099000000000,"state":"active","ping":123},{"user_id":450,"name":"Niemen","steam_id":76561198021559905,"connected_time":389000000000,"state":"active","ping":85},{"user_id":428,"name":"harper","steam_id":76561198188642265,"connected_time":2032000000000,"state":"active","ping":56}]},{"server_id":21,"name":"Uncletopia | London | 5 | All Maps","name_short":"lon-5","host":"lon-1.uk.uncletopia.com","port":27055,"enabled":true,"region":"eu","cc":"gb","latitude":51.509865,"longitude":-0.118092,"reserved":0,"last_update":"0001-01-01T00:00:00Z","name_a2s":"Uncletopia | London | 5 | All Maps","protocol":17,"map":"pl_upward","folder":"tf","game":"Team Fortress","app_id":440,"player_count":25,"max_players":24,"Bots":0,"server_type":"Dedicated","server_os":"Linux","password":true,"vac":true,"version":"7961495","steam_id":85568392924742829,"keywords":["nocrits","nodmgspread","payload","uncletopia"],"game_id":440,"stv_port":27056,"stv_name":"Uncletopia | London | 5 | All Maps | STV","players":[{"user_id":358,"name":"gork and mork enthousiast","steam_id":76561198412762387,"connected_time":435000000000,"state":"active","ping":59},{"user_id":354,"name":"Cosmo","steam_id":76561198078378048,"connected_time":850000000000,"state":"active","ping":48},{"user_id":342,"name":"cipherrephic","steam_id":76561198453630258,"connected_time":1084000000000,"state":"active","ping":62},{"user_id":352,"name":"Blar","steam_id":76561198042438229,"connected_time":909000000000,"state":"active","ping":56},{"user_id":357,"name":"Alekk","steam_id":76561198093533143,"connected_time":497000000000,"state":"active","ping":67},{"user_id":336,"name":"Tyber","steam_id":76561198125886061,"connected_time":1392000000000,"state":"active","ping":82},{"user_id":355,"name":"grandpa","steam_id":76561198061208814,"connected_time":619000000000,"state":"active","ping":65},{"user_id":344,"name":"Eujekas","steam_id":76561198010527145,"connected_time":1059000000000,"state":"active","ping":97},{"user_id":341,"name":"VictoriaFae (She/Her)","steam_id":76561198093221218,"connected_time":1089000000000,"state":"active","ping":70},{"user_id":359,"name":"Buford","steam_id":76561198129828715,"connected_time":363000000000,"state":"active","ping":60},{"user_id":356,"name":"Summer ‚ô•","steam_id":76561198047723907,"connected_time":608000000000,"state":"active","ping":42},{"user_id":325,"name":"bladerunner | Trade.tf","steam_id":76561198272175230,"connected_time":2091000000000,"state":"active","ping":54},{"user_id":289,"name":"Houlles","steam_id":76561198095277383,"connected_time":4498000000000,"state":"active","ping":47},{"user_id":304,"name":"ScampSixteen","steam_id":76561198021771000,"connected_time":3651000000000,"state":"active","ping":50},{"user_id":252,"name":"neJ","steam_id":76561198003397488,"connected_time":6184000000000,"state":"active","ping":75},{"user_id":331,"name":"Eyy_Cucasi","steam_id":76561198271767632,"connected_time":1681000000000,"state":"active","ping":103},{"user_id":361,"name":"not poggers","steam_id":76561198237631092,"connected_time":348000000000,"state":"active","ping":102},{"user_id":349,"name":"RJErik","steam_id":76561198321118547,"connected_time":992000000000,"state":"active","ping":69},{"user_id":347,"name":"Arthur","steam_id":76561198066109166,"connected_time":1037000000000,"state":"active","ping":79},{"user_id":333,"name":"powej","steam_id":76561198056381418,"connected_time":1539000000000,"state":"active","ping":45},{"user_id":364,"name":"* /","steam_id":76561198086304421,"connected_time":305000000000,"state":"active","ping":84},{"user_id":353,"name":"joachym","steam_id":76561198428579761,"connected_time":903000000000,"state":"active","ping":71},{"user_id":351,"name":"Doc_Yokai","steam_id":76561199104590330,"connected_time":957000000000,"state":"active","ping":69},{"user_id":371,"name":"Tri-","steam_id":76561198133524794,"connected_time":122000000000,"state":"active","ping":40},{"user_id":380,"name":"programmed protoplasm","steam_id":76561198977420882,"connected_time":0,"state":"spawning","ping":7}]},{"server_id":22,"name":"Uncletopia | London | 6 | All Maps","name_short":"lon-6","host":"lon-1.uk.uncletopia.com","port":27065,"enabled":true,"region":"eu","cc":"gb","latitude":51.509865,"longitude":-0.118092,"reserved":0,"last_update":"0001-01-01T00:00:00Z","name_a2s":"Uncletopia | London | 6 | All Maps","protocol":17,"map":"pl_goldrush","folder":"tf","game":"Team Fortress","app_id":440,"player_count":22,"max_players":24,"Bots":0,"server_type":"Dedicated","server_os":"Linux","password":true,"vac":true,"version":"7961495","steam_id":85568392924742830,"keywords":["nocrits","nodmgspread","payload","uncletopia"],"game_id":440,"stv_port":27066,"stv_name":"Uncletopia | London | 6 | All Maps | STV","players":[{"user_id":146,"name":"hamilton","steam_id":76561198034096096,"connected_time":6578000000000,"state":"active","ping":126},{"user_id":216,"name":"I I","steam_id":76561199101935057,"connected_time":2011000000000,"state":"active","ping":98},{"user_id":229,"name":"pandeux","steam_id":76561198343527617,"connected_time":922000000000,"state":"active","ping":67},{"user_id":235,"name":"Sidflap","steam_id":76561198041652855,"connected_time":103000000000,"state":"active","ping":70},{"user_id":236,"name":"David \"Crash\" Murphy","steam_id":76561198292845505,"connected_time":84000000000,"state":"spawning","ping":77},{"user_id":200,"name":"the_white_hatter","steam_id":76561198421813037,"connected_time":2874000000000,"state":"active","ping":47},{"user_id":179,"name":"BritishBeef","steam_id":76561197971054321,"connected_time":4334000000000,"state":"active","ping":47},{"user_id":214,"name":"elmstJP ‚Ç™ F4.exe","steam_id":76561197997909480,"connected_time":2288000000000,"state":"active","ping":89},{"user_id":203,"name":"F4.exe","steam_id":76561198278822807,"connected_time":2711000000000,"state":"active","ping":67},{"user_id":238,"name":"MatesThePlayer","steam_id":76561198066156449,"connected_time":67000000000,"state":"active","ping":57},{"user_id":217,"name":"f0x","steam_id":76561198072921704,"connected_time":1685000000000,"state":"active","ping":47},{"user_id":186,"name":"Walle","steam_id":76561197995148937,"connected_time":3962000000000,"state":"active","ping":74},{"user_id":197,"name":"toomas2018(real)(official)","steam_id":76561199105796083,"connected_time":3125000000000,"state":"active","ping":80},{"user_id":231,"name":"aronfh97","steam_id":76561198086425158,"connected_time":679000000000,"state":"active","ping":163},{"user_id":234,"name":"Merca #savetf2","steam_id":76561198088782472,"connected_time":272000000000,"state":"active","ping":56},{"user_id":228,"name":"tired","steam_id":76561198046838168,"connected_time":999000000000,"state":"active","ping":57},{"user_id":239,"name":"Bombilla","steam_id":76561198084281798,"connected_time":60000000000,"state":"active","ping":75},{"user_id":144,"name":"ThatJoJoGuy","steam_id":76561199208152141,"connected_time":6785000000000,"state":"active","ping":59},{"user_id":219,"name":"heddwch","steam_id":76561198076097983,"connected_time":1368000000000,"state":"active","ping":90},{"user_id":240,"name":"Squidiot","steam_id":76561198042754907,"connected_time":31000000000,"state":"active","ping":68},{"user_id":207,"name":"The Forgotten one","steam_id":76561198091553935,"connected_time":2582000000000,"state":"active","ping":123},{"user_id":149,"name":"Duktigafred","steam_id":76561199211222396,"connected_time":6330000000000,"state":"active","ping":74}]},{"server_id":40,"name":"Uncletopia | London | 7 | Stopwatch","name_short":"lon-7","host":"lon-1.uk.uncletopia.com","port":27075,"enabled":true,"region":"eu","cc":"gb","latitude":51.509865,"longitude":-0.118092,"reserved":0,"last_update":"0001-01-01T00:00:00Z","name_a2s":"Uncletopia | London | 7 | Stopwatch","protocol":17,"map":"pl_upward","folder":"tf","game":"Team Fortress","app_id":440,"player_count":0,"max_players":24,"Bots":0,"server_type":"Dedicated","server_os":"Linux","password":true,"vac":true,"version":"7961495","steam_id":85568392924964314,"keywords":["nocrits","nodmgspread","payload","uncletopia"],"game_id":440,"stv_port":27076,"stv_name":"Uncletopia | London | 7 | Stopwatch | STV","players":null},{"server_id":41,"name":"Uncletopia | London | 8 | Community","name_short":"lon-8","host":"lon-1.uk.uncletopia.com","port":27085,"enabled":true,"region":"eu","cc":"gb","latitude":51.509865,"longitude":-0.118092,"reserved":0,"last_update":"0001-01-01T00:00:00Z","name_a2s":"Uncletopia | London | 8 | Community","protocol":17,"map":"workshop/koth_trenchfoot_b1a.ugc731436616","folder":"tf","game":"Team Fortress","app_id":440,"player_count":0,"max_players":24,"Bots":0,"server_type":"Dedicated","server_os":"Linux","password":true,"vac":true,"version":"7961495","steam_id":85568392924964315,"keywords":["cp","nocrits","nodmgspread","uncletopia"],"game_id":440,"stv_port":27086,"stv_name":"Uncletopia | London | 8 | Community | STV","players":null},{"server_id":300,"name":"Uncletopia | Montr√©al | 1 | One Thousand Uncles","name_short":"mtl-1","host":"mtl-1.ca.uncletopia.com","port":27015,"enabled":true,"region":"us-east","cc":"ca","latitude":45.50889,"longitude":-73.56167,"reserved":0,"last_update":"0001-01-01T00:00:00Z","name_a2s":"","protocol":0,"map":"","folder":"","game":"","app_id":0,"player_count":0,"max_players":0,"Bots":0,"server_type":"","server_os":"","password":false,"vac":false,"version":"","steam_id":0,"keywords":null,"game_id":0,"stv_port":0,"stv_name":"","players":null},{"server_id":301,"name":"Uncletopia | Montr√©al | 2 | One Thousand Uncles","name_short":"mtl-2","host":"mtl-1.ca.uncletopia.com","port":27025,"enabled":true,"region":"us-east","cc":"ca","latitude":45.50889,"longitude":-73.56167,"reserved":0,"last_update":"0001-01-01T00:00:00Z","name_a2s":"","protocol":0,"map":"","folder":"","game":"","app_id":0,"player_count":0,"max_players":0,"Bots":0,"server_type":"","server_os":"","password":false,"vac":false,"version":"","steam_id":0,"keywords":null,"game_id":0,"stv_port":0,"stv_name":"","players":null},{"server_id":302,"name":"Uncletopia | Montr√©al | 3 | One Thousand Uncles","name_short":"mtl-3","host":"mtl-1.ca.uncletopia.com","port":27035,"enabled":true,"region":"us-east","cc":"ca","latitude":45.50889,"longitude":-73.56167,"reserved":0,"last_update":"0001-01-01T00:00:00Z","name_a2s":"","protocol":0,"map":"","folder":"","game":"","app_id":0,"player_count":0,"max_players":0,"Bots":0,"server_type":"","server_os":"","password":false,"vac":false,"version":"","steam_id":0,"keywords":null,"game_id":0,"stv_port":0,"stv_name":"","players":null},{"server_id":13,"name":"Uncletopia | New York City | 1 | All Maps","name_short":"nyc-1","host":"nyc-1.us.uncletopia.com","port":27015,"enabled":true,"region":"us-east","cc":"us","latitude":40.73061,"longitude":-73.93524,"reserved":0,"last_update":"0001-01-01T00:00:00Z","name_a2s":"Uncletopia | New York City | 1 | All Maps","protocol":17,"map":"cp_sunshine","folder":"tf","game":"Team Fortress","app_id":440,"player_count":24,"max_players":24,"Bots":0,"server_type":"Dedicated","server_os":"Linux","password":true,"vac":true,"version":"7961495","steam_id":85568392924469993,"keywords":["cp","nocrits","nodmgspread","uncletopia"],"game_id":440,"stv_port":27016,"stv_name":"Uncletopia | New York City | 1 | All Maps | STV","players":[{"user_id":8,"name":"SpaceSanctum","steam_id":76561198805242305,"connected_time":4021000000000,"state":"active","ping":44},{"user_id":9,"name":"Noahthecrazy1","steam_id":76561199152995909,"connected_time":3332000000000,"state":"active","ping":70},{"user_id":38,"name":"Cyberpunk McDonald's Play Place","steam_id":76561198063512035,"connected_time":2038000000000,"state":"active","ping":60},{"user_id":31,"name":"Û†Å≥ ‚Åßfortnite56k","steam_id":76561198404564240,"connected_time":2477000000000,"state":"active","ping":45},{"user_id":12,"name":"t.tv/Mikeymare_","steam_id":76561198977264806,"connected_time":3193000000000,"state":"active","ping":74},{"user_id":15,"name":"Try Gardening","steam_id":76561198120311340,"connected_time":3036000000000,"state":"active","ping":62},{"user_id":32,"name":"Fuller340","steam_id":76561198291641805,"connected_time":2326000000000,"state":"active","ping":68},{"user_id":44,"name":"skid","steam_id":76561198057536994,"connected_time":1911000000000,"state":"active","ping":58},{"user_id":68,"name":"The Ghost of Humpty Hump","steam_id":76561198114098718,"connected_time":53000000000,"state":"spawning","ping":71},{"user_id":40,"name":"nothere","steam_id":76561198341624641,"connected_time":2003000000000,"state":"active","ping":69},{"user_id":62,"name":"Flower Boy","steam_id":76561199128786637,"connected_time":871000000000,"state":"active","ping":90},{"user_id":65,"name":"Sea Raider","steam_id":76561198055654064,"connected_time":590000000000,"state":"active","ping":84},{"user_id":49,"name":"Eiss","steam_id":76561198343183806,"connected_time":1724000000000,"state":"active","ping":62},{"user_id":66,"name":"staks","steam_id":76561198059570070,"connected_time":301000000000,"state":"active","ping":60},{"user_id":36,"name":"MrEdman4","steam_id":76561198062233923,"connected_time":2108000000000,"state":"active","ping":45},{"user_id":27,"name":"xochiquetzal","steam_id":76561199064278937,"connected_time":2650000000000,"state":"active","ping":71},{"user_id":64,"name":"Kalief!","steam_id":76561199453123772,"connected_time":828000000000,"state":"active","ping":64},{"user_id":55,"name":"El Bondin","steam_id":76561198820792434,"connected_time":1262000000000,"state":"active","ping":96},{"user_id":41,"name":"kimchy101","steam_id":76561198202721584,"connected_time":1981000000000,"state":"active","ping":82},{"user_id":51,"name":"DaveAtDublin","steam_id":76561198162386715,"connected_time":1547000000000,"state":"active","ping":61},{"user_id":46,"name":"Swifgz","steam_id":76561198162875756,"connected_time":1813000000000,"state":"active","ping":45},{"user_id":61,"name":"Stunstick","steam_id":76561198278897727,"connected_time":904000000000,"state":"active","ping":48},{"user_id":50,"name":"tenir","steam_id":76561198350747953,"connected_time":1699000000000,"state":"active","ping":53},{"user_id":56,"name":"Ask Me For Random Trivia!","steam_id":76561198087065165,"connected_time":1262000000000,"state":"active","ping":61}]},{"server_id":14,"name":"Uncletopia | New York City | 2 | All Maps","name_short":"nyc-2","host":"nyc-1.us.uncletopia.com","port":27025,"enabled":true,"region":"us-east","cc":"us","latitude":40.73061,"longitude":-73.93524,"reserved":0,"last_update":"0001-01-01T00:00:00Z","name_a2s":"Uncletopia | New York City | 2 | All Maps","protocol":17,"map":"koth_lakeside_final","folder":"tf","game":"Team Fortress","app_id":440,"player_count":0,"max_players":24,"Bots":0,"server_type":"Dedicated","server_os":"Linux","password":true,"vac":true,"version":"7961495","steam_id":85568392924469994,"keywords":["cp","nocrits","nodmgspread","uncletopia"],"game_id":440,"stv_port":27026,"stv_name":"Uncletopia | New York City | 2 | All Maps | STV","players":null},{"server_id":15,"name":"Uncletopia | New York City | 3 | Stopwatch","name_short":"nyc-3","host":"nyc-1.us.uncletopia.com","port":27035,"enabled":true,"region":"us-east","cc":"us","latitude":40.73061,"longitude":-73.93524,"reserved":0,"last_update":"0001-01-01T00:00:00Z","name_a2s":"Uncletopia | New York City | 3 | Stopwatch","protocol":17,"map":"pl_snowycoast","folder":"tf","game":"Team Fortress","app_id":440,"player_count":0,"max_players":24,"Bots":0,"server_type":"Dedicated","server_os":"Linux","password":true,"vac":true,"version":"7961495","steam_id":85568392924742820,"keywords":["nocrits","nodmgspread","payload","uncletopia"],"game_id":440,"stv_port":27036,"stv_name":"Uncletopia | New York City | 3 | Stopwatch | STV","players":null},{"server_id":16,"name":"Uncletopia | New York City | 4 | Community","name_short":"nyc-4","host":"nyc-1.us.uncletopia.com","port":27045,"enabled":true,"region":"us-east","cc":"us","latitude":40.73061,"longitude":-73.93524,"reserved":0,"last_update":"0001-01-01T00:00:00Z","name_a2s":"Uncletopia | New York City | 4 | Community","protocol":17,"map":"cp_altitude","folder":"tf","game":"Team Fortress","app_id":440,"player_count":0,"max_players":24,"Bots":0,"server_type":"Dedicated","server_os":"Linux","password":true,"vac":true,"version":"7961495","steam_id":85568392924742821,"keywords":["cp","nocrits","nodmgspread","uncletopia"],"game_id":440,"stv_port":27046,"stv_name":"Uncletopia | New York City | 4 | Community | STV","players":null},{"server_id":142,"name":"Uncletopia | S√£o Paulo | 1 | All Maps","name_short":"sao-1","host":"sao-1.br.uncletopia.com","port":27015,"enabled":true,"region":"sa","cc":"br","latitude":-23.533773,"longitude":-46.62529,"reserved":0,"last_update":"0001-01-01T00:00:00Z","name_a2s":"Uncletopia | S√£o Paulo | 1 | All Maps","protocol":17,"map":"cp_mountainlab","folder":"tf","game":"Team Fortress","app_id":440,"player_count":2,"max_players":24,"Bots":0,"server_type":"Dedicated","server_os":"Linux","password":true,"vac":true,"version":"7961495","steam_id":85568392924469996,"keywords":["cp","nocrits","nodmgspread","uncletopia"],"game_id":440,"stv_port":27016,"stv_name":"Uncletopia | S√£o Paulo | 1 | All Maps | STV","players":[{"user_id":4,"name":"Krevlinmen","steam_id":76561198091764640,"connected_time":84000000000,"state":"active","ping":32},{"user_id":5,"name":"Songalongamon","steam_id":76561198114565169,"connected_time":37000000000,"state":"active","ping":38}]},{"server_id":143,"name":"Uncletopia | S√£o Paulo | 2 | Community","name_short":"sao-2","host":"sao-2.br.uncletopia.com","port":27015,"enabled":true,"region":"sa","cc":"br","latitude":-23.533773,"longitude":-46.62529,"reserved":0,"last_update":"0001-01-01T00:00:00Z","name_a2s":"Uncletopia | S√£o Paulo | 2 | Community","protocol":17,"map":"pl_badwater","folder":"tf","game":"Team Fortress","app_id":440,"player_count":0,"max_players":24,"Bots":0,"server_type":"Dedicated","server_os":"Linux","password":true,"vac":true,"version":"7961495","steam_id":85568392924485349,"keywords":["nocrits","nodmgspread","payload","uncletopia"],"game_id":440,"stv_port":27016,"stv_name":"Uncletopia | S√£o Paulo | 2 | Community | STV","players":null},{"server_id":7,"name":"Uncletopia | Seattle | 1 | All Maps","name_short":"sea-1","host":"sea-1.us.uncletopia.com","port":27015,"enabled":true,"region":"us-west","cc":"us","latitude":47.608013,"longitude":-122.33517,"reserved":0,"last_update":"0001-01-01T00:00:00Z","name_a2s":"Uncletopia | Seattle | 1 | All Maps","protocol":17,"map":"pl_rumford_event","folder":"tf","game":"Team Fortress","app_id":440,"player_count":23,"max_players":24,"Bots":0,"server_type":"Dedicated","server_os":"Linux","password":true,"vac":true,"version":"7961495","steam_id":85568392924469997,"keywords":["nocrits","nodmgspread","payload","uncletopia"],"game_id":440,"stv_port":27016,"stv_name":"Uncletopia | Seattle | 1 | All Maps | STV","players":[{"user_id":209,"name":"Nom Skirrett","steam_id":76561198014600788,"connected_time":1018000000000,"state":"active","ping":60},{"user_id":219,"name":"no vc no c","steam_id":76561197989503095,"connected_time":378000000000,"state":"active","ping":150},{"user_id":222,"name":"dree says relax!","steam_id":76561198079178866,"connected_time":143000000000,"state":"active","ping":117},{"user_id":150,"name":"Satori Komeiji","steam_id":76561198158211423,"connected_time":6293000000000,"state":"active","ping":61},{"user_id":221,"name":"Zetta","steam_id":76561198045710113,"connected_time":221000000000,"state":"active","ping":71},{"user_id":215,"name":"McSpazatron","steam_id":76561198955942148,"connected_time":618000000000,"state":"active","ping":57},{"user_id":216,"name":"Vincent Van Bro","steam_id":76561197966919802,"connected_time":587000000000,"state":"active","ping":45},{"user_id":223,"name":"Greskrendtregk","steam_id":76561197969553142,"connected_time":13000000000,"state":"spawning","ping":51},{"user_id":217,"name":"slushy :))","steam_id":76561198135281802,"connected_time":564000000000,"state":"active","ping":31},{"user_id":173,"name":"toes","steam_id":76561198221151676,"connected_time":3767000000000,"state":"active","ping":53},{"user_id":218,"name":"F2P","steam_id":76561198199217834,"connected_time":564000000000,"state":"active","ping":76},{"user_id":156,"name":"jerbus","steam_id":76561198147006723,"connected_time":5745000000000,"state":"active","ping":76},{"user_id":175,"name":"PopcornBucketGames","steam_id":76561199089562026,"connected_time":3765000000000,"state":"active","ping":33},{"user_id":211,"name":"mariposa","steam_id":76561198143371128,"connected_time":649000000000,"state":"active","ping":68},{"user_id":203,"name":"P.C. Baby","steam_id":76561198067011379,"connected_time":1855000000000,"state":"active","ping":70},{"user_id":182,"name":"banana","steam_id":76561198306393090,"connected_time":3343000000000,"state":"active","ping":95},{"user_id":195,"name":"SwearWord","steam_id":76561199131184237,"connected_time":2171000000000,"state":"active","ping":61},{"user_id":204,"name":"Dog","steam_id":76561198041841128,"connected_time":1704000000000,"state":"active","ping":85},{"user_id":192,"name":"ShackerJack","steam_id":76561198118017448,"connected_time":2694000000000,"state":"active","ping":57},{"user_id":193,"name":"Daz","steam_id":76561198041431938,"connected_time":2692000000000,"state":"active","ping":51},{"user_id":212,"name":"Paint Huffing Yoshi Player","steam_id":76561198028969023,"connected_time":649000000000,"state":"active","ping":53},{"user_id":197,"name":"Jodi","steam_id":76561198131833567,"connected_time":2104000000000,"state":"active","ping":67},{"user_id":213,"name":"Pneumo.","steam_id":76561197987911883,"connected_time":649000000000,"state":"active","ping":59}]},{"server_id":119,"name":"Uncletopia | Seattle | 2 | All Maps","name_short":"sea-2","host":"sea-1.us.uncletopia.com","port":27025,"enabled":true,"region":"us-west","cc":"us","latitude":47.608013,"longitude":-122.33517,"reserved":0,"last_update":"0001-01-01T00:00:00Z","name_a2s":"Uncletopia | Seattle | 2 | All Maps","protocol":17,"map":"koth_cascade","folder":"tf","game":"Team Fortress","app_id":440,"player_count":0,"max_players":24,"Bots":0,"server_type":"Dedicated","server_os":"Linux","password":true,"vac":true,"version":"7961495","steam_id":85568392924469998,"keywords":["cp","nocrits","nodmgspread","uncletopia"],"game_id":440,"stv_port":27026,"stv_name":"Uncletopia | Seattle | 2 | All Maps | STV","players":null},{"server_id":406,"name":"Uncletopia | Seattle | 3 | Stopwatch","name_short":"sea-3","host":"sea-1.us.uncletopia.com","port":27035,"enabled":true,"region":"us-west","cc":"us","latitude":47.608013,"longitude":-122.33517,"reserved":0,"last_update":"0001-01-01T00:00:00Z","name_a2s":"Uncletopia | Seattle | 3 | Stopwatch","protocol":17,"map":"cp_snakewater_final1","folder":"tf","game":"Team Fortress","app_id":440,"player_count":0,"max_players":24,"Bots":0,"server_type":"Dedicated","server_os":"Linux","password":true,"vac":true,"version":"7961495","steam_id":85568392924515217,"keywords":["cp","nocrits","nodmgspread","uncletopia"],"game_id":440,"stv_port":27036,"stv_name":"Uncletopia | Seattle | 3 | Stopwatch | STV","players":null},{"server_id":17,"name":"Uncletopia | San Francisco | 1 | All Maps","name_short":"sfo-1","host":"sfo-1.us.uncletopia.com","port":27015,"enabled":true,"region":"us-west","cc":"us","latitude":37.77397,"longitude":-122.4313,"reserved":0,"last_update":"0001-01-01T00:00:00Z","name_a2s":"Uncletopia | San Francisco | 1 | All Maps","protocol":17,"map":"koth_cascade","folder":"tf","game":"Team Fortress","app_id":440,"player_count":0,"max_players":24,"Bots":0,"server_type":"Dedicated","server_os":"Linux","password":true,"vac":true,"version":"7961495","steam_id":85568392924469999,"keywords":["cp","nocrits","nodmgspread","uncletopia"],"game_id":440,"stv_port":27016,"stv_name":"Uncletopia | San Francisco | 1 | All Maps | STV","players":null},{"server_id":18,"name":"Uncletopia | San Francisco | 2 | All Maps","name_short":"sfo-2","host":"sfo-1.us.uncletopia.com","port":27025,"enabled":true,"region":"us-west","cc":"us","latitude":37.77397,"longitude":-122.4313,"reserved":0,"last_update":"0001-01-01T00:00:00Z","name_a2s":"Uncletopia | San Francisco | 2 | All Maps","protocol":17,"map":"pl_frontier_final","folder":"tf","game":"Team Fortress","app_id":440,"player_count":0,"max_players":24,"Bots":0,"server_type":"Dedicated","server_os":"Linux","password":true,"vac":true,"version":"7961495","steam_id":85568392924470000,"keywords":["nocrits","nodmgspread","payload","uncletopia"],"game_id":440,"stv_port":27026,"stv_name":"Uncletopia | San Francisco | 2 | All Maps | STV","players":null},{"server_id":19,"name":"Uncletopia | San Francisco | 3 | Stopwatch","name_short":"sfo-3","host":"sfo-1.us.uncletopia.com","port":27035,"enabled":true,"region":"us-west","cc":"us","latitude":37.77397,"longitude":-122.4313,"reserved":0,"last_update":"0001-01-01T00:00:00Z","name_a2s":"Uncletopia | San Francisco | 3 | Stopwatch","protocol":17,"map":"pl_pier","folder":"tf","game":"Team Fortress","app_id":440,"player_count":0,"max_players":24,"Bots":0,"server_type":"Dedicated","server_os":"Linux","password":true,"vac":true,"version":"7961495","steam_id":85568392924742824,"keywords":["nocrits","nodmgspread","payload","uncletopia"],"game_id":440,"stv_port":27036,"stv_name":"Uncletopia | San Francisco | 3 | Stopwatch | STV","players":null},{"server_id":20,"name":"Uncletopia | San Francisco | 4 | Community","name_short":"sfo-4","host":"sfo-1.us.uncletopia.com","port":27045,"enabled":true,"region":"us-west","cc":"us","latitude":37.77397,"longitude":-122.4313,"reserved":0,"last_update":"0001-01-01T00:00:00Z","name_a2s":"Uncletopia | San Francisco | 4 | Community","protocol":17,"map":"pl_pier","folder":"tf","game":"Team Fortress","app_id":440,"player_count":0,"max_players":24,"Bots":0,"server_type":"Dedicated","server_os":"Linux","password":true,"vac":true,"version":"7961495","steam_id":85568392924742826,"keywords":["nocrits","nodmgspread","payload","uncletopia"],"game_id":440,"stv_port":27046,"stv_name":"Uncletopia | San Francisco | 4 | Community | STV","players":null},{"server_id":141,"name":"Uncletopia | Sydney | 1 | All Maps","name_short":"syd-1","host":"syd-1.au.uncletopia.com","port":27015,"enabled":true,"region":"au","cc":"au","latitude":-33.865143,"longitude":151.2099,"reserved":0,"last_update":"0001-01-01T00:00:00Z","name_a2s":"Uncletopia | Sydney | 1 | All Maps","protocol":17,"map":"koth_highpass","folder":"tf","game":"Team Fortress","app_id":440,"player_count":0,"max_players":24,"Bots":0,"server_type":"Dedicated","server_os":"Linux","password":true,"vac":true,"version":"7961495","steam_id":85568392924470001,"keywords":["cp","nocrits","nodmgspread","uncletopia"],"game_id":440,"stv_port":27016,"stv_name":"Uncletopia | Sydney | 1 | All Maps | STV","players":null},{"server_id":123,"name":"Uncletopia | Sydney | 2 | All Maps","name_short":"syd-2","host":"syd-1.au.uncletopia.com","port":27025,"enabled":true,"region":"au","cc":"au","latitude":-33.865143,"longitude":151.2099,"reserved":0,"last_update":"0001-01-01T00:00:00Z","name_a2s":"Uncletopia | Sydney | 2 | All Maps","protocol":17,"map":"koth_cascade","folder":"tf","game":"Team Fortress","app_id":440,"player_count":0,"max_players":24,"Bots":0,"server_type":"Dedicated","server_os":"Linux","password":true,"vac":true,"version":"7961495","steam_id":85568392924470002,"keywords":["cp","nocrits","nodmgspread","uncletopia"],"game_id":440,"stv_port":27026,"stv_name":"Uncletopia | Sydney | 2 | All Maps | STV","players":null},{"server_id":395,"name":"Uncletopia | Sydney | 3 | All Maps","name_short":"syd-3","host":"syd-1.au.uncletopia.com","port":27035,"enabled":true,"region":"au","cc":"au","latitude":-33.865143,"longitude":151.2099,"reserved":0,"last_update":"0001-01-01T00:00:00Z","name_a2s":"Uncletopia | Sydney | 3 | All Maps","protocol":17,"map":"koth_lakeside_final","folder":"tf","game":"Team Fortress","app_id":440,"player_count":3,"max_players":24,"Bots":0,"server_type":"Dedicated","server_os":"Linux","password":true,"vac":true,"version":"7961495","steam_id":85568392925194467,"keywords":["cp","nocrits","nodmgspread","uncletopia"],"game_id":440,"stv_port":27036,"stv_name":"Uncletopia | Sydney | 3 | All Maps | STV","players":[{"user_id":16,"name":"NotKomori","steam_id":76561198845165975,"connected_time":2362000000000,"state":"active","ping":305},{"user_id":17,"name":"TheInfiniteK","steam_id":76561198353173330,"connected_time":2352000000000,"state":"active","ping":80},{"user_id":18,"name":"yilli_","steam_id":76561198210960700,"connected_time":28000000000,"state":"active","ping":66}]},{"server_id":396,"name":"Uncletopia | Sydney | 4 | All Maps","name_short":"syd-4","host":"syd-1.au.uncletopia.com","port":27045,"enabled":true,"region":"au","cc":"au","latitude":-33.865143,"longitude":151.2099,"reserved":0,"last_update":"0001-01-01T00:00:00Z","name_a2s":"Uncletopia | Sydney | 4 | All Maps","protocol":17,"map":"pl_badwater","folder":"tf","game":"Team Fortress","app_id":440,"player_count":0,"max_players":24,"Bots":0,"server_type":"Dedicated","server_os":"Linux","password":true,"vac":true,"version":"7961495","steam_id":85568392925397958,"keywords":["nocrits","nodmgspread","payload","uncletopia"],"game_id":440,"stv_port":27046,"stv_name":"Uncletopia | Sydney | 4 | All Maps | STV","players":null},{"server_id":58,"name":"Uncletopia | Sydney | 5 | Stopwatch","name_short":"syd-5","host":"syd-1.au.uncletopia.com","port":27055,"enabled":true,"region":"au","cc":"au","latitude":-33.865143,"longitude":151.2099,"reserved":0,"last_update":"0001-01-01T00:00:00Z","name_a2s":"Uncletopia | Sydney | 5 | Stopwatch","protocol":17,"map":"koth_highpass","folder":"tf","game":"Team Fortress","app_id":440,"player_count":0,"max_players":24,"Bots":0,"server_type":"Dedicated","server_os":"Linux","password":true,"vac":true,"version":"7961495","steam_id":85568392925397959,"keywords":["cp","nocrits","nodmgspread","uncletopia"],"game_id":440,"stv_port":27056,"stv_name":"Uncletopia | Sydney | 5 | Stopwatch | STV","players":null},{"server_id":59,"name":"Uncletopia | Sydney | 6 | Community","name_short":"syd-6","host":"syd-1.au.uncletopia.com","port":27065,"enabled":true,"region":"au","cc":"au","latitude":-33.865143,"longitude":151.2099,"reserved":0,"last_update":"0001-01-01T00:00:00Z","name_a2s":"Uncletopia | Sydney | 6 | Community","protocol":17,"map":"workshop/cp_propaganda_b18.ugc1603743849","folder":"tf","game":"Team Fortress","app_id":440,"player_count":0,"max_players":24,"Bots":0,"server_type":"Dedicated","server_os":"Linux","password":true,"vac":true,"version":"7961495","steam_id":85568392925397960,"keywords":["cp","nocrits","nodmgspread","uncletopia"],"game_id":440,"stv_port":27066,"stv_name":"Uncletopia | Sydney | 6 | Community | STV","players":null},{"server_id":49,"name":"Uncletopia | Warsaw | 1 | One Thousand Uncles","name_short":"waw-1","host":"waw-1.pl.uncletopia.com","port":27015,"enabled":true,"region":"eu","cc":"pl","latitude":52.2297,"longitude":21.017532,"reserved":0,"last_update":"0001-01-01T00:00:00Z","name_a2s":"Uncletopia | Warsaw | 1 | One Thousand Uncles","protocol":17,"map":"pl_thundermountain","folder":"tf","game":"Team Fortress","app_id":440,"player_count":19,"max_players":32,"Bots":16,"server_type":"Dedicated","server_os":"Linux","password":true,"vac":true,"version":"7961495","steam_id":85568392925397850,"keywords":["alltalk","bots","danepve","increased_maxplayers","nocrits","norespawntime","payload","uncletopia"],"game_id":440,"stv_port":0,"stv_name":"","players":[{"user_id":288,"name":"paguro","steam_id":76561198119560871,"connected_time":2225000000000,"state":"active","ping":84},{"user_id":300,"name":"‚àö(-Wolf)","steam_id":76561198024769704,"connected_time":1237000000000,"state":"active","ping":60},{"user_id":253,"name":"adv6","steam_id":76561198029789989,"connected_time":3883000000000,"state":"active","ping":69}]},{"server_id":50,"name":"Uncletopia | Warsaw | 2 | One Thousand Uncles","name_short":"waw-2","host":"waw-1.pl.uncletopia.com","port":27025,"enabled":true,"region":"eu","cc":"pl","latitude":52.2297,"longitude":21.017532,"reserved":0,"last_update":"0001-01-01T00:00:00Z","name_a2s":"Uncletopia | Warsaw | 2 | One Thousand Uncles","protocol":17,"map":"pl_goldrush","folder":"tf","game":"Team Fortress","app_id":440,"player_count":28,"max_players":32,"Bots":16,"server_type":"Dedicated","server_os":"Linux","password":true,"vac":true,"version":"7961495","steam_id":85568392925397851,"keywords":["alltalk","bots","danepve","increased_maxplayers","nocrits","norespawntime","payload","uncletopia"],"game_id":440,"stv_port":0,"stv_name":"","players":[{"user_id":41,"name":"Á™ÅÊíÉ","steam_id":76561198121553780,"connected_time":382000000000,"state":"active","ping":97},{"user_id":45,"name":"KipxSateee","steam_id":76561198149158137,"connected_time":91000000000,"state":"active","ping":70},{"user_id":4,"name":"pyro gaming","steam_id":76561198087970118,"connected_time":2385000000000,"state":"active","ping":49},{"user_id":12,"name":"Doctor Medic","steam_id":76561198100957443,"connected_time":2383000000000,"state":"active","ping":76},{"user_id":23,"name":"meriones","steam_id":76561198034234373,"connected_time":2348000000000,"state":"active","ping":75},{"user_id":24,"name":"Boomer Shooter Consoomer","steam_id":76561198079752648,"connected_time":2317000000000,"state":"active","ping":78},{"user_id":33,"name":"Lukas","steam_id":76561198009118452,"connected_time":1038000000000,"state":"active","ping":64},{"user_id":31,"name":"Ziemniaczki z koperkiem","steam_id":76561198829123464,"connected_time":1373000000000,"state":"active","ping":45},{"user_id":34,"name":"Versunix","steam_id":76561197978073496,"connected_time":911000000000,"state":"active","ping":68},{"user_id":47,"name":"The","steam_id":76561198359311605,"connected_time":40000000000,"state":"active","ping":45},{"user_id":43,"name":"Mane","steam_id":76561198351821610,"connected_time":363000000000,"state":"active","ping":67},{"user_id":40,"name":"Majami","steam_id":76561198054365738,"connected_time":421000000000,"state":"active","ping":78}]},{"server_id":51,"name":"Uncletopia | Warsaw | 3 | All Maps","name_short":"waw-3","host":"waw-1.pl.uncletopia.com","port":27035,"enabled":true,"region":"eu","cc":"pl","latitude":52.2297,"longitude":21.017532,"reserved":0,"last_update":"0001-01-01T00:00:00Z","name_a2s":"Uncletopia | Warsaw | 3 | All Maps","protocol":17,"map":"pl_badwater","folder":"tf","game":"Team Fortress","app_id":440,"player_count":23,"max_players":24,"Bots":0,"server_type":"Dedicated","server_os":"Linux","password":true,"vac":true,"version":"7961495","steam_id":85568392925397852,"keywords":["nocrits","nodmgspread","payload","uncletopia"],"game_id":440,"stv_port":27036,"stv_name":"Uncletopia | Warsaw | 3 | All Maps | STV","players":[{"user_id":144,"name":"coygus","steam_id":76561198071751994,"connected_time":625000000000,"state":"active","ping":75},{"user_id":127,"name":"Daddyflabburger","steam_id":76561198104352907,"connected_time":1131000000000,"state":"active","ping":75},{"user_id":145,"name":"Ipl@yThePad$","steam_id":76561198092260104,"connected_time":585000000000,"state":"active","ping":43},{"user_id":102,"name":"rower123","steam_id":76561198265062481,"connected_time":1832000000000,"state":"active","ping":61},{"user_id":103,"name":"iGinifinioi","steam_id":76561198032980409,"connected_time":1761000000000,"state":"active","ping":41},{"user_id":100,"name":"Pighead_08","steam_id":76561199060466647,"connected_time":2574000000000,"state":"active","ping":112},{"user_id":143,"name":"Uncle Moomin","steam_id":76561198011628656,"connected_time":656000000000,"state":"active","ping":85},{"user_id":108,"name":"Giga–°had Pyro","steam_id":76561198140742485,"connected_time":1725000000000,"state":"active","ping":70},{"user_id":89,"name":"_ZIGHAIL_","steam_id":76561199075965069,"connected_time":3150000000000,"state":"active","ping":76},{"user_id":131,"name":"r^f nyanezt","steam_id":76561198253734265,"connected_time":993000000000,"state":"active","ping":71},{"user_id":142,"name":"Egtu","steam_id":76561198013757235,"connected_time":772000000000,"state":"active","ping":44},{"user_id":146,"name":"Redmailbox","steam_id":76561198042930322,"connected_time":579000000000,"state":"active","ping":75},{"user_id":152,"name":"Udinese Dion","steam_id":76561198067931573,"connected_time":35000000000,"state":"active","ping":71},{"user_id":44,"name":"bestuan","steam_id":76561199083610617,"connected_time":4926000000000,"state":"active","ping":169},{"user_id":133,"name":"Industrial Revolution","steam_id":76561198230811124,"connected_time":948000000000,"state":"active","ping":62},{"user_id":140,"name":"Boki","steam_id":76561198157660640,"connected_time":862000000000,"state":"active","ping":66},{"user_id":135,"name":"„É¨„É¢„É≥ Pinoy Slayer üíØ","steam_id":76561198085537473,"connected_time":927000000000,"state":"active","ping":86},{"user_id":136,"name":"Apollo","steam_id":76561198866054007,"connected_time":905000000000,"state":"active","ping":79},{"user_id":137,"name":"CEO of Racism","steam_id":76561198042317958,"connected_time":897000000000,"state":"active","ping":32},{"user_id":148,"name":"Cat","steam_id":76561199030180843,"connected_time":453000000000,"state":"active","ping":153},{"user_id":149,"name":"Hukka","steam_id":76561198035505355,"connected_time":446000000000,"state":"active","ping":116},{"user_id":150,"name":"brtaba","steam_id":76561198796334790,"connected_time":426000000000,"state":"active","ping":55},{"user_id":122,"name":"Istari","steam_id":76561199029051300,"connected_time":1447000000000,"state":"active","ping":42}]},{"server_id":52,"name":"Uncletopia | Warsaw | 4 | All Maps","name_short":"waw-4","host":"waw-1.pl.uncletopia.com","port":27045,"enabled":true,"region":"eu","cc":"pl","latitude":52.2297,"longitude":21.017532,"reserved":0,"last_update":"0001-01-01T00:00:00Z","name_a2s":"Uncletopia | Warsaw | 4 | All Maps","protocol":17,"map":"cp_mountainlab","folder":"tf","game":"Team Fortress","app_id":440,"player_count":0,"max_players":24,"Bots":0,"server_type":"Dedicated","server_os":"Linux","password":true,"vac":true,"version":"7961495","steam_id":85568392925397853,"keywords":["cp","nocrits","nodmgspread","uncletopia"],"game_id":440,"stv_port":27046,"stv_name":"Uncletopia | Warsaw | 4 | All Maps | STV","players":null},{"server_id":53,"name":"Uncletopia | Warsaw | 5 | Stopwatch","name_short":"waw-5","host":"waw-1.pl.uncletopia.com","port":27055,"enabled":true,"region":"eu","cc":"pl","latitude":52.2297,"longitude":21.017532,"reserved":0,"last_update":"0001-01-01T00:00:00Z","name_a2s":"Uncletopia | Warsaw | 5 | Stopwatch","protocol":17,"map":"workshop/pl_vigil_rc10.ugc1266210012","folder":"tf","game":"Team Fortress","app_id":440,"player_count":0,"max_players":24,"Bots":0,"server_type":"Dedicated","server_os":"Linux","password":true,"vac":true,"version":"7961495","steam_id":85568392925397854,"keywords":["nocrits","nodmgspread","payload","uncletopia"],"game_id":440,"stv_port":27056,"stv_name":"Uncletopia | Warsaw | 5 | Stopwatch | STV","players":null},{"server_id":54,"name":"Uncletopia | Warsaw | 6 | Community","name_short":"waw-6","host":"waw-1.pl.uncletopia.com","port":27065,"enabled":true,"region":"eu","cc":"pl","latitude":52.2297,"longitude":21.017532,"reserved":0,"last_update":"0001-01-01T00:00:00Z","name_a2s":"Uncletopia | Warsaw | 6 | Community","protocol":17,"map":"workshop/koth_slaughter_rc1.ugc1712845210","folder":"tf","game":"Team Fortress","app_id":440,"player_count":0,"max_players":24,"Bots":0,"server_type":"Dedicated","server_os":"Linux","password":true,"vac":true,"version":"7961495","steam_id":85568392925397856,"keywords":["cp","nocrits","nodmgspread","uncletopia"],"game_id":440,"stv_port":27066,"stv_name":"Uncletopia | Warsaw | 6 | Community | STV","players":null}]}