{"status":true,"message":"","result":[{"server_id":9,"name":"Uncletopia | Atlanta | 1 | All Maps","name_short":"atl-1","host":"atl-1.us.uncletopia.com","port":27015,"enabled":true,"region":"us-east","cc":"us","latitude":33.753746,"longitude":-84.38633,"reserved":0,"last_update":"0001-01-01T00:00:00Z","name_a2s":"Uncletopia | Atlanta | 1 | All Maps","protocol":17,"map":"pl_pier","folder":"tf","game":"Team Fortress","app_id":440,"player_count":24,"max_players":24,"Bots":0,"server_type":"Dedicated","server_os":"Linux","password":true,"vac":true,"version":"7757534","steam_id":85568392924469982,"keywords":["nocrits","nodmgspread","payload","uncletopia"],"game_id":440,"stv_port":27016,"stv_name":"Uncletopia | Atlanta | 1 | All Maps | STV","players":[{"user_id":264,"name":"No Web Deep Love \u003c3","steam_id":76561198397009880,"connected_time":1526000000000,"state":"active","ping":45},{"user_id":230,"name":"mbs","steam_id":76561198013079739,"connected_time":4007000000000,"state":"active","ping":61},{"user_id":263,"name":"Mal","steam_id":76561198066074151,"connected_time":1555000000000,"state":"active","ping":63},{"user_id":258,"name":"Open Mailbox","steam_id":76561198051933580,"connected_time":2187000000000,"state":"active","ping":93},{"user_id":248,"name":"zooqooo","steam_id":76561198043674914,"connected_time":2761000000000,"state":"active","ping":80},{"user_id":268,"name":"Wooper","steam_id":76561198047491931,"connected_time":948000000000,"state":"active","ping":59},{"user_id":272,"name":"faxxy","steam_id":76561198079621240,"connected_time":678000000000,"state":"active","ping":90},{"user_id":260,"name":"BORN IN GOOP RAISED IN POOP","steam_id":76561198095909397,"connected_time":2045000000000,"state":"active","ping":55},{"user_id":243,"name":"sPoOkED yUh","steam_id":76561197990595352,"connected_time":3299000000000,"state":"active","ping":67},{"user_id":261,"name":"Kuddly Kay (She/Her)","steam_id":76561198353432576,"connected_time":1772000000000,"state":"active","ping":90},{"user_id":213,"name":"Michael Scarn","steam_id":76561198035740143,"connected_time":5435000000000,"state":"active","ping":68},{"user_id":269,"name":"Spy_Is_Pye","steam_id":76561199439622967,"connected_time":717000000000,"state":"active","ping":74},{"user_id":250,"name":"Screwyelk","steam_id":76561198086163313,"connected_time":2571000000000,"state":"active","ping":69},{"user_id":245,"name":"Davidbruh","steam_id":76561199374143638,"connected_time":3160000000000,"state":"active","ping":72},{"user_id":215,"name":"toastman","steam_id":76561198207073088,"connected_time":5288000000000,"state":"active","ping":103},{"user_id":270,"name":"Decolour","steam_id":76561199045608372,"connected_time":716000000000,"state":"active","ping":68},{"user_id":254,"name":"bigconkeldurrfan3000","steam_id":76561198258062078,"connected_time":2476000000000,"state":"active","ping":68},{"user_id":233,"name":"Max Headroom","steam_id":76561198023176757,"connected_time":3993000000000,"state":"active","ping":159},{"user_id":206,"name":"Nephs","steam_id":76561198136763403,"connected_time":5927000000000,"state":"active","ping":80},{"user_id":255,"name":"DuckKey","steam_id":76561198904477889,"connected_time":2471000000000,"state":"active","ping":59},{"user_id":277,"name":"„Ç∑Gaso„ã°","steam_id":76561198099466934,"connected_time":194000000000,"state":"active","ping":132},{"user_id":267,"name":"BLU1 | Pango","steam_id":76561198069811545,"connected_time":1081000000000,"state":"active","ping":45},{"user_id":265,"name":"Spoof","steam_id":76561198283928331,"connected_time":1462000000000,"state":"active","ping":48},{"user_id":274,"name":"the npc killa","steam_id":76561198010370396,"connected_time":649000000000,"state":"active","ping":60}]},{"server_id":400,"name":"Uncletopia | Atlanta | 3 | Stopwatch Beta","name_short":"atl-3","host":"atl-1.us.uncletopia.com","port":27035,"enabled":true,"region":"us-east","cc":"us","latitude":33.753746,"longitude":-84.38633,"reserved":0,"last_update":"0001-01-01T00:00:00Z","name_a2s":"Uncletopia | Atlanta | 3 | Stopwatch Beta","protocol":17,"map":"pl_upward","folder":"tf","game":"Team Fortress","app_id":440,"player_count":1,"max_players":24,"Bots":0,"server_type":"Dedicated","server_os":"Linux","password":true,"vac":true,"version":"7757534","steam_id":85568392924515187,"keywords":["nocrits","nodmgspread","payload","uncletopia"],"game_id":440,"stv_port":27036,"stv_name":"Uncletopia | Atlanta | 3 | Stopwatch Beta | STV","players":[{"user_id":21,"name":"nap","steam_id":76561198162714624,"connected_time":26000000000,"state":"active","ping":57}]},{"server_id":401,"name":"Uncletopia | Atlanta | 4 | No Payload","name_short":"atl-4","host":"atl-1.us.uncletopia.com","port":27045,"enabled":true,"region":"us-east","cc":"us","latitude":33.753746,"longitude":-84.38633,"reserved":0,"last_update":"0001-01-01T00:00:00Z","name_a2s":"Uncletopia | Atlanta | 4 | No Payload","protocol":17,"map":"pl_pier","folder":"tf","game":"Team Fortress","app_id":440,"player_count":0,"max_players":24,"Bots":0,"server_type":"Dedicated","server_os":"Linux","password":true,"vac":true,"version":"7723704","steam_id":85568392924515188,"keywords":["nocrits","nodmgspread","payload","uncletopia"],"game_id":440,"stv_port":27046,"stv_name":"Uncletopia | Atlanta | 4 | No Payload | STV","players":null},{"server_id":2,"name":"Uncletopia | Chicago | 1 | All Maps","name_short":"chi-1","host":"chi-1.us.uncletopia.com","port":27015,"enabled":true,"region":"us-central","cc":"us","latitude":41.881832,"longitude":-87.62318,"reserved":0,"last_update":"0001-01-01T00:00:00Z","name_a2s":"Uncletopia | Chicago | 1 | All Maps","protocol":17,"map":"pl_hoodoo_final","folder":"tf","game":"Team Fortress","app_id":440,"player_count":22,"max_players":24,"Bots":0,"server_type":"Dedicated","server_os":"Linux","password":true,"vac":true,"version":"7757534","steam_id":85568392924469984,"keywords":["nocrits","nodmgspread","payload","uncletopia"],"game_id":440,"stv_port":27016,"stv_name":"Uncletopia | Chicago | 1 | All Maps | STV","players":[{"user_id":511,"name":"Big Phony","steam_id":76561199092395311,"connected_time":76000000000,"state":"active","ping":60},{"user_id":514,"name":"Chechens Spotted","steam_id":76561199028910893,"connected_time":2000000000,"state":"spawning","ping":60},{"user_id":506,"name":"Fuegan Ra","steam_id":76561198287923849,"connected_time":202000000000,"state":"active","ping":45},{"user_id":457,"name":"Two-Ton Heavy Thing","steam_id":76561198201724274,"connected_time":4534000000000,"state":"active","ping":83},{"user_id":468,"name":"GREG","steam_id":76561198073021168,"connected_time":3659000000000,"state":"active","ping":69},{"user_id":491,"name":"Mythius","steam_id":76561198401392472,"connected_time":1111000000000,"state":"active","ping":80},{"user_id":488,"name":"avaeragebonkenjoyer","steam_id":76561198313518948,"connected_time":1622000000000,"state":"active","ping":82},{"user_id":502,"name":"imposter","steam_id":76561198085571748,"connected_time":364000000000,"state":"active","ping":53},{"user_id":494,"name":"‚ñ≤‚ñº‚ñ≤ Paul Atreideeznuts","steam_id":76561198015714075,"connected_time":1076000000000,"state":"active","ping":75},{"user_id":510,"name":"Mug Moment Gaming","steam_id":76561198233098136,"connected_time":117000000000,"state":"active","ping":69},{"user_id":505,"name":"R2D28MYFOOD","steam_id":76561198124315872,"connected_time":310000000000,"state":"active","ping":85},{"user_id":495,"name":"AgentCitrus","steam_id":76561198153277184,"connected_time":1056000000000,"state":"active","ping":62},{"user_id":478,"name":"B45Guy","steam_id":76561198117290531,"connected_time":2953000000000,"state":"active","ping":61},{"user_id":496,"name":"Teravern","steam_id":76561198282719214,"connected_time":1050000000000,"state":"active","ping":67},{"user_id":497,"name":"Varveer","steam_id":76561198218897383,"connected_time":1038000000000,"state":"active","ping":61},{"user_id":481,"name":"FiveStryker","steam_id":76561198366172207,"connected_time":2154000000000,"state":"active","ping":43},{"user_id":471,"name":"Verily","steam_id":76561198200558318,"connected_time":3524000000000,"state":"active","ping":60},{"user_id":503,"name":"Gabinator32","steam_id":76561198872467183,"connected_time":336000000000,"state":"active","ping":46},{"user_id":513,"name":"Dead frogs can't jump.","steam_id":76561198054659015,"connected_time":55000000000,"state":"active","ping":84},{"user_id":499,"name":"Sage","steam_id":76561198143101697,"connected_time":1018000000000,"state":"active","ping":99},{"user_id":473,"name":"Daksuki","steam_id":76561198084127751,"connected_time":3370000000000,"state":"active","ping":69},{"user_id":464,"name":"ThatGuy","steam_id":76561199017934530,"connected_time":4115000000000,"state":"active","ping":76}]},{"server_id":106,"name":"Uncletopia | Chicago | 2 | All Maps","name_short":"chi-2","host":"chi-1.us.uncletopia.com","port":27025,"enabled":true,"region":"us-central","cc":"us","latitude":41.881832,"longitude":-87.62318,"reserved":0,"last_update":"0001-01-01T00:00:00Z","name_a2s":"Uncletopia | Chicago | 2 | All Maps","protocol":17,"map":"pl_swiftwater_final1","folder":"tf","game":"Team Fortress","app_id":440,"player_count":24,"max_players":24,"Bots":0,"server_type":"Dedicated","server_os":"Linux","password":true,"vac":true,"version":"7757534","steam_id":85568392924469985,"keywords":["nocrits","nodmgspread","payload","uncletopia"],"game_id":440,"stv_port":27026,"stv_name":"Uncletopia | Chicago | 2 | All Maps | STV","players":[{"user_id":380,"name":"Johnathan the 3rd #savetf2","steam_id":76561198166735885,"connected_time":474000000000,"state":"active","ping":118},{"user_id":274,"name":"Furious George","steam_id":76561198405111646,"connected_time":5802000000000,"state":"active","ping":99},{"user_id":395,"name":"North","steam_id":76561199173696836,"connected_time":5000000000,"state":"spawning","ping":74},{"user_id":324,"name":"magicbeetle","steam_id":76561199160422863,"connected_time":2693000000000,"state":"active","ping":122},{"user_id":334,"name":"cat","steam_id":76561198370487545,"connected_time":2072000000000,"state":"active","ping":116},{"user_id":384,"name":"tinkercrab11","steam_id":76561198881792140,"connected_time":293000000000,"state":"active","ping":76},{"user_id":305,"name":"Violet42","steam_id":76561198072927887,"connected_time":3406000000000,"state":"active","ping":68},{"user_id":393,"name":"Tyrone","steam_id":76561198189429665,"connected_time":126000000000,"state":"active","ping":74},{"user_id":389,"name":"defs98","steam_id":76561198134813102,"connected_time":211000000000,"state":"active","ping":53},{"user_id":390,"name":"Be queer create fear","steam_id":76561198817913190,"connected_time":193000000000,"state":"active","ping":74},{"user_id":345,"name":"yeyoi","steam_id":76561198069821885,"connected_time":1358000000000,"state":"active","ping":63},{"user_id":385,"name":"God of bread","steam_id":76561198373688035,"connected_time":278000000000,"state":"active","ping":62},{"user_id":386,"name":"kris736","steam_id":76561198038208255,"connected_time":270000000000,"state":"active","ping":59},{"user_id":328,"name":"Anji's onlyfans","steam_id":76561198353160282,"connected_time":2521000000000,"state":"active","ping":89},{"user_id":387,"name":"Jerkface","steam_id":76561198130815383,"connected_time":249000000000,"state":"active","ping":83},{"user_id":388,"name":"Dragonsofdra","steam_id":76561198253369292,"connected_time":236000000000,"state":"active","ping":102},{"user_id":323,"name":"Oli B\u003eQS/BP/Bulk w/ 500+ keys","steam_id":76561198140316312,"connected_time":2720000000000,"state":"active","ping":48},{"user_id":394,"name":"AciesPuer","steam_id":76561198336393335,"connected_time":121000000000,"state":"active","ping":149},{"user_id":392,"name":"cognitiveAfflatus","steam_id":76561198295181426,"connected_time":176000000000,"state":"active","ping":70},{"user_id":330,"name":"Mad Cow‚Äª","steam_id":76561198132498594,"connected_time":2368000000000,"state":"active","ping":50},{"user_id":320,"name":"Ejaculation Zach","steam_id":76561198203765200,"connected_time":3236000000000,"state":"active","ping":58},{"user_id":343,"name":"Coenot","steam_id":76561198052566996,"connected_time":1995000000000,"state":"active","ping":71},{"user_id":344,"name":"tree","steam_id":76561198116885731,"connected_time":1991000000000,"state":"active","ping":53},{"user_id":379,"name":"A Potato That You Don't Like.","steam_id":76561198163387626,"connected_time":538000000000,"state":"active","ping":53}]},{"server_id":402,"name":"Uncletopia | Chicago | 3 | All Maps","name_short":"chi-3","host":"chi-1.us.uncletopia.com","port":27035,"enabled":true,"region":"us-central","cc":"us","latitude":41.881832,"longitude":-87.62318,"reserved":0,"last_update":"0001-01-01T00:00:00Z","name_a2s":"Uncletopia | Chicago | 3 | All Maps","protocol":17,"map":"koth_lakeside_final","folder":"tf","game":"Team Fortress","app_id":440,"player_count":24,"max_players":24,"Bots":0,"server_type":"Dedicated","server_os":"Linux","password":true,"vac":true,"version":"7757534","steam_id":85568392924515191,"keywords":["cp","nocrits","nodmgspread","uncletopia"],"game_id":440,"stv_port":27036,"stv_name":"Uncletopia | Chicago | 3 | All Maps | STV","players":[{"user_id":56,"name":"Walkiing","steam_id":76561198074473413,"connected_time":1363000000000,"state":"active","ping":37},{"user_id":55,"name":"DerpFestival","steam_id":76561198046489801,"connected_time":1599000000000,"state":"active","ping":106},{"user_id":69,"name":"Corn","steam_id":76561198177186718,"connected_time":725000000000,"state":"active","ping":57},{"user_id":75,"name":"nefarious criminal","steam_id":76561198077506415,"connected_time":305000000000,"state":"active","ping":57},{"user_id":76,"name":"Spectre","steam_id":76561198025652246,"connected_time":288000000000,"state":"active","ping":47},{"user_id":73,"name":"Dumpster Man","steam_id":76561198323159516,"connected_time":319000000000,"state":"active","ping":85},{"user_id":24,"name":"‚ä∞Aero‚ä±","steam_id":76561198084648457,"connected_time":2734000000000,"state":"active","ping":59},{"user_id":77,"name":"Dr. Enforcicle (real)","steam_id":76561198964471859,"connected_time":260000000000,"state":"active","ping":77},{"user_id":74,"name":"GooniOoni","steam_id":76561198102154561,"connected_time":313000000000,"state":"active","ping":45},{"user_id":58,"name":"Zicky Nee","steam_id":76561198042601111,"connected_time":1316000000000,"state":"active","ping":77},{"user_id":28,"name":"Dastardly_Devious","steam_id":76561198103939491,"connected_time":2579000000000,"state":"active","ping":116},{"user_id":72,"name":"battle clown","steam_id":76561198045788371,"connected_time":335000000000,"state":"active","ping":69},{"user_id":68,"name":"Atlas","steam_id":76561198127975050,"connected_time":768000000000,"state":"active","ping":69},{"user_id":31,"name":"Lil Glac (Inept)","steam_id":76561198105395149,"connected_time":2533000000000,"state":"active","ping":114},{"user_id":32,"name":"Solo.","steam_id":76561198090308641,"connected_time":2514000000000,"state":"active","ping":64},{"user_id":80,"name":"Chavo","steam_id":76561198380678609,"connected_time":81000000000,"state":"active","ping":171},{"user_id":63,"name":"xXiNSanEXx_CoBrA","steam_id":76561199036450881,"connected_time":1175000000000,"state":"active","ping":126},{"user_id":38,"name":"cokersworld","steam_id":76561198039731344,"connected_time":2346000000000,"state":"active","ping":81},{"user_id":51,"name":"girlboss","steam_id":76561197989019617,"connected_time":1983000000000,"state":"active","ping":47},{"user_id":57,"name":"Warsh Cloth","steam_id":76561198059761344,"connected_time":1338000000000,"state":"active","ping":55},{"user_id":47,"name":"meghan trainor's bass","steam_id":76561198075858067,"connected_time":2191000000000,"state":"active","ping":60},{"user_id":44,"name":"SomeScuffedKid","steam_id":76561198086113234,"connected_time":2258000000000,"state":"active","ping":63},{"user_id":78,"name":"Can we get much dumber?(jack)","steam_id":76561198044762365,"connected_time":224000000000,"state":"active","ping":50},{"user_id":79,"name":"Coupon","steam_id":76561198111947598,"connected_time":112000000000,"state":"active","ping":92}]},{"server_id":403,"name":"Uncletopia | Chicago | 4 | All Maps","name_short":"chi-4","host":"chi-1.us.uncletopia.com","port":27045,"enabled":true,"region":"us-central","cc":"us","latitude":41.881832,"longitude":-87.62318,"reserved":0,"last_update":"0001-01-01T00:00:00Z","name_a2s":"Uncletopia | Chicago | 4 | All Maps","protocol":17,"map":"koth_harvest_final","folder":"tf","game":"Team Fortress","app_id":440,"player_count":24,"max_players":24,"Bots":0,"server_type":"Dedicated","server_os":"Linux","password":true,"vac":true,"version":"7757534","steam_id":85568392924515193,"keywords":["cp","nocrits","nodmgspread","uncletopia"],"game_id":440,"stv_port":27046,"stv_name":"Uncletopia | Chicago | 4 | All Maps | STV","players":[{"user_id":111,"name":"Fudgely","steam_id":76561198039425862,"connected_time":13132000000000,"state":"active","ping":63},{"user_id":277,"name":"Rukks","steam_id":76561197993918954,"connected_time":1898000000000,"state":"active","ping":89},{"user_id":266,"name":"illya","steam_id":76561198063099828,"connected_time":3048000000000,"state":"active","ping":51},{"user_id":306,"name":"Colin102004","steam_id":76561198202384334,"connected_time":254000000000,"state":"active","ping":59},{"user_id":305,"name":"shawarma","steam_id":76561198347818558,"connected_time":262000000000,"state":"active","ping":56},{"user_id":307,"name":"BigSharter69420","steam_id":76561199212173949,"connected_time":236000000000,"state":"active","ping":85},{"user_id":308,"name":"Sharper Spoon","steam_id":76561198877130687,"connected_time":224000000000,"state":"active","ping":70},{"user_id":309,"name":"jcera","steam_id":76561198882985900,"connected_time":194000000000,"state":"active","ping":58},{"user_id":262,"name":"hooley","steam_id":76561198041923067,"connected_time":3553000000000,"state":"active","ping":63},{"user_id":285,"name":"Cornflakes","steam_id":76561199151899684,"connected_time":1159000000000,"state":"active","ping":81},{"user_id":290,"name":"Back with the milk","steam_id":76561199020105501,"connected_time":1107000000000,"state":"active","ping":72},{"user_id":302,"name":"Heavyweapons","steam_id":76561198180706950,"connected_time":342000000000,"state":"active","ping":45},{"user_id":297,"name":"ERRAfan72","steam_id":76561198025747866,"connected_time":575000000000,"state":"active","ping":79},{"user_id":310,"name":"Lost (15)","steam_id":76561198093713427,"connected_time":180000000000,"state":"active","ping":68},{"user_id":311,"name":"redwater skooma","steam_id":76561198058013470,"connected_time":151000000000,"state":"active","ping":77},{"user_id":300,"name":"Smart_Fridge","steam_id":76561198854290654,"connected_time":464000000000,"state":"active","ping":66},{"user_id":298,"name":"M249 | Spectre","steam_id":76561198118334485,"connected_time":523000000000,"state":"active","ping":75},{"user_id":299,"name":"GiraffeMan","steam_id":76561198042104084,"connected_time":521000000000,"state":"active","ping":76},{"user_id":303,"name":"Myracle","steam_id":76561198070916920,"connected_time":329000000000,"state":"active","ping":46},{"user_id":294,"name":"‚óãB33Z3CHXRG3R‚óã","steam_id":76561198041017977,"connected_time":821000000000,"state":"active","ping":71},{"user_id":292,"name":"Morbius","steam_id":76561198387984694,"connected_time":1095000000000,"state":"active","ping":83},{"user_id":296,"name":"tonka with all of the minions","steam_id":76561198295985520,"connected_time":735000000000,"state":"active","ping":68},{"user_id":312,"name":"heywaitasecond","steam_id":76561199064548292,"connected_time":133000000000,"state":"active","ping":77},{"user_id":269,"name":"HaphazardHazel","steam_id":76561198316812693,"connected_time":2491000000000,"state":"active","ping":89}]},{"server_id":36,"name":"Uncletopia | Chicago | 5 | All Maps","name_short":"chi-5","host":"chi-2.us.uncletopia.com","port":27015,"enabled":true,"region":"us-central","cc":"us","latitude":41.881832,"longitude":-87.62318,"reserved":0,"last_update":"0001-01-01T00:00:00Z","name_a2s":"Uncletopia | Chicago | 5 | All Maps","protocol":17,"map":"pl_borneo","folder":"tf","game":"Team Fortress","app_id":440,"player_count":24,"max_players":24,"Bots":0,"server_type":"Dedicated","server_os":"Linux","password":true,"vac":true,"version":"7757534","steam_id":85568392924866362,"keywords":["nocrits","nodmgspread","payload","uncletopia"],"game_id":440,"stv_port":27016,"stv_name":"Uncletopia | Chicago | 5 | All Maps | STV","players":[{"user_id":113,"name":"Obamacare","steam_id":76561198018894553,"connected_time":1059000000000,"state":"active","ping":99},{"user_id":106,"name":"heist","steam_id":76561197960430077,"connected_time":2386000000000,"state":"active","ping":60},{"user_id":116,"name":"hey beautiful!","steam_id":76561198224614084,"connected_time":588000000000,"state":"active","ping":74},{"user_id":110,"name":"Dokki","steam_id":76561198355935693,"connected_time":1852000000000,"state":"active","ping":46},{"user_id":112,"name":"Chrisscar","steam_id":76561198086298130,"connected_time":1075000000000,"state":"active","ping":103},{"user_id":27,"name":"daemon","steam_id":76561198001541433,"connected_time":8503000000000,"state":"active","ping":56},{"user_id":36,"name":"[Scout_Fungus] SNOW_TRAINING","steam_id":76561198026701863,"connected_time":8124000000000,"state":"active","ping":79},{"user_id":29,"name":"--_Cook_--","steam_id":76561198080855748,"connected_time":8445000000000,"state":"active","ping":46},{"user_id":95,"name":"NilYdna","steam_id":76561198129747459,"connected_time":3996000000000,"state":"active","ping":66},{"user_id":104,"name":"Kitt(eh) ‚àë:3","steam_id":76561198110858518,"connected_time":2402000000000,"state":"active","ping":47},{"user_id":103,"name":"Glory","steam_id":76561198013975080,"connected_time":2853000000000,"state":"active","ping":74},{"user_id":35,"name":"starfungus","steam_id":76561198158312789,"connected_time":8158000000000,"state":"active","ping":82},{"user_id":66,"name":"vanxi","steam_id":76561198089852954,"connected_time":6843000000000,"state":"active","ping":88},{"user_id":45,"name":"sock","steam_id":76561199117597830,"connected_time":7800000000000,"state":"active","ping":66},{"user_id":115,"name":"Mara Roo","steam_id":76561198279341789,"connected_time":733000000000,"state":"active","ping":89},{"user_id":98,"name":"Syrix","steam_id":76561198017328672,"connected_time":3662000000000,"state":"active","ping":62},{"user_id":46,"name":"Dispenser (Twan)","steam_id":76561197991064908,"connected_time":7799000000000,"state":"active","ping":73},{"user_id":117,"name":"Sprinklingmydoughnut","steam_id":76561198168009092,"connected_time":482000000000,"state":"active","ping":97},{"user_id":48,"name":"weeb_whacker #Jenius","steam_id":76561198187098041,"connected_time":7764000000000,"state":"active","ping":57},{"user_id":118,"name":"josh","steam_id":76561198111565081,"connected_time":356000000000,"state":"active","ping":107},{"user_id":114,"name":"a baby","steam_id":76561198008662184,"connected_time":1044000000000,"state":"active","ping":73},{"user_id":55,"name":"Azula's #1 Fan","steam_id":76561198133111058,"connected_time":7596000000000,"state":"active","ping":74},{"user_id":119,"name":"Crusader's Symphony","steam_id":76561198271654093,"connected_time":311000000000,"state":"active","ping":68},{"user_id":75,"name":"tommy salami","steam_id":76561198172454407,"connected_time":5943000000000,"state":"active","ping":80}]},{"server_id":37,"name":"Uncletopia | Chicago | 6 | All Maps","name_short":"chi-6","host":"chi-2.us.uncletopia.com","port":27025,"enabled":true,"region":"us-central","cc":"us","latitude":41.881832,"longitude":-87.62318,"reserved":0,"last_update":"0001-01-01T00:00:00Z","name_a2s":"Uncletopia | Chicago | 6 | All Maps","protocol":17,"map":"koth_cascade","folder":"tf","game":"Team Fortress","app_id":440,"player_count":24,"max_players":24,"Bots":0,"server_type":"Dedicated","server_os":"Linux","password":true,"vac":true,"version":"7757534","steam_id":85568392924866363,"keywords":["cp","nocrits","nodmgspread","uncletopia"],"game_id":440,"stv_port":27026,"stv_name":"Uncletopia | Chicago | 6 | All Maps | STV","players":[{"user_id":343,"name":"Doowid","steam_id":76561198145419024,"connected_time":474000000000,"state":"active","ping":60},{"user_id":340,"name":"weed lesbian","steam_id":76561198042263805,"connected_time":691000000000,"state":"active","ping":82},{"user_id":313,"name":"dahperson","steam_id":76561198067207467,"connected_time":2748000000000,"state":"active","ping":58},{"user_id":278,"name":"Mr.Pan","steam_id":76561198069030613,"connected_time":4323000000000,"state":"active","ping":64},{"user_id":341,"name":"Turtlin'","steam_id":76561198885096042,"connected_time":690000000000,"state":"active","ping":64},{"user_id":308,"name":"Doost44","steam_id":76561198115785902,"connected_time":3018000000000,"state":"active","ping":79},{"user_id":345,"name":"Rostovne","steam_id":76561198050293434,"connected_time":108000000000,"state":"active","ping":74},{"user_id":309,"name":"Cryo_Dave","steam_id":76561198796748347,"connected_time":3009000000000,"state":"active","ping":129},{"user_id":293,"name":"Pancetta's vore window","steam_id":76561198428086758,"connected_time":3695000000000,"state":"active","ping":82},{"user_id":287,"name":"Atomic Waffles","steam_id":76561197970935570,"connected_time":3904000000000,"state":"active","ping":69},{"user_id":332,"name":"Law","steam_id":76561198169960915,"connected_time":1047000000000,"state":"active","ping":79},{"user_id":346,"name":"tA.CHRONIC","steam_id":76561197960760990,"connected_time":62000000000,"state":"active","ping":54},{"user_id":321,"name":"Johnny Lawrence #JohnnyMaxxing","steam_id":76561199367141671,"connected_time":1553000000000,"state":"active","ping":71},{"user_id":335,"name":"Poop Deck Joe","steam_id":76561198271397568,"connected_time":771000000000,"state":"active","ping":85},{"user_id":314,"name":"Epic Gamer Move","steam_id":76561198146369617,"connected_time":2715000000000,"state":"active","ping":88},{"user_id":317,"name":"Inevitable","steam_id":76561198210050169,"connected_time":2063000000000,"state":"active","ping":68},{"user_id":344,"name":"MAK","steam_id":76561198089361823,"connected_time":243000000000,"state":"active","ping":147},{"user_id":336,"name":"czarchasm","steam_id":76561198055712749,"connected_time":769000000000,"state":"active","ping":96},{"user_id":330,"name":"psy","steam_id":76561198013195018,"connected_time":1141000000000,"state":"active","ping":79},{"user_id":210,"name":"Oruo the Husky","steam_id":76561199028788094,"connected_time":8298000000000,"state":"active","ping":94},{"user_id":276,"name":"$3.99 Shrimps","steam_id":76561198077272494,"connected_time":4442000000000,"state":"active","ping":58},{"user_id":337,"name":"QP of Shake","steam_id":76561198055473605,"connected_time":760000000000,"state":"active","ping":45},{"user_id":301,"name":"Zoawsome","steam_id":76561198018758753,"connected_time":3493000000000,"state":"active","ping":50},{"user_id":339,"name":"I'm sorry!","steam_id":76561198405378213,"connected_time":747000000000,"state":"active","ping":88}]},{"server_id":38,"name":"Uncletopia | Chicago | 7 | Stopwatch Beta","name_short":"chi-7","host":"chi-2.us.uncletopia.com","port":27035,"enabled":true,"region":"us-central","cc":"us","latitude":41.881832,"longitude":-87.62318,"reserved":0,"last_update":"0001-01-01T00:00:00Z","name_a2s":"Uncletopia | Chicago | 7 | Stopwatch Beta","protocol":17,"map":"koth_highpass","folder":"tf","game":"Team Fortress","app_id":440,"player_count":0,"max_players":24,"Bots":0,"server_type":"Dedicated","server_os":"Linux","password":true,"vac":true,"version":"7757534","steam_id":85568392924866364,"keywords":["cp","nocrits","nodmgspread","uncletopia"],"game_id":440,"stv_port":27036,"stv_name":"Uncletopia | Chicago | 7 | Stopwatch Beta | STV","players":null},{"server_id":39,"name":"Uncletopia | Chicago | 8 | Community","name_short":"chi-8","host":"chi-2.us.uncletopia.com","port":27045,"enabled":true,"region":"us-central","cc":"us","latitude":41.881832,"longitude":-87.62318,"reserved":0,"last_update":"0001-01-01T00:00:00Z","name_a2s":"Uncletopia | Chicago | 8 | Community","protocol":17,"map":"workshop/cp_sulfur_rc2.ugc619869471","folder":"tf","game":"Team Fortress","app_id":440,"player_count":0,"max_players":24,"Bots":0,"server_type":"Dedicated","server_os":"Linux","password":true,"vac":true,"version":"7757534","steam_id":85568392924866365,"keywords":["cp","nocrits","nodmgspread","uncletopia"],"game_id":440,"stv_port":27046,"stv_name":"Uncletopia | Chicago | 8 | Community | STV","players":null},{"server_id":8,"name":"Uncletopia | Dallas | 1 | All Maps","name_short":"dal-1","host":"dal-1.us.uncletopia.com","port":27015,"enabled":true,"region":"us-central","cc":"us","latitude":32.779167,"longitude":-96.80889,"reserved":0,"last_update":"0001-01-01T00:00:00Z","name_a2s":"Uncletopia | Dallas | 1 | All Maps","protocol":17,"map":"cp_process_final","folder":"tf","game":"Team Fortress","app_id":440,"player_count":24,"max_players":24,"Bots":0,"server_type":"Dedicated","server_os":"Linux","password":true,"vac":true,"version":"7757534","steam_id":85568392924469986,"keywords":["cp","nocrits","nodmgspread","uncletopia"],"game_id":440,"stv_port":27016,"stv_name":"Uncletopia | Dallas | 1 | All Maps | STV","players":[{"user_id":390,"name":"Mayo_","steam_id":76561198289375121,"connected_time":685000000000,"state":"active","ping":54},{"user_id":395,"name":"(TWoN Adric)","steam_id":76561197999304024,"connected_time":425000000000,"state":"active","ping":45},{"user_id":313,"name":"üê∫-Iwky-ü¶ä","steam_id":76561198185616311,"connected_time":4872000000000,"state":"active","ping":70},{"user_id":401,"name":"Dr_FlapJack","steam_id":76561199075410469,"connected_time":283000000000,"state":"active","ping":93},{"user_id":392,"name":"feeder","steam_id":76561198847749278,"connected_time":517000000000,"state":"active","ping":45},{"user_id":389,"name":"Stevie Wonder","steam_id":76561198013241277,"connected_time":729000000000,"state":"active","ping":81},{"user_id":324,"name":"Junky","steam_id":76561198049612322,"connected_time":4132000000000,"state":"active","ping":74},{"user_id":339,"name":"Riboflavin","steam_id":76561198077328593,"connected_time":2983000000000,"state":"active","ping":60},{"user_id":372,"name":"one tiny arm","steam_id":76561198000564263,"connected_time":1415000000000,"state":"active","ping":75},{"user_id":393,"name":"prism7","steam_id":76561198055274663,"connected_time":511000000000,"state":"active","ping":59},{"user_id":370,"name":"ansoonii","steam_id":76561198092494136,"connected_time":1478000000000,"state":"active","ping":45},{"user_id":394,"name":"garfield","steam_id":76561198114119308,"connected_time":457000000000,"state":"active","ping":69},{"user_id":396,"name":"ZodiacThundaga","steam_id":76561199025117814,"connected_time":373000000000,"state":"active","ping":88},{"user_id":397,"name":"gk.onesoul","steam_id":76561198114603745,"connected_time":357000000000,"state":"active","ping":86},{"user_id":356,"name":"Certified Hood Classic","steam_id":76561199086159354,"connected_time":2352000000000,"state":"active","ping":55},{"user_id":400,"name":"Geobeetle","steam_id":76561198207400124,"connected_time":298000000000,"state":"active","ping":83},{"user_id":402,"name":"Romo","steam_id":76561198243101572,"connected_time":262000000000,"state":"active","ping":65},{"user_id":373,"name":"lanoc","steam_id":76561198055415367,"connected_time":1406000000000,"state":"active","ping":60},{"user_id":403,"name":"OMG!!!!","steam_id":76561198069600113,"connected_time":228000000000,"state":"active","ping":78},{"user_id":404,"name":"dashman301","steam_id":76561198133748905,"connected_time":225000000000,"state":"active","ping":75},{"user_id":381,"name":"java","steam_id":76561198030276792,"connected_time":1243000000000,"state":"active","ping":70},{"user_id":407,"name":"RomanlBigFox","steam_id":76561198408617407,"connected_time":101000000000,"state":"active","ping":88},{"user_id":405,"name":"‚ô°Jos√© Jos√© ‚ô°","steam_id":76561198442399171,"connected_time":190000000000,"state":"active","ping":91},{"user_id":406,"name":"Aigis burnt my dread :(","steam_id":76561198441458932,"connected_time":182000000000,"state":"active","ping":92}]},{"server_id":108,"name":"Uncletopia | Dallas | 2 | All Maps","name_short":"dal-2","host":"dal-1.us.uncletopia.com","port":27025,"enabled":true,"region":"us-central","cc":"us","latitude":32.779167,"longitude":-96.80889,"reserved":0,"last_update":"0001-01-01T00:00:00Z","name_a2s":"Uncletopia | Dallas | 2 | All Maps","protocol":17,"map":"cp_process_final","folder":"tf","game":"Team Fortress","app_id":440,"player_count":22,"max_players":24,"Bots":0,"server_type":"Dedicated","server_os":"Linux","password":true,"vac":true,"version":"7757534","steam_id":85568392924469988,"keywords":["cp","nocrits","nodmgspread","uncletopia"],"game_id":440,"stv_port":27026,"stv_name":"Uncletopia | Dallas | 2 | All Maps | STV","players":[{"user_id":173,"name":"brr skibidi dop dop dop","steam_id":76561198991982630,"connected_time":3018000000000,"state":"active","ping":81},{"user_id":164,"name":"Drakon","steam_id":76561198078210822,"connected_time":3722000000000,"state":"active","ping":91},{"user_id":198,"name":"MoopStoop","steam_id":76561198140936620,"connected_time":122000000000,"state":"active","ping":44},{"user_id":171,"name":"Parker","steam_id":76561198046044893,"connected_time":3070000000000,"state":"active","ping":70},{"user_id":172,"name":"Ros","steam_id":76561199055963822,"connected_time":3033000000000,"state":"active","ping":75},{"user_id":166,"name":"Cement Drinker","steam_id":76561198143315013,"connected_time":3522000000000,"state":"active","ping":76},{"user_id":199,"name":"CQB","steam_id":76561198249657702,"connected_time":113000000000,"state":"active","ping":70},{"user_id":200,"name":"[GUT] RiDiK¬Æ","steam_id":76561197969756446,"connected_time":74000000000,"state":"active","ping":70},{"user_id":174,"name":"banana97286","steam_id":76561199367847817,"connected_time":3002000000000,"state":"active","ping":78},{"user_id":196,"name":"foxy is a good guy","steam_id":76561198367019006,"connected_time":870000000000,"state":"active","ping":87},{"user_id":184,"name":"KritzKow","steam_id":76561198086164003,"connected_time":1451000000000,"state":"active","ping":76},{"user_id":201,"name":"John16Mark","steam_id":76561198119445407,"connected_time":54000000000,"state":"spawning","ping":227},{"user_id":202,"name":"gup","steam_id":76561198108938632,"connected_time":7000000000,"state":"spawning","ping":59},{"user_id":185,"name":"cirno","steam_id":76561198166081596,"connected_time":1429000000000,"state":"active","ping":63},{"user_id":193,"name":"FEESH EGG","steam_id":76561198164699517,"connected_time":1068000000000,"state":"active","ping":77},{"user_id":186,"name":"Sham Cow","steam_id":76561198064556977,"connected_time":1425000000000,"state":"active","ping":59},{"user_id":163,"name":"Mellou","steam_id":76561198212048740,"connected_time":3974000000000,"state":"active","ping":49},{"user_id":197,"name":"Riff","steam_id":76561198066921423,"connected_time":377000000000,"state":"active","ping":57},{"user_id":134,"name":"D(b) Hell","steam_id":76561198067869016,"connected_time":5652000000000,"state":"active","ping":65},{"user_id":178,"name":"John Dungus (the real one)","steam_id":76561198049191027,"connected_time":2320000000000,"state":"active","ping":55},{"user_id":179,"name":"idiot normie","steam_id":76561198397662124,"connected_time":2064000000000,"state":"active","ping":60},{"user_id":175,"name":"gaming","steam_id":76561199208549381,"connected_time":2988000000000,"state":"active","ping":98}]},{"server_id":5,"name":"Uncletopia | Frankfurt | 1 | All Maps","name_short":"frk-1","host":"frk-1.de.uncletopia.com","port":27015,"enabled":true,"region":"eu","cc":"de","latitude":50.110924,"longitude":8.682127,"reserved":0,"last_update":"0001-01-01T00:00:00Z","name_a2s":"Uncletopia | Frankfurt | 1 | All Maps","protocol":17,"map":"pl_upward","folder":"tf","game":"Team Fortress","app_id":440,"player_count":24,"max_players":24,"Bots":0,"server_type":"Dedicated","server_os":"Linux","password":true,"vac":true,"version":"7757534","steam_id":85568392924469989,"keywords":["nocrits","nodmgspread","payload","uncletopia"],"game_id":440,"stv_port":27016,"stv_name":"Uncletopia | Frankfurt | 1 | All Maps | STV","players":[{"user_id":650,"name":"galaxy","steam_id":76561198164819022,"connected_time":3558000000000,"state":"active","ping":65},{"user_id":689,"name":"AddyD","steam_id":76561198201834415,"connected_time":921000000000,"state":"active","ping":54},{"user_id":699,"name":"The one who knocks","steam_id":76561198089341471,"connected_time":536000000000,"state":"active","ping":80},{"user_id":666,"name":"The cum policeman","steam_id":76561198338129578,"connected_time":2096000000000,"state":"active","ping":49},{"user_id":680,"name":"weed fairy","steam_id":76561197998843096,"connected_time":1773000000000,"state":"active","ping":76},{"user_id":690,"name":"yeh","steam_id":76561198061197114,"connected_time":847000000000,"state":"active","ping":71},{"user_id":664,"name":"fogings","steam_id":76561198044165284,"connected_time":2136000000000,"state":"active","ping":45},{"user_id":708,"name":"dn4k","steam_id":76561199221755690,"connected_time":395000000000,"state":"active","ping":78},{"user_id":658,"name":"Gio'sMonkey","steam_id":76561198892432223,"connected_time":3282000000000,"state":"active","ping":81},{"user_id":683,"name":"Orochi","steam_id":76561198265192382,"connected_time":1698000000000,"state":"active","ping":63},{"user_id":693,"name":"lobzade","steam_id":76561198195685370,"connected_time":639000000000,"state":"active","ping":57},{"user_id":669,"name":"BŒ£NZOIC","steam_id":76561198875665995,"connected_time":2085000000000,"state":"active","ping":86},{"user_id":687,"name":"marty","steam_id":76561198082934864,"connected_time":1085000000000,"state":"active","ping":76},{"user_id":696,"name":"Fizzing Fool","steam_id":76561198425415033,"connected_time":569000000000,"state":"active","ping":99},{"user_id":713,"name":"Chikapu Xek #savetf2","steam_id":76561198428023493,"connected_time":273000000000,"state":"active","ping":80},{"user_id":698,"name":"jovi_","steam_id":76561198449280552,"connected_time":557000000000,"state":"active","ping":66},{"user_id":709,"name":"lanzer","steam_id":76561198049983016,"connected_time":393000000000,"state":"active","ping":92},{"user_id":684,"name":"Major Tom","steam_id":76561198117525443,"connected_time":1488000000000,"state":"active","ping":56},{"user_id":701,"name":"lord-carlos","steam_id":76561198025150761,"connected_time":531000000000,"state":"active","ping":57},{"user_id":686,"name":"101 000 tuns of democracy","steam_id":76561198218257120,"connected_time":1103000000000,"state":"active","ping":72},{"user_id":710,"name":"Egap","steam_id":76561199070653454,"connected_time":376000000000,"state":"active","ping":92},{"user_id":715,"name":"the_Qcumber","steam_id":76561199152515819,"connected_time":236000000000,"state":"active","ping":72},{"user_id":676,"name":"eple","steam_id":76561198017686306,"connected_time":1995000000000,"state":"active","ping":55},{"user_id":704,"name":"J√≥zef Pi≈Çsudski","steam_id":76561198084049405,"connected_time":498000000000,"state":"active","ping":656}]},{"server_id":110,"name":"Uncletopia | Frankfurt | 2 | All Maps","name_short":"frk-2","host":"frk-1.de.uncletopia.com","port":27025,"enabled":true,"region":"eu","cc":"de","latitude":50.110924,"longitude":8.682127,"reserved":0,"last_update":"0001-01-01T00:00:00Z","name_a2s":"Uncletopia | Frankfurt | 2 | All Maps","protocol":17,"map":"pl_upward","folder":"tf","game":"Team Fortress","app_id":440,"player_count":24,"max_players":24,"Bots":0,"server_type":"Dedicated","server_os":"Linux","password":true,"vac":true,"version":"7757534","steam_id":85568392924469990,"keywords":["nocrits","nodmgspread","payload","uncletopia"],"game_id":440,"stv_port":27026,"stv_name":"Uncletopia | Frankfurt | 2 | All Maps | STV","players":[{"user_id":608,"name":"Duck_gaming","steam_id":76561198841587079,"connected_time":3176000000000,"state":"active","ping":71},{"user_id":648,"name":"Torttu","steam_id":76561198013980029,"connected_time":262000000000,"state":"active","ping":60},{"user_id":640,"name":"Hexabit","steam_id":76561198028625661,"connected_time":1013000000000,"state":"active","ping":72},{"user_id":639,"name":"KingDozer","steam_id":76561198088491018,"connected_time":1266000000000,"state":"active","ping":64},{"user_id":583,"name":"Qastrol","steam_id":76561198053551284,"connected_time":4485000000000,"state":"active","ping":56},{"user_id":581,"name":"zyzamo","steam_id":76561198048264521,"connected_time":4541000000000,"state":"active","ping":68},{"user_id":644,"name":"Vezage","steam_id":76561198064916164,"connected_time":590000000000,"state":"active","ping":68},{"user_id":601,"name":"Taskyy","steam_id":76561198134901175,"connected_time":3479000000000,"state":"active","ping":82},{"user_id":623,"name":"persian terrorist (EdD) vrain.h","steam_id":76561199203608558,"connected_time":1683000000000,"state":"active","ping":87},{"user_id":635,"name":"T1 (ted1)","steam_id":76561199229022826,"connected_time":1407000000000,"state":"active","ping":105},{"user_id":649,"name":"Mr.4kb","steam_id":76561198027916127,"connected_time":47000000000,"state":"active","ping":58},{"user_id":632,"name":"Zero (Orbital Gear Mastermind)","steam_id":76561198017416816,"connected_time":1483000000000,"state":"active","ping":62},{"user_id":587,"name":"Russenluster","steam_id":76561198118016220,"connected_time":4377000000000,"state":"active","ping":57},{"user_id":604,"name":"KANA MASTA","steam_id":76561198035515825,"connected_time":3381000000000,"state":"active","ping":52},{"user_id":641,"name":"Deacon Dracul","steam_id":76561198046880663,"connected_time":864000000000,"state":"active","ping":106},{"user_id":579,"name":"( Õ° Õ°¬∞ Õú  ñ Õ° Õ°¬∞) \\ ‚òû","steam_id":76561198084597975,"connected_time":4717000000000,"state":"active","ping":63},{"user_id":646,"name":"Juiceydough","steam_id":76561197997323419,"connected_time":481000000000,"state":"active","ping":95},{"user_id":620,"name":".::[SerafeTTiN]::.","steam_id":76561198009471724,"connected_time":1928000000000,"state":"active","ping":90},{"user_id":637,"name":"Matring","steam_id":76561198142068926,"connected_time":1355000000000,"state":"active","ping":130},{"user_id":628,"name":"HOT HENTAI GIRL","steam_id":76561198104438656,"connected_time":1589000000000,"state":"active","ping":60},{"user_id":647,"name":"woosh (poopy joe)","steam_id":76561198061127604,"connected_time":457000000000,"state":"active","ping":47},{"user_id":621,"name":"HotPotatoGuy","steam_id":76561198059231776,"connected_time":1895000000000,"state":"active","ping":68},{"user_id":619,"name":"Dspi","steam_id":76561198279656499,"connected_time":2193000000000,"state":"active","ping":80},{"user_id":638,"name":"Ê†∏nucleone„ÉÑ","steam_id":76561198099372569,"connected_time":1355000000000,"state":"active","ping":60}]},{"server_id":308,"name":"Uncletopia | Frankfurt | 3 | All Maps","name_short":"frk-3","host":"frk-1.de.uncletopia.com","port":27035,"enabled":true,"region":"eu","cc":"de","latitude":50.110924,"longitude":8.682127,"reserved":0,"last_update":"0001-01-01T00:00:00Z","name_a2s":"Uncletopia | Frankfurt | 3 | All Maps","protocol":17,"map":"pl_borneo","folder":"tf","game":"Team Fortress","app_id":440,"player_count":24,"max_players":24,"Bots":0,"server_type":"Dedicated","server_os":"Linux","password":true,"vac":true,"version":"7757534","steam_id":85568392924504274,"keywords":["nocrits","nodmgspread","payload","uncletopia"],"game_id":440,"stv_port":27036,"stv_name":"Uncletopia | Frankfurt | 3 | All Maps | STV","players":[{"user_id":154,"name":"Man behind the slaughter","steam_id":76561199121979061,"connected_time":2181000000000,"state":"active","ping":56},{"user_id":157,"name":"Gordon Birdman","steam_id":76561198013382324,"connected_time":2132000000000,"state":"active","ping":74},{"user_id":141,"name":"GinoFastidio","steam_id":76561198075830259,"connected_time":3541000000000,"state":"active","ping":126},{"user_id":168,"name":"‚òæjpxfrd‚úû","steam_id":76561198394082814,"connected_time":559000000000,"state":"active","ping":66},{"user_id":170,"name":"Lateguy","steam_id":76561198069446079,"connected_time":513000000000,"state":"active","ping":87},{"user_id":156,"name":"camion","steam_id":76561199230091758,"connected_time":2146000000000,"state":"active","ping":75},{"user_id":169,"name":"‚ô´‚òÖXriasp‚òÖ‚ô´","steam_id":76561198104721321,"connected_time":554000000000,"state":"active","ping":75},{"user_id":165,"name":"Vitun Jonne","steam_id":76561198401737380,"connected_time":1170000000000,"state":"active","ping":60},{"user_id":161,"name":"Marko Rutto","steam_id":76561198124226614,"connected_time":1376000000000,"state":"active","ping":45},{"user_id":136,"name":"Pipper","steam_id":76561197970326616,"connected_time":3709000000000,"state":"active","ping":54},{"user_id":171,"name":"shr1mple","steam_id":76561198173537027,"connected_time":489000000000,"state":"active","ping":44},{"user_id":46,"name":"tekt","steam_id":76561198044554387,"connected_time":10166000000000,"state":"active","ping":105},{"user_id":166,"name":"Jedi Knight","steam_id":76561198039030709,"connected_time":959000000000,"state":"active","ping":132},{"user_id":144,"name":"big noob","steam_id":76561198281332748,"connected_time":3349000000000,"state":"active","ping":65},{"user_id":152,"name":"Amon Gus","steam_id":76561199094540960,"connected_time":2527000000000,"state":"active","ping":66},{"user_id":138,"name":"Xie Xil Ling","steam_id":76561198053394831,"connected_time":3686000000000,"state":"active","ping":68},{"user_id":117,"name":"Mr.Schnittlauch","steam_id":76561198295868113,"connected_time":5343000000000,"state":"active","ping":68},{"user_id":174,"name":"Volcyy","steam_id":76561198063979124,"connected_time":475000000000,"state":"active","ping":41},{"user_id":73,"name":"scantron","steam_id":76561199103959197,"connected_time":8988000000000,"state":"active","ping":93},{"user_id":172,"name":"Kira","steam_id":76561198204168909,"connected_time":486000000000,"state":"active","ping":105},{"user_id":167,"name":"Jacky","steam_id":76561198444969715,"connected_time":582000000000,"state":"active","ping":80},{"user_id":123,"name":"Miles","steam_id":76561198084891833,"connected_time":4813000000000,"state":"active","ping":60},{"user_id":140,"name":"Le Pepp","steam_id":76561198042427803,"connected_time":3682000000000,"state":"active","ping":67},{"user_id":143,"name":"SIR MEPHEDRONE","steam_id":76561198302623594,"connected_time":3446000000000,"state":"active","ping":93}]},{"server_id":309,"name":"Uncletopia | Frankfurt | 4 | All Maps","name_short":"frk-4","host":"frk-1.de.uncletopia.com","port":27045,"enabled":true,"region":"eu","cc":"de","latitude":50.110924,"longitude":8.682127,"reserved":0,"last_update":"0001-01-01T00:00:00Z","name_a2s":"Uncletopia | Frankfurt | 4 | All Maps","protocol":17,"map":"pl_pier","folder":"tf","game":"Team Fortress","app_id":440,"player_count":24,"max_players":24,"Bots":0,"server_type":"Dedicated","server_os":"Linux","password":true,"vac":true,"version":"7757534","steam_id":85568392924504275,"keywords":["nocrits","nodmgspread","payload","uncletopia"],"game_id":440,"stv_port":27046,"stv_name":"Uncletopia | Frankfurt | 4 | All Maps | STV","players":[{"user_id":384,"name":"cute girl (not true)","steam_id":76561198140754824,"connected_time":84000000000,"state":"spawning","ping":67},{"user_id":379,"name":"Panzerwaffle","steam_id":76561198030382800,"connected_time":211000000000,"state":"active","ping":59},{"user_id":246,"name":"Pastoss","steam_id":76561198379098260,"connected_time":10676000000000,"state":"active","ping":60},{"user_id":390,"name":"ANd","steam_id":76561198339783893,"connected_time":31000000000,"state":"active","ping":91},{"user_id":358,"name":"FJADL","steam_id":76561198237008214,"connected_time":2502000000000,"state":"active","ping":59},{"user_id":377,"name":"[P-roc] Cmm Bert","steam_id":76561198016658674,"connected_time":429000000000,"state":"active","ping":76},{"user_id":373,"name":"morco3420","steam_id":76561199360257938,"connected_time":866000000000,"state":"active","ping":79},{"user_id":378,"name":"emko√ß","steam_id":76561198846782346,"connected_time":323000000000,"state":"active","ping":105},{"user_id":380,"name":"BSantos57","steam_id":76561198000597094,"connected_time":149000000000,"state":"active","ping":88},{"user_id":336,"name":"eeeeee","steam_id":76561198017786875,"connected_time":3407000000000,"state":"active","ping":71},{"user_id":353,"name":"sexo","steam_id":76561199088284199,"connected_time":2880000000000,"state":"active","ping":66},{"user_id":360,"name":"Bottom of the barrel terrorist","steam_id":76561198929386604,"connected_time":1969000000000,"state":"active","ping":83},{"user_id":366,"name":"e36 1.8","steam_id":76561198134203031,"connected_time":1850000000000,"state":"active","ping":63},{"user_id":339,"name":"rummy","steam_id":76561197997573379,"connected_time":3386000000000,"state":"active","ping":64},{"user_id":386,"name":"Mumu :3","steam_id":76561198052794823,"connected_time":70000000000,"state":"active","ping":49},{"user_id":382,"name":"eli","steam_id":76561198802155838,"connected_time":127000000000,"state":"active","ping":120},{"user_id":370,"name":"Parapluie","steam_id":76561197971640301,"connected_time":1026000000000,"state":"active","ping":53},{"user_id":383,"name":"colder","steam_id":76561199042470246,"connected_time":112000000000,"state":"active","ping":59},{"user_id":362,"name":"gxoul","steam_id":76561199091006994,"connected_time":1960000000000,"state":"active","ping":69},{"user_id":342,"name":"Carrotcracker","steam_id":76561198034862396,"connected_time":3365000000000,"state":"active","ping":78},{"user_id":387,"name":"heavy sings (real)","steam_id":76561199023804405,"connected_time":70000000000,"state":"active","ping":97},{"user_id":388,"name":"DooWooD","steam_id":76561198335810106,"connected_time":59000000000,"state":"active","ping":76},{"user_id":372,"name":"JohnnyRakieta","steam_id":76561198855789287,"connected_time":970000000000,"state":"active","ping":68},{"user_id":389,"name":"4","steam_id":76561197964945192,"connected_time":59000000000,"state":"active","ping":47}]},{"server_id":310,"name":"Uncletopia | Frankfurt | 5 | All Maps","name_short":"frk-5","host":"frk-1.de.uncletopia.com","port":27055,"enabled":true,"region":"eu","cc":"de","latitude":50.110924,"longitude":8.682127,"reserved":0,"last_update":"0001-01-01T00:00:00Z","name_a2s":"Uncletopia | Frankfurt | 5 | All Maps","protocol":17,"map":"pl_badwater","folder":"tf","game":"Team Fortress","app_id":440,"player_count":24,"max_players":24,"Bots":0,"server_type":"Dedicated","server_os":"Linux","password":true,"vac":true,"version":"7757534","steam_id":85568392924504277,"keywords":["nocrits","nodmgspread","payload","uncletopia"],"game_id":440,"stv_port":27056,"stv_name":"Uncletopia | Frankfurt | 5 | All Maps | STV","players":[{"user_id":451,"name":"sex havin'","steam_id":76561198169857427,"connected_time":390000000000,"state":"active","ping":83},{"user_id":457,"name":"Fizzy","steam_id":76561198929807785,"connected_time":336000000000,"state":"active","ping":64},{"user_id":460,"name":"Hexagon","steam_id":76561198151205758,"connected_time":222000000000,"state":"active","ping":76},{"user_id":438,"name":"Valoxi","steam_id":76561197995042938,"connected_time":905000000000,"state":"active","ping":72},{"user_id":446,"name":"Kati","steam_id":76561198007231088,"connected_time":610000000000,"state":"active","ping":64},{"user_id":325,"name":"[Erathia]ARKHALIS","steam_id":76561198993900003,"connected_time":9255000000000,"state":"active","ping":85},{"user_id":452,"name":"Kvicha Kvaratskhelia","steam_id":76561198179339326,"connected_time":389000000000,"state":"active","ping":91},{"user_id":430,"name":"I'm high on crack","steam_id":76561198175433731,"connected_time":1852000000000,"state":"active","ping":90},{"user_id":435,"name":"the rizzard of oz","steam_id":76561198066631833,"connected_time":923000000000,"state":"active","ping":75},{"user_id":463,"name":"Presten","steam_id":76561198116395897,"connected_time":6000000000,"state":"spawning","ping":74},{"user_id":449,"name":"choob303","steam_id":76561198206375860,"connected_time":433000000000,"state":"active","ping":80},{"user_id":450,"name":"JGV","steam_id":76561198094654971,"connected_time":415000000000,"state":"active","ping":68},{"user_id":453,"name":"Was_Wolf","steam_id":76561199153210310,"connected_time":369000000000,"state":"active","ping":72},{"user_id":436,"name":"onku","steam_id":76561199230709660,"connected_time":921000000000,"state":"active","ping":61},{"user_id":349,"name":"that guy","steam_id":76561198202990635,"connected_time":8255000000000,"state":"active","ping":73},{"user_id":454,"name":"Soerlssoelss√∂en","steam_id":76561197993060585,"connected_time":369000000000,"state":"active","ping":75},{"user_id":437,"name":"Aoshi","steam_id":76561198043868358,"connected_time":912000000000,"state":"active","ping":64},{"user_id":326,"name":"{CPBR}SPRSTR","steam_id":76561197998887733,"connected_time":9250000000000,"state":"active","ping":100},{"user_id":456,"name":"STiNGHAN","steam_id":76561198023989090,"connected_time":348000000000,"state":"active","ping":87},{"user_id":458,"name":"dubysa","steam_id":76561198079774530,"connected_time":272000000000,"state":"active","ping":71},{"user_id":459,"name":"zaspanaa","steam_id":76561198294172474,"connected_time":244000000000,"state":"active","ping":63},{"user_id":422,"name":"aph","steam_id":76561198057722639,"connected_time":2773000000000,"state":"active","ping":79},{"user_id":461,"name":"Bear Gaming","steam_id":76561198179778723,"connected_time":221000000000,"state":"active","ping":161},{"user_id":462,"name":"katzdani","steam_id":76561198843351132,"connected_time":177000000000,"state":"active","ping":76}]},{"server_id":311,"name":"Uncletopia | Frankfurt | 6 | All Maps","name_short":"frk-6","host":"frk-1.de.uncletopia.com","port":27065,"enabled":true,"region":"eu","cc":"de","latitude":50.110924,"longitude":8.682127,"reserved":0,"last_update":"0001-01-01T00:00:00Z","name_a2s":"Uncletopia | Frankfurt | 6 | All Maps","protocol":17,"map":"pl_borneo","folder":"tf","game":"Team Fortress","app_id":440,"player_count":24,"max_players":24,"Bots":0,"server_type":"Dedicated","server_os":"Linux","password":true,"vac":true,"version":"7757534","steam_id":85568392924504278,"keywords":["nocrits","nodmgspread","payload","uncletopia"],"game_id":440,"stv_port":27066,"stv_name":"Uncletopia | Frankfurt | 6 | All Maps | STV","players":[{"user_id":379,"name":"Syll","steam_id":76561198040736202,"connected_time":384000000000,"state":"active","ping":104},{"user_id":366,"name":"Heavy like a Brinks truck","steam_id":76561198197304886,"connected_time":1032000000000,"state":"active","ping":109},{"user_id":358,"name":"Dr. Le Quack","steam_id":76561197995711176,"connected_time":1789000000000,"state":"active","ping":85},{"user_id":367,"name":"pip","steam_id":76561198731151359,"connected_time":1016000000000,"state":"active","ping":107},{"user_id":376,"name":"zak","steam_id":76561197998895428,"connected_time":675000000000,"state":"active","ping":58},{"user_id":368,"name":"goblin","steam_id":76561198151122921,"connected_time":994000000000,"state":"active","ping":85},{"user_id":342,"name":"roblan11","steam_id":76561198066839258,"connected_time":2582000000000,"state":"active","ping":52},{"user_id":369,"name":"egzior","steam_id":76561198363608921,"connected_time":985000000000,"state":"active","ping":71},{"user_id":279,"name":"Videogamer","steam_id":76561198106012909,"connected_time":6503000000000,"state":"active","ping":71},{"user_id":371,"name":"Mr Aldi","steam_id":76561198426522902,"connected_time":973000000000,"state":"active","ping":69},{"user_id":370,"name":"KeanuCheems","steam_id":76561198145580689,"connected_time":979000000000,"state":"active","ping":74},{"user_id":304,"name":"suna militisto","steam_id":76561198352926998,"connected_time":5072000000000,"state":"active","ping":104},{"user_id":373,"name":"PrivatePengu","steam_id":76561198100112667,"connected_time":915000000000,"state":"active","ping":52},{"user_id":357,"name":"Arturias","steam_id":76561198188720263,"connected_time":1897000000000,"state":"active","ping":59},{"user_id":365,"name":"Ebaklak","steam_id":76561198016102699,"connected_time":1261000000000,"state":"active","ping":90},{"user_id":314,"name":"Duke Fishlord","steam_id":76561198079928327,"connected_time":4228000000000,"state":"active","ping":68},{"user_id":381,"name":"Krios","steam_id":76561199198145670,"connected_time":248000000000,"state":"active","ping":54},{"user_id":298,"name":"twitch.tv/biofun_","steam_id":76561198170609049,"connected_time":5649000000000,"state":"active","ping":70},{"user_id":340,"name":"Hanƒ±mSever23","steam_id":76561198142124751,"connected_time":2711000000000,"state":"active","ping":115},{"user_id":355,"name":"Uncle Henk","steam_id":76561198067863614,"connected_time":1996000000000,"state":"active","ping":78},{"user_id":362,"name":"r/sonofelicenellafece","steam_id":76561198262231733,"connected_time":1430000000000,"state":"active","ping":70},{"user_id":323,"name":"shillvan","steam_id":76561198415391988,"connected_time":3389000000000,"state":"active","ping":57},{"user_id":291,"name":"Cheshie cdna","steam_id":76561198067204908,"connected_time":6203000000000,"state":"active","ping":74},{"user_id":377,"name":"ralek","steam_id":76561198337027746,"connected_time":640000000000,"state":"active","ping":94}]},{"server_id":23,"name":"Uncletopia | Frankfurt | 7 | Stopwatch Beta","name_short":"frk-7","host":"frk-1.de.uncletopia.com","port":27075,"enabled":true,"region":"eu","cc":"de","latitude":50.110924,"longitude":8.682127,"reserved":0,"last_update":"0001-01-01T00:00:00Z","name_a2s":"Uncletopia | Frankfurt | 7 | Stopwatch Beta","protocol":17,"map":"pl_borneo","folder":"tf","game":"Team Fortress","app_id":440,"player_count":0,"max_players":24,"Bots":0,"server_type":"Dedicated","server_os":"Linux","password":true,"vac":true,"version":"7757534","steam_id":85568392924742827,"keywords":["nocrits","nodmgspread","payload","uncletopia"],"game_id":440,"stv_port":27076,"stv_name":"Uncletopia | Frankfurt | 7 | Stopwatch Beta | STV","players":null},{"server_id":24,"name":"Uncletopia | Frankfurt | 8 | Community","name_short":"frk-8","host":"frk-1.de.uncletopia.com","port":27085,"enabled":true,"region":"eu","cc":"de","latitude":50.110924,"longitude":8.682127,"reserved":0,"last_update":"0001-01-01T00:00:00Z","name_a2s":"Uncletopia | Frankfurt | 8 | Community","protocol":17,"map":"koth_cascade","folder":"tf","game":"Team Fortress","app_id":440,"player_count":2,"max_players":24,"Bots":0,"server_type":"Dedicated","server_os":"Linux","password":true,"vac":true,"version":"7757534","steam_id":85568392924742828,"keywords":["cp","nocrits","nodmgspread","uncletopia"],"game_id":440,"stv_port":27086,"stv_name":"Uncletopia | Frankfurt | 8 | Community | STV","players":[{"user_id":15,"name":"Digio","steam_id":76561199065101964,"connected_time":880000000000,"state":"active","ping":80},{"user_id":16,"name":"el_ronia","steam_id":76561199203435546,"connected_time":537000000000,"state":"active","ping":60}]},{"server_id":202,"name":"Uncletopia | Hong Kong | 1 | All Maps","name_short":"hgk-1","host":"hgk-1.hk.uncletopia.com","port":27015,"enabled":true,"region":"asia","cc":"hk","latitude":22.302711,"longitude":114.177216,"reserved":0,"last_update":"0001-01-01T00:00:00Z","name_a2s":"Uncletopia | Hong Kong | 1 | All Maps","protocol":17,"map":"plr_hightower","folder":"tf","game":"Team Fortress","app_id":440,"player_count":0,"max_players":24,"Bots":0,"server_type":"Dedicated","server_os":"Linux","password":true,"vac":true,"version":"7757534","steam_id":85568392924494504,"keywords":["nocrits","nodmgspread","payload","uncletopia"],"game_id":440,"stv_port":27016,"stv_name":"Uncletopia | Hong Kong | 1 | All Maps | STV","players":null},{"server_id":1,"name":"Uncletopia | Los Angeles | 1 | All Maps","name_short":"lax-1","host":"lax-1.us.uncletopia.com","port":27015,"enabled":true,"region":"us-west","cc":"us","latitude":33.94279,"longitude":-118.41004,"reserved":0,"last_update":"0001-01-01T00:00:00Z","name_a2s":"Uncletopia | Los Angeles | 1 | All Maps","protocol":17,"map":"pl_swiftwater_final1","folder":"tf","game":"Team Fortress","app_id":440,"player_count":24,"max_players":24,"Bots":0,"server_type":"Dedicated","server_os":"Linux","password":true,"vac":true,"version":"7757534","steam_id":85568392924469991,"keywords":["nocrits","nodmgspread","payload","uncletopia"],"game_id":440,"stv_port":27016,"stv_name":"Uncletopia | Los Angeles | 1 | All Maps | STV","players":[{"user_id":59,"name":"John Madden","steam_id":76561198099820768,"connected_time":1074000000000,"state":"active","ping":94},{"user_id":56,"name":"Tumbleweed","steam_id":76561198880710930,"connected_time":1497000000000,"state":"active","ping":76},{"user_id":51,"name":"wahoo","steam_id":76561198329677892,"connected_time":1614000000000,"state":"active","ping":58},{"user_id":75,"name":"Ivy","steam_id":76561198047758442,"connected_time":373000000000,"state":"active","ping":93},{"user_id":50,"name":"Alexx","steam_id":76561198258332607,"connected_time":1626000000000,"state":"active","ping":82},{"user_id":52,"name":"Algerian Egirl :3c","steam_id":76561198349345477,"connected_time":1612000000000,"state":"active","ping":60},{"user_id":72,"name":"Sewer","steam_id":76561198803732690,"connected_time":610000000000,"state":"active","ping":56},{"user_id":55,"name":"jturner1nm","steam_id":76561198344493652,"connected_time":1545000000000,"state":"active","ping":105},{"user_id":62,"name":"cassinova (she/it)","steam_id":76561199080116143,"connected_time":956000000000,"state":"active","ping":112},{"user_id":71,"name":"respect","steam_id":76561198362318243,"connected_time":731000000000,"state":"active","ping":104},{"user_id":64,"name":"Gorilla Mask","steam_id":76561198279247291,"connected_time":897000000000,"state":"active","ping":112},{"user_id":66,"name":"solitaire","steam_id":76561198964025682,"connected_time":822000000000,"state":"active","ping":39},{"user_id":39,"name":"hoOmIN","steam_id":76561198334947079,"connected_time":1925000000000,"state":"active","ping":43},{"user_id":32,"name":"Ytown","steam_id":76561198165879751,"connected_time":2150000000000,"state":"active","ping":64},{"user_id":40,"name":"Encore","steam_id":76561198029433812,"connected_time":1888000000000,"state":"active","ping":86},{"user_id":67,"name":"johnman gooberguy","steam_id":76561199014859764,"connected_time":807000000000,"state":"active","ping":75},{"user_id":41,"name":"Saodde","steam_id":76561198119653709,"connected_time":1861000000000,"state":"active","ping":64},{"user_id":42,"name":"Uprightmoss7528","steam_id":76561199200138486,"connected_time":1859000000000,"state":"active","ping":60},{"user_id":48,"name":"Bri","steam_id":76561198089908485,"connected_time":1774000000000,"state":"active","ping":123},{"user_id":68,"name":"homeaccdv","steam_id":76561199384153129,"connected_time":789000000000,"state":"active","ping":52},{"user_id":45,"name":"Axio","steam_id":76561198062072555,"connected_time":1828000000000,"state":"active","ping":102},{"user_id":73,"name":"icanseeyou2","steam_id":76561199072741874,"connected_time":567000000000,"state":"active","ping":85},{"user_id":47,"name":"shellaa","steam_id":76561198044124102,"connected_time":1791000000000,"state":"active","ping":70},{"user_id":74,"name":"Sasu","steam_id":76561198893447505,"connected_time":549000000000,"state":"active","ping":49}]},{"server_id":112,"name":"Uncletopia | Los Angeles | 2 | All Maps","name_short":"lax-2","host":"lax-1.us.uncletopia.com","port":27025,"enabled":true,"region":"us-west","cc":"us","latitude":33.94279,"longitude":-118.41004,"reserved":0,"last_update":"0001-01-01T00:00:00Z","name_a2s":"Uncletopia | Los Angeles | 2 | All Maps","protocol":17,"map":"pl_barnblitz","folder":"tf","game":"Team Fortress","app_id":440,"player_count":0,"max_players":24,"Bots":0,"server_type":"Dedicated","server_os":"Linux","password":true,"vac":true,"version":"7757534","steam_id":85568392924469992,"keywords":["nocrits","nodmgspread","payload","uncletopia"],"game_id":440,"stv_port":27026,"stv_name":"Uncletopia | Los Angeles | 2 | All Maps | STV","players":null},{"server_id":324,"name":"Uncletopia | Los Angeles | 3 | All Maps","name_short":"lax-3","host":"lax-1.us.uncletopia.com","port":27035,"enabled":true,"region":"us-west","cc":"us","latitude":33.94279,"longitude":-118.41004,"reserved":0,"last_update":"0001-01-01T00:00:00Z","name_a2s":"Uncletopia | Los Angeles | 3 | All Maps","protocol":17,"map":"pl_barnblitz","folder":"tf","game":"Team Fortress","app_id":440,"player_count":24,"max_players":24,"Bots":0,"server_type":"Dedicated","server_os":"Linux","password":true,"vac":true,"version":"7757534","steam_id":85568392924510198,"keywords":["nocrits","nodmgspread","payload","uncletopia"],"game_id":440,"stv_port":27036,"stv_name":"Uncletopia | Los Angeles | 3 | All Maps | STV","players":[{"user_id":15,"name":"Geshtro","steam_id":76561198131883201,"connected_time":1127000000000,"state":"active","ping":99},{"user_id":10,"name":"JCTheAllStar","steam_id":76561198080123011,"connected_time":1318000000000,"state":"active","ping":119},{"user_id":13,"name":"West Coast Psycho","steam_id":76561198026737783,"connected_time":1145000000000,"state":"active","ping":58},{"user_id":12,"name":"GoseiDaiShogun","steam_id":76561197999069310,"connected_time":1287000000000,"state":"active","ping":120},{"user_id":14,"name":"Shads","steam_id":76561198013406508,"connected_time":1140000000000,"state":"active","ping":135},{"user_id":16,"name":"Aldreon","steam_id":76561198022452189,"connected_time":1101000000000,"state":"active","ping":94},{"user_id":17,"name":"Hong Kong Sniper","steam_id":76561198013049988,"connected_time":1086000000000,"state":"active","ping":118},{"user_id":18,"name":"169PD","steam_id":76561198012039282,"connected_time":1066000000000,"state":"active","ping":131},{"user_id":19,"name":"‡ØµCorn Syrup Mutant ‚úî","steam_id":76561198015087906,"connected_time":1061000000000,"state":"active","ping":96},{"user_id":34,"name":"SuaveFrenchman","steam_id":76561198043762683,"connected_time":430000000000,"state":"active","ping":47},{"user_id":35,"name":"engie","steam_id":76561199229629045,"connected_time":422000000000,"state":"active","ping":68},{"user_id":46,"name":"crumblejon","steam_id":76561198111273302,"connected_time":199000000000,"state":"active","ping":59},{"user_id":24,"name":"LeanMoMoMainiac","steam_id":76561199123265618,"connected_time":787000000000,"state":"active","ping":105},{"user_id":39,"name":"pitbull named princess","steam_id":76561198080114979,"connected_time":316000000000,"state":"active","ping":88},{"user_id":26,"name":"Pyrolimited","steam_id":76561198195455657,"connected_time":650000000000,"state":"active","ping":75},{"user_id":30,"name":"nhoj_","steam_id":76561198048003380,"connected_time":504000000000,"state":"active","ping":45},{"user_id":40,"name":"KingSteve42","steam_id":76561198409455888,"connected_time":286000000000,"state":"active","ping":115},{"user_id":31,"name":"AiroBirb","steam_id":76561198370692243,"connected_time":471000000000,"state":"active","ping":52},{"user_id":47,"name":"photongod","steam_id":76561198040375310,"connected_time":183000000000,"state":"active","ping":114},{"user_id":33,"name":"sumo dumplings","steam_id":76561198115553314,"connected_time":460000000000,"state":"active","ping":113},{"user_id":41,"name":"JumpyWeasel","steam_id":76561198308011144,"connected_time":285000000000,"state":"active","ping":117},{"user_id":49,"name":"nothowon","steam_id":76561198937601452,"connected_time":41000000000,"state":"active","ping":108},{"user_id":48,"name":"SonicTheHedgehogEpicGamer2013","steam_id":76561199229577594,"connected_time":140000000000,"state":"active","ping":63},{"user_id":44,"name":"BLU payload Cart","steam_id":76561198352427247,"connected_time":267000000000,"state":"active","ping":74}]},{"server_id":25,"name":"Uncletopia | Los Angeles | 4 | Stopwatch Beta","name_short":"lax-4","host":"lax-1.us.uncletopia.com","port":27045,"enabled":true,"region":"us-west","cc":"us","latitude":33.94279,"longitude":-118.41004,"reserved":0,"last_update":"0001-01-01T00:00:00Z","name_a2s":"Uncletopia | Los Angeles | 4 | Stopwatch Beta","protocol":17,"map":"koth_viaduct","folder":"tf","game":"Team Fortress","app_id":440,"player_count":0,"max_players":24,"Bots":0,"server_type":"Dedicated","server_os":"Linux","password":true,"vac":true,"version":"7757534","steam_id":85568392924510199,"keywords":["cp","nocrits","nodmgspread","uncletopia"],"game_id":440,"stv_port":27046,"stv_name":"Uncletopia | Los Angeles | 4 | Stopwatch Beta | STV","players":null},{"server_id":11,"name":"Uncletopia | London | 1 | All Maps","name_short":"lon-1","host":"lon-1.uk.uncletopia.com","port":27015,"enabled":true,"region":"eu","cc":"gb","latitude":51.509865,"longitude":-0.118092,"reserved":0,"last_update":"0001-01-01T00:00:00Z","name_a2s":"Uncletopia | London | 1 | All Maps","protocol":17,"map":"pl_upward","folder":"tf","game":"Team Fortress","app_id":440,"player_count":24,"max_players":24,"Bots":0,"server_type":"Dedicated","server_os":"Linux","password":true,"vac":true,"version":"7757534","steam_id":85568392924367362,"keywords":["nocrits","nodmgspread","payload","uncletopia"],"game_id":440,"stv_port":27016,"stv_name":"Uncletopia | London | 1 | All Maps | STV","players":[{"user_id":617,"name":"Ryancy","steam_id":76561198253172566,"connected_time":648000000000,"state":"spawning","ping":253},{"user_id":603,"name":"Bad and Wuji","steam_id":76561199385280253,"connected_time":1320000000000,"state":"active","ping":118},{"user_id":600,"name":"J3LLY","steam_id":76561198048453764,"connected_time":1392000000000,"state":"active","ping":45},{"user_id":577,"name":"Durham.","steam_id":76561199013125141,"connected_time":4880000000000,"state":"active","ping":90},{"user_id":607,"name":"Pingus","steam_id":76561198164880756,"connected_time":1088000000000,"state":"connecting","ping":69},{"user_id":555,"name":"Jofiah/TTV","steam_id":76561197977233962,"connected_time":6832000000000,"state":"spawning","ping":52},{"user_id":581,"name":"ThrobbingFerret","steam_id":76561199075576606,"connected_time":4475000000000,"state":"active","ping":129},{"user_id":608,"name":"Johnny Cockroach","steam_id":76561198049648277,"connected_time":1062000000000,"state":"active","ping":105},{"user_id":590,"name":"Bgm_","steam_id":76561198056452044,"connected_time":3056000000000,"state":"active","ping":85},{"user_id":579,"name":"dec","steam_id":76561198009660168,"connected_time":4616000000000,"state":"active","ping":73},{"user_id":618,"name":"Mery","steam_id":76561198060952754,"connected_time":626000000000,"state":"active","ping":95},{"user_id":593,"name":"Kernel Panic","steam_id":76561198215811047,"connected_time":2439000000000,"state":"spawning","ping":46},{"user_id":619,"name":"cherry","steam_id":76561199006915718,"connected_time":617000000000,"state":"active","ping":63},{"user_id":622,"name":"alvinulv","steam_id":76561198024487177,"connected_time":593000000000,"state":"active","ping":57},{"user_id":605,"name":"SEMIK","steam_id":76561199088506542,"connected_time":1193000000000,"state":"active","ping":53},{"user_id":626,"name":"Pablo.Gonzalez.2012","steam_id":76561199244675657,"connected_time":3000000000,"state":"spawning","ping":110},{"user_id":616,"name":"Enforcer02","steam_id":76561197966045944,"connected_time":776000000000,"state":"active","ping":73},{"user_id":623,"name":"Gun go Brrrrrrrr","steam_id":76561199017872113,"connected_time":37000000000,"state":"active","ping":67},{"user_id":621,"name":"Nix","steam_id":76561198057037212,"connected_time":601000000000,"state":"active","ping":93},{"user_id":624,"name":"Nexosert","steam_id":76561198941142018,"connected_time":36000000000,"state":"spawning","ping":194},{"user_id":614,"name":"‚ú™ Danny","steam_id":76561198104483241,"connected_time":961000000000,"state":"active","ping":114},{"user_id":625,"name":"dudithebudi","steam_id":76561199112076461,"connected_time":20000000000,"state":"active","ping":98},{"user_id":582,"name":"(_ _).ÔΩ°o‚óã","steam_id":76561198298576765,"connected_time":3935000000000,"state":"active","ping":72},{"user_id":587,"name":"dunduu","steam_id":76561198875240717,"connected_time":3663000000000,"state":"active","ping":160}]},{"server_id":114,"name":"Uncletopia | London | 2 | All Maps","name_short":"lon-2","host":"lon-1.uk.uncletopia.com","port":27025,"enabled":true,"region":"eu","cc":"gb","latitude":51.509865,"longitude":-0.118092,"reserved":0,"last_update":"0001-01-01T00:00:00Z","name_a2s":"Uncletopia | London | 2 | All Maps","protocol":17,"map":"pl_frontier_final","folder":"tf","game":"Team Fortress","app_id":440,"player_count":22,"max_players":24,"Bots":0,"server_type":"Dedicated","server_os":"Linux","password":true,"vac":true,"version":"7757534","steam_id":85568392924470941,"keywords":["nocrits","nodmgspread","payload","uncletopia"],"game_id":440,"stv_port":27026,"stv_name":"Uncletopia | London | 2 | All Maps | STV","players":[{"user_id":819,"name":"spada dell'islam","steam_id":76561198038748489,"connected_time":2101000000000,"state":"active","ping":74},{"user_id":837,"name":"magnarull","steam_id":76561198972383118,"connected_time":754000000000,"state":"active","ping":85},{"user_id":843,"name":"Demo-Ktosiu","steam_id":76561198890628396,"connected_time":98000000000,"state":"active","ping":90},{"user_id":840,"name":"ÿ±ÿßŸäŸÜ","steam_id":76561199167206295,"connected_time":451000000000,"state":"active","ping":82},{"user_id":790,"name":"rat performance","steam_id":76561198065854668,"connected_time":3833000000000,"state":"active","ping":44},{"user_id":832,"name":"Dr. Funkenstein","steam_id":76561197977816210,"connected_time":1125000000000,"state":"active","ping":62},{"user_id":818,"name":"Lovelessvaccuum","steam_id":76561198079555422,"connected_time":2176000000000,"state":"active","ping":30},{"user_id":827,"name":"SnasTheSkeleton","steam_id":76561199469223463,"connected_time":1728000000000,"state":"active","ping":47},{"user_id":762,"name":"Yatsuzume","steam_id":76561198059762108,"connected_time":6255000000000,"state":"active","ping":45},{"user_id":829,"name":"FairlyFatFungus","steam_id":76561199152828854,"connected_time":1529000000000,"state":"active","ping":55},{"user_id":781,"name":"‚ú™ qua ‚ú™","steam_id":76561198066408333,"connected_time":4845000000000,"state":"active","ping":76},{"user_id":835,"name":"walking plane","steam_id":76561198146779559,"connected_time":844000000000,"state":"active","ping":102},{"user_id":838,"name":"DING DONG","steam_id":76561198111847899,"connected_time":734000000000,"state":"active","ping":75},{"user_id":807,"name":"Slav-matros","steam_id":76561198251977912,"connected_time":2991000000000,"state":"active","ping":66},{"user_id":698,"name":"john fortress","steam_id":76561198013237629,"connected_time":9950000000000,"state":"active","ping":89},{"user_id":795,"name":"Crunchy","steam_id":76561198184973203,"connected_time":3391000000000,"state":"active","ping":55},{"user_id":824,"name":"Vismund33 „É¥„Ç£„Çπ„É†„É≥„Éâ33","steam_id":76561198143773948,"connected_time":1918000000000,"state":"active","ping":45},{"user_id":842,"name":"Go≈Çƒômbiarz","steam_id":76561198072625627,"connected_time":142000000000,"state":"active","ping":82},{"user_id":814,"name":"Oaknight","steam_id":76561198030824146,"connected_time":2684000000000,"state":"active","ping":43},{"user_id":789,"name":"BeS","steam_id":76561198045752247,"connected_time":3878000000000,"state":"active","ping":60},{"user_id":836,"name":"Koi-Koi","steam_id":76561198045527771,"connected_time":840000000000,"state":"active","ping":56},{"user_id":766,"name":"slifty","steam_id":76561198166682199,"connected_time":5377000000000,"state":"active","ping":59}]},{"server_id":320,"name":"Uncletopia | London | 3 | All Maps","name_short":"lon-3","host":"lon-1.uk.uncletopia.com","port":27035,"enabled":true,"region":"eu","cc":"gb","latitude":51.509865,"longitude":-0.118092,"reserved":0,"last_update":"0001-01-01T00:00:00Z","name_a2s":"Uncletopia | London | 3 | All Maps","protocol":17,"map":"pl_upward","folder":"tf","game":"Team Fortress","app_id":440,"player_count":24,"max_players":24,"Bots":0,"server_type":"Dedicated","server_os":"Linux","password":true,"vac":true,"version":"7757534","steam_id":85568392924510192,"keywords":["nocrits","nodmgspread","payload","uncletopia"],"game_id":440,"stv_port":27036,"stv_name":"Uncletopia | London | 3 | All Maps | STV","players":[{"user_id":483,"name":"Kris","steam_id":76561198240638652,"connected_time":2286000000000,"state":"active","ping":43},{"user_id":499,"name":"Stormy 2pointO","steam_id":76561198127638432,"connected_time":494000000000,"state":"active","ping":59},{"user_id":470,"name":"Dr. Chapstick","steam_id":76561198331857270,"connected_time":3737000000000,"state":"active","ping":116},{"user_id":482,"name":"gosi","steam_id":76561198084111532,"connected_time":2450000000000,"state":"active","ping":65},{"user_id":418,"name":"BobMarleyGod","steam_id":76561198344966538,"connected_time":6062000000000,"state":"active","ping":54},{"user_id":487,"name":"R!not","steam_id":76561197986328786,"connected_time":1311000000000,"state":"active","ping":45},{"user_id":421,"name":"Lady Maria","steam_id":76561198953210459,"connected_time":6017000000000,"state":"active","ping":107},{"user_id":486,"name":"hawkblob","steam_id":76561198803720565,"connected_time":1357000000000,"state":"active","ping":61},{"user_id":495,"name":"Joseph Stalin","steam_id":76561198033199746,"connected_time":996000000000,"state":"active","ping":46},{"user_id":485,"name":"Mr_Pulse_","steam_id":76561198095001602,"connected_time":1624000000000,"state":"active","ping":102},{"user_id":496,"name":"Scutchy","steam_id":76561198104431220,"connected_time":665000000000,"state":"active","ping":47},{"user_id":389,"name":"Anri Okita's Massive Milkers","steam_id":76561199186352720,"connected_time":8115000000000,"state":"active","ping":55},{"user_id":494,"name":"{dogs}·Éô·Éù·Éë·Éê77koba77[ASS]","steam_id":76561198154218182,"connected_time":1140000000000,"state":"active","ping":50},{"user_id":491,"name":"Mr. Gobling","steam_id":76561199096778623,"connected_time":1225000000000,"state":"active","ping":68},{"user_id":492,"name":":)","steam_id":76561198977420882,"connected_time":1206000000000,"state":"active","ping":36},{"user_id":469,"name":"big al","steam_id":76561198800662675,"connected_time":3776000000000,"state":"active","ping":112},{"user_id":466,"name":"Dedarrict","steam_id":76561198286179783,"connected_time":3914000000000,"state":"active","ping":96},{"user_id":493,"name":"Caerot","steam_id":76561198839000676,"connected_time":1193000000000,"state":"active","ping":72},{"user_id":474,"name":"Swayer","steam_id":76561198056192460,"connected_time":3341000000000,"state":"active","ping":66},{"user_id":477,"name":"Sam","steam_id":76561198203070687,"connected_time":2977000000000,"state":"active","ping":61},{"user_id":475,"name":"jesus in hell","steam_id":76561199186426296,"connected_time":3339000000000,"state":"active","ping":114},{"user_id":463,"name":"AndLogin","steam_id":76561198108601962,"connected_time":4024000000000,"state":"active","ping":107},{"user_id":500,"name":"COFFEE","steam_id":76561198869355986,"connected_time":27000000000,"state":"active","ping":105},{"user_id":484,"name":"Scipionemiliano","steam_id":76561198027646559,"connected_time":2137000000000,"state":"active","ping":115}]},{"server_id":321,"name":"Uncletopia | London | 4 | All Maps","name_short":"lon-4","host":"lon-1.uk.uncletopia.com","port":27045,"enabled":true,"region":"eu","cc":"gb","latitude":51.509865,"longitude":-0.118092,"reserved":0,"last_update":"0001-01-01T00:00:00Z","name_a2s":"Uncletopia | London | 4 | All Maps","protocol":17,"map":"cp_dustbowl","folder":"tf","game":"Team Fortress","app_id":440,"player_count":24,"max_players":24,"Bots":0,"server_type":"Dedicated","server_os":"Linux","password":true,"vac":true,"version":"7757534","steam_id":85568392924510193,"keywords":["cp","nocrits","nodmgspread","uncletopia"],"game_id":440,"stv_port":27046,"stv_name":"Uncletopia | London | 4 | All Maps | STV","players":[{"user_id":420,"name":"darktheif54","steam_id":76561198043650119,"connected_time":3261000000000,"state":"active","ping":53},{"user_id":425,"name":"Cynical","steam_id":76561198077084694,"connected_time":2989000000000,"state":"active","ping":46},{"user_id":428,"name":"scarecrow jones","steam_id":76561198258267182,"connected_time":2931000000000,"state":"active","ping":154},{"user_id":422,"name":"sent from my iphone","steam_id":76561198259668029,"connected_time":3185000000000,"state":"active","ping":48},{"user_id":451,"name":"majora's boostio","steam_id":76561198392628642,"connected_time":1553000000000,"state":"active","ping":35},{"user_id":364,"name":"Syd","steam_id":76561198020515027,"connected_time":7535000000000,"state":"active","ping":66},{"user_id":434,"name":"Rawrins","steam_id":76561198014462899,"connected_time":2674000000000,"state":"active","ping":101},{"user_id":452,"name":"MefedronDow√≥z24h","steam_id":76561198107166530,"connected_time":1504000000000,"state":"active","ping":122},{"user_id":442,"name":"logo in the foam","steam_id":76561198188642265,"connected_time":2023000000000,"state":"active","ping":52},{"user_id":453,"name":"yup it's gamer time","steam_id":76561198064463244,"connected_time":1488000000000,"state":"active","ping":136},{"user_id":444,"name":"Professional Cookie Stealer","steam_id":76561198358029722,"connected_time":2016000000000,"state":"active","ping":71},{"user_id":459,"name":"Mushii","steam_id":76561198354492217,"connected_time":1266000000000,"state":"active","ping":58},{"user_id":456,"name":"o_o","steam_id":76561198113045011,"connected_time":1454000000000,"state":"active","ping":97},{"user_id":454,"name":"Lucky","steam_id":76561198849854665,"connected_time":1484000000000,"state":"active","ping":52},{"user_id":462,"name":"·É¶ Emmonii ·É¶","steam_id":76561199441805420,"connected_time":1104000000000,"state":"active","ping":58},{"user_id":450,"name":"Lune ‚ô•","steam_id":76561198013043575,"connected_time":1579000000000,"state":"active","ping":50},{"user_id":438,"name":"Nak0y","steam_id":76561197998582249,"connected_time":2047000000000,"state":"active","ping":113},{"user_id":423,"name":"WW2 Untamed Gorilla Ass","steam_id":76561198423902979,"connected_time":3167000000000,"state":"active","ping":46},{"user_id":471,"name":"Thalgorock","steam_id":76561198195315022,"connected_time":667000000000,"state":"active","ping":81},{"user_id":475,"name":"DrRavioli","steam_id":76561198170822595,"connected_time":200000000000,"state":"active","ping":72},{"user_id":461,"name":"saalvberg","steam_id":76561199409062000,"connected_time":1113000000000,"state":"active","ping":68},{"user_id":472,"name":"Lew","steam_id":76561198076039504,"connected_time":634000000000,"state":"active","ping":61},{"user_id":354,"name":"Hercules","steam_id":76561198041164170,"connected_time":8354000000000,"state":"active","ping":62},{"user_id":473,"name":"Fresh_Slav","steam_id":76561198018034575,"connected_time":548000000000,"state":"active","ping":77}]},{"server_id":21,"name":"Uncletopia | London | 5 | All Maps","name_short":"lon-5","host":"lon-1.uk.uncletopia.com","port":27055,"enabled":true,"region":"eu","cc":"gb","latitude":51.509865,"longitude":-0.118092,"reserved":0,"last_update":"0001-01-01T00:00:00Z","name_a2s":"Uncletopia | London | 5 | All Maps","protocol":17,"map":"cp_sunshine","folder":"tf","game":"Team Fortress","app_id":440,"player_count":24,"max_players":24,"Bots":0,"server_type":"Dedicated","server_os":"Linux","password":true,"vac":true,"version":"7757534","steam_id":85568392924742829,"keywords":["cp","nocrits","nodmgspread","uncletopia"],"game_id":440,"stv_port":27056,"stv_name":"Uncletopia | London | 5 | All Maps | STV","players":[{"user_id":204,"name":"Fish 'n' Chips","steam_id":76561198033476886,"connected_time":2746000000000,"state":"active","ping":52},{"user_id":221,"name":"kieran","steam_id":76561198115357403,"connected_time":1222000000000,"state":"active","ping":64},{"user_id":198,"name":"Nithle","steam_id":76561198025372740,"connected_time":3249000000000,"state":"active","ping":60},{"user_id":189,"name":"not drunk","steam_id":76561199184873889,"connected_time":4877000000000,"state":"active","ping":60},{"user_id":205,"name":"plaier123457","steam_id":76561198993969194,"connected_time":2658000000000,"state":"active","ping":90},{"user_id":209,"name":"Glam Stachee‚òÜ","steam_id":76561198115252607,"connected_time":2326000000000,"state":"active","ping":99},{"user_id":214,"name":"Owlet","steam_id":76561198065613974,"connected_time":1624000000000,"state":"active","ping":64},{"user_id":199,"name":"Rintse","steam_id":76561198065679312,"connected_time":3243000000000,"state":"active","ping":46},{"user_id":211,"name":"Dr.Sees [F2P]","steam_id":76561199219233587,"connected_time":2253000000000,"state":"active","ping":78},{"user_id":215,"name":"pindab0ter","steam_id":76561197965906255,"connected_time":1582000000000,"state":"active","ping":45},{"user_id":178,"name":"timvs5","steam_id":76561198136646312,"connected_time":5929000000000,"state":"active","ping":64},{"user_id":216,"name":"Pasta sauce","steam_id":76561198232919072,"connected_time":1564000000000,"state":"active","ping":41},{"user_id":226,"name":"DN77","steam_id":76561199121396324,"connected_time":749000000000,"state":"active","ping":81},{"user_id":227,"name":"Udinese Dion","steam_id":76561198067931573,"connected_time":601000000000,"state":"active","ping":56},{"user_id":220,"name":"1couver","steam_id":76561198168553215,"connected_time":1298000000000,"state":"active","ping":101},{"user_id":175,"name":"The Alien","steam_id":76561198185817713,"connected_time":6157000000000,"state":"active","ping":160},{"user_id":194,"name":"Jess","steam_id":76561198015022965,"connected_time":4679000000000,"state":"active","ping":59},{"user_id":195,"name":"Cosmic Gamer","steam_id":76561198027357981,"connected_time":4346000000000,"state":"active","ping":102},{"user_id":212,"name":"‚ò†Holy(cz)‚ò†","steam_id":76561197985535494,"connected_time":2034000000000,"state":"active","ping":99},{"user_id":197,"name":"mordecai.nmc","steam_id":76561197997223851,"connected_time":3803000000000,"state":"active","ping":58},{"user_id":201,"name":"mge bro","steam_id":76561198796600155,"connected_time":3233000000000,"state":"active","ping":94},{"user_id":223,"name":"HOI","steam_id":76561198061182117,"connected_time":1023000000000,"state":"active","ping":59},{"user_id":210,"name":"Ach Wheesht","steam_id":76561197996993222,"connected_time":2318000000000,"state":"active","ping":30},{"user_id":160,"name":"Man URINATES on fellow Passenge","steam_id":76561198983900735,"connected_time":6693000000000,"state":"active","ping":60}]},{"server_id":22,"name":"Uncletopia | London | 6 | All Maps","name_short":"lon-6","host":"lon-1.uk.uncletopia.com","port":27065,"enabled":true,"region":"eu","cc":"gb","latitude":51.509865,"longitude":-0.118092,"reserved":0,"last_update":"0001-01-01T00:00:00Z","name_a2s":"Uncletopia | London | 6 | All Maps","protocol":17,"map":"pl_snowycoast","folder":"tf","game":"Team Fortress","app_id":440,"player_count":23,"max_players":24,"Bots":0,"server_type":"Dedicated","server_os":"Linux","password":true,"vac":true,"version":"7757534","steam_id":85568392924742830,"keywords":["nocrits","nodmgspread","payload","uncletopia"],"game_id":440,"stv_port":27066,"stv_name":"Uncletopia | London | 6 | All Maps | STV","players":[{"user_id":630,"name":"Engie Near","steam_id":76561199085235914,"connected_time":165000000000,"state":"active","ping":138},{"user_id":617,"name":"Doogie","steam_id":76561198846924693,"connected_time":502000000000,"state":"active","ping":56},{"user_id":453,"name":"Nin","steam_id":76561198227246584,"connected_time":12726000000000,"state":"active","ping":71},{"user_id":610,"name":"Phrog","steam_id":76561197994499500,"connected_time":921000000000,"state":"active","ping":53},{"user_id":603,"name":"Fran","steam_id":76561198339019518,"connected_time":1768000000000,"state":"active","ping":67},{"user_id":602,"name":"KyraMelody","steam_id":76561198030308767,"connected_time":1777000000000,"state":"active","ping":68},{"user_id":622,"name":"-ZLF","steam_id":76561198015181408,"connected_time":253000000000,"state":"active","ping":45},{"user_id":626,"name":"LuxieFen","steam_id":76561198314554227,"connected_time":224000000000,"state":"active","ping":59},{"user_id":618,"name":"Jack","steam_id":76561198079575891,"connected_time":491000000000,"state":"active","ping":46},{"user_id":627,"name":"Muffin The Femboy","steam_id":76561198296240951,"connected_time":216000000000,"state":"active","ping":97},{"user_id":629,"name":"ED","steam_id":76561198016815125,"connected_time":177000000000,"state":"active","ping":83},{"user_id":605,"name":"When Life gives you Lemons","steam_id":76561198318290663,"connected_time":1713000000000,"state":"active","ping":57},{"user_id":612,"name":"tepih","steam_id":76561198384246286,"connected_time":700000000000,"state":"active","ping":65},{"user_id":596,"name":"the discord call sound. (real)","steam_id":76561198139404261,"connected_time":2240000000000,"state":"active","ping":45},{"user_id":546,"name":"sleuth","steam_id":76561198102752414,"connected_time":5658000000000,"state":"active","ping":68},{"user_id":631,"name":"foolproof","steam_id":76561198115801132,"connected_time":154000000000,"state":"active","ping":60},{"user_id":632,"name":"Kahvi","steam_id":76561198723244199,"connected_time":64000000000,"state":"active","ping":76},{"user_id":424,"name":":)","steam_id":76561198103988618,"connected_time":15199000000000,"state":"active","ping":59},{"user_id":584,"name":"KFC Enjoyer","steam_id":76561198840259819,"connected_time":2868000000000,"state":"active","ping":60},{"user_id":634,"name":"bAdmon","steam_id":76561197961785793,"connected_time":19000000000,"state":"active","ping":42},{"user_id":635,"name":"Umby","steam_id":76561198166584580,"connected_time":14000000000,"state":"active","ping":47},{"user_id":577,"name":"fregaropa","steam_id":76561198150806166,"connected_time":3571000000000,"state":"active","ping":105},{"user_id":562,"name":"YourDoom","steam_id":76561198080790857,"connected_time":4826000000000,"state":"active","ping":44}]},{"server_id":40,"name":"Uncletopia | London | 7 | No Payload","name_short":"lon-7","host":"lon-1.uk.uncletopia.com","port":27075,"enabled":true,"region":"eu","cc":"gb","latitude":51.509865,"longitude":-0.118092,"reserved":0,"last_update":"0001-01-01T00:00:00Z","name_a2s":"Uncletopia | London | 7 | No Payload","protocol":17,"map":"cp_standin_final","folder":"tf","game":"Team Fortress","app_id":440,"player_count":16,"max_players":24,"Bots":0,"server_type":"Dedicated","server_os":"Linux","password":true,"vac":true,"version":"7757534","steam_id":85568392924964314,"keywords":["cp","nocrits","nodmgspread","uncletopia"],"game_id":440,"stv_port":27076,"stv_name":"Uncletopia | London | 7 | No Payload | STV","players":[{"user_id":580,"name":"Clitorina","steam_id":76561198077570815,"connected_time":953000000000,"state":"active","ping":43},{"user_id":586,"name":"Fancy","steam_id":76561198350658462,"connected_time":212000000000,"state":"active","ping":78},{"user_id":587,"name":"1 in a Trillion Football Moment","steam_id":76561199075279565,"connected_time":91000000000,"state":"active","ping":148},{"user_id":588,"name":"sinderquiler","steam_id":76561198047953481,"connected_time":81000000000,"state":"connecting","ping":0},{"user_id":585,"name":"√§√∂√º","steam_id":76561198140691505,"connected_time":262000000000,"state":"active","ping":45},{"user_id":591,"name":"Acucutl","steam_id":76561198133867096,"connected_time":14000000000,"state":"spawning","ping":97},{"user_id":582,"name":"Benny the Ball","steam_id":76561198043104532,"connected_time":712000000000,"state":"active","ping":45},{"user_id":536,"name":"Quannix","steam_id":76561198058924848,"connected_time":3345000000000,"state":"active","ping":110},{"user_id":578,"name":"RadioEight","steam_id":76561199016447352,"connected_time":1175000000000,"state":"active","ping":45},{"user_id":543,"name":"Spycrab101","steam_id":76561198141836805,"connected_time":2552000000000,"state":"active","ping":55},{"user_id":581,"name":"Shadowlenox","steam_id":76561198061332068,"connected_time":910000000000,"state":"active","ping":64},{"user_id":571,"name":"shoras","steam_id":76561198019680159,"connected_time":1527000000000,"state":"active","ping":89},{"user_id":563,"name":"„Éå„Éô„Éº„É´ (Nubert)","steam_id":76561199121806567,"connected_time":1727000000000,"state":"active","ping":40},{"user_id":564,"name":"Sin","steam_id":76561198975489819,"connected_time":1723000000000,"state":"active","ping":66},{"user_id":574,"name":"toust","steam_id":76561199103417422,"connected_time":1433000000000,"state":"active","ping":65},{"user_id":576,"name":"KingTubbaFlubba","steam_id":76561198203917424,"connected_time":1400000000000,"state":"active","ping":59}]},{"server_id":41,"name":"Uncletopia | London | 8 | Community","name_short":"lon-8","host":"lon-1.uk.uncletopia.com","port":27085,"enabled":true,"region":"eu","cc":"gb","latitude":51.509865,"longitude":-0.118092,"reserved":0,"last_update":"0001-01-01T00:00:00Z","name_a2s":"Uncletopia | London | 8 | Community","protocol":17,"map":"workshop/koth_ashville_final.ugc2130459942","folder":"tf","game":"Team Fortress","app_id":440,"player_count":0,"max_players":24,"Bots":0,"server_type":"Dedicated","server_os":"Linux","password":true,"vac":true,"version":"7757534","steam_id":85568392924964315,"keywords":["cp","nocrits","nodmgspread","uncletopia"],"game_id":440,"stv_port":27086,"stv_name":"Uncletopia | London | 8 | Community | STV","players":null},{"server_id":300,"name":"Uncletopia | Montr√©al | 1 | All Maps","name_short":"mtl-1","host":"mtl-1.ca.uncletopia.com","port":27015,"enabled":true,"region":"us-east","cc":"ca","latitude":45.50889,"longitude":-73.56167,"reserved":0,"last_update":"0001-01-01T00:00:00Z","name_a2s":"Uncletopia | Montr√©al | 1 | All Maps","protocol":17,"map":"koth_cascade","folder":"tf","game":"Team Fortress","app_id":440,"player_count":0,"max_players":24,"Bots":0,"server_type":"Dedicated","server_os":"Linux","password":true,"vac":true,"version":"7757534","steam_id":85568392924500087,"keywords":["cp","nocrits","nodmgspread","uncletopia"],"game_id":440,"stv_port":27016,"stv_name":"Uncletopia | Montr√©al | 1 | All Maps | STV","players":null},{"server_id":301,"name":"Uncletopia | Montr√©al | 2 | All Maps","name_short":"mtl-2","host":"mtl-1.ca.uncletopia.com","port":27025,"enabled":true,"region":"us-east","cc":"ca","latitude":45.50889,"longitude":-73.56167,"reserved":0,"last_update":"0001-01-01T00:00:00Z","name_a2s":"Uncletopia | Montr√©al | 2 | All Maps","protocol":17,"map":"pl_borneo","folder":"tf","game":"Team Fortress","app_id":440,"player_count":0,"max_players":24,"Bots":0,"server_type":"Dedicated","server_os":"Linux","password":true,"vac":true,"version":"7757534","steam_id":85568392924500088,"keywords":["nocrits","nodmgspread","payload","uncletopia"],"game_id":440,"stv_port":27026,"stv_name":"Uncletopia | Montr√©al | 2 | All Maps | STV","players":null},{"server_id":302,"name":"Uncletopia | Montr√©al | 3 | All Maps","name_short":"mtl-3","host":"mtl-1.ca.uncletopia.com","port":27035,"enabled":true,"region":"us-east","cc":"ca","latitude":45.50889,"longitude":-73.56167,"reserved":0,"last_update":"0001-01-01T00:00:00Z","name_a2s":"Uncletopia | Montr√©al | 3 | All Maps","protocol":17,"map":"cp_sunshine","folder":"tf","game":"Team Fortress","app_id":440,"player_count":0,"max_players":24,"Bots":0,"server_type":"Dedicated","server_os":"Linux","password":true,"vac":true,"version":"7757534","steam_id":85568392924500089,"keywords":["cp","nocrits","nodmgspread","uncletopia"],"game_id":440,"stv_port":27036,"stv_name":"Uncletopia | Montr√©al | 3 | All Maps | STV","players":null},{"server_id":303,"name":"Uncletopia | Montr√©al | 4 | No Payload","name_short":"mtl-4","host":"mtl-1.ca.uncletopia.com","port":27045,"enabled":true,"region":"us-east","cc":"ca","latitude":45.50889,"longitude":-73.56167,"reserved":0,"last_update":"0001-01-01T00:00:00Z","name_a2s":"Uncletopia | Montr√©al | 4 | No Payload","protocol":17,"map":"koth_lakeside_final","folder":"tf","game":"Team Fortress","app_id":440,"player_count":0,"max_players":24,"Bots":0,"server_type":"Dedicated","server_os":"Linux","password":true,"vac":true,"version":"7757534","steam_id":85568392924500090,"keywords":["cp","nocrits","nodmgspread","uncletopia"],"game_id":440,"stv_port":27046,"stv_name":"Uncletopia | Montr√©al | 4 | No Payload | STV","players":null},{"server_id":13,"name":"Uncletopia | New York City | 1 | All Maps","name_short":"nyc-1","host":"nyc-1.us.uncletopia.com","port":27015,"enabled":true,"region":"us-east","cc":"us","latitude":40.73061,"longitude":-73.93524,"reserved":0,"last_update":"0001-01-01T00:00:00Z","name_a2s":"Uncletopia | New York City | 1 | All Maps","protocol":17,"map":"pl_upward","folder":"tf","game":"Team Fortress","app_id":440,"player_count":24,"max_players":24,"Bots":0,"server_type":"Dedicated","server_os":"Linux","password":true,"vac":true,"version":"7757534","steam_id":85568392924469993,"keywords":["nocrits","nodmgspread","payload","uncletopia"],"game_id":440,"stv_port":27016,"stv_name":"Uncletopia | New York City | 1 | All Maps | STV","players":[{"user_id":42,"name":"Genie","steam_id":76561198070858815,"connected_time":2115000000000,"state":"active","ping":60},{"user_id":82,"name":"Fear","steam_id":76561198063170079,"connected_time":72000000000,"state":"active","ping":56},{"user_id":44,"name":"Marinecomb100","steam_id":76561199122676961,"connected_time":2058000000000,"state":"active","ping":93},{"user_id":45,"name":"Professor farnsworth","steam_id":76561199092595513,"connected_time":2044000000000,"state":"active","ping":126},{"user_id":58,"name":"Tallyden","steam_id":76561197998572962,"connected_time":651000000000,"state":"active","ping":77},{"user_id":47,"name":"gerge","steam_id":76561199160149960,"connected_time":1832000000000,"state":"active","ping":164},{"user_id":65,"name":"Deep Peepus","steam_id":76561198205395757,"connected_time":513000000000,"state":"active","ping":94},{"user_id":56,"name":"gulch","steam_id":76561199227946025,"connected_time":714000000000,"state":"active","ping":106},{"user_id":55,"name":"Fuzzy Toast","steam_id":76561198028067781,"connected_time":727000000000,"state":"active","ping":55},{"user_id":57,"name":"Raincool","steam_id":76561198042953645,"connected_time":686000000000,"state":"active","ping":53},{"user_id":79,"name":"Lucille_Bluth","steam_id":76561198206133916,"connected_time":172000000000,"state":"active","ping":75},{"user_id":77,"name":"Colo","steam_id":76561198049330744,"connected_time":311000000000,"state":"active","ping":75},{"user_id":62,"name":"Not_Douglas","steam_id":76561199024184136,"connected_time":555000000000,"state":"active","ping":70},{"user_id":63,"name":"Super Gay Homo Thug","steam_id":76561198355094896,"connected_time":536000000000,"state":"active","ping":67},{"user_id":64,"name":"Chieftain Jehova","steam_id":76561198095597698,"connected_time":523000000000,"state":"active","ping":87},{"user_id":67,"name":"INFINITE","steam_id":76561197971285557,"connected_time":472000000000,"state":"active","ping":57},{"user_id":68,"name":"quingquong35","steam_id":76561199455410075,"connected_time":458000000000,"state":"active","ping":87},{"user_id":78,"name":"rawrski","steam_id":76561197972464020,"connected_time":306000000000,"state":"active","ping":76},{"user_id":70,"name":"Linux Gayming","steam_id":76561199208765424,"connected_time":433000000000,"state":"active","ping":102},{"user_id":71,"name":"Chrome Knight","steam_id":76561198851348871,"connected_time":426000000000,"state":"active","ping":67},{"user_id":72,"name":"drdoofus123","steam_id":76561198016826181,"connected_time":416000000000,"state":"active","ping":69},{"user_id":80,"name":"SketchyEtchaSketch","steam_id":76561198143747486,"connected_time":166000000000,"state":"active","ping":106},{"user_id":74,"name":"akirajimbo","steam_id":76561197979960008,"connected_time":375000000000,"state":"active","ping":60},{"user_id":75,"name":"Zen Skye","steam_id":76561198114452552,"connected_time":333000000000,"state":"active","ping":78}]},{"server_id":14,"name":"Uncletopia | New York City | 2 | All Maps","name_short":"nyc-2","host":"nyc-1.us.uncletopia.com","port":27025,"enabled":true,"region":"us-east","cc":"us","latitude":40.73061,"longitude":-73.93524,"reserved":0,"last_update":"0001-01-01T00:00:00Z","name_a2s":"Uncletopia | New York City | 2 | All Maps","protocol":17,"map":"pl_upward","folder":"tf","game":"Team Fortress","app_id":440,"player_count":24,"max_players":24,"Bots":0,"server_type":"Dedicated","server_os":"Linux","password":true,"vac":true,"version":"7757534","steam_id":85568392924469994,"keywords":["nocrits","nodmgspread","payload","uncletopia"],"game_id":440,"stv_port":27026,"stv_name":"Uncletopia | New York City | 2 | All Maps | STV","players":[{"user_id":99,"name":"localization files","steam_id":76561197997139225,"connected_time":14289000000000,"state":"active","ping":51},{"user_id":253,"name":"LocaKola","steam_id":76561198173435430,"connected_time":66000000000,"state":"active","ping":61},{"user_id":179,"name":"Unlucky Pedestrian","steam_id":76561198140369514,"connected_time":7455000000000,"state":"active","ping":54},{"user_id":217,"name":"Ballin \u0026 Can't Get Up","steam_id":76561198047394013,"connected_time":3348000000000,"state":"active","ping":59},{"user_id":245,"name":"Skrungly","steam_id":76561198072550443,"connected_time":517000000000,"state":"active","ping":46},{"user_id":248,"name":"Gaia The Fierce Knight","steam_id":76561199044162625,"connected_time":441000000000,"state":"active","ping":63},{"user_id":235,"name":"M@verick","steam_id":76561198006363519,"connected_time":1518000000000,"state":"active","ping":69},{"user_id":224,"name":"B","steam_id":76561198015740144,"connected_time":2224000000000,"state":"active","ping":67},{"user_id":254,"name":"Gotta Go Fast","steam_id":76561198055073907,"connected_time":46000000000,"state":"active","ping":86},{"user_id":202,"name":"SpinetinglingToast","steam_id":76561198099470670,"connected_time":5615000000000,"state":"active","ping":56},{"user_id":221,"name":"Sapphireblitz","steam_id":76561198272635379,"connected_time":2899000000000,"state":"active","ping":64},{"user_id":230,"name":"uppercase thing","steam_id":76561199238480644,"connected_time":1703000000000,"state":"active","ping":59},{"user_id":237,"name":"masterfish","steam_id":76561198421208838,"connected_time":1450000000000,"state":"active","ping":49},{"user_id":252,"name":"BBL","steam_id":76561198819564432,"connected_time":160000000000,"state":"active","ping":72},{"user_id":251,"name":"malconle2010","steam_id":76561198969647366,"connected_time":245000000000,"state":"active","ping":74},{"user_id":232,"name":"superdeathmegasupremskullman201","steam_id":76561198296539957,"connected_time":1617000000000,"state":"active","ping":64},{"user_id":234,"name":"Stock Medic","steam_id":76561198065479730,"connected_time":1583000000000,"state":"active","ping":68},{"user_id":246,"name":"Snugboo","steam_id":76561198147970327,"connected_time":509000000000,"state":"active","ping":42},{"user_id":238,"name":"The Night In Dark Armor","steam_id":76561198321340506,"connected_time":1447000000000,"state":"active","ping":66},{"user_id":239,"name":"Fierian","steam_id":76561198132771619,"connected_time":1394000000000,"state":"active","ping":85},{"user_id":210,"name":"Nobody","steam_id":76561198286486517,"connected_time":4810000000000,"state":"active","ping":73},{"user_id":204,"name":"PizzaPasta","steam_id":76561199125109082,"connected_time":5432000000000,"state":"active","ping":61},{"user_id":222,"name":"CouT1nho","steam_id":76561198203926376,"connected_time":2496000000000,"state":"active","ping":107},{"user_id":201,"name":"Havok","steam_id":76561198063455003,"connected_time":5813000000000,"state":"active","ping":50}]},{"server_id":15,"name":"Uncletopia | New York City | 3 | Stopwatch Beta","name_short":"nyc-3","host":"nyc-1.us.uncletopia.com","port":27035,"enabled":true,"region":"us-east","cc":"us","latitude":40.73061,"longitude":-73.93524,"reserved":0,"last_update":"0001-01-01T00:00:00Z","name_a2s":"Uncletopia | New York City | 3 | Stopwatch Beta","protocol":17,"map":"koth_lakeside_final","folder":"tf","game":"Team Fortress","app_id":440,"player_count":0,"max_players":24,"Bots":0,"server_type":"Dedicated","server_os":"Linux","password":true,"vac":true,"version":"7757534","steam_id":85568392924742820,"keywords":["cp","nocrits","nodmgspread","uncletopia"],"game_id":440,"stv_port":27036,"stv_name":"Uncletopia | New York City | 3 | Stopwatch Beta | STV","players":null},{"server_id":16,"name":"Uncletopia | New York City | 4 | Community","name_short":"nyc-4","host":"nyc-1.us.uncletopia.com","port":27045,"enabled":true,"region":"us-east","cc":"us","latitude":40.73061,"longitude":-73.93524,"reserved":0,"last_update":"0001-01-01T00:00:00Z","name_a2s":"Uncletopia | New York City | 4 | Community","protocol":17,"map":"workshop/pl_cactuscanyon_redux_rc4b.ugc2579644293","folder":"tf","game":"Team Fortress","app_id":440,"player_count":0,"max_players":24,"Bots":0,"server_type":"Dedicated","server_os":"Linux","password":true,"vac":true,"version":"7757534","steam_id":85568392924742821,"keywords":["nocrits","nodmgspread","payload","uncletopia"],"game_id":440,"stv_port":27046,"stv_name":"Uncletopia | New York City | 4 | Community | STV","players":null},{"server_id":142,"name":"Uncletopia | S√£o Paulo | 1 | All Maps","name_short":"sao-1","host":"sao-1.br.uncletopia.com","port":27015,"enabled":true,"region":"sa","cc":"br","latitude":-23.533773,"longitude":-46.62529,"reserved":0,"last_update":"0001-01-01T00:00:00Z","name_a2s":"Uncletopia | S√£o Paulo | 1 | All Maps","protocol":17,"map":"koth_highpass","folder":"tf","game":"Team Fortress","app_id":440,"player_count":0,"max_players":24,"Bots":0,"server_type":"Dedicated","server_os":"Linux","password":true,"vac":true,"version":"7757534","steam_id":85568392924469996,"keywords":["cp","nocrits","nodmgspread","uncletopia"],"game_id":440,"stv_port":27016,"stv_name":"Uncletopia | S√£o Paulo | 1 | All Maps | STV","players":null},{"server_id":143,"name":"Uncletopia | S√£o Paulo | 2 | All Maps","name_short":"sao-2","host":"sao-2.br.uncletopia.com","port":27015,"enabled":true,"region":"sa","cc":"br","latitude":-23.533773,"longitude":-46.62529,"reserved":0,"last_update":"0001-01-01T00:00:00Z","name_a2s":"Uncletopia | S√£o Paulo | 2 | All Maps","protocol":17,"map":"pl_borneo","folder":"tf","game":"Team Fortress","app_id":440,"player_count":0,"max_players":24,"Bots":0,"server_type":"Dedicated","server_os":"Linux","password":true,"vac":true,"version":"7757534","steam_id":85568392924485349,"keywords":["nocrits","nodmgspread","payload","uncletopia"],"game_id":440,"stv_port":27016,"stv_name":"Uncletopia | S√£o Paulo | 2 | All Maps | STV","players":null},{"server_id":7,"name":"Uncletopia | Seattle | 1 | All Maps","name_short":"sea-1","host":"sea-1.us.uncletopia.com","port":27015,"enabled":true,"region":"us-west","cc":"us","latitude":47.608013,"longitude":-122.33517,"reserved":0,"last_update":"0001-01-01T00:00:00Z","name_a2s":"Uncletopia | Seattle | 1 | All Maps","protocol":17,"map":"pl_badwater","folder":"tf","game":"Team Fortress","app_id":440,"player_count":24,"max_players":24,"Bots":0,"server_type":"Dedicated","server_os":"Linux","password":true,"vac":true,"version":"7757534","steam_id":85568392924469997,"keywords":["nocrits","nodmgspread","payload","uncletopia"],"game_id":440,"stv_port":27016,"stv_name":"Uncletopia | Seattle | 1 | All Maps | STV","players":[{"user_id":163,"name":"Major Rabbit","steam_id":76561198086047613,"connected_time":2667000000000,"state":"active","ping":125},{"user_id":178,"name":"Verilog","steam_id":76561197975820283,"connected_time":889000000000,"state":"active","ping":145},{"user_id":99,"name":"Fh","steam_id":76561198000903511,"connected_time":4470000000000,"state":"active","ping":62},{"user_id":165,"name":"Tom Skirrett","steam_id":76561198014600788,"connected_time":2399000000000,"state":"active","ping":66},{"user_id":170,"name":"krootonitron","steam_id":76561198114113037,"connected_time":2001000000000,"state":"active","ping":60},{"user_id":183,"name":"indec","steam_id":76561198978404397,"connected_time":791000000000,"state":"active","ping":69},{"user_id":147,"name":"YuuriDaThrilla","steam_id":76561198184814466,"connected_time":3247000000000,"state":"active","ping":39},{"user_id":186,"name":"Kaky≈çin Noriaki","steam_id":76561198123809642,"connected_time":526000000000,"state":"active","ping":123},{"user_id":173,"name":"NoobLuckSomehow","steam_id":76561198268796387,"connected_time":1766000000000,"state":"active","ping":85},{"user_id":191,"name":"nappyzappy","steam_id":76561198095118953,"connected_time":96000000000,"state":"active","ping":69},{"user_id":187,"name":"bandit !!","steam_id":76561198126546221,"connected_time":497000000000,"state":"active","ping":74},{"user_id":160,"name":"mostly void, partially stars","steam_id":76561197991015780,"connected_time":2728000000000,"state":"active","ping":70},{"user_id":98,"name":"zzrat","steam_id":76561198014925415,"connected_time":4830000000000,"state":"active","ping":58},{"user_id":177,"name":"Dr. Karl, the AUS Science Guy","steam_id":76561198031278747,"connected_time":1062000000000,"state":"active","ping":48},{"user_id":171,"name":"Platinum","steam_id":76561198052463484,"connected_time":1969000000000,"state":"active","ping":79},{"user_id":81,"name":"oo","steam_id":76561198119626492,"connected_time":5858000000000,"state":"active","ping":86},{"user_id":180,"name":"cicada","steam_id":76561197980127512,"connected_time":874000000000,"state":"active","ping":131},{"user_id":190,"name":"Mazel-Tov‚ú°Cocktail","steam_id":76561197979855281,"connected_time":115000000000,"state":"active","ping":88},{"user_id":116,"name":"sockman","steam_id":76561198108408235,"connected_time":4048000000000,"state":"active","ping":91},{"user_id":181,"name":"golia","steam_id":76561198000264266,"connected_time":855000000000,"state":"active","ping":76},{"user_id":162,"name":"The Population of Sweden","steam_id":76561198202201644,"connected_time":2705000000000,"state":"active","ping":35},{"user_id":182,"name":"Ory","steam_id":76561198183370571,"connected_time":849000000000,"state":"active","ping":129},{"user_id":184,"name":"The Spanish Inquisition","steam_id":76561198031971596,"connected_time":771000000000,"state":"active","ping":63},{"user_id":185,"name":"Tomato Soup","steam_id":76561198051834684,"connected_time":766000000000,"state":"active","ping":61}]},{"server_id":119,"name":"Uncletopia | Seattle | 2 | All Maps","name_short":"sea-2","host":"sea-1.us.uncletopia.com","port":27025,"enabled":true,"region":"us-west","cc":"us","latitude":47.608013,"longitude":-122.33517,"reserved":0,"last_update":"0001-01-01T00:00:00Z","name_a2s":"Uncletopia | Seattle | 2 | All Maps","protocol":17,"map":"pl_barnblitz","folder":"tf","game":"Team Fortress","app_id":440,"player_count":24,"max_players":24,"Bots":0,"server_type":"Dedicated","server_os":"Linux","password":true,"vac":true,"version":"7757534","steam_id":85568392924469998,"keywords":["nocrits","nodmgspread","payload","uncletopia"],"game_id":440,"stv_port":27026,"stv_name":"Uncletopia | Seattle | 2 | All Maps | STV","players":[{"user_id":7,"name":"Birdman743","steam_id":76561198799636748,"connected_time":5330000000000,"state":"active","ping":59},{"user_id":59,"name":"Ryback","steam_id":76561197988711455,"connected_time":1817000000000,"state":"active","ping":39},{"user_id":43,"name":"Jacknerik","steam_id":76561198041365662,"connected_time":3506000000000,"state":"active","ping":133},{"user_id":24,"name":"Julien","steam_id":76561199389584938,"connected_time":4168000000000,"state":"active","ping":42},{"user_id":46,"name":"Peppy","steam_id":76561198866629645,"connected_time":3477000000000,"state":"active","ping":59},{"user_id":48,"name":"Black Mesa Scientist","steam_id":76561198064466577,"connected_time":3354000000000,"state":"active","ping":80},{"user_id":56,"name":"Hakuyer","steam_id":76561198098618247,"connected_time":1952000000000,"state":"active","ping":46},{"user_id":19,"name":"Iroquois Pliskin","steam_id":76561198056704533,"connected_time":4430000000000,"state":"active","ping":96},{"user_id":61,"name":"Vortigaunt","steam_id":76561198058653274,"connected_time":1751000000000,"state":"active","ping":103},{"user_id":17,"name":"Smile","steam_id":76561198110008786,"connected_time":4547000000000,"state":"active","ping":47},{"user_id":55,"name":"Wusigi Doctor","steam_id":76561198044204700,"connected_time":2330000000000,"state":"active","ping":82},{"user_id":79,"name":"Awildrock","steam_id":76561198040401086,"connected_time":330000000000,"state":"active","ping":103},{"user_id":72,"name":"Alpharius","steam_id":76561197996284353,"connected_time":1555000000000,"state":"active","ping":77},{"user_id":63,"name":"skia (nyan)","steam_id":76561198053818001,"connected_time":1724000000000,"state":"active","ping":87},{"user_id":75,"name":"raku","steam_id":76561198124069038,"connected_time":893000000000,"state":"active","ping":52},{"user_id":68,"name":"Algibruh","steam_id":76561199221599415,"connected_time":1648000000000,"state":"active","ping":61},{"user_id":67,"name":"warpig","steam_id":76561199226313309,"connected_time":1671000000000,"state":"active","ping":122},{"user_id":58,"name":"Too Lame 2 Name","steam_id":76561198390863385,"connected_time":1936000000000,"state":"active","ping":114},{"user_id":69,"name":"keffers","steam_id":76561198202338796,"connected_time":1636000000000,"state":"active","ping":110},{"user_id":74,"name":"Mignyanne :3","steam_id":76561198048754056,"connected_time":1040000000000,"state":"active","ping":73},{"user_id":60,"name":"aimee","steam_id":76561198834309212,"connected_time":1817000000000,"state":"active","ping":130},{"user_id":70,"name":"Scansy","steam_id":76561198140528754,"connected_time":1621000000000,"state":"active","ping":49},{"user_id":62,"name":"Fermenting Kiwi","steam_id":76561198253303497,"connected_time":1749000000000,"state":"active","ping":84},{"user_id":78,"name":"Oinker","steam_id":76561198033130631,"connected_time":480000000000,"state":"active","ping":69}]},{"server_id":406,"name":"Uncletopia | Seattle | 3 | Stopwatch Beta","name_short":"sea-3","host":"sea-1.us.uncletopia.com","port":27035,"enabled":true,"region":"us-west","cc":"us","latitude":47.608013,"longitude":-122.33517,"reserved":0,"last_update":"0001-01-01T00:00:00Z","name_a2s":"Uncletopia | Seattle | 3 | Stopwatch Beta","protocol":17,"map":"workshop/pl_barnblitz_pro7.ugc582280235","folder":"tf","game":"Team Fortress","app_id":440,"player_count":0,"max_players":24,"Bots":0,"server_type":"Dedicated","server_os":"Linux","password":true,"vac":true,"version":"7757534","steam_id":85568392924515217,"keywords":["nocrits","nodmgspread","payload","uncletopia"],"game_id":440,"stv_port":27036,"stv_name":"Uncletopia | Seattle | 3 | Stopwatch Beta | STV","players":null},{"server_id":17,"name":"Uncletopia | San Francisco | 1 | All Maps","name_short":"sfo-1","host":"sfo-1.us.uncletopia.com","port":27015,"enabled":true,"region":"us-west","cc":"us","latitude":37.77397,"longitude":-122.4313,"reserved":0,"last_update":"0001-01-01T00:00:00Z","name_a2s":"Uncletopia | San Francisco | 1 | All Maps","protocol":17,"map":"cp_process_final","folder":"tf","game":"Team Fortress","app_id":440,"player_count":13,"max_players":24,"Bots":0,"server_type":"Dedicated","server_os":"Linux","password":true,"vac":true,"version":"7757534","steam_id":85568392924469999,"keywords":["cp","nocrits","nodmgspread","uncletopia"],"game_id":440,"stv_port":27016,"stv_name":"Uncletopia | San Francisco | 1 | All Maps | STV","players":[{"user_id":306,"name":"hatertheplayer","steam_id":76561198996710747,"connected_time":349000000000,"state":"active","ping":146},{"user_id":296,"name":"moe","steam_id":76561198929586245,"connected_time":1022000000000,"state":"active","ping":44},{"user_id":294,"name":"A Random Guy","steam_id":76561198052725191,"connected_time":1497000000000,"state":"active","ping":57},{"user_id":304,"name":"Spiffle","steam_id":76561199089811047,"connected_time":427000000000,"state":"active","ping":49},{"user_id":295,"name":"Amogous Supreme","steam_id":76561198025476774,"connected_time":1192000000000,"state":"active","ping":55},{"user_id":305,"name":"MLG Doge","steam_id":76561198060123004,"connected_time":396000000000,"state":"active","ping":99},{"user_id":297,"name":"ImNotZelda","steam_id":76561198866570682,"connected_time":974000000000,"state":"active","ping":66},{"user_id":308,"name":"POWER","steam_id":76561198087422193,"connected_time":291000000000,"state":"active","ping":54},{"user_id":291,"name":"HAT-WEARING‚Ñ¢ Maggot Gamer Cat","steam_id":76561197973992705,"connected_time":1998000000000,"state":"active","ping":57},{"user_id":289,"name":"Drive-By-Fish-Guy","steam_id":76561198105513652,"connected_time":2152000000000,"state":"active","ping":66},{"user_id":301,"name":"Drilly22","steam_id":76561198068838338,"connected_time":562000000000,"state":"active","ping":92},{"user_id":259,"name":"bergly","steam_id":76561198811650078,"connected_time":4052000000000,"state":"active","ping":126},{"user_id":300,"name":"BigBubble42","steam_id":76561198136286123,"connected_time":868000000000,"state":"active","ping":64}]},{"server_id":18,"name":"Uncletopia | San Francisco | 2 | All Maps","name_short":"sfo-2","host":"sfo-1.us.uncletopia.com","port":27025,"enabled":true,"region":"us-west","cc":"us","latitude":37.77397,"longitude":-122.4313,"reserved":0,"last_update":"0001-01-01T00:00:00Z","name_a2s":"Uncletopia | San Francisco | 2 | All Maps","protocol":17,"map":"koth_cascade","folder":"tf","game":"Team Fortress","app_id":440,"player_count":0,"max_players":24,"Bots":0,"server_type":"Dedicated","server_os":"Linux","password":true,"vac":true,"version":"7757534","steam_id":85568392924470000,"keywords":["cp","nocrits","nodmgspread","uncletopia"],"game_id":440,"stv_port":27026,"stv_name":"Uncletopia | San Francisco | 2 | All Maps | STV","players":null},{"server_id":19,"name":"Uncletopia | San Francisco | 3 | Stopwatch Beta","name_short":"sfo-3","host":"sfo-1.us.uncletopia.com","port":27035,"enabled":true,"region":"us-west","cc":"us","latitude":37.77397,"longitude":-122.4313,"reserved":0,"last_update":"0001-01-01T00:00:00Z","name_a2s":"Uncletopia | San Francisco | 3 | Stopwatch Beta","protocol":17,"map":"koth_viaduct","folder":"tf","game":"Team Fortress","app_id":440,"player_count":0,"max_players":24,"Bots":0,"server_type":"Dedicated","server_os":"Linux","password":true,"vac":true,"version":"7757534","steam_id":85568392924742824,"keywords":["cp","nocrits","nodmgspread","uncletopia"],"game_id":440,"stv_port":27036,"stv_name":"Uncletopia | San Francisco | 3 | Stopwatch Beta | STV","players":null},{"server_id":20,"name":"Uncletopia | San Francisco | 4 | Community","name_short":"sfo-4","host":"sfo-1.us.uncletopia.com","port":27045,"enabled":true,"region":"us-west","cc":"us","latitude":37.77397,"longitude":-122.4313,"reserved":0,"last_update":"0001-01-01T00:00:00Z","name_a2s":"Uncletopia | San Francisco | 4 | Community","protocol":17,"map":"workshop/pl_barnblitz_pro7.ugc582280235","folder":"tf","game":"Team Fortress","app_id":440,"player_count":24,"max_players":24,"Bots":0,"server_type":"Dedicated","server_os":"Linux","password":true,"vac":true,"version":"7757534","steam_id":85568392924742826,"keywords":["nocrits","nodmgspread","payload","uncletopia"],"game_id":440,"stv_port":27046,"stv_name":"Uncletopia | San Francisco | 4 | Community | STV","players":[{"user_id":117,"name":"Daz","steam_id":76561198041431938,"connected_time":4535000000000,"state":"active","ping":107},{"user_id":176,"name":"boombox","steam_id":76561198237013798,"connected_time":419000000000,"state":"active","ping":129},{"user_id":185,"name":"bobtheninjaman","steam_id":76561198066424544,"connected_time":177000000000,"state":"active","ping":65},{"user_id":151,"name":"epic cheeseburger","steam_id":76561198041995180,"connected_time":2442000000000,"state":"active","ping":125},{"user_id":172,"name":"Bradtie","steam_id":76561198271976874,"connected_time":1019000000000,"state":"active","ping":117},{"user_id":189,"name":"Enderkill777","steam_id":76561198876915153,"connected_time":32000000000,"state":"active","ping":62},{"user_id":188,"name":"Chocc","steam_id":76561198068070211,"connected_time":72000000000,"state":"active","ping":74},{"user_id":162,"name":"Are ya winning Dad?","steam_id":76561198118963840,"connected_time":1463000000000,"state":"active","ping":126},{"user_id":165,"name":"GamerGuy88","steam_id":76561199059733640,"connected_time":1329000000000,"state":"active","ping":66},{"user_id":190,"name":"Justin","steam_id":76561198110865423,"connected_time":31000000000,"state":"active","ping":59},{"user_id":179,"name":"benhameen","steam_id":76561198446837615,"connected_time":377000000000,"state":"active","ping":45},{"user_id":121,"name":"schnedwob","steam_id":76561197999146588,"connected_time":4506000000000,"state":"active","ping":92},{"user_id":147,"name":"jamaican email scam business","steam_id":76561198035817862,"connected_time":2699000000000,"state":"active","ping":105},{"user_id":170,"name":"Discovery","steam_id":76561198841844093,"connected_time":1196000000000,"state":"active","ping":71},{"user_id":124,"name":"FDR, The God King","steam_id":76561198300349976,"connected_time":4444000000000,"state":"active","ping":75},{"user_id":178,"name":"exlpt","steam_id":76561198357261939,"connected_time":408000000000,"state":"active","ping":122},{"user_id":125,"name":"poo everywhere","steam_id":76561198379808804,"connected_time":4430000000000,"state":"active","ping":87},{"user_id":168,"name":"PageBoiSkull","steam_id":76561198237353578,"connected_time":1234000000000,"state":"active","ping":58},{"user_id":191,"name":"Stepsis (‚ÄøÀ†‚Äø)","steam_id":76561198127593309,"connected_time":2000000000,"state":"spawning","ping":47},{"user_id":171,"name":"EduardoLopez2005","steam_id":76561198188481309,"connected_time":1110000000000,"state":"active","ping":54},{"user_id":187,"name":"Chafn","steam_id":76561197969386702,"connected_time":132000000000,"state":"active","ping":76},{"user_id":175,"name":"Daddy Topps","steam_id":76561198203594332,"connected_time":668000000000,"state":"active","ping":60},{"user_id":180,"name":"Flooder","steam_id":76561198043792818,"connected_time":360000000000,"state":"active","ping":92},{"user_id":159,"name":"Frog","steam_id":76561198065367779,"connected_time":1720000000000,"state":"active","ping":73}]},{"server_id":141,"name":"Uncletopia | Sydney | 1 | All Maps","name_short":"syd-1","host":"syd-1.au.uncletopia.com","port":27015,"enabled":true,"region":"au","cc":"au","latitude":-33.865143,"longitude":151.2099,"reserved":0,"last_update":"0001-01-01T00:00:00Z","name_a2s":"Uncletopia | Sydney | 1 | All Maps","protocol":17,"map":"koth_lakeside_final","folder":"tf","game":"Team Fortress","app_id":440,"player_count":0,"max_players":24,"Bots":0,"server_type":"Dedicated","server_os":"Linux","password":true,"vac":true,"version":"7757534","steam_id":85568392924470001,"keywords":["cp","nocrits","nodmgspread","uncletopia"],"game_id":440,"stv_port":27016,"stv_name":"Uncletopia | Sydney | 1 | All Maps | STV","players":null},{"server_id":123,"name":"Uncletopia | Sydney | 2 | All Maps","name_short":"syd-2","host":"syd-1.au.uncletopia.com","port":27025,"enabled":true,"region":"au","cc":"au","latitude":-33.865143,"longitude":151.2099,"reserved":0,"last_update":"0001-01-01T00:00:00Z","name_a2s":"Uncletopia | Sydney | 2 | All Maps","protocol":17,"map":"koth_viaduct","folder":"tf","game":"Team Fortress","app_id":440,"player_count":0,"max_players":24,"Bots":0,"server_type":"Dedicated","server_os":"Linux","password":true,"vac":true,"version":"7757534","steam_id":85568392924470002,"keywords":["cp","nocrits","nodmgspread","uncletopia"],"game_id":440,"stv_port":27026,"stv_name":"Uncletopia | Sydney | 2 | All Maps | STV","players":null},{"server_id":395,"name":"Uncletopia | Sydney | 3 | All Maps","name_short":"syd-3","host":"syd-1.au.uncletopia.com","port":27035,"enabled":true,"region":"au","cc":"au","latitude":-33.865143,"longitude":151.2099,"reserved":0,"last_update":"0001-01-01T00:00:00Z","name_a2s":"Uncletopia | Sydney | 3 | All Maps","protocol":17,"map":"koth_viaduct","folder":"tf","game":"Team Fortress","app_id":440,"player_count":0,"max_players":24,"Bots":0,"server_type":"Dedicated","server_os":"Linux","password":true,"vac":true,"version":"7757534","steam_id":85568392925194467,"keywords":["cp","nocrits","nodmgspread","uncletopia"],"game_id":440,"stv_port":27036,"stv_name":"Uncletopia | Sydney | 3 | All Maps | STV","players":null},{"server_id":396,"name":"Uncletopia | Sydney | 4 | All Maps","name_short":"syd-4","host":"syd-1.au.uncletopia.com","port":27045,"enabled":true,"region":"au","cc":"au","latitude":-33.865143,"longitude":151.2099,"reserved":0,"last_update":"0001-01-01T00:00:00Z","name_a2s":"Uncletopia | Sydney | 4 | All Maps","protocol":17,"map":"cp_snakewater_final1","folder":"tf","game":"Team Fortress","app_id":440,"player_count":0,"max_players":24,"Bots":0,"server_type":"Dedicated","server_os":"Linux","password":true,"vac":true,"version":"7757534","steam_id":85568392925397958,"keywords":["cp","nocrits","nodmgspread","uncletopia"],"game_id":440,"stv_port":27046,"stv_name":"Uncletopia | Sydney | 4 | All Maps | STV","players":null},{"server_id":58,"name":"Uncletopia | Sydney | 5 | Stopwatch Beta","name_short":"syd-5","host":"syd-1.au.uncletopia.com","port":27055,"enabled":true,"region":"au","cc":"au","latitude":-33.865143,"longitude":151.2099,"reserved":0,"last_update":"0001-01-01T00:00:00Z","name_a2s":"Uncletopia | Sydney | 5 | Stopwatch Beta","protocol":17,"map":"pl_barnblitz","folder":"tf","game":"Team Fortress","app_id":440,"player_count":0,"max_players":24,"Bots":0,"server_type":"Dedicated","server_os":"Linux","password":true,"vac":true,"version":"7757534","steam_id":85568392925397959,"keywords":["nocrits","nodmgspread","payload","uncletopia"],"game_id":440,"stv_port":27056,"stv_name":"Uncletopia | Sydney | 5 | Stopwatch Beta | STV","players":null},{"server_id":59,"name":"Uncletopia | Sydney | 6 | Community","name_short":"syd-6","host":"syd-1.au.uncletopia.com","port":27065,"enabled":true,"region":"au","cc":"au","latitude":-33.865143,"longitude":151.2099,"reserved":0,"last_update":"0001-01-01T00:00:00Z","name_a2s":"Uncletopia | Sydney | 6 | Community","protocol":17,"map":"cp_mountainlab","folder":"tf","game":"Team Fortress","app_id":440,"player_count":0,"max_players":24,"Bots":0,"server_type":"Dedicated","server_os":"Linux","password":true,"vac":true,"version":"7757534","steam_id":85568392925397960,"keywords":["cp","nocrits","nodmgspread","uncletopia"],"game_id":440,"stv_port":27066,"stv_name":"Uncletopia | Sydney | 6 | Community | STV","players":null},{"server_id":49,"name":"Uncletopia | Warsaw | 1 | All Maps","name_short":"waw-1","host":"waw-1.pl.uncletopia.com","port":27015,"enabled":true,"region":"eu","cc":"pl","latitude":52.2297,"longitude":21.017532,"reserved":0,"last_update":"0001-01-01T00:00:00Z","name_a2s":"","protocol":0,"map":"","folder":"","game":"","app_id":0,"player_count":0,"max_players":0,"Bots":0,"server_type":"","server_os":"","password":false,"vac":false,"version":"","steam_id":0,"keywords":null,"game_id":0,"stv_port":0,"stv_name":"","players":null},{"server_id":50,"name":"Uncletopia | Warsaw | 2 | All Maps","name_short":"waw-2","host":"waw-1.pl.uncletopia.com","port":27025,"enabled":true,"region":"eu","cc":"pl","latitude":52.2297,"longitude":21.017532,"reserved":0,"last_update":"0001-01-01T00:00:00Z","name_a2s":"Uncletopia | Warsaw | 2 | All Maps","protocol":17,"map":"cp_process_final","folder":"tf","game":"Team Fortress","app_id":440,"player_count":0,"max_players":24,"Bots":0,"server_type":"Dedicated","server_os":"Linux","password":true,"vac":true,"version":"7757534","steam_id":85568392925397851,"keywords":["cp","nocrits","nodmgspread","uncletopia"],"game_id":440,"stv_port":27026,"stv_name":"Uncletopia | Warsaw | 2 | All Maps | STV","players":null},{"server_id":51,"name":"Uncletopia | Warsaw | 3 | All Maps","name_short":"waw-3","host":"waw-1.pl.uncletopia.com","port":27035,"enabled":true,"region":"eu","cc":"pl","latitude":52.2297,"longitude":21.017532,"reserved":0,"last_update":"0001-01-01T00:00:00Z","name_a2s":"Uncletopia | Warsaw | 3 | All Maps","protocol":17,"map":"pl_upward","folder":"tf","game":"Team Fortress","app_id":440,"player_count":2,"max_players":24,"Bots":0,"server_type":"Dedicated","server_os":"Linux","password":true,"vac":true,"version":"7757534","steam_id":85568392925397852,"keywords":["nocrits","nodmgspread","payload","uncletopia"],"game_id":440,"stv_port":27036,"stv_name":"Uncletopia | Warsaw | 3 | All Maps | STV","players":[{"user_id":10,"name":"Truegr","steam_id":76561198811912339,"connected_time":2639000000000,"state":"active","ping":81},{"user_id":12,"name":"Heavy","steam_id":76561198835562332,"connected_time":1091000000000,"state":"active","ping":94}]},{"server_id":52,"name":"Uncletopia | Warsaw | 4 | All Maps","name_short":"waw-4","host":"waw-1.pl.uncletopia.com","port":27045,"enabled":true,"region":"eu","cc":"pl","latitude":52.2297,"longitude":21.017532,"reserved":0,"last_update":"0001-01-01T00:00:00Z","name_a2s":"Uncletopia | Warsaw | 4 | All Maps","protocol":17,"map":"koth_highpass","folder":"tf","game":"Team Fortress","app_id":440,"player_count":0,"max_players":24,"Bots":0,"server_type":"Dedicated","server_os":"Linux","password":true,"vac":true,"version":"7757534","steam_id":85568392925397853,"keywords":["cp","nocrits","nodmgspread","uncletopia"],"game_id":440,"stv_port":27046,"stv_name":"Uncletopia | Warsaw | 4 | All Maps | STV","players":null},{"server_id":53,"name":"Uncletopia | Warsaw | 5 | Stopwatch Beta","name_short":"waw-5","host":"waw-1.pl.uncletopia.com","port":27055,"enabled":true,"region":"eu","cc":"pl","latitude":52.2297,"longitude":21.017532,"reserved":0,"last_update":"0001-01-01T00:00:00Z","name_a2s":"Uncletopia | Warsaw | 5 | Stopwatch Beta","protocol":17,"map":"pl_borneo","folder":"tf","game":"Team Fortress","app_id":440,"player_count":0,"max_players":24,"Bots":0,"server_type":"Dedicated","server_os":"Linux","password":true,"vac":true,"version":"7757534","steam_id":85568392925397854,"keywords":["nocrits","nodmgspread","payload","uncletopia"],"game_id":440,"stv_port":27056,"stv_name":"Uncletopia | Warsaw | 5 | Stopwatch Beta | STV","players":null},{"server_id":54,"name":"Uncletopia | Warsaw | 6 | Community","name_short":"waw-6","host":"waw-1.pl.uncletopia.com","port":27065,"enabled":true,"region":"eu","cc":"pl","latitude":52.2297,"longitude":21.017532,"reserved":0,"last_update":"0001-01-01T00:00:00Z","name_a2s":"Uncletopia | Warsaw | 6 | Community","protocol":17,"map":"workshop/cp_logjam_rc12.ugc454812035","folder":"tf","game":"Team Fortress","app_id":440,"player_count":9,"max_players":24,"Bots":0,"server_type":"Dedicated","server_os":"Linux","password":true,"vac":true,"version":"7757534","steam_id":85568392925397856,"keywords":["cp","nocrits","nodmgspread","uncletopia"],"game_id":440,"stv_port":27066,"stv_name":"Uncletopia | Warsaw | 6 | Community | STV","players":[{"user_id":9,"name":"Karsapaali","steam_id":76561198322322739,"connected_time":5633000000000,"state":"active","ping":105},{"user_id":10,"name":"Yoda","steam_id":76561198802789400,"connected_time":5630000000000,"state":"active","ping":88},{"user_id":78,"name":"Kakograf","steam_id":76561198148375639,"connected_time":1058000000000,"state":"active","ping":60},{"user_id":85,"name":"player","steam_id":76561198054474684,"connected_time":426000000000,"state":"active","ping":60},{"user_id":79,"name":"full power heart attack","steam_id":76561199196568965,"connected_time":939000000000,"state":"active","ping":108},{"user_id":72,"name":"Moti","steam_id":76561198262250211,"connected_time":1695000000000,"state":"active","ping":104},{"user_id":75,"name":"Fit Crow mark","steam_id":76561198309246388,"connected_time":1195000000000,"state":"active","ping":60},{"user_id":76,"name":"Fat Pigeon","steam_id":76561198817940142,"connected_time":1153000000000,"state":"active","ping":75},{"user_id":26,"name":"Tazerann","steam_id":76561198043743881,"connected_time":4265000000000,"state":"spawning","ping":159}]}]}