{"status":true,"message":"","result":[{"server_id":9,"name":"Uncletopia | Atlanta | 1 | All Maps","name_short":"atl-1","host":"atl-1.us.uncletopia.com","port":27015,"enabled":true,"region":"us-east","cc":"us","latitude":33.753746,"longitude":-84.38633,"reserved":0,"last_update":"0001-01-01T00:00:00Z","name_a2s":"Uncletopia | Atlanta | 1 | All Maps","protocol":17,"map":"pl_barnblitz","folder":"tf","game":"Team Fortress","app_id":440,"player_count":24,"max_players":24,"Bots":0,"server_type":"Dedicated","server_os":"Linux","password":true,"vac":true,"version":"7742253","steam_id":85568392924469982,"keywords":["nocrits","nodmgspread","payload","uncletopia"],"game_id":440,"stv_port":27016,"stv_name":"Uncletopia | Atlanta | 1 | All Maps | STV","players":[{"user_id":113,"name":"Im High","steam_id":76561198049954886,"connected_time":696000000000,"state":"active","ping":67},{"user_id":101,"name":"Yoyo","steam_id":76561199122577289,"connected_time":1724000000000,"state":"active","ping":62},{"user_id":75,"name":"Eightyy  Fourr","steam_id":76561197960374225,"connected_time":3441000000000,"state":"active","ping":72},{"user_id":106,"name":"ajplays28","steam_id":76561199023537026,"connected_time":1219000000000,"state":"active","ping":81},{"user_id":67,"name":"scuttles","steam_id":76561199250039100,"connected_time":3895000000000,"state":"active","ping":74},{"user_id":107,"name":"carter","steam_id":76561198173565391,"connected_time":1219000000000,"state":"active","ping":58},{"user_id":21,"name":"ATL1 | Kramer","steam_id":76561198083595936,"connected_time":6543000000000,"state":"active","ping":90},{"user_id":88,"name":"Farseer Ulwithy","steam_id":76561197965179245,"connected_time":2122000000000,"state":"active","ping":122},{"user_id":105,"name":"(`ÔΩ•œâÔΩ•¬¥)","steam_id":76561198000045766,"connected_time":1293000000000,"state":"active","ping":66},{"user_id":90,"name":"ford truck","steam_id":76561198051823844,"connected_time":2086000000000,"state":"active","ping":83},{"user_id":116,"name":"DingusDongus","steam_id":76561198413472674,"connected_time":343000000000,"state":"active","ping":33},{"user_id":115,"name":"Mannn i hate livin in Detrioit ","steam_id":76561198158206236,"connected_time":445000000000,"state":"active","ping":119},{"user_id":66,"name":"ash","steam_id":76561198127890645,"connected_time":3942000000000,"state":"active","ping":71},{"user_id":32,"name":"Lolxdloldx","steam_id":76561198136887125,"connected_time":6007000000000,"state":"active","ping":92},{"user_id":112,"name":"Rockhead","steam_id":76561197995196535,"connected_time":759000000000,"state":"active","ping":62},{"user_id":95,"name":"sam1521","steam_id":76561198027264163,"connected_time":1985000000000,"state":"active","ping":90},{"user_id":96,"name":"LuisManChelo","steam_id":76561198200867246,"connected_time":1908000000000,"state":"active","ping":127},{"user_id":97,"name":"The Notorious RBG","steam_id":76561198014275148,"connected_time":1878000000000,"state":"active","ping":68},{"user_id":104,"name":"‚ù§ Ashley ‚ù§","steam_id":76561198056428303,"connected_time":1392000000000,"state":"active","ping":109},{"user_id":117,"name":"sasharudzik","steam_id":76561199126617781,"connected_time":57000000000,"state":"active","ping":100},{"user_id":114,"name":"Xavibite","steam_id":76561198209380493,"connected_time":676000000000,"state":"active","ping":62},{"user_id":108,"name":"lost in the sauce","steam_id":76561199043827112,"connected_time":1121000000000,"state":"active","ping":81},{"user_id":109,"name":"floofy","steam_id":76561198389769098,"connected_time":1078000000000,"state":"active","ping":87},{"user_id":100,"name":"SomeCozyKid","steam_id":76561198086113234,"connected_time":1778000000000,"state":"active","ping":93}]},{"server_id":400,"name":"Uncletopia | Atlanta | 3 | Stopwatch Beta","name_short":"atl-3","host":"atl-1.us.uncletopia.com","port":27035,"enabled":true,"region":"us-east","cc":"us","latitude":33.753746,"longitude":-84.38633,"reserved":0,"last_update":"0001-01-01T00:00:00Z","name_a2s":"Uncletopia | Atlanta | 3 | Stopwatch Beta","protocol":17,"map":"pl_upward","folder":"tf","game":"Team Fortress","app_id":440,"player_count":0,"max_players":24,"Bots":0,"server_type":"Dedicated","server_os":"Linux","password":true,"vac":true,"version":"7742253","steam_id":85568392924515187,"keywords":["nocrits","nodmgspread","payload","uncletopia"],"game_id":440,"stv_port":27036,"stv_name":"Uncletopia | Atlanta | 3 | Stopwatch Beta | STV","players":null},{"server_id":401,"name":"Uncletopia | Atlanta | 4 | No Payload","name_short":"atl-4","host":"atl-1.us.uncletopia.com","port":27045,"enabled":true,"region":"us-east","cc":"us","latitude":33.753746,"longitude":-84.38633,"reserved":0,"last_update":"0001-01-01T00:00:00Z","name_a2s":"Uncletopia | Atlanta | 4 | No Payload","protocol":17,"map":"pl_pier","folder":"tf","game":"Team Fortress","app_id":440,"player_count":0,"max_players":24,"Bots":0,"server_type":"Dedicated","server_os":"Linux","password":true,"vac":true,"version":"7723704","steam_id":85568392924515188,"keywords":["nocrits","nodmgspread","payload","uncletopia"],"game_id":440,"stv_port":27046,"stv_name":"Uncletopia | Atlanta | 4 | No Payload | STV","players":null},{"server_id":2,"name":"Uncletopia | Chicago | 1 | All Maps","name_short":"chi-1","host":"chi-1.us.uncletopia.com","port":27015,"enabled":true,"region":"us-central","cc":"us","latitude":41.881832,"longitude":-87.62318,"reserved":0,"last_update":"0001-01-01T00:00:00Z","name_a2s":"Uncletopia | Chicago | 1 | All Maps","protocol":17,"map":"pl_snowycoast","folder":"tf","game":"Team Fortress","app_id":440,"player_count":24,"max_players":24,"Bots":0,"server_type":"Dedicated","server_os":"Linux","password":true,"vac":true,"version":"7742253","steam_id":85568392924469984,"keywords":["nocrits","nodmgspread","payload","uncletopia"],"game_id":440,"stv_port":27016,"stv_name":"Uncletopia | Chicago | 1 | All Maps | STV","players":[{"user_id":141,"name":"Velocircopter","steam_id":76561198847582048,"connected_time":451000000000,"state":"active","ping":72},{"user_id":137,"name":"Skelitor ‚ú™","steam_id":76561198043885634,"connected_time":482000000000,"state":"active","ping":64},{"user_id":138,"name":"nemesis","steam_id":76561198115050507,"connected_time":479000000000,"state":"active","ping":72},{"user_id":140,"name":"Regi","steam_id":76561198271508598,"connected_time":463000000000,"state":"active","ping":52},{"user_id":94,"name":"TheSmokingMan","steam_id":76561198032652995,"connected_time":3431000000000,"state":"active","ping":76},{"user_id":142,"name":"ass","steam_id":76561198154410933,"connected_time":385000000000,"state":"active","ping":71},{"user_id":136,"name":"Hylic","steam_id":76561199051314589,"connected_time":658000000000,"state":"active","ping":70},{"user_id":95,"name":"Dank","steam_id":76561198157983180,"connected_time":3425000000000,"state":"active","ping":61},{"user_id":146,"name":"6t26j","steam_id":76561198278282836,"connected_time":247000000000,"state":"active","ping":82},{"user_id":143,"name":"Ê≠¶ÂÉß","steam_id":76561198043876248,"connected_time":369000000000,"state":"active","ping":76},{"user_id":144,"name":"big guapo","steam_id":76561198103228695,"connected_time":331000000000,"state":"active","ping":62},{"user_id":145,"name":"based housewife","steam_id":76561198066812433,"connected_time":281000000000,"state":"active","ping":51},{"user_id":105,"name":"Hell's Reindeer","steam_id":76561198065310364,"connected_time":2540000000000,"state":"active","ping":55},{"user_id":147,"name":"leumas","steam_id":76561198240408540,"connected_time":227000000000,"state":"active","ping":87},{"user_id":118,"name":"Trollamoo","steam_id":76561198865767224,"connected_time":1955000000000,"state":"active","ping":54},{"user_id":129,"name":"boneyard","steam_id":76561199080454140,"connected_time":1065000000000,"state":"active","ping":65},{"user_id":148,"name":"Boxhead","steam_id":76561198010183947,"connected_time":174000000000,"state":"active","ping":117},{"user_id":102,"name":"notmanhattan","steam_id":76561198143117561,"connected_time":2879000000000,"state":"active","ping":45},{"user_id":120,"name":"Quantum Sauce","steam_id":76561198164034337,"connected_time":1717000000000,"state":"active","ping":78},{"user_id":151,"name":"Crazy__Biscuit","steam_id":76561198399851872,"connected_time":51000000000,"state":"active","ping":58},{"user_id":150,"name":"Busta Nutt","steam_id":76561198013308693,"connected_time":138000000000,"state":"active","ping":65},{"user_id":119,"name":"AverageRundownJoe.ttv","steam_id":76561198059359620,"connected_time":1899000000000,"state":"active","ping":75},{"user_id":89,"name":"Michaelpc1","steam_id":76561198088365519,"connected_time":4465000000000,"state":"active","ping":75},{"user_id":134,"name":"Daksuki","steam_id":76561198084127751,"connected_time":701000000000,"state":"active","ping":76}]},{"server_id":106,"name":"Uncletopia | Chicago | 2 | All Maps","name_short":"chi-2","host":"chi-1.us.uncletopia.com","port":27025,"enabled":true,"region":"us-central","cc":"us","latitude":41.881832,"longitude":-87.62318,"reserved":0,"last_update":"0001-01-01T00:00:00Z","name_a2s":"Uncletopia | Chicago | 2 | All Maps","protocol":17,"map":"pl_pier","folder":"tf","game":"Team Fortress","app_id":440,"player_count":0,"max_players":24,"Bots":0,"server_type":"Dedicated","server_os":"Linux","password":true,"vac":true,"version":"7742253","steam_id":85568392924469985,"keywords":["nocrits","nodmgspread","payload","uncletopia"],"game_id":440,"stv_port":27026,"stv_name":"Uncletopia | Chicago | 2 | All Maps | STV","players":null},{"server_id":402,"name":"Uncletopia | Chicago | 3 | All Maps","name_short":"chi-3","host":"chi-1.us.uncletopia.com","port":27035,"enabled":true,"region":"us-central","cc":"us","latitude":41.881832,"longitude":-87.62318,"reserved":0,"last_update":"0001-01-01T00:00:00Z","name_a2s":"Uncletopia | Chicago | 3 | All Maps","protocol":17,"map":"ctf_doublecross_snowy","folder":"tf","game":"Team Fortress","app_id":440,"player_count":23,"max_players":24,"Bots":0,"server_type":"Dedicated","server_os":"Linux","password":true,"vac":true,"version":"7742253","steam_id":85568392924515191,"keywords":["ctf","nocrits","nodmgspread","uncletopia"],"game_id":440,"stv_port":27036,"stv_name":"Uncletopia | Chicago | 3 | All Maps | STV","players":[{"user_id":225,"name":"-flagellum","steam_id":76561198006297974,"connected_time":3686000000000,"state":"active","ping":51},{"user_id":221,"name":"des","steam_id":76561198079226634,"connected_time":4148000000000,"state":"active","ping":65},{"user_id":240,"name":"Fitts1099","steam_id":76561198044986906,"connected_time":2685000000000,"state":"active","ping":43},{"user_id":261,"name":"Bruised Banana","steam_id":76561198364172677,"connected_time":1335000000000,"state":"active","ping":68},{"user_id":266,"name":"Gearb0x","steam_id":76561198043891659,"connected_time":947000000000,"state":"active","ping":47},{"user_id":267,"name":"Pyromainiac","steam_id":76561199259867180,"connected_time":936000000000,"state":"active","ping":96},{"user_id":268,"name":"Crazy Cane","steam_id":76561198993941174,"connected_time":934000000000,"state":"active","ping":91},{"user_id":179,"name":"I did meth","steam_id":76561199174310124,"connected_time":6642000000000,"state":"active","ping":56},{"user_id":265,"name":"Gibby","steam_id":76561198963413473,"connected_time":984000000000,"state":"active","ping":77},{"user_id":235,"name":"ratio","steam_id":76561198122059018,"connected_time":3181000000000,"state":"active","ping":60},{"user_id":276,"name":"Room","steam_id":76561199174579733,"connected_time":653000000000,"state":"active","ping":75},{"user_id":247,"name":"Bearegard","steam_id":76561198061926542,"connected_time":2112000000000,"state":"active","ping":60},{"user_id":271,"name":"Luffy","steam_id":76561198120914343,"connected_time":887000000000,"state":"active","ping":65},{"user_id":237,"name":"Roomsky","steam_id":76561198012827494,"connected_time":2864000000000,"state":"active","ping":90},{"user_id":242,"name":"L","steam_id":76561198067556825,"connected_time":2349000000000,"state":"active","ping":64},{"user_id":273,"name":"Got Hat?","steam_id":76561197998486431,"connected_time":826000000000,"state":"active","ping":65},{"user_id":248,"name":"The Party Wizard","steam_id":76561198043935182,"connected_time":2092000000000,"state":"active","ping":62},{"user_id":234,"name":"garmonbozia","steam_id":76561198287124402,"connected_time":3292000000000,"state":"active","ping":77},{"user_id":275,"name":"nvm_","steam_id":76561198843128678,"connected_time":690000000000,"state":"active","ping":48},{"user_id":278,"name":"gen","steam_id":76561199118569153,"connected_time":451000000000,"state":"active","ping":57},{"user_id":280,"name":"Jellypeen {Forklift Certified}","steam_id":76561198034158810,"connected_time":235000000000,"state":"active","ping":60},{"user_id":239,"name":"Madkiller Max","steam_id":76561197974470705,"connected_time":2839000000000,"state":"active","ping":76},{"user_id":282,"name":"minesneakeyes","steam_id":76561198171211725,"connected_time":158000000000,"state":"active","ping":87}]},{"server_id":403,"name":"Uncletopia | Chicago | 4 | All Maps","name_short":"chi-4","host":"chi-1.us.uncletopia.com","port":27045,"enabled":true,"region":"us-central","cc":"us","latitude":41.881832,"longitude":-87.62318,"reserved":0,"last_update":"0001-01-01T00:00:00Z","name_a2s":"Uncletopia | Chicago | 4 | All Maps","protocol":17,"map":"koth_lakeside_final","folder":"tf","game":"Team Fortress","app_id":440,"player_count":0,"max_players":24,"Bots":0,"server_type":"Dedicated","server_os":"Linux","password":true,"vac":true,"version":"7742253","steam_id":85568392924515193,"keywords":["cp","nocrits","nodmgspread","uncletopia"],"game_id":440,"stv_port":27046,"stv_name":"Uncletopia | Chicago | 4 | All Maps | STV","players":null},{"server_id":36,"name":"Uncletopia | Chicago | 5 | All Maps","name_short":"chi-5","host":"chi-2.us.uncletopia.com","port":27015,"enabled":true,"region":"us-central","cc":"us","latitude":41.881832,"longitude":-87.62318,"reserved":0,"last_update":"0001-01-01T00:00:00Z","name_a2s":"Uncletopia | Chicago | 5 | All Maps","protocol":17,"map":"koth_highpass","folder":"tf","game":"Team Fortress","app_id":440,"player_count":0,"max_players":24,"Bots":0,"server_type":"Dedicated","server_os":"Linux","password":true,"vac":true,"version":"7742253","steam_id":85568392924866362,"keywords":["cp","nocrits","nodmgspread","uncletopia"],"game_id":440,"stv_port":27016,"stv_name":"Uncletopia | Chicago | 5 | All Maps | STV","players":null},{"server_id":37,"name":"Uncletopia | Chicago | 6 | All Maps","name_short":"chi-6","host":"chi-2.us.uncletopia.com","port":27025,"enabled":true,"region":"us-central","cc":"us","latitude":41.881832,"longitude":-87.62318,"reserved":0,"last_update":"0001-01-01T00:00:00Z","name_a2s":"Uncletopia | Chicago | 6 | All Maps","protocol":17,"map":"koth_lakeside_final","folder":"tf","game":"Team Fortress","app_id":440,"player_count":0,"max_players":24,"Bots":0,"server_type":"Dedicated","server_os":"Linux","password":true,"vac":true,"version":"7742253","steam_id":85568392924866363,"keywords":["cp","nocrits","nodmgspread","uncletopia"],"game_id":440,"stv_port":27026,"stv_name":"Uncletopia | Chicago | 6 | All Maps | STV","players":null},{"server_id":38,"name":"Uncletopia | Chicago | 7 | Stopwatch Beta","name_short":"chi-7","host":"chi-2.us.uncletopia.com","port":27035,"enabled":true,"region":"us-central","cc":"us","latitude":41.881832,"longitude":-87.62318,"reserved":0,"last_update":"0001-01-01T00:00:00Z","name_a2s":"Uncletopia | Chicago | 7 | Stopwatch Beta","protocol":17,"map":"cp_altitude","folder":"tf","game":"Team Fortress","app_id":440,"player_count":0,"max_players":24,"Bots":0,"server_type":"Dedicated","server_os":"Linux","password":true,"vac":true,"version":"7742253","steam_id":85568392924866364,"keywords":["cp","nocrits","nodmgspread","uncletopia"],"game_id":440,"stv_port":27036,"stv_name":"Uncletopia | Chicago | 7 | Stopwatch Beta | STV","players":null},{"server_id":39,"name":"Uncletopia | Chicago | 8 | Community","name_short":"chi-8","host":"chi-2.us.uncletopia.com","port":27045,"enabled":true,"region":"us-central","cc":"us","latitude":41.881832,"longitude":-87.62318,"reserved":0,"last_update":"0001-01-01T00:00:00Z","name_a2s":"Uncletopia | Chicago | 8 | Community","protocol":17,"map":"koth_cascade","folder":"tf","game":"Team Fortress","app_id":440,"player_count":0,"max_players":24,"Bots":0,"server_type":"Dedicated","server_os":"Linux","password":true,"vac":true,"version":"7742253","steam_id":85568392924866365,"keywords":["cp","nocrits","nodmgspread","uncletopia"],"game_id":440,"stv_port":27046,"stv_name":"Uncletopia | Chicago | 8 | Community | STV","players":null},{"server_id":8,"name":"Uncletopia | Dallas | 1 | All Maps","name_short":"dal-1","host":"dal-1.us.uncletopia.com","port":27015,"enabled":true,"region":"us-central","cc":"us","latitude":32.779167,"longitude":-96.80889,"reserved":0,"last_update":"0001-01-01T00:00:00Z","name_a2s":"Uncletopia | Dallas | 1 | All Maps","protocol":17,"map":"koth_highpass","folder":"tf","game":"Team Fortress","app_id":440,"player_count":18,"max_players":24,"Bots":0,"server_type":"Dedicated","server_os":"Linux","password":true,"vac":true,"version":"7742253","steam_id":85568392924469986,"keywords":["cp","nocrits","nodmgspread","uncletopia"],"game_id":440,"stv_port":27016,"stv_name":"Uncletopia | Dallas | 1 | All Maps | STV","players":[{"user_id":3,"name":"Horizons","steam_id":76561198106417594,"connected_time":3848000000000,"state":"active","ping":45},{"user_id":4,"name":"[LINUX] F2P=S*(M/B)+H || Spy!","steam_id":76561198093538786,"connected_time":3817000000000,"state":"active","ping":43},{"user_id":53,"name":"NotGavin","steam_id":76561199201118645,"connected_time":386000000000,"state":"active","ping":52},{"user_id":20,"name":"kloo_","steam_id":76561199090218013,"connected_time":2698000000000,"state":"active","ping":46},{"user_id":47,"name":"F‚ôØ A‚ôØ ‚àû","steam_id":76561198073493267,"connected_time":684000000000,"state":"active","ping":60},{"user_id":52,"name":"ozymandias","steam_id":76561198983415087,"connected_time":469000000000,"state":"active","ping":61},{"user_id":58,"name":"King Kinyon","steam_id":76561198080525234,"connected_time":99000000000,"state":"active","ping":68},{"user_id":12,"name":"Chuckled","steam_id":76561198217425919,"connected_time":3050000000000,"state":"active","ping":78},{"user_id":43,"name":"Coffeemelon","steam_id":76561198285891257,"connected_time":1301000000000,"state":"active","ping":94},{"user_id":59,"name":"Firesword654","steam_id":76561199174342673,"connected_time":65000000000,"state":"active","ping":73},{"user_id":44,"name":"hamdrinker985","steam_id":76561199241807676,"connected_time":967000000000,"state":"active","ping":96},{"user_id":55,"name":"Scum Knight","steam_id":76561198282444763,"connected_time":320000000000,"state":"active","ping":85},{"user_id":56,"name":"iluvtoust","steam_id":76561198869269207,"connected_time":256000000000,"state":"active","ping":51},{"user_id":21,"name":"Weakest Touhou Fan","steam_id":76561198388363822,"connected_time":2670000000000,"state":"active","ping":117},{"user_id":22,"name":"Dwaggy","steam_id":76561198027369555,"connected_time":2659000000000,"state":"active","ping":62},{"user_id":57,"name":"tae","steam_id":76561198294360662,"connected_time":204000000000,"state":"active","ping":76},{"user_id":51,"name":"N0xferatu","steam_id":76561198013225832,"connected_time":515000000000,"state":"active","ping":44},{"user_id":34,"name":"Raincool","steam_id":76561198042953645,"connected_time":2326000000000,"state":"active","ping":91}]},{"server_id":108,"name":"Uncletopia | Dallas | 2 | All Maps","name_short":"dal-2","host":"dal-1.us.uncletopia.com","port":27025,"enabled":true,"region":"us-central","cc":"us","latitude":32.779167,"longitude":-96.80889,"reserved":0,"last_update":"0001-01-01T00:00:00Z","name_a2s":"Uncletopia | Dallas | 2 | All Maps","protocol":17,"map":"pl_barnblitz","folder":"tf","game":"Team Fortress","app_id":440,"player_count":0,"max_players":24,"Bots":0,"server_type":"Dedicated","server_os":"Linux","password":true,"vac":true,"version":"7742253","steam_id":85568392924469988,"keywords":["nocrits","nodmgspread","payload","uncletopia"],"game_id":440,"stv_port":27026,"stv_name":"Uncletopia | Dallas | 2 | All Maps | STV","players":null},{"server_id":5,"name":"Uncletopia | Frankfurt | 1 | All Maps","name_short":"frk-1","host":"frk-1.de.uncletopia.com","port":27015,"enabled":true,"region":"eu","cc":"de","latitude":50.110924,"longitude":8.682127,"reserved":0,"last_update":"0001-01-01T00:00:00Z","name_a2s":"Uncletopia | Frankfurt | 1 | All Maps","protocol":17,"map":"pl_borneo","folder":"tf","game":"Team Fortress","app_id":440,"player_count":24,"max_players":24,"Bots":0,"server_type":"Dedicated","server_os":"Linux","password":true,"vac":true,"version":"7742253","steam_id":85568392924469989,"keywords":["nocrits","nodmgspread","payload","uncletopia"],"game_id":440,"stv_port":27016,"stv_name":"Uncletopia | Frankfurt | 1 | All Maps | STV","players":[{"user_id":615,"name":"Shirogame","steam_id":76561198126154697,"connected_time":573000000000,"state":"active","ping":69},{"user_id":608,"name":"MAKENTAKEN","steam_id":76561199127359587,"connected_time":918000000000,"state":"active","ping":93},{"user_id":571,"name":"Gui","steam_id":76561198072054467,"connected_time":2968000000000,"state":"active","ping":116},{"user_id":601,"name":"sNol","steam_id":76561198055045485,"connected_time":1075000000000,"state":"active","ping":82},{"user_id":574,"name":"bANji","steam_id":76561198108898161,"connected_time":2900000000000,"state":"active","ping":45},{"user_id":621,"name":"Safe Joint","steam_id":76561198017799687,"connected_time":284000000000,"state":"active","ping":110},{"user_id":594,"name":"Heavy like a Brinks truck","steam_id":76561198197304886,"connected_time":2108000000000,"state":"active","ping":116},{"user_id":604,"name":"Alekk","steam_id":76561198093533143,"connected_time":1056000000000,"state":"active","ping":73},{"user_id":616,"name":"I Save D*ck By Giving It CPR","steam_id":76561199212370367,"connected_time":565000000000,"state":"active","ping":61},{"user_id":603,"name":"Slooshie","steam_id":76561198008749909,"connected_time":1058000000000,"state":"active","ping":60},{"user_id":617,"name":"Jamie Hyneman","steam_id":76561198364121077,"connected_time":559000000000,"state":"active","ping":93},{"user_id":585,"name":"0","steam_id":76561198267909207,"connected_time":2664000000000,"state":"active","ping":86},{"user_id":579,"name":"BitterStep","steam_id":76561199103959197,"connected_time":2830000000000,"state":"active","ping":96},{"user_id":580,"name":"≈Ωgr√¶√êek113","steam_id":76561198306883632,"connected_time":2822000000000,"state":"active","ping":61},{"user_id":497,"name":"Icarus300","steam_id":76561198015125766,"connected_time":7821000000000,"state":"active","ping":85},{"user_id":592,"name":"The Wolf Leader","steam_id":76561198038007462,"connected_time":2402000000000,"state":"active","ping":61},{"user_id":620,"name":"anairat","steam_id":76561198863788240,"connected_time":437000000000,"state":"active","ping":78},{"user_id":623,"name":"sHIFTINGvORTEX","steam_id":76561198231648332,"connected_time":232000000000,"state":"active","ping":77},{"user_id":606,"name":"jaMie","steam_id":76561198170148783,"connected_time":1039000000000,"state":"active","ping":53},{"user_id":607,"name":"simon","steam_id":76561198880361394,"connected_time":978000000000,"state":"active","ping":48},{"user_id":610,"name":"Kodutah","steam_id":76561198203405574,"connected_time":888000000000,"state":"active","ping":83},{"user_id":613,"name":"Hool","steam_id":76561198108733152,"connected_time":664000000000,"state":"active","ping":115},{"user_id":600,"name":"root","steam_id":76561198082551051,"connected_time":1103000000000,"state":"active","ping":83},{"user_id":589,"name":"Doggo","steam_id":76561198091909701,"connected_time":2532000000000,"state":"active","ping":86}]},{"server_id":110,"name":"Uncletopia | Frankfurt | 2 | All Maps","name_short":"frk-2","host":"frk-1.de.uncletopia.com","port":27025,"enabled":true,"region":"eu","cc":"de","latitude":50.110924,"longitude":8.682127,"reserved":0,"last_update":"0001-01-01T00:00:00Z","name_a2s":"Uncletopia | Frankfurt | 2 | All Maps","protocol":17,"map":"pl_barnblitz","folder":"tf","game":"Team Fortress","app_id":440,"player_count":24,"max_players":24,"Bots":0,"server_type":"Dedicated","server_os":"Linux","password":true,"vac":true,"version":"7742253","steam_id":85568392924469990,"keywords":["nocrits","nodmgspread","payload","uncletopia"],"game_id":440,"stv_port":27026,"stv_name":"Uncletopia | Frankfurt | 2 | All Maps | STV","players":[{"user_id":380,"name":"Johnny","steam_id":76561198880265246,"connected_time":555000000000,"state":"active","ping":84},{"user_id":379,"name":"–∫—É–¥–∞ –º—ã –ª–µ–∑–µ–º?","steam_id":76561198023835598,"connected_time":646000000000,"state":"active","ping":113},{"user_id":387,"name":"Deds","steam_id":76561199115928939,"connected_time":334000000000,"state":"active","ping":124},{"user_id":384,"name":"F2P gameing","steam_id":76561198834713682,"connected_time":471000000000,"state":"active","ping":74},{"user_id":371,"name":"lulu","steam_id":76561199147764133,"connected_time":1416000000000,"state":"active","ping":66},{"user_id":360,"name":"Cosmetic brain","steam_id":76561198055936410,"connected_time":2104000000000,"state":"active","ping":85},{"user_id":370,"name":"FrozenTiddies","steam_id":76561198271916832,"connected_time":1437000000000,"state":"active","ping":49},{"user_id":361,"name":"Rose-Marie","steam_id":76561198055611092,"connected_time":1942000000000,"state":"active","ping":44},{"user_id":385,"name":"The brown part of the banana","steam_id":76561198323425034,"connected_time":464000000000,"state":"active","ping":82},{"user_id":367,"name":"ÍßÅ‡ºíXenon‡ºíÍßÇ","steam_id":76561198120502313,"connected_time":1571000000000,"state":"active","ping":64},{"user_id":376,"name":"√Ñ√§rik ‚ô£","steam_id":76561198131871737,"connected_time":1192000000000,"state":"active","ping":57},{"user_id":368,"name":"Curlew","steam_id":76561198075884540,"connected_time":1558000000000,"state":"active","ping":84},{"user_id":382,"name":"a fruitful and unwind","steam_id":76561198978029443,"connected_time":512000000000,"state":"active","ping":88},{"user_id":372,"name":"ùñâùñóùñÜùñåùñîùñì","steam_id":76561199436349867,"connected_time":1364000000000,"state":"active","ping":94},{"user_id":347,"name":"Codename 50","steam_id":76561198024454833,"connected_time":2970000000000,"state":"active","ping":153},{"user_id":325,"name":"Clumsy ‚ô•","steam_id":76561199049413586,"connected_time":4236000000000,"state":"active","ping":77},{"user_id":322,"name":"C√©l√©rio","steam_id":76561198088253576,"connected_time":4396000000000,"state":"active","ping":47},{"user_id":386,"name":"jwesa","steam_id":76561198018330092,"connected_time":461000000000,"state":"active","ping":79},{"user_id":389,"name":"bucket hat larry","steam_id":76561198136511793,"connected_time":261000000000,"state":"active","ping":60},{"user_id":377,"name":"Frog","steam_id":76561198043981067,"connected_time":924000000000,"state":"active","ping":73},{"user_id":348,"name":"Leto","steam_id":76561198419429742,"connected_time":2969000000000,"state":"active","ping":52},{"user_id":357,"name":"Farmercy","steam_id":76561198000038039,"connected_time":2244000000000,"state":"active","ping":60},{"user_id":388,"name":"*laughs at sentry*","steam_id":76561198254695811,"connected_time":323000000000,"state":"active","ping":73},{"user_id":331,"name":"Mean Green Peen","steam_id":76561198228455736,"connected_time":3870000000000,"state":"active","ping":62}]},{"server_id":308,"name":"Uncletopia | Frankfurt | 3 | All Maps","name_short":"frk-3","host":"frk-1.de.uncletopia.com","port":27035,"enabled":true,"region":"eu","cc":"de","latitude":50.110924,"longitude":8.682127,"reserved":0,"last_update":"0001-01-01T00:00:00Z","name_a2s":"Uncletopia | Frankfurt | 3 | All Maps","protocol":17,"map":"cp_dustbowl","folder":"tf","game":"Team Fortress","app_id":440,"player_count":2,"max_players":24,"Bots":0,"server_type":"Dedicated","server_os":"Linux","password":true,"vac":true,"version":"7742253","steam_id":85568392924504274,"keywords":["cp","nocrits","nodmgspread","uncletopia"],"game_id":440,"stv_port":27036,"stv_name":"Uncletopia | Frankfurt | 3 | All Maps | STV","players":[{"user_id":63,"name":"Bendy_Tank","steam_id":76561199438911774,"connected_time":792000000000,"state":"active","ping":49},{"user_id":64,"name":"cappy","steam_id":76561198231859236,"connected_time":688000000000,"state":"active","ping":77}]},{"server_id":309,"name":"Uncletopia | Frankfurt | 4 | All Maps","name_short":"frk-4","host":"frk-1.de.uncletopia.com","port":27045,"enabled":true,"region":"eu","cc":"de","latitude":50.110924,"longitude":8.682127,"reserved":0,"last_update":"0001-01-01T00:00:00Z","name_a2s":"Uncletopia | Frankfurt | 4 | All Maps","protocol":17,"map":"koth_viaduct","folder":"tf","game":"Team Fortress","app_id":440,"player_count":0,"max_players":24,"Bots":0,"server_type":"Dedicated","server_os":"Linux","password":true,"vac":true,"version":"7742253","steam_id":85568392924504275,"keywords":["cp","nocrits","nodmgspread","uncletopia"],"game_id":440,"stv_port":27046,"stv_name":"Uncletopia | Frankfurt | 4 | All Maps | STV","players":null},{"server_id":310,"name":"Uncletopia | Frankfurt | 5 | All Maps","name_short":"frk-5","host":"frk-1.de.uncletopia.com","port":27055,"enabled":true,"region":"eu","cc":"de","latitude":50.110924,"longitude":8.682127,"reserved":0,"last_update":"0001-01-01T00:00:00Z","name_a2s":"Uncletopia | Frankfurt | 5 | All Maps","protocol":17,"map":"koth_viaduct","folder":"tf","game":"Team Fortress","app_id":440,"player_count":0,"max_players":24,"Bots":0,"server_type":"Dedicated","server_os":"Linux","password":true,"vac":true,"version":"7742253","steam_id":85568392924504277,"keywords":["cp","nocrits","nodmgspread","uncletopia"],"game_id":440,"stv_port":27056,"stv_name":"Uncletopia | Frankfurt | 5 | All Maps | STV","players":null},{"server_id":311,"name":"Uncletopia | Frankfurt | 6 | All Maps","name_short":"frk-6","host":"frk-1.de.uncletopia.com","port":27065,"enabled":true,"region":"eu","cc":"de","latitude":50.110924,"longitude":8.682127,"reserved":0,"last_update":"0001-01-01T00:00:00Z","name_a2s":"Uncletopia | Frankfurt | 6 | All Maps","protocol":17,"map":"koth_lakeside_final","folder":"tf","game":"Team Fortress","app_id":440,"player_count":0,"max_players":24,"Bots":0,"server_type":"Dedicated","server_os":"Linux","password":true,"vac":true,"version":"7742253","steam_id":85568392924504278,"keywords":["cp","nocrits","nodmgspread","uncletopia"],"game_id":440,"stv_port":27066,"stv_name":"Uncletopia | Frankfurt | 6 | All Maps | STV","players":null},{"server_id":23,"name":"Uncletopia | Frankfurt | 7 | Stopwatch Beta","name_short":"frk-7","host":"frk-1.de.uncletopia.com","port":27075,"enabled":true,"region":"eu","cc":"de","latitude":50.110924,"longitude":8.682127,"reserved":0,"last_update":"0001-01-01T00:00:00Z","name_a2s":"Uncletopia | Frankfurt | 7 | Stopwatch Beta","protocol":17,"map":"workshop/koth_product_final.ugc454272353","folder":"tf","game":"Team Fortress","app_id":440,"player_count":10,"max_players":24,"Bots":0,"server_type":"Dedicated","server_os":"Linux","password":true,"vac":true,"version":"7742253","steam_id":85568392924742827,"keywords":["cp","nocrits","nodmgspread","uncletopia"],"game_id":440,"stv_port":27076,"stv_name":"Uncletopia | Frankfurt | 7 | Stopwatch Beta | STV","players":[{"user_id":88,"name":"fried","steam_id":76561198307522022,"connected_time":2040000000000,"state":"active","ping":53},{"user_id":102,"name":"catboy trickster","steam_id":76561198075665211,"connected_time":245000000000,"state":"active","ping":33},{"user_id":95,"name":"Musicano","steam_id":76561198114541088,"connected_time":1090000000000,"state":"active","ping":79},{"user_id":55,"name":"Auditor302","steam_id":76561199150233050,"connected_time":4517000000000,"state":"active","ping":187},{"user_id":90,"name":"TheJustTeaPlayer","steam_id":76561198980203796,"connected_time":1915000000000,"state":"active","ping":105},{"user_id":105,"name":"the","steam_id":76561198293567489,"connected_time":77000000000,"state":"active","ping":65},{"user_id":96,"name":"Radegast the Brown","steam_id":76561198075489505,"connected_time":1057000000000,"state":"active","ping":60},{"user_id":106,"name":"filetype","steam_id":76561198884659731,"connected_time":52000000000,"state":"active","ping":112},{"user_id":99,"name":"Frank","steam_id":76561198086672774,"connected_time":588000000000,"state":"active","ping":52},{"user_id":107,"name":"RFireRed","steam_id":76561198982078622,"connected_time":51000000000,"state":"active","ping":78}]},{"server_id":24,"name":"Uncletopia | Frankfurt | 8 | Community","name_short":"frk-8","host":"frk-1.de.uncletopia.com","port":27085,"enabled":true,"region":"eu","cc":"de","latitude":50.110924,"longitude":8.682127,"reserved":0,"last_update":"0001-01-01T00:00:00Z","name_a2s":"Uncletopia | Frankfurt | 8 | Community","protocol":17,"map":"workshop/pl_fifthcurve_rc1.ugc648227046","folder":"tf","game":"Team Fortress","app_id":440,"player_count":0,"max_players":24,"Bots":0,"server_type":"Dedicated","server_os":"Linux","password":true,"vac":true,"version":"7742253","steam_id":85568392924742828,"keywords":["nocrits","nodmgspread","payload","uncletopia"],"game_id":440,"stv_port":27086,"stv_name":"Uncletopia | Frankfurt | 8 | Community | STV","players":null},{"server_id":202,"name":"Uncletopia | Hong Kong | 1 | All Maps","name_short":"hgk-1","host":"hgk-1.hk.uncletopia.com","port":27015,"enabled":true,"region":"asia","cc":"hk","latitude":22.302711,"longitude":114.177216,"reserved":0,"last_update":"0001-01-01T00:00:00Z","name_a2s":"Uncletopia | Hong Kong | 1 | All Maps","protocol":17,"map":"pl_badwater","folder":"tf","game":"Team Fortress","app_id":440,"player_count":17,"max_players":24,"Bots":0,"server_type":"Dedicated","server_os":"Linux","password":true,"vac":true,"version":"7742253","steam_id":85568392924494504,"keywords":["nocrits","nodmgspread","payload","uncletopia"],"game_id":440,"stv_port":27016,"stv_name":"Uncletopia | Hong Kong | 1 | All Maps | STV","players":[{"user_id":669,"name":"ÊØç„ÅÆËÇâÂõ£Â≠ê","steam_id":76561198069561896,"connected_time":1313000000000,"state":"active","ping":32},{"user_id":676,"name":"Avg KFC Enjoyer","steam_id":76561198959978678,"connected_time":473000000000,"state":"active","ping":77},{"user_id":670,"name":"Darknight","steam_id":76561199090139287,"connected_time":1073000000000,"state":"active","ping":89},{"user_id":671,"name":"WednesdayFan87","steam_id":76561198081210151,"connected_time":924000000000,"state":"active","ping":62},{"user_id":665,"name":"u/Plencers2","steam_id":76561198311052198,"connected_time":1584000000000,"state":"active","ping":75},{"user_id":618,"name":"Waltuh (CEO of Chicanery)","steam_id":76561199257300024,"connected_time":5510000000000,"state":"active","ping":72},{"user_id":546,"name":"Kurtie","steam_id":76561198144737876,"connected_time":12697000000000,"state":"active","ping":65},{"user_id":668,"name":"Tribal Mana","steam_id":76561198011757567,"connected_time":1463000000000,"state":"active","ping":97},{"user_id":661,"name":"quack","steam_id":76561198258934120,"connected_time":2037000000000,"state":"active","ping":67},{"user_id":673,"name":"lumi","steam_id":76561198069616943,"connected_time":790000000000,"state":"active","ping":61},{"user_id":622,"name":"AmaiToxic","steam_id":76561199122491157,"connected_time":5171000000000,"state":"active","ping":64},{"user_id":662,"name":"LOLGAL","steam_id":76561198347418251,"connected_time":1865000000000,"state":"active","ping":64},{"user_id":653,"name":"Gazzor","steam_id":76561199081356069,"connected_time":2953000000000,"state":"active","ping":134},{"user_id":674,"name":"Ëó§ÂéüË∑≥Êµ∑","steam_id":76561198144000290,"connected_time":638000000000,"state":"active","ping":41},{"user_id":663,"name":"Pro-State","steam_id":76561199004578668,"connected_time":1830000000000,"state":"active","ping":67},{"user_id":441,"name":"'","steam_id":76561198413116920,"connected_time":22616000000000,"state":"active","ping":75},{"user_id":654,"name":"Caff","steam_id":76561198149286308,"connected_time":2923000000000,"state":"active","ping":75}]},{"server_id":1,"name":"Uncletopia | Los Angeles | 1 | All Maps","name_short":"lax-1","host":"lax-1.us.uncletopia.com","port":27015,"enabled":true,"region":"us-west","cc":"us","latitude":33.94279,"longitude":-118.41004,"reserved":0,"last_update":"0001-01-01T00:00:00Z","name_a2s":"Uncletopia | Los Angeles | 1 | All Maps","protocol":17,"map":"pl_borneo","folder":"tf","game":"Team Fortress","app_id":440,"player_count":1,"max_players":24,"Bots":0,"server_type":"Dedicated","server_os":"Linux","password":true,"vac":true,"version":"7742253","steam_id":85568392924469991,"keywords":["nocrits","nodmgspread","payload","uncletopia"],"game_id":440,"stv_port":27016,"stv_name":"Uncletopia | Los Angeles | 1 | All Maps | STV","players":[{"user_id":3,"name":"Nibotshooter","steam_id":76561199284825579,"connected_time":504000000000,"state":"active","ping":71}]},{"server_id":112,"name":"Uncletopia | Los Angeles | 2 | All Maps","name_short":"lax-2","host":"lax-1.us.uncletopia.com","port":27025,"enabled":true,"region":"us-west","cc":"us","latitude":33.94279,"longitude":-118.41004,"reserved":0,"last_update":"0001-01-01T00:00:00Z","name_a2s":"Uncletopia | Los Angeles | 2 | All Maps","protocol":17,"map":"pl_upward","folder":"tf","game":"Team Fortress","app_id":440,"player_count":0,"max_players":24,"Bots":0,"server_type":"Dedicated","server_os":"Linux","password":true,"vac":true,"version":"7742253","steam_id":85568392924469992,"keywords":["nocrits","nodmgspread","payload","uncletopia"],"game_id":440,"stv_port":27026,"stv_name":"Uncletopia | Los Angeles | 2 | All Maps | STV","players":null},{"server_id":324,"name":"Uncletopia | Los Angeles | 3 | All Maps","name_short":"lax-3","host":"lax-1.us.uncletopia.com","port":27035,"enabled":true,"region":"us-west","cc":"us","latitude":33.94279,"longitude":-118.41004,"reserved":0,"last_update":"0001-01-01T00:00:00Z","name_a2s":"Uncletopia | Los Angeles | 3 | All Maps","protocol":17,"map":"pl_pier","folder":"tf","game":"Team Fortress","app_id":440,"player_count":0,"max_players":24,"Bots":0,"server_type":"Dedicated","server_os":"Linux","password":true,"vac":true,"version":"7742253","steam_id":85568392924510198,"keywords":["nocrits","nodmgspread","payload","uncletopia"],"game_id":440,"stv_port":27036,"stv_name":"Uncletopia | Los Angeles | 3 | All Maps | STV","players":null},{"server_id":25,"name":"Uncletopia | Los Angeles | 4 | Stopwatch Beta","name_short":"lax-4","host":"lax-1.us.uncletopia.com","port":27045,"enabled":true,"region":"us-west","cc":"us","latitude":33.94279,"longitude":-118.41004,"reserved":0,"last_update":"0001-01-01T00:00:00Z","name_a2s":"Uncletopia | Los Angeles | 4 | Stopwatch Beta","protocol":17,"map":"cp_process_final","folder":"tf","game":"Team Fortress","app_id":440,"player_count":0,"max_players":24,"Bots":0,"server_type":"Dedicated","server_os":"Linux","password":true,"vac":true,"version":"7742253","steam_id":85568392924510199,"keywords":["cp","nocrits","nodmgspread","uncletopia"],"game_id":440,"stv_port":27046,"stv_name":"Uncletopia | Los Angeles | 4 | Stopwatch Beta | STV","players":null},{"server_id":11,"name":"Uncletopia | London | 1 | All Maps","name_short":"lon-1","host":"lon-1.uk.uncletopia.com","port":27015,"enabled":true,"region":"eu","cc":"gb","latitude":51.509865,"longitude":-0.118092,"reserved":0,"last_update":"0001-01-01T00:00:00Z","name_a2s":"Uncletopia | London | 1 | All Maps","protocol":17,"map":"pl_borneo","folder":"tf","game":"Team Fortress","app_id":440,"player_count":22,"max_players":24,"Bots":0,"server_type":"Dedicated","server_os":"Linux","password":true,"vac":true,"version":"7742253","steam_id":85568392924367362,"keywords":["nocrits","nodmgspread","payload","uncletopia"],"game_id":440,"stv_port":27016,"stv_name":"Uncletopia | London | 1 | All Maps | STV","players":[{"user_id":481,"name":"Joseph Stalin LFT","steam_id":76561198033199746,"connected_time":303000000000,"state":"active","ping":48},{"user_id":446,"name":"I hate the alarm clock I chose","steam_id":76561198101624996,"connected_time":2616000000000,"state":"active","ping":90},{"user_id":475,"name":"loveless","steam_id":76561198142256651,"connected_time":629000000000,"state":"active","ping":84},{"user_id":482,"name":"Twin Fantasy (Mirror To Mirror)","steam_id":76561198397024973,"connected_time":251000000000,"state":"active","ping":34},{"user_id":472,"name":"Raivop","steam_id":76561197980854307,"connected_time":655000000000,"state":"active","ping":100},{"user_id":473,"name":"Chang supremacy","steam_id":76561198179324075,"connected_time":646000000000,"state":"active","ping":60},{"user_id":445,"name":"man builds a sandcastle (rare)","steam_id":76561199012566222,"connected_time":2761000000000,"state":"active","ping":61},{"user_id":450,"name":"Untermenshh","steam_id":76561198284636705,"connected_time":2523000000000,"state":"active","ping":103},{"user_id":427,"name":"your dads bald spot","steam_id":76561199383437138,"connected_time":4305000000000,"state":"active","ping":122},{"user_id":467,"name":"kavun","steam_id":76561198023461869,"connected_time":1365000000000,"state":"active","ping":82},{"user_id":452,"name":"Clamor_","steam_id":76561198104368295,"connected_time":2504000000000,"state":"active","ping":85},{"user_id":438,"name":"Nugget","steam_id":76561198338916407,"connected_time":3073000000000,"state":"active","ping":66},{"user_id":463,"name":"FUKTARD2005","steam_id":76561198839121591,"connected_time":1755000000000,"state":"active","ping":63},{"user_id":476,"name":"Alfred Schroom","steam_id":76561198117990411,"connected_time":618000000000,"state":"active","ping":110},{"user_id":466,"name":"Viki's Game","steam_id":76561199204821195,"connected_time":1473000000000,"state":"active","ping":97},{"user_id":477,"name":"no_name.dll","steam_id":76561199011969062,"connected_time":616000000000,"state":"active","ping":46},{"user_id":478,"name":"jelly donut","steam_id":76561198102947221,"connected_time":610000000000,"state":"active","ping":89},{"user_id":460,"name":"Lolbyte","steam_id":76561199239627724,"connected_time":2247000000000,"state":"active","ping":116},{"user_id":432,"name":"Kahvi","steam_id":76561198723244199,"connected_time":3841000000000,"state":"active","ping":81},{"user_id":470,"name":"polllky","steam_id":76561199013395201,"connected_time":694000000000,"state":"active","ping":64},{"user_id":479,"name":"WinsomeYapper9","steam_id":76561199275285546,"connected_time":606000000000,"state":"active","ping":97},{"user_id":425,"name":"clunk","steam_id":76561198836460767,"connected_time":4393000000000,"state":"active","ping":78}]},{"server_id":114,"name":"Uncletopia | London | 2 | All Maps","name_short":"lon-2","host":"lon-1.uk.uncletopia.com","port":27025,"enabled":true,"region":"eu","cc":"gb","latitude":51.509865,"longitude":-0.118092,"reserved":0,"last_update":"0001-01-01T00:00:00Z","name_a2s":"Uncletopia | London | 2 | All Maps","protocol":17,"map":"pl_pier","folder":"tf","game":"Team Fortress","app_id":440,"player_count":22,"max_players":24,"Bots":0,"server_type":"Dedicated","server_os":"Linux","password":true,"vac":true,"version":"7742253","steam_id":85568392924470941,"keywords":["nocrits","nodmgspread","payload","uncletopia"],"game_id":440,"stv_port":27026,"stv_name":"Uncletopia | London | 2 | All Maps | STV","players":[{"user_id":463,"name":"Dominus.","steam_id":76561199065917088,"connected_time":593000000000,"state":"active","ping":60},{"user_id":464,"name":"gus","steam_id":76561198876303958,"connected_time":555000000000,"state":"active","ping":100},{"user_id":429,"name":"My pee is red","steam_id":76561198219126032,"connected_time":2360000000000,"state":"active","ping":83},{"user_id":479,"name":"Ciaguta_rolex","steam_id":76561198046709588,"connected_time":4000000000,"state":"spawning","ping":137},{"user_id":461,"name":"apple","steam_id":76561198116932635,"connected_time":670000000000,"state":"active","ping":47},{"user_id":471,"name":"Desp4","steam_id":76561198040767473,"connected_time":229000000000,"state":"active","ping":76},{"user_id":466,"name":"r4ngerr","steam_id":76561198111721072,"connected_time":445000000000,"state":"active","ping":97},{"user_id":467,"name":"arm","steam_id":76561198289650669,"connected_time":345000000000,"state":"active","ping":55},{"user_id":473,"name":"Doggo","steam_id":76561198973038585,"connected_time":185000000000,"state":"active","ping":163},{"user_id":470,"name":"KeNNy L.O.L","steam_id":76561198041918418,"connected_time":252000000000,"state":"active","ping":90},{"user_id":450,"name":"One armed fiddle enthusiast","steam_id":76561198045847051,"connected_time":1570000000000,"state":"active","ping":55},{"user_id":472,"name":"Shezza","steam_id":76561198903969123,"connected_time":198000000000,"state":"active","ping":68},{"user_id":347,"name":"Jar","steam_id":76561198156384007,"connected_time":7851000000000,"state":"active","ping":54},{"user_id":474,"name":"Bruschetta","steam_id":76561198251927162,"connected_time":169000000000,"state":"active","ping":67},{"user_id":444,"name":"Silent Person","steam_id":76561198107763537,"connected_time":1861000000000,"state":"active","ping":79},{"user_id":452,"name":"MAG 7","steam_id":76561199013368332,"connected_time":1388000000000,"state":"active","ping":52},{"user_id":398,"name":"mike finger","steam_id":76561198975521602,"connected_time":5024000000000,"state":"active","ping":76},{"user_id":360,"name":"Blondie","steam_id":76561198080631634,"connected_time":7060000000000,"state":"active","ping":55},{"user_id":308,"name":"average f2p","steam_id":76561199136308055,"connected_time":10124000000000,"state":"active","ping":41},{"user_id":475,"name":"NiNY√É","steam_id":76561197995685294,"connected_time":159000000000,"state":"active","ping":44},{"user_id":414,"name":"Coac","steam_id":76561198085265740,"connected_time":3635000000000,"state":"active","ping":72},{"user_id":478,"name":"padillacampos","steam_id":76561198161923970,"connected_time":114000000000,"state":"active","ping":61}]},{"server_id":320,"name":"Uncletopia | London | 3 | All Maps","name_short":"lon-3","host":"lon-1.uk.uncletopia.com","port":27035,"enabled":true,"region":"eu","cc":"gb","latitude":51.509865,"longitude":-0.118092,"reserved":0,"last_update":"0001-01-01T00:00:00Z","name_a2s":"Uncletopia | London | 3 | All Maps","protocol":17,"map":"pl_frontier_final","folder":"tf","game":"Team Fortress","app_id":440,"player_count":24,"max_players":24,"Bots":0,"server_type":"Dedicated","server_os":"Linux","password":true,"vac":true,"version":"7742253","steam_id":85568392924510192,"keywords":["nocrits","nodmgspread","payload","uncletopia"],"game_id":440,"stv_port":27036,"stv_name":"Uncletopia | London | 3 | All Maps | STV","players":[{"user_id":212,"name":"Whizzo the Clown","steam_id":76561197995910627,"connected_time":460000000000,"state":"active","ping":128},{"user_id":199,"name":"doodgie","steam_id":76561198264934115,"connected_time":1841000000000,"state":"active","ping":48},{"user_id":216,"name":"he do be playing games thoo","steam_id":76561199020626489,"connected_time":163000000000,"state":"active","ping":80},{"user_id":185,"name":"Nathan","steam_id":76561198040069336,"connected_time":2952000000000,"state":"active","ping":58},{"user_id":165,"name":"poliakov.noam","steam_id":76561199259322961,"connected_time":3979000000000,"state":"active","ping":98},{"user_id":213,"name":"Ziltoid","steam_id":76561198020753675,"connected_time":452000000000,"state":"active","ping":75},{"user_id":189,"name":"Hexagon","steam_id":76561198151205758,"connected_time":2416000000000,"state":"active","ping":54},{"user_id":197,"name":"willus212","steam_id":76561199182615246,"connected_time":2087000000000,"state":"active","ping":63},{"user_id":218,"name":"cinar","steam_id":76561199015776420,"connected_time":53000000000,"state":"active","ping":47},{"user_id":180,"name":"cslevi","steam_id":76561198142858923,"connected_time":3223000000000,"state":"active","ping":69},{"user_id":186,"name":"tristan","steam_id":76561198096097448,"connected_time":2831000000000,"state":"active","ping":49},{"user_id":219,"name":"I got hacked","steam_id":76561199203082271,"connected_time":1000000000,"state":"connecting","ping":0},{"user_id":131,"name":"ciliorkun18","steam_id":76561198228942500,"connected_time":5335000000000,"state":"active","ping":95},{"user_id":134,"name":"Sverhrazym","steam_id":76561198868708664,"connected_time":5181000000000,"state":"active","ping":98},{"user_id":143,"name":"mismatch","steam_id":76561198041993514,"connected_time":4854000000000,"state":"active","ping":81},{"user_id":195,"name":"FTH","steam_id":76561198066287815,"connected_time":2152000000000,"state":"active","ping":119},{"user_id":144,"name":"The Hunky Squirrel","steam_id":76561198013295577,"connected_time":4828000000000,"state":"active","ping":94},{"user_id":205,"name":"hushhx","steam_id":76561198216200092,"connected_time":1538000000000,"state":"active","ping":46},{"user_id":211,"name":"Proofmean","steam_id":76561198878552103,"connected_time":759000000000,"state":"active","ping":39},{"user_id":196,"name":"TealSpark","steam_id":76561198024972980,"connected_time":2145000000000,"state":"active","ping":39},{"user_id":203,"name":"–ò–Ω—Å–ø–µ–∫—Ç–æ—Ä –ê—Ç–∞—Å","steam_id":76561199175688390,"connected_time":1783000000000,"state":"active","ping":85},{"user_id":215,"name":"frbuz","steam_id":76561198327135462,"connected_time":400000000000,"state":"active","ping":155},{"user_id":204,"name":"Motley_","steam_id":76561198116057976,"connected_time":1762000000000,"state":"active","ping":36},{"user_id":217,"name":"My left foot itches","steam_id":76561198078411001,"connected_time":140000000000,"state":"active","ping":91}]},{"server_id":321,"name":"Uncletopia | London | 4 | All Maps","name_short":"lon-4","host":"lon-1.uk.uncletopia.com","port":27045,"enabled":true,"region":"eu","cc":"gb","latitude":51.509865,"longitude":-0.118092,"reserved":0,"last_update":"0001-01-01T00:00:00Z","name_a2s":"Uncletopia | London | 4 | All Maps","protocol":17,"map":"pl_upward","folder":"tf","game":"Team Fortress","app_id":440,"player_count":22,"max_players":24,"Bots":0,"server_type":"Dedicated","server_os":"Linux","password":true,"vac":true,"version":"7742253","steam_id":85568392924510193,"keywords":["nocrits","nodmgspread","payload","uncletopia"],"game_id":440,"stv_port":27046,"stv_name":"Uncletopia | London | 4 | All Maps | STV","players":[{"user_id":514,"name":"Anvy","steam_id":76561198330437261,"connected_time":2264000000000,"state":"active","ping":101},{"user_id":551,"name":"DoctorTopLeL","steam_id":76561198088533595,"connected_time":312000000000,"state":"active","ping":104},{"user_id":544,"name":"Noob_with_source","steam_id":76561198870362103,"connected_time":501000000000,"state":"active","ping":60},{"user_id":564,"name":"tete","steam_id":76561198045222850,"connected_time":40000000000,"state":"active","ping":60},{"user_id":515,"name":"–õ–∞–¥–Ω–æ.","steam_id":76561198931776643,"connected_time":2262000000000,"state":"active","ping":93},{"user_id":486,"name":"Spootnak","steam_id":76561198049052518,"connected_time":3378000000000,"state":"active","ping":57},{"user_id":545,"name":"ball sniffa","steam_id":76561199022705805,"connected_time":499000000000,"state":"active","ping":44},{"user_id":554,"name":"HAHA, I KNOW ALL ABOUT YOU","steam_id":76561198037810091,"connected_time":234000000000,"state":"active","ping":104},{"user_id":549,"name":"EastmoreRandoms.","steam_id":76561198048921203,"connected_time":331000000000,"state":"active","ping":81},{"user_id":550,"name":"MoNo","steam_id":76561199218475044,"connected_time":329000000000,"state":"active","ping":83},{"user_id":562,"name":"zhern","steam_id":76561198027033926,"connected_time":74000000000,"state":"active","ping":58},{"user_id":560,"name":"Crab","steam_id":76561198366797226,"connected_time":171000000000,"state":"active","ping":98},{"user_id":563,"name":"I cheat on uncletopia","steam_id":76561199001455271,"connected_time":71000000000,"state":"spawning","ping":88},{"user_id":538,"name":"Valoxi","steam_id":76561197995042938,"connected_time":825000000000,"state":"active","ping":61},{"user_id":556,"name":"balanced diet","steam_id":76561198240320806,"connected_time":216000000000,"state":"active","ping":64},{"user_id":557,"name":"Hardway","steam_id":76561198272529254,"connected_time":199000000000,"state":"active","ping":62},{"user_id":527,"name":"Henk_de_Patatman","steam_id":76561198070103191,"connected_time":1794000000000,"state":"active","ping":43},{"user_id":536,"name":"hipster_doofus","steam_id":76561197970902697,"connected_time":1223000000000,"state":"active","ping":54},{"user_id":521,"name":"stinkyeseses","steam_id":76561198402218127,"connected_time":2099000000000,"state":"active","ping":108},{"user_id":559,"name":"UltimateAura","steam_id":76561198338361324,"connected_time":176000000000,"state":"active","ping":45},{"user_id":532,"name":"player","steam_id":76561198054474684,"connected_time":1460000000000,"state":"active","ping":90},{"user_id":561,"name":"AirReicj","steam_id":76561198843015458,"connected_time":171000000000,"state":"active","ping":75}]},{"server_id":21,"name":"Uncletopia | London | 5 | All Maps","name_short":"lon-5","host":"lon-1.uk.uncletopia.com","port":27055,"enabled":true,"region":"eu","cc":"gb","latitude":51.509865,"longitude":-0.118092,"reserved":0,"last_update":"0001-01-01T00:00:00Z","name_a2s":"Uncletopia | London | 5 | All Maps","protocol":17,"map":"koth_highpass","folder":"tf","game":"Team Fortress","app_id":440,"player_count":0,"max_players":24,"Bots":0,"server_type":"Dedicated","server_os":"Linux","password":true,"vac":true,"version":"7742253","steam_id":85568392924742829,"keywords":["cp","nocrits","nodmgspread","uncletopia"],"game_id":440,"stv_port":27056,"stv_name":"Uncletopia | London | 5 | All Maps | STV","players":null},{"server_id":22,"name":"Uncletopia | London | 6 | All Maps","name_short":"lon-6","host":"lon-1.uk.uncletopia.com","port":27065,"enabled":true,"region":"eu","cc":"gb","latitude":51.509865,"longitude":-0.118092,"reserved":0,"last_update":"0001-01-01T00:00:00Z","name_a2s":"Uncletopia | London | 6 | All Maps","protocol":17,"map":"koth_viaduct","folder":"tf","game":"Team Fortress","app_id":440,"player_count":0,"max_players":24,"Bots":0,"server_type":"Dedicated","server_os":"Linux","password":true,"vac":true,"version":"7742253","steam_id":85568392924742830,"keywords":["cp","nocrits","nodmgspread","uncletopia"],"game_id":440,"stv_port":27066,"stv_name":"Uncletopia | London | 6 | All Maps | STV","players":null},{"server_id":40,"name":"Uncletopia | London | 7 | No Payload","name_short":"lon-7","host":"lon-1.uk.uncletopia.com","port":27075,"enabled":true,"region":"eu","cc":"gb","latitude":51.509865,"longitude":-0.118092,"reserved":0,"last_update":"0001-01-01T00:00:00Z","name_a2s":"Uncletopia | London | 7 | No Payload","protocol":17,"map":"cp_badlands","folder":"tf","game":"Team Fortress","app_id":440,"player_count":0,"max_players":24,"Bots":0,"server_type":"Dedicated","server_os":"Linux","password":true,"vac":true,"version":"7742253","steam_id":85568392924964314,"keywords":["cp","nocrits","nodmgspread","uncletopia"],"game_id":440,"stv_port":27076,"stv_name":"Uncletopia | London | 7 | No Payload | STV","players":null},{"server_id":41,"name":"Uncletopia | London | 8 | Community","name_short":"lon-8","host":"lon-1.uk.uncletopia.com","port":27085,"enabled":true,"region":"eu","cc":"gb","latitude":51.509865,"longitude":-0.118092,"reserved":0,"last_update":"0001-01-01T00:00:00Z","name_a2s":"Uncletopia | London | 8 | Community","protocol":17,"map":"workshop/cp_logjam_rc12.ugc454812035","folder":"tf","game":"Team Fortress","app_id":440,"player_count":0,"max_players":24,"Bots":0,"server_type":"Dedicated","server_os":"Linux","password":true,"vac":true,"version":"7742253","steam_id":85568392924964315,"keywords":["cp","nocrits","nodmgspread","uncletopia"],"game_id":440,"stv_port":27086,"stv_name":"Uncletopia | London | 8 | Community | STV","players":null},{"server_id":300,"name":"Uncletopia | Montr√©al | 1 | All Maps","name_short":"mtl-1","host":"mtl-1.ca.uncletopia.com","port":27015,"enabled":true,"region":"us-east","cc":"ca","latitude":45.50889,"longitude":-73.56167,"reserved":0,"last_update":"0001-01-01T00:00:00Z","name_a2s":"Uncletopia | Montr√©al | 1 | All Maps","protocol":17,"map":"koth_lakeside_final","folder":"tf","game":"Team Fortress","app_id":440,"player_count":0,"max_players":24,"Bots":0,"server_type":"Dedicated","server_os":"Linux","password":true,"vac":true,"version":"7742253","steam_id":85568392924500087,"keywords":["cp","nocrits","nodmgspread","uncletopia"],"game_id":440,"stv_port":27016,"stv_name":"Uncletopia | Montr√©al | 1 | All Maps | STV","players":null},{"server_id":301,"name":"Uncletopia | Montr√©al | 2 | All Maps","name_short":"mtl-2","host":"mtl-1.ca.uncletopia.com","port":27025,"enabled":true,"region":"us-east","cc":"ca","latitude":45.50889,"longitude":-73.56167,"reserved":0,"last_update":"0001-01-01T00:00:00Z","name_a2s":"Uncletopia | Montr√©al | 2 | All Maps","protocol":17,"map":"koth_lakeside_final","folder":"tf","game":"Team Fortress","app_id":440,"player_count":0,"max_players":24,"Bots":0,"server_type":"Dedicated","server_os":"Linux","password":true,"vac":true,"version":"7742253","steam_id":85568392924500088,"keywords":["cp","nocrits","nodmgspread","uncletopia"],"game_id":440,"stv_port":27026,"stv_name":"Uncletopia | Montr√©al | 2 | All Maps | STV","players":null},{"server_id":302,"name":"Uncletopia | Montr√©al | 3 | All Maps","name_short":"mtl-3","host":"mtl-1.ca.uncletopia.com","port":27035,"enabled":true,"region":"us-east","cc":"ca","latitude":45.50889,"longitude":-73.56167,"reserved":0,"last_update":"0001-01-01T00:00:00Z","name_a2s":"Uncletopia | Montr√©al | 3 | All Maps","protocol":17,"map":"pl_badwater","folder":"tf","game":"Team Fortress","app_id":440,"player_count":0,"max_players":24,"Bots":0,"server_type":"Dedicated","server_os":"Linux","password":true,"vac":true,"version":"7742253","steam_id":85568392924500089,"keywords":["nocrits","nodmgspread","payload","uncletopia"],"game_id":440,"stv_port":27036,"stv_name":"Uncletopia | Montr√©al | 3 | All Maps | STV","players":null},{"server_id":303,"name":"Uncletopia | Montr√©al | 4 | No Payload","name_short":"mtl-4","host":"mtl-1.ca.uncletopia.com","port":27045,"enabled":true,"region":"us-east","cc":"ca","latitude":45.50889,"longitude":-73.56167,"reserved":0,"last_update":"0001-01-01T00:00:00Z","name_a2s":"Uncletopia | Montr√©al | 4 | No Payload","protocol":17,"map":"koth_highpass","folder":"tf","game":"Team Fortress","app_id":440,"player_count":0,"max_players":24,"Bots":0,"server_type":"Dedicated","server_os":"Linux","password":true,"vac":true,"version":"7742253","steam_id":85568392924500090,"keywords":["cp","nocrits","nodmgspread","uncletopia"],"game_id":440,"stv_port":27046,"stv_name":"Uncletopia | Montr√©al | 4 | No Payload | STV","players":null},{"server_id":13,"name":"Uncletopia | New York City | 1 | All Maps","name_short":"nyc-1","host":"nyc-1.us.uncletopia.com","port":27015,"enabled":true,"region":"us-east","cc":"us","latitude":40.73061,"longitude":-73.93524,"reserved":0,"last_update":"0001-01-01T00:00:00Z","name_a2s":"Uncletopia | New York City | 1 | All Maps","protocol":17,"map":"plr_nightfall_final","folder":"tf","game":"Team Fortress","app_id":440,"player_count":24,"max_players":24,"Bots":0,"server_type":"Dedicated","server_os":"Linux","password":true,"vac":true,"version":"7742253","steam_id":85568392924469993,"keywords":["nocrits","nodmgspread","payload","uncletopia"],"game_id":440,"stv_port":27016,"stv_name":"Uncletopia | New York City | 1 | All Maps | STV","players":[{"user_id":169,"name":"MILF Gaming","steam_id":76561198155378170,"connected_time":379000000000,"state":"active","ping":57},{"user_id":161,"name":"JoCaleb02","steam_id":76561198272389829,"connected_time":1235000000000,"state":"active","ping":76},{"user_id":114,"name":"catgirl giantess in heat","steam_id":76561198439042583,"connected_time":4408000000000,"state":"active","ping":98},{"user_id":136,"name":"Senator Armstrong","steam_id":76561199069759034,"connected_time":3150000000000,"state":"active","ping":71},{"user_id":149,"name":"hotline bling","steam_id":76561198984131011,"connected_time":2372000000000,"state":"active","ping":64},{"user_id":164,"name":"Geloman","steam_id":76561198005501322,"connected_time":1071000000000,"state":"active","ping":58},{"user_id":132,"name":"Fat Man","steam_id":76561198118957055,"connected_time":3261000000000,"state":"active","ping":36},{"user_id":156,"name":"Ubadiah","steam_id":76561198329996885,"connected_time":1647000000000,"state":"active","ping":53},{"user_id":138,"name":"(not) Uncle Dane Real","steam_id":76561198972038742,"connected_time":3091000000000,"state":"active","ping":151},{"user_id":154,"name":"LobsterPot","steam_id":76561198072225973,"connected_time":2029000000000,"state":"active","ping":45},{"user_id":142,"name":"ShinyOrion (She/Her)","steam_id":76561198408378321,"connected_time":2658000000000,"state":"active","ping":59},{"user_id":86,"name":"El_Jackso","steam_id":76561198126121555,"connected_time":6362000000000,"state":"active","ping":67},{"user_id":168,"name":"Microgoomba","steam_id":76561198874531590,"connected_time":717000000000,"state":"active","ping":55},{"user_id":106,"name":"Henry Toyota?","steam_id":76561198112200175,"connected_time":4664000000000,"state":"active","ping":52},{"user_id":150,"name":"Diamond Jack","steam_id":76561198321304762,"connected_time":2284000000000,"state":"active","ping":45},{"user_id":148,"name":"Sprucelass","steam_id":76561197998391724,"connected_time":2455000000000,"state":"active","ping":64},{"user_id":120,"name":"rlty","steam_id":76561198009395055,"connected_time":4126000000000,"state":"active","ping":50},{"user_id":62,"name":"finnby","steam_id":76561198052542017,"connected_time":8387000000000,"state":"active","ping":71},{"user_id":145,"name":"moodi catgirl","steam_id":76561198124028045,"connected_time":2530000000000,"state":"active","ping":52},{"user_id":162,"name":"void_star","steam_id":76561198035696014,"connected_time":1181000000000,"state":"active","ping":100},{"user_id":163,"name":"yop","steam_id":76561198137241159,"connected_time":1179000000000,"state":"active","ping":56},{"user_id":167,"name":"‚ô•Phocae‚ô•","steam_id":76561199317584594,"connected_time":1028000000000,"state":"active","ping":95},{"user_id":147,"name":"puppygirl gaming","steam_id":76561198044363630,"connected_time":2501000000000,"state":"active","ping":46},{"user_id":113,"name":"Soph The Dark Elf","steam_id":76561198294426385,"connected_time":4495000000000,"state":"active","ping":78}]},{"server_id":14,"name":"Uncletopia | New York City | 2 | All Maps","name_short":"nyc-2","host":"nyc-1.us.uncletopia.com","port":27025,"enabled":true,"region":"us-east","cc":"us","latitude":40.73061,"longitude":-73.93524,"reserved":0,"last_update":"0001-01-01T00:00:00Z","name_a2s":"Uncletopia | New York City | 2 | All Maps","protocol":17,"map":"pl_pier","folder":"tf","game":"Team Fortress","app_id":440,"player_count":24,"max_players":24,"Bots":0,"server_type":"Dedicated","server_os":"Linux","password":true,"vac":true,"version":"7742253","steam_id":85568392924469994,"keywords":["nocrits","nodmgspread","payload","uncletopia"],"game_id":440,"stv_port":27026,"stv_name":"Uncletopia | New York City | 2 | All Maps | STV","players":[{"user_id":172,"name":"Mycelion","steam_id":76561198024999530,"connected_time":179000000000,"state":"active","ping":80},{"user_id":127,"name":"Mooop","steam_id":76561199091800420,"connected_time":2862000000000,"state":"active","ping":68},{"user_id":143,"name":"Cyborgnn","steam_id":76561198283586887,"connected_time":1673000000000,"state":"active","ping":73},{"user_id":162,"name":"DJ Pierce","steam_id":76561198394241466,"connected_time":776000000000,"state":"active","ping":44},{"user_id":149,"name":"Jacck916","steam_id":76561198176874157,"connected_time":1418000000000,"state":"active","ping":127},{"user_id":131,"name":"T-jizzle","steam_id":76561198040332264,"connected_time":2825000000000,"state":"active","ping":79},{"user_id":165,"name":"GODHEAD'S LAMENT","steam_id":76561198053276346,"connected_time":612000000000,"state":"active","ping":52},{"user_id":118,"name":"Laelaps","steam_id":76561198100061416,"connected_time":3521000000000,"state":"active","ping":53},{"user_id":170,"name":"Sickmind33","steam_id":76561198036248611,"connected_time":492000000000,"state":"active","ping":75},{"user_id":164,"name":"Dewake","steam_id":76561198128413372,"connected_time":645000000000,"state":"active","ping":82},{"user_id":159,"name":"Fox","steam_id":76561198026184325,"connected_time":966000000000,"state":"active","ping":191},{"user_id":135,"name":"samoclutch","steam_id":76561199094965146,"connected_time":2378000000000,"state":"active","ping":43},{"user_id":174,"name":"flange","steam_id":76561198040182692,"connected_time":161000000000,"state":"active","ping":113},{"user_id":150,"name":"...MMMMMMMMMM RICHER","steam_id":76561198024741331,"connected_time":1412000000000,"state":"active","ping":180},{"user_id":173,"name":"santa deniers btfo","steam_id":76561198054260599,"connected_time":176000000000,"state":"active","ping":88},{"user_id":139,"name":"Lumpy","steam_id":76561198058840585,"connected_time":2026000000000,"state":"active","ping":58},{"user_id":155,"name":"Sentry Down!","steam_id":76561198965340653,"connected_time":1170000000000,"state":"active","ping":81},{"user_id":160,"name":"Infamous","steam_id":76561198853655415,"connected_time":928000000000,"state":"active","ping":46},{"user_id":151,"name":"Zoombini16","steam_id":76561198324428992,"connected_time":1361000000000,"state":"active","ping":57},{"user_id":168,"name":"Funny Lobster","steam_id":76561198009310297,"connected_time":575000000000,"state":"active","ping":51},{"user_id":140,"name":"Uber","steam_id":76561198139793532,"connected_time":1936000000000,"state":"active","ping":62},{"user_id":175,"name":"swan","steam_id":76561198012569200,"connected_time":140000000000,"state":"active","ping":58},{"user_id":158,"name":"Oxyclean","steam_id":76561198042954813,"connected_time":983000000000,"state":"active","ping":81},{"user_id":123,"name":"ThePacBruno","steam_id":76561198046084545,"connected_time":3295000000000,"state":"active","ping":184}]},{"server_id":15,"name":"Uncletopia | New York City | 3 | Stopwatch Beta","name_short":"nyc-3","host":"nyc-1.us.uncletopia.com","port":27035,"enabled":true,"region":"us-east","cc":"us","latitude":40.73061,"longitude":-73.93524,"reserved":0,"last_update":"0001-01-01T00:00:00Z","name_a2s":"Uncletopia | New York City | 3 | Stopwatch Beta","protocol":17,"map":"cp_altitude","folder":"tf","game":"Team Fortress","app_id":440,"player_count":0,"max_players":24,"Bots":0,"server_type":"Dedicated","server_os":"Linux","password":true,"vac":true,"version":"7742253","steam_id":85568392924742820,"keywords":["cp","nocrits","nodmgspread","uncletopia"],"game_id":440,"stv_port":27036,"stv_name":"Uncletopia | New York City | 3 | Stopwatch Beta | STV","players":null},{"server_id":16,"name":"Uncletopia | New York City | 4 | Community","name_short":"nyc-4","host":"nyc-1.us.uncletopia.com","port":27045,"enabled":true,"region":"us-east","cc":"us","latitude":40.73061,"longitude":-73.93524,"reserved":0,"last_update":"0001-01-01T00:00:00Z","name_a2s":"Uncletopia | New York City | 4 | Community","protocol":17,"map":"pl_barnblitz","folder":"tf","game":"Team Fortress","app_id":440,"player_count":0,"max_players":24,"Bots":0,"server_type":"Dedicated","server_os":"Linux","password":true,"vac":true,"version":"7742253","steam_id":85568392924742821,"keywords":["nocrits","nodmgspread","payload","uncletopia"],"game_id":440,"stv_port":27046,"stv_name":"Uncletopia | New York City | 4 | Community | STV","players":null},{"server_id":142,"name":"Uncletopia | S√£o Paulo | 1 | All Maps","name_short":"sao-1","host":"sao-1.br.uncletopia.com","port":27015,"enabled":true,"region":"sa","cc":"br","latitude":-23.533773,"longitude":-46.62529,"reserved":0,"last_update":"0001-01-01T00:00:00Z","name_a2s":"Uncletopia | S√£o Paulo | 1 | All Maps","protocol":17,"map":"cp_mountainlab","folder":"tf","game":"Team Fortress","app_id":440,"player_count":0,"max_players":24,"Bots":0,"server_type":"Dedicated","server_os":"Linux","password":true,"vac":true,"version":"7742253","steam_id":85568392924469996,"keywords":["cp","nocrits","nodmgspread","uncletopia"],"game_id":440,"stv_port":27016,"stv_name":"Uncletopia | S√£o Paulo | 1 | All Maps | STV","players":null},{"server_id":143,"name":"Uncletopia | S√£o Paulo | 2 | All Maps","name_short":"sao-2","host":"sao-2.br.uncletopia.com","port":27015,"enabled":true,"region":"sa","cc":"br","latitude":-23.533773,"longitude":-46.62529,"reserved":0,"last_update":"0001-01-01T00:00:00Z","name_a2s":"Uncletopia | S√£o Paulo | 2 | All Maps","protocol":17,"map":"koth_cascade","folder":"tf","game":"Team Fortress","app_id":440,"player_count":0,"max_players":24,"Bots":0,"server_type":"Dedicated","server_os":"Linux","password":true,"vac":true,"version":"7742253","steam_id":85568392924485349,"keywords":["cp","nocrits","nodmgspread","uncletopia"],"game_id":440,"stv_port":27016,"stv_name":"Uncletopia | S√£o Paulo | 2 | All Maps | STV","players":null},{"server_id":7,"name":"Uncletopia | Seattle | 1 | All Maps","name_short":"sea-1","host":"sea-1.us.uncletopia.com","port":27015,"enabled":true,"region":"us-west","cc":"us","latitude":47.608013,"longitude":-122.33517,"reserved":0,"last_update":"0001-01-01T00:00:00Z","name_a2s":"Uncletopia | Seattle | 1 | All Maps","protocol":17,"map":"pl_barnblitz","folder":"tf","game":"Team Fortress","app_id":440,"player_count":21,"max_players":24,"Bots":0,"server_type":"Dedicated","server_os":"Linux","password":true,"vac":true,"version":"7742253","steam_id":85568392924469997,"keywords":["nocrits","nodmgspread","payload","uncletopia"],"game_id":440,"stv_port":27016,"stv_name":"Uncletopia | Seattle | 1 | All Maps | STV","players":[{"user_id":220,"name":"All 24 Pok√©mon movies at once","steam_id":76561198164738311,"connected_time":138000000000,"state":"connecting","ping":115},{"user_id":209,"name":"Fuzzy Toast","steam_id":76561198028067781,"connected_time":810000000000,"state":"connecting","ping":105},{"user_id":173,"name":"Miner2495","steam_id":76561198445904523,"connected_time":4986000000000,"state":"connecting","ping":131},{"user_id":87,"name":"Phoenix","steam_id":76561197971265992,"connected_time":11041000000000,"state":"connecting","ping":61},{"user_id":202,"name":"Blurpee","steam_id":76561198057197988,"connected_time":1629000000000,"state":"connecting","ping":63},{"user_id":180,"name":"WalkinMan","steam_id":76561198047941142,"connected_time":4484000000000,"state":"connecting","ping":78},{"user_id":211,"name":"JunkYardFox","steam_id":76561199088276403,"connected_time":749000000000,"state":"connecting","ping":120},{"user_id":212,"name":"Amateur Glaswegian","steam_id":76561198030851956,"connected_time":727000000000,"state":"spawning","ping":62},{"user_id":171,"name":"Barton","steam_id":76561198203088523,"connected_time":5322000000000,"state":"connecting","ping":80},{"user_id":218,"name":"doobie the hutt","steam_id":76561198088873640,"connected_time":324000000000,"state":"connecting","ping":57},{"user_id":197,"name":"trackpad gaming | f2p","steam_id":76561198840414371,"connected_time":2901000000000,"state":"connecting","ping":70},{"user_id":185,"name":"Drive-By-Fish-Guy","steam_id":76561198105513652,"connected_time":3304000000000,"state":"connecting","ping":95},{"user_id":15,"name":"Little Linguine","steam_id":76561198816986370,"connected_time":14952000000000,"state":"connecting","ping":331},{"user_id":219,"name":"drive","steam_id":76561198041818185,"connected_time":269000000000,"state":"connecting","ping":115},{"user_id":161,"name":"BowlOfRice","steam_id":76561199239165015,"connected_time":5737000000000,"state":"connecting","ping":128},{"user_id":204,"name":"ToastyNuts","steam_id":76561198064465418,"connected_time":1269000000000,"state":"connecting","ping":96},{"user_id":203,"name":"zinnk","steam_id":76561198092081825,"connected_time":1487000000000,"state":"connecting","ping":68},{"user_id":163,"name":"HarveyBirdman","steam_id":76561198170367493,"connected_time":5713000000000,"state":"connecting","ping":78},{"user_id":216,"name":"Cato Sicarius","steam_id":76561198185598330,"connected_time":628000000000,"state":"connecting","ping":157},{"user_id":214,"name":"Rhutebeer","steam_id":76561198018302761,"connected_time":720000000000,"state":"connecting","ping":151},{"user_id":190,"name":"Tom","steam_id":76561198070630154,"connected_time":3140000000000,"state":"connecting","ping":77}]},{"server_id":119,"name":"Uncletopia | Seattle | 2 | All Maps","name_short":"sea-2","host":"sea-1.us.uncletopia.com","port":27025,"enabled":true,"region":"us-west","cc":"us","latitude":47.608013,"longitude":-122.33517,"reserved":0,"last_update":"0001-01-01T00:00:00Z","name_a2s":"Uncletopia | Seattle | 2 | All Maps","protocol":17,"map":"pl_swiftwater_final1","folder":"tf","game":"Team Fortress","app_id":440,"player_count":0,"max_players":24,"Bots":0,"server_type":"Dedicated","server_os":"Linux","password":true,"vac":true,"version":"7742253","steam_id":85568392924469998,"keywords":["nocrits","nodmgspread","payload","uncletopia"],"game_id":440,"stv_port":27026,"stv_name":"Uncletopia | Seattle | 2 | All Maps | STV","players":null},{"server_id":406,"name":"Uncletopia | Seattle | 3 | Stopwatch Beta","name_short":"sea-3","host":"sea-1.us.uncletopia.com","port":27035,"enabled":true,"region":"us-west","cc":"us","latitude":47.608013,"longitude":-122.33517,"reserved":0,"last_update":"0001-01-01T00:00:00Z","name_a2s":"Uncletopia | Seattle | 3 | Stopwatch Beta","protocol":17,"map":"pl_upward","folder":"tf","game":"Team Fortress","app_id":440,"player_count":0,"max_players":24,"Bots":0,"server_type":"Dedicated","server_os":"Linux","password":true,"vac":false,"version":"7742253","steam_id":0,"keywords":["nocrits","nodmgspread","payload","uncletopia"],"game_id":440,"stv_port":27036,"stv_name":"Uncletopia | Seattle | 3 | Stopwatch Beta | STV","players":null},{"server_id":17,"name":"Uncletopia | San Francisco | 1 | All Maps","name_short":"sfo-1","host":"sfo-1.us.uncletopia.com","port":27015,"enabled":true,"region":"us-west","cc":"us","latitude":37.77397,"longitude":-122.4313,"reserved":0,"last_update":"0001-01-01T00:00:00Z","name_a2s":"Uncletopia | San Francisco | 1 | All Maps","protocol":17,"map":"pl_badwater","folder":"tf","game":"Team Fortress","app_id":440,"player_count":22,"max_players":24,"Bots":0,"server_type":"Dedicated","server_os":"Linux","password":true,"vac":true,"version":"7742253","steam_id":85568392924469999,"keywords":["nocrits","nodmgspread","payload","uncletopia"],"game_id":440,"stv_port":27016,"stv_name":"Uncletopia | San Francisco | 1 | All Maps | STV","players":[{"user_id":3,"name":"DragonFlame2681","steam_id":76561199134670419,"connected_time":2308000000000,"state":"active","ping":85},{"user_id":4,"name":"Dr.Disco","steam_id":76561199128163692,"connected_time":2255000000000,"state":"active","ping":78},{"user_id":6,"name":"sockgobblin","steam_id":76561198853494675,"connected_time":1443000000000,"state":"active","ping":66},{"user_id":7,"name":"Saturn Gaming |Ham Mafia|","steam_id":76561199131086763,"connected_time":1229000000000,"state":"active","ping":69},{"user_id":8,"name":"torinnthunderdragon","steam_id":76561199085006323,"connected_time":944000000000,"state":"active","ping":60},{"user_id":9,"name":"I Have No Skill And I Must Frag","steam_id":76561198326052355,"connected_time":898000000000,"state":"active","ping":126},{"user_id":10,"name":"Bitkrin","steam_id":76561198995819530,"connected_time":892000000000,"state":"active","ping":82},{"user_id":24,"name":"CrackedSanity","steam_id":76561198279841251,"connected_time":209000000000,"state":"active","ping":60},{"user_id":16,"name":"rE_d0","steam_id":76561198975450630,"connected_time":430000000000,"state":"active","ping":73},{"user_id":13,"name":"Frenzy","steam_id":76561199113589462,"connected_time":589000000000,"state":"active","ping":103},{"user_id":14,"name":"loyaldandan0764","steam_id":76561199231020424,"connected_time":510000000000,"state":"active","ping":77},{"user_id":15,"name":"FestiveAnarchist","steam_id":76561199116042550,"connected_time":480000000000,"state":"active","ping":112},{"user_id":17,"name":"Jonatello","steam_id":76561198045699189,"connected_time":372000000000,"state":"active","ping":56},{"user_id":18,"name":"Saodde","steam_id":76561198119653709,"connected_time":355000000000,"state":"active","ping":61},{"user_id":19,"name":"toodles","steam_id":76561198025463883,"connected_time":354000000000,"state":"active","ping":62},{"user_id":20,"name":"Verin","steam_id":76561198082292194,"connected_time":346000000000,"state":"active","ping":62},{"user_id":21,"name":"Blitzy","steam_id":76561198149472890,"connected_time":305000000000,"state":"active","ping":76},{"user_id":22,"name":"Franz","steam_id":76561198041929745,"connected_time":303000000000,"state":"active","ping":57},{"user_id":23,"name":"KingTinkerer","steam_id":76561198226856548,"connected_time":291000000000,"state":"active","ping":81},{"user_id":26,"name":"iphone 7 plus","steam_id":76561198335836405,"connected_time":111000000000,"state":"active","ping":89},{"user_id":27,"name":"Sprinkles","steam_id":76561198041440793,"connected_time":9000000000,"state":"spawning","ping":131},{"user_id":28,"name":"Mom","steam_id":76561198207936000,"connected_time":7000000000,"state":"spawning","ping":45}]},{"server_id":18,"name":"Uncletopia | San Francisco | 2 | All Maps","name_short":"sfo-2","host":"sfo-1.us.uncletopia.com","port":27025,"enabled":true,"region":"us-west","cc":"us","latitude":37.77397,"longitude":-122.4313,"reserved":0,"last_update":"0001-01-01T00:00:00Z","name_a2s":"Uncletopia | San Francisco | 2 | All Maps","protocol":17,"map":"cp_process_final","folder":"tf","game":"Team Fortress","app_id":440,"player_count":0,"max_players":24,"Bots":0,"server_type":"Dedicated","server_os":"Linux","password":true,"vac":true,"version":"7742253","steam_id":85568392924470000,"keywords":["cp","nocrits","nodmgspread","uncletopia"],"game_id":440,"stv_port":27026,"stv_name":"Uncletopia | San Francisco | 2 | All Maps | STV","players":null},{"server_id":19,"name":"Uncletopia | San Francisco | 3 | Stopwatch Beta","name_short":"sfo-3","host":"sfo-1.us.uncletopia.com","port":27035,"enabled":true,"region":"us-west","cc":"us","latitude":37.77397,"longitude":-122.4313,"reserved":0,"last_update":"0001-01-01T00:00:00Z","name_a2s":"Uncletopia | San Francisco | 3 | Stopwatch Beta","protocol":17,"map":"cp_snakewater_final1","folder":"tf","game":"Team Fortress","app_id":440,"player_count":0,"max_players":24,"Bots":0,"server_type":"Dedicated","server_os":"Linux","password":true,"vac":true,"version":"7742253","steam_id":85568392924742824,"keywords":["cp","nocrits","nodmgspread","uncletopia"],"game_id":440,"stv_port":27036,"stv_name":"Uncletopia | San Francisco | 3 | Stopwatch Beta | STV","players":null},{"server_id":20,"name":"Uncletopia | San Francisco | 4 | Community","name_short":"sfo-4","host":"sfo-1.us.uncletopia.com","port":27045,"enabled":true,"region":"us-west","cc":"us","latitude":37.77397,"longitude":-122.4313,"reserved":0,"last_update":"0001-01-01T00:00:00Z","name_a2s":"Uncletopia | San Francisco | 4 | Community","protocol":17,"map":"workshop/koth_synthetic_rc6a.ugc1549817316","folder":"tf","game":"Team Fortress","app_id":440,"player_count":0,"max_players":24,"Bots":0,"server_type":"Dedicated","server_os":"Linux","password":true,"vac":true,"version":"7742253","steam_id":85568392924742826,"keywords":["cp","nocrits","nodmgspread","uncletopia"],"game_id":440,"stv_port":27046,"stv_name":"Uncletopia | San Francisco | 4 | Community | STV","players":null},{"server_id":141,"name":"Uncletopia | Sydney | 1 | All Maps","name_short":"syd-1","host":"syd-1.au.uncletopia.com","port":27015,"enabled":true,"region":"au","cc":"au","latitude":-33.865143,"longitude":151.2099,"reserved":0,"last_update":"0001-01-01T00:00:00Z","name_a2s":"Uncletopia | Sydney | 1 | All Maps","protocol":17,"map":"koth_highpass","folder":"tf","game":"Team Fortress","app_id":440,"player_count":0,"max_players":24,"Bots":0,"server_type":"Dedicated","server_os":"Linux","password":true,"vac":true,"version":"7742253","steam_id":85568392924470001,"keywords":["cp","nocrits","nodmgspread","uncletopia"],"game_id":440,"stv_port":27016,"stv_name":"Uncletopia | Sydney | 1 | All Maps | STV","players":null},{"server_id":123,"name":"Uncletopia | Sydney | 2 | All Maps","name_short":"syd-2","host":"syd-1.au.uncletopia.com","port":27025,"enabled":true,"region":"au","cc":"au","latitude":-33.865143,"longitude":151.2099,"reserved":0,"last_update":"0001-01-01T00:00:00Z","name_a2s":"Uncletopia | Sydney | 2 | All Maps","protocol":17,"map":"cp_snakewater_final1","folder":"tf","game":"Team Fortress","app_id":440,"player_count":0,"max_players":24,"Bots":0,"server_type":"Dedicated","server_os":"Linux","password":true,"vac":true,"version":"7742253","steam_id":85568392924470002,"keywords":["cp","nocrits","nodmgspread","uncletopia"],"game_id":440,"stv_port":27026,"stv_name":"Uncletopia | Sydney | 2 | All Maps | STV","players":null},{"server_id":395,"name":"Uncletopia | Sydney | 3 | All Maps","name_short":"syd-3","host":"syd-1.au.uncletopia.com","port":27035,"enabled":true,"region":"au","cc":"au","latitude":-33.865143,"longitude":151.2099,"reserved":0,"last_update":"0001-01-01T00:00:00Z","name_a2s":"Uncletopia | Sydney | 3 | All Maps","protocol":17,"map":"koth_lakeside_final","folder":"tf","game":"Team Fortress","app_id":440,"player_count":0,"max_players":24,"Bots":0,"server_type":"Dedicated","server_os":"Linux","password":true,"vac":true,"version":"7742253","steam_id":85568392925194467,"keywords":["cp","nocrits","nodmgspread","uncletopia"],"game_id":440,"stv_port":27036,"stv_name":"Uncletopia | Sydney | 3 | All Maps | STV","players":null},{"server_id":396,"name":"Uncletopia | Sydney | 4 | All Maps","name_short":"syd-4","host":"syd-1.au.uncletopia.com","port":27045,"enabled":true,"region":"au","cc":"au","latitude":-33.865143,"longitude":151.2099,"reserved":0,"last_update":"0001-01-01T00:00:00Z","name_a2s":"Uncletopia | Sydney | 4 | All Maps","protocol":17,"map":"pl_borneo","folder":"tf","game":"Team Fortress","app_id":440,"player_count":0,"max_players":24,"Bots":0,"server_type":"Dedicated","server_os":"Linux","password":true,"vac":true,"version":"7742253","steam_id":85568392925397958,"keywords":["nocrits","nodmgspread","payload","uncletopia"],"game_id":440,"stv_port":27046,"stv_name":"Uncletopia | Sydney | 4 | All Maps | STV","players":null},{"server_id":58,"name":"Uncletopia | Sydney | 5 | Stopwatch Beta","name_short":"syd-5","host":"syd-1.au.uncletopia.com","port":27055,"enabled":true,"region":"au","cc":"au","latitude":-33.865143,"longitude":151.2099,"reserved":0,"last_update":"0001-01-01T00:00:00Z","name_a2s":"Uncletopia | Sydney | 5 | Stopwatch Beta","protocol":17,"map":"workshop/koth_ashville_final.ugc2130459942","folder":"tf","game":"Team Fortress","app_id":440,"player_count":0,"max_players":24,"Bots":0,"server_type":"Dedicated","server_os":"Linux","password":true,"vac":true,"version":"7742253","steam_id":85568392925397959,"keywords":["cp","nocrits","nodmgspread","uncletopia"],"game_id":440,"stv_port":27056,"stv_name":"Uncletopia | Sydney | 5 | Stopwatch Beta | STV","players":null},{"server_id":59,"name":"Uncletopia | Sydney | 6 | Community","name_short":"syd-6","host":"syd-1.au.uncletopia.com","port":27065,"enabled":true,"region":"au","cc":"au","latitude":-33.865143,"longitude":151.2099,"reserved":0,"last_update":"0001-01-01T00:00:00Z","name_a2s":"Uncletopia | Sydney | 6 | Community","protocol":17,"map":"workshop/pl_fifthcurve_rc1.ugc648227046","folder":"tf","game":"Team Fortress","app_id":440,"player_count":0,"max_players":24,"Bots":0,"server_type":"Dedicated","server_os":"Linux","password":true,"vac":true,"version":"7742253","steam_id":85568392925397960,"keywords":["nocrits","nodmgspread","payload","uncletopia"],"game_id":440,"stv_port":27066,"stv_name":"Uncletopia | Sydney | 6 | Community | STV","players":null},{"server_id":49,"name":"Uncletopia | Warsaw | 1 | All Maps","name_short":"waw-1","host":"waw-1.pl.uncletopia.com","port":27015,"enabled":true,"region":"eu","cc":"pl","latitude":52.2297,"longitude":21.017532,"reserved":0,"last_update":"0001-01-01T00:00:00Z","name_a2s":"Uncletopia | Warsaw | 1 | All Maps","protocol":17,"map":"koth_lakeside_final","folder":"tf","game":"Team Fortress","app_id":440,"player_count":0,"max_players":24,"Bots":0,"server_type":"Dedicated","server_os":"Linux","password":true,"vac":true,"version":"7723704","steam_id":85568392925397850,"keywords":["cp","nocrits","nodmgspread","uncletopia"],"game_id":440,"stv_port":27016,"stv_name":"Uncletopia | Warsaw | 1 | All Maps | STV","players":null},{"server_id":50,"name":"Uncletopia | Warsaw | 2 | All Maps","name_short":"waw-2","host":"waw-1.pl.uncletopia.com","port":27025,"enabled":true,"region":"eu","cc":"pl","latitude":52.2297,"longitude":21.017532,"reserved":0,"last_update":"0001-01-01T00:00:00Z","name_a2s":"Uncletopia | Warsaw | 2 | All Maps","protocol":17,"map":"cp_mountainlab","folder":"tf","game":"Team Fortress","app_id":440,"player_count":0,"max_players":24,"Bots":0,"server_type":"Dedicated","server_os":"Linux","password":true,"vac":true,"version":"7742253","steam_id":85568392925397851,"keywords":["cp","nocrits","nodmgspread","uncletopia"],"game_id":440,"stv_port":27026,"stv_name":"Uncletopia | Warsaw | 2 | All Maps | STV","players":null},{"server_id":51,"name":"Uncletopia | Warsaw | 3 | All Maps","name_short":"waw-3","host":"waw-1.pl.uncletopia.com","port":27035,"enabled":true,"region":"eu","cc":"pl","latitude":52.2297,"longitude":21.017532,"reserved":0,"last_update":"0001-01-01T00:00:00Z","name_a2s":"Uncletopia | Warsaw | 3 | All Maps","protocol":17,"map":"koth_lakeside_final","folder":"tf","game":"Team Fortress","app_id":440,"player_count":0,"max_players":24,"Bots":0,"server_type":"Dedicated","server_os":"Linux","password":true,"vac":true,"version":"7742253","steam_id":85568392925397852,"keywords":["cp","nocrits","nodmgspread","uncletopia"],"game_id":440,"stv_port":27036,"stv_name":"Uncletopia | Warsaw | 3 | All Maps | STV","players":null},{"server_id":52,"name":"Uncletopia | Warsaw | 4 | All Maps","name_short":"waw-4","host":"waw-1.pl.uncletopia.com","port":27045,"enabled":true,"region":"eu","cc":"pl","latitude":52.2297,"longitude":21.017532,"reserved":0,"last_update":"0001-01-01T00:00:00Z","name_a2s":"Uncletopia | Warsaw | 4 | All Maps","protocol":17,"map":"cp_mountainlab","folder":"tf","game":"Team Fortress","app_id":440,"player_count":0,"max_players":24,"Bots":0,"server_type":"Dedicated","server_os":"Linux","password":true,"vac":true,"version":"7742253","steam_id":85568392925397853,"keywords":["cp","nocrits","nodmgspread","uncletopia"],"game_id":440,"stv_port":27046,"stv_name":"Uncletopia | Warsaw | 4 | All Maps | STV","players":null},{"server_id":53,"name":"Uncletopia | Warsaw | 5 | Stopwatch Beta","name_short":"waw-5","host":"waw-1.pl.uncletopia.com","port":27055,"enabled":true,"region":"eu","cc":"pl","latitude":52.2297,"longitude":21.017532,"reserved":0,"last_update":"0001-01-01T00:00:00Z","name_a2s":"Uncletopia | Warsaw | 5 | Stopwatch Beta","protocol":17,"map":"pl_pier","folder":"tf","game":"Team Fortress","app_id":440,"player_count":0,"max_players":24,"Bots":0,"server_type":"Dedicated","server_os":"Linux","password":true,"vac":true,"version":"7742253","steam_id":85568392925397854,"keywords":["nocrits","nodmgspread","payload","uncletopia"],"game_id":440,"stv_port":27056,"stv_name":"Uncletopia | Warsaw | 5 | Stopwatch Beta | STV","players":null},{"server_id":54,"name":"Uncletopia | Warsaw | 6 | Community","name_short":"waw-6","host":"waw-1.pl.uncletopia.com","port":27065,"enabled":true,"region":"eu","cc":"pl","latitude":52.2297,"longitude":21.017532,"reserved":0,"last_update":"0001-01-01T00:00:00Z","name_a2s":"Uncletopia | Warsaw | 6 | Community","protocol":17,"map":"workshop/koth_slaughter_rc1.ugc1712845210","folder":"tf","game":"Team Fortress","app_id":440,"player_count":0,"max_players":24,"Bots":0,"server_type":"Dedicated","server_os":"Linux","password":true,"vac":true,"version":"7742253","steam_id":85568392925397856,"keywords":["cp","nocrits","nodmgspread","uncletopia"],"game_id":440,"stv_port":27066,"stv_name":"Uncletopia | Warsaw | 6 | Community | STV","players":null}]}