{"status":true,"message":"","result":[{"server_id":9,"name":"Uncletopia | Atlanta | 1 | All Maps","name_short":"atl-1","host":"atl-1.us.uncletopia.com","port":27015,"enabled":true,"region":"us-east","cc":"us","latitude":33.753746,"longitude":-84.38633,"reserved":0,"last_update":"0001-01-01T00:00:00Z","name_a2s":"Uncletopia | Atlanta | 1 | All Maps","protocol":17,"map":"pl_upward","folder":"tf","game":"Team Fortress","app_id":440,"player_count":24,"max_players":24,"Bots":0,"server_type":"Dedicated","server_os":"Linux","password":true,"vac":true,"version":"7757534","steam_id":85568392924469982,"keywords":["nocrits","nodmgspread","payload","uncletopia"],"game_id":440,"stv_port":27016,"stv_name":"Uncletopia | Atlanta | 1 | All Maps | STV","players":[{"user_id":64,"name":"Alex the doggo","steam_id":76561198031827407,"connected_time":1701000000000,"state":"active","ping":65},{"user_id":65,"name":"grin! (balls hurt) very","steam_id":76561198258267182,"connected_time":1661000000000,"state":"active","ping":70},{"user_id":69,"name":"Guardian Pyro","steam_id":76561198071532710,"connected_time":1583000000000,"state":"active","ping":94},{"user_id":66,"name":"CptSkippy","steam_id":76561198127439343,"connected_time":1653000000000,"state":"active","ping":105},{"user_id":74,"name":"BLU1 l Epifiny","steam_id":76561198027958086,"connected_time":601000000000,"state":"active","ping":81},{"user_id":75,"name":"Dreszerg","steam_id":76561198838757422,"connected_time":508000000000,"state":"active","ping":84},{"user_id":77,"name":"The Juicer","steam_id":76561198027247542,"connected_time":485000000000,"state":"active","ping":75},{"user_id":54,"name":"Simps in the Crib","steam_id":76561198830931110,"connected_time":2655000000000,"state":"active","ping":72},{"user_id":29,"name":"poggar","steam_id":76561198045815615,"connected_time":3648000000000,"state":"active","ping":75},{"user_id":61,"name":"Monkery Man","steam_id":76561199083374021,"connected_time":1947000000000,"state":"active","ping":69},{"user_id":43,"name":"RED1 | ma0re","steam_id":76561199231971506,"connected_time":2948000000000,"state":"active","ping":64},{"user_id":56,"name":"moth","steam_id":76561198028444359,"connected_time":2298000000000,"state":"active","ping":159},{"user_id":72,"name":"Brandonazz","steam_id":76561197994366351,"connected_time":986000000000,"state":"active","ping":76},{"user_id":33,"name":"Fishsick lord","steam_id":76561198887904255,"connected_time":3543000000000,"state":"active","ping":80},{"user_id":81,"name":"Devilkid","steam_id":76561199082474364,"connected_time":28000000000,"state":"active","ping":88},{"user_id":78,"name":"OldManHenderson1976","steam_id":76561198148713751,"connected_time":456000000000,"state":"active","ping":91},{"user_id":36,"name":"Seru","steam_id":76561199219827214,"connected_time":3480000000000,"state":"active","ping":76},{"user_id":45,"name":"Godfinger","steam_id":76561198426346549,"connected_time":2920000000000,"state":"active","ping":45},{"user_id":73,"name":"Menace to Sobriety","steam_id":76561198245103000,"connected_time":750000000000,"state":"active","ping":72},{"user_id":58,"name":"Phoelamander","steam_id":76561198001462472,"connected_time":2239000000000,"state":"active","ping":73},{"user_id":40,"name":"Cheez","steam_id":76561198049112475,"connected_time":3316000000000,"state":"active","ping":59},{"user_id":68,"name":"smoll Jeff","steam_id":76561198362790706,"connected_time":1592000000000,"state":"active","ping":88},{"user_id":79,"name":"amazing","steam_id":76561198386233160,"connected_time":456000000000,"state":"active","ping":87},{"user_id":80,"name":"john glaggle (WARLORD)","steam_id":76561198129131996,"connected_time":65000000000,"state":"spawning","ping":110}]},{"server_id":400,"name":"Uncletopia | Atlanta | 3 | Stopwatch Beta","name_short":"atl-3","host":"atl-1.us.uncletopia.com","port":27035,"enabled":true,"region":"us-east","cc":"us","latitude":33.753746,"longitude":-84.38633,"reserved":0,"last_update":"0001-01-01T00:00:00Z","name_a2s":"Uncletopia | Atlanta | 3 | Stopwatch Beta","protocol":17,"map":"pl_upward","folder":"tf","game":"Team Fortress","app_id":440,"player_count":1,"max_players":24,"Bots":0,"server_type":"Dedicated","server_os":"Linux","password":true,"vac":true,"version":"7757534","steam_id":85568392924515187,"keywords":["nocrits","nodmgspread","payload","uncletopia"],"game_id":440,"stv_port":27036,"stv_name":"Uncletopia | Atlanta | 3 | Stopwatch Beta | STV","players":[{"user_id":5,"name":"5GUY","steam_id":76561198971354161,"connected_time":63000000000,"state":"active","ping":51}]},{"server_id":401,"name":"Uncletopia | Atlanta | 4 | No Payload","name_short":"atl-4","host":"atl-1.us.uncletopia.com","port":27045,"enabled":true,"region":"us-east","cc":"us","latitude":33.753746,"longitude":-84.38633,"reserved":0,"last_update":"0001-01-01T00:00:00Z","name_a2s":"Uncletopia | Atlanta | 4 | No Payload","protocol":17,"map":"pl_pier","folder":"tf","game":"Team Fortress","app_id":440,"player_count":0,"max_players":24,"Bots":0,"server_type":"Dedicated","server_os":"Linux","password":true,"vac":true,"version":"7723704","steam_id":85568392924515188,"keywords":["nocrits","nodmgspread","payload","uncletopia"],"game_id":440,"stv_port":27046,"stv_name":"Uncletopia | Atlanta | 4 | No Payload | STV","players":null},{"server_id":2,"name":"Uncletopia | Chicago | 1 | All Maps","name_short":"chi-1","host":"chi-1.us.uncletopia.com","port":27015,"enabled":true,"region":"us-central","cc":"us","latitude":41.881832,"longitude":-87.62318,"reserved":0,"last_update":"0001-01-01T00:00:00Z","name_a2s":"Uncletopia | Chicago | 1 | All Maps","protocol":17,"map":"pl_upward","folder":"tf","game":"Team Fortress","app_id":440,"player_count":24,"max_players":24,"Bots":0,"server_type":"Dedicated","server_os":"Linux","password":true,"vac":true,"version":"7757534","steam_id":85568392924469984,"keywords":["nocrits","nodmgspread","payload","uncletopia"],"game_id":440,"stv_port":27016,"stv_name":"Uncletopia | Chicago | 1 | All Maps | STV","players":[{"user_id":288,"name":"6t26j","steam_id":76561198278282836,"connected_time":1834000000000,"state":"active","ping":55},{"user_id":292,"name":"‚ôîJaE‚ôî","steam_id":76561197999325159,"connected_time":1612000000000,"state":"active","ping":69},{"user_id":296,"name":"TV","steam_id":76561198177326926,"connected_time":822000000000,"state":"active","ping":95},{"user_id":306,"name":"KrashBoomBang","steam_id":76561199002978777,"connected_time":224000000000,"state":"active","ping":67},{"user_id":304,"name":"Madkiller Max","steam_id":76561197974470705,"connected_time":577000000000,"state":"active","ping":74},{"user_id":303,"name":"BudTuggly","steam_id":76561198026873580,"connected_time":725000000000,"state":"active","ping":45},{"user_id":290,"name":"DOMO_MR_ROBOTO","steam_id":76561198077108345,"connected_time":1725000000000,"state":"active","ping":97},{"user_id":255,"name":"rice white","steam_id":76561198320732910,"connected_time":3834000000000,"state":"active","ping":74},{"user_id":298,"name":"mikeoncock","steam_id":76561198247128708,"connected_time":807000000000,"state":"active","ping":83},{"user_id":299,"name":"greenie tea","steam_id":76561198055172841,"connected_time":788000000000,"state":"active","ping":85},{"user_id":300,"name":"hippo mode","steam_id":76561198073455521,"connected_time":780000000000,"state":"active","ping":55},{"user_id":294,"name":"uniwu - BUFF THE SPEED","steam_id":76561198864421290,"connected_time":1312000000000,"state":"active","ping":71},{"user_id":245,"name":"Phantom","steam_id":76561199200400404,"connected_time":4684000000000,"state":"active","ping":110},{"user_id":260,"name":"Thotimus Begonimus","steam_id":76561197970275938,"connected_time":3788000000000,"state":"active","ping":68},{"user_id":308,"name":"mr.edderkopper","steam_id":76561198152614478,"connected_time":138000000000,"state":"active","ping":50},{"user_id":295,"name":"SsaucySam","steam_id":76561198362539268,"connected_time":841000000000,"state":"active","ping":84},{"user_id":291,"name":"Applesauce","steam_id":76561198252487758,"connected_time":1710000000000,"state":"active","ping":73},{"user_id":301,"name":"NV.3e00","steam_id":76561198089671934,"connected_time":761000000000,"state":"active","ping":68},{"user_id":285,"name":"Ooodleglobs·É¶","steam_id":76561198360201222,"connected_time":2149000000000,"state":"active","ping":67},{"user_id":272,"name":"dangergirl99","steam_id":76561198121651564,"connected_time":3420000000000,"state":"active","ping":60},{"user_id":217,"name":"Chamomile Tea","steam_id":76561198156746320,"connected_time":6657000000000,"state":"active","ping":45},{"user_id":307,"name":"level 9 scrotum wizard","steam_id":76561198073269122,"connected_time":158000000000,"state":"active","ping":61},{"user_id":302,"name":"pootis","steam_id":76561198089292047,"connected_time":753000000000,"state":"active","ping":89},{"user_id":309,"name":"God of bread","steam_id":76561198373688035,"connected_time":128000000000,"state":"active","ping":63}]},{"server_id":106,"name":"Uncletopia | Chicago | 2 | All Maps","name_short":"chi-2","host":"chi-1.us.uncletopia.com","port":27025,"enabled":true,"region":"us-central","cc":"us","latitude":41.881832,"longitude":-87.62318,"reserved":0,"last_update":"0001-01-01T00:00:00Z","name_a2s":"Uncletopia | Chicago | 2 | All Maps","protocol":17,"map":"pl_upward","folder":"tf","game":"Team Fortress","app_id":440,"player_count":19,"max_players":24,"Bots":0,"server_type":"Dedicated","server_os":"Linux","password":true,"vac":true,"version":"7757534","steam_id":85568392924469985,"keywords":["nocrits","nodmgspread","payload","uncletopia"],"game_id":440,"stv_port":27026,"stv_name":"Uncletopia | Chicago | 2 | All Maps | STV","players":[{"user_id":134,"name":"Ragnoratsu","steam_id":76561198189688723,"connected_time":1000000000,"state":"spawning","ping":41},{"user_id":34,"name":"mepng","steam_id":76561199018758598,"connected_time":8337000000000,"state":"spawning","ping":95},{"user_id":94,"name":"Paco","steam_id":76561198023504958,"connected_time":3754000000000,"state":"spawning","ping":70},{"user_id":132,"name":"NGsterson","steam_id":76561198162108154,"connected_time":28000000000,"state":"spawning","ping":115},{"user_id":73,"name":"nalezinik","steam_id":76561198030026119,"connected_time":6368000000000,"state":"spawning","ping":71},{"user_id":127,"name":"Pendrive","steam_id":76561199427354854,"connected_time":976000000000,"state":"spawning","ping":201},{"user_id":92,"name":"CBTgaeming","steam_id":76561199089290128,"connected_time":3905000000000,"state":"spawning","ping":147},{"user_id":116,"name":"allen","steam_id":76561198986534519,"connected_time":1813000000000,"state":"spawning","ping":100},{"user_id":104,"name":"Obama F. Kennedy","steam_id":76561198282499318,"connected_time":2660000000000,"state":"spawning","ping":81},{"user_id":131,"name":"Genius Meme","steam_id":76561198162911254,"connected_time":29000000000,"state":"spawning","ping":96},{"user_id":133,"name":"SAKK","steam_id":76561198292843157,"connected_time":28000000000,"state":"spawning","ping":64},{"user_id":45,"name":"RaddahRaddah","steam_id":76561198194462829,"connected_time":8003000000000,"state":"spawning","ping":51},{"user_id":120,"name":"no wtf not that","steam_id":76561198461518382,"connected_time":1715000000000,"state":"spawning","ping":41},{"user_id":105,"name":"Dip-Shit Dave","steam_id":76561198357468325,"connected_time":2452000000000,"state":"spawning","ping":55},{"user_id":128,"name":"no","steam_id":76561198248853140,"connected_time":671000000000,"state":"spawning","ping":54},{"user_id":124,"name":"eloressa","steam_id":76561198120330867,"connected_time":1456000000000,"state":"spawning","ping":52},{"user_id":82,"name":"hummus in my tummus","steam_id":76561199438698036,"connected_time":4837000000000,"state":"spawning","ping":61},{"user_id":121,"name":"Retrowave","steam_id":76561198061921346,"connected_time":1683000000000,"state":"spawning","ping":66},{"user_id":130,"name":"miji","steam_id":76561198002909892,"connected_time":117000000000,"state":"spawning","ping":82}]},{"server_id":402,"name":"Uncletopia | Chicago | 3 | All Maps","name_short":"chi-3","host":"chi-1.us.uncletopia.com","port":27035,"enabled":true,"region":"us-central","cc":"us","latitude":41.881832,"longitude":-87.62318,"reserved":0,"last_update":"0001-01-01T00:00:00Z","name_a2s":"Uncletopia | Chicago | 3 | All Maps","protocol":17,"map":"cp_mountainlab","folder":"tf","game":"Team Fortress","app_id":440,"player_count":0,"max_players":24,"Bots":0,"server_type":"Dedicated","server_os":"Linux","password":true,"vac":true,"version":"7757534","steam_id":85568392924515191,"keywords":["cp","nocrits","nodmgspread","uncletopia"],"game_id":440,"stv_port":27036,"stv_name":"Uncletopia | Chicago | 3 | All Maps | STV","players":null},{"server_id":403,"name":"Uncletopia | Chicago | 4 | All Maps","name_short":"chi-4","host":"chi-1.us.uncletopia.com","port":27045,"enabled":true,"region":"us-central","cc":"us","latitude":41.881832,"longitude":-87.62318,"reserved":0,"last_update":"0001-01-01T00:00:00Z","name_a2s":"Uncletopia | Chicago | 4 | All Maps","protocol":17,"map":"pl_borneo","folder":"tf","game":"Team Fortress","app_id":440,"player_count":24,"max_players":24,"Bots":0,"server_type":"Dedicated","server_os":"Linux","password":true,"vac":true,"version":"7757534","steam_id":85568392924515193,"keywords":["nocrits","nodmgspread","payload","uncletopia"],"game_id":440,"stv_port":27046,"stv_name":"Uncletopia | Chicago | 4 | All Maps | STV","players":[{"user_id":75,"name":"Mr. Pink","steam_id":76561198065858172,"connected_time":1500000000000,"state":"active","ping":60},{"user_id":86,"name":"mxgic","steam_id":76561198354656195,"connected_time":785000000000,"state":"active","ping":130},{"user_id":87,"name":"Tomato Soup","steam_id":76561198051834684,"connected_time":776000000000,"state":"active","ping":75},{"user_id":97,"name":"juhg, koop","steam_id":76561198388955908,"connected_time":505000000000,"state":"active","ping":61},{"user_id":85,"name":"PUNfactory","steam_id":76561198117388483,"connected_time":805000000000,"state":"active","ping":64},{"user_id":88,"name":"shadow6","steam_id":76561197979807910,"connected_time":704000000000,"state":"active","ping":88},{"user_id":102,"name":"Nuen","steam_id":76561198936096111,"connected_time":348000000000,"state":"active","ping":68},{"user_id":90,"name":"teafy","steam_id":76561198406252824,"connected_time":625000000000,"state":"active","ping":97},{"user_id":91,"name":"Johnny Lawrence #JohnnyMaxxing","steam_id":76561199367141671,"connected_time":609000000000,"state":"active","ping":61},{"user_id":84,"name":"kablong","steam_id":76561199094392047,"connected_time":908000000000,"state":"active","ping":72},{"user_id":72,"name":"Owl Pacino","steam_id":76561197979970666,"connected_time":1624000000000,"state":"active","ping":48},{"user_id":82,"name":"Xidanel","steam_id":76561198271609331,"connected_time":1071000000000,"state":"active","ping":85},{"user_id":100,"name":"Avg. Santa Believer (Nice list)","steam_id":76561198040444697,"connected_time":408000000000,"state":"active","ping":70},{"user_id":93,"name":"Zokku","steam_id":76561198070185695,"connected_time":534000000000,"state":"active","ping":92},{"user_id":50,"name":"three three","steam_id":76561198177354155,"connected_time":3740000000000,"state":"active","ping":59},{"user_id":83,"name":"Tlaloc","steam_id":76561198375215983,"connected_time":946000000000,"state":"active","ping":117},{"user_id":77,"name":"DenverDSnail","steam_id":76561198182543578,"connected_time":1481000000000,"state":"active","ping":65},{"user_id":56,"name":"Glory","steam_id":76561198013975080,"connected_time":3171000000000,"state":"active","ping":79},{"user_id":94,"name":"extinct111","steam_id":76561199013696367,"connected_time":527000000000,"state":"active","ping":63},{"user_id":95,"name":"Haveltherock27","steam_id":76561199219844391,"connected_time":517000000000,"state":"active","ping":89},{"user_id":96,"name":"Chip Chipperson","steam_id":76561198008915041,"connected_time":511000000000,"state":"active","ping":74},{"user_id":99,"name":"sweppy","steam_id":76561198035457667,"connected_time":464000000000,"state":"active","ping":60},{"user_id":101,"name":"judesro","steam_id":76561198352244888,"connected_time":403000000000,"state":"active","ping":68},{"user_id":104,"name":"Teleporter  (Entrance, Level 3)","steam_id":76561198316927664,"connected_time":232000000000,"state":"active","ping":74}]},{"server_id":36,"name":"Uncletopia | Chicago | 5 | All Maps","name_short":"chi-5","host":"chi-2.us.uncletopia.com","port":27015,"enabled":true,"region":"us-central","cc":"us","latitude":41.881832,"longitude":-87.62318,"reserved":0,"last_update":"0001-01-01T00:00:00Z","name_a2s":"Uncletopia | Chicago | 5 | All Maps","protocol":17,"map":"koth_cascade","folder":"tf","game":"Team Fortress","app_id":440,"player_count":0,"max_players":24,"Bots":0,"server_type":"Dedicated","server_os":"Linux","password":true,"vac":true,"version":"7757534","steam_id":85568392924866362,"keywords":["cp","nocrits","nodmgspread","uncletopia"],"game_id":440,"stv_port":27016,"stv_name":"Uncletopia | Chicago | 5 | All Maps | STV","players":null},{"server_id":37,"name":"Uncletopia | Chicago | 6 | All Maps","name_short":"chi-6","host":"chi-2.us.uncletopia.com","port":27025,"enabled":true,"region":"us-central","cc":"us","latitude":41.881832,"longitude":-87.62318,"reserved":0,"last_update":"0001-01-01T00:00:00Z","name_a2s":"Uncletopia | Chicago | 6 | All Maps","protocol":17,"map":"pl_swiftwater_final1","folder":"tf","game":"Team Fortress","app_id":440,"player_count":24,"max_players":24,"Bots":0,"server_type":"Dedicated","server_os":"Linux","password":true,"vac":true,"version":"7757534","steam_id":85568392924866363,"keywords":["nocrits","nodmgspread","payload","uncletopia"],"game_id":440,"stv_port":27026,"stv_name":"Uncletopia | Chicago | 6 | All Maps | STV","players":[{"user_id":87,"name":"Luck","steam_id":76561199122232082,"connected_time":2741000000000,"state":"active","ping":85},{"user_id":88,"name":"Not_Douglas","steam_id":76561199024184136,"connected_time":2720000000000,"state":"active","ping":58},{"user_id":78,"name":"wack","steam_id":76561198095697330,"connected_time":3394000000000,"state":"active","ping":75},{"user_id":65,"name":"yitz","steam_id":76561198375575841,"connected_time":3846000000000,"state":"active","ping":53},{"user_id":97,"name":"I AM THE SPY","steam_id":76561198044854271,"connected_time":2132000000000,"state":"active","ping":46},{"user_id":118,"name":"caption cool","steam_id":76561197990612056,"connected_time":510000000000,"state":"active","ping":62},{"user_id":113,"name":"OneFestiveCorvid","steam_id":76561199012953221,"connected_time":633000000000,"state":"active","ping":82},{"user_id":115,"name":"Malaflub_55","steam_id":76561199112453790,"connected_time":584000000000,"state":"active","ping":64},{"user_id":84,"name":"Nico","steam_id":76561198115074738,"connected_time":3271000000000,"state":"active","ping":78},{"user_id":103,"name":"tA.CHRONIC","steam_id":76561197960760990,"connected_time":1531000000000,"state":"active","ping":60},{"user_id":96,"name":"Wso1123","steam_id":76561198048040111,"connected_time":2211000000000,"state":"active","ping":66},{"user_id":56,"name":"WhoIsFrosty","steam_id":76561198880588117,"connected_time":4615000000000,"state":"active","ping":52},{"user_id":31,"name":"limegrass619","steam_id":76561198167789909,"connected_time":5541000000000,"state":"active","ping":122},{"user_id":90,"name":"wire-guided","steam_id":76561198055407168,"connected_time":2681000000000,"state":"active","ping":70},{"user_id":107,"name":"Cade","steam_id":76561199076193300,"connected_time":1227000000000,"state":"active","ping":71},{"user_id":108,"name":"Steve Jobs' cousin Hand Jobs","steam_id":76561198282766831,"connected_time":1174000000000,"state":"active","ping":53},{"user_id":66,"name":"Smurf","steam_id":76561198057717934,"connected_time":3846000000000,"state":"active","ping":45},{"user_id":85,"name":"Atvaster","steam_id":76561198384469072,"connected_time":2907000000000,"state":"active","ping":69},{"user_id":92,"name":"Crime Grandma","steam_id":76561198035012018,"connected_time":2651000000000,"state":"active","ping":71},{"user_id":114,"name":"dmdr1969","steam_id":76561198080469611,"connected_time":620000000000,"state":"active","ping":70},{"user_id":116,"name":"Wang of Wall St","steam_id":76561198047460598,"connected_time":546000000000,"state":"active","ping":79},{"user_id":119,"name":"Hale Bop","steam_id":76561198264055709,"connected_time":186000000000,"state":"active","ping":54},{"user_id":110,"name":"BoioftheNile","steam_id":76561198834204114,"connected_time":1126000000000,"state":"active","ping":82},{"user_id":45,"name":"zziRizz","steam_id":76561198021224745,"connected_time":5047000000000,"state":"active","ping":62}]},{"server_id":38,"name":"Uncletopia | Chicago | 7 | Stopwatch Beta","name_short":"chi-7","host":"chi-2.us.uncletopia.com","port":27035,"enabled":true,"region":"us-central","cc":"us","latitude":41.881832,"longitude":-87.62318,"reserved":0,"last_update":"0001-01-01T00:00:00Z","name_a2s":"Uncletopia | Chicago | 7 | Stopwatch Beta","protocol":17,"map":"cp_sunshine","folder":"tf","game":"Team Fortress","app_id":440,"player_count":0,"max_players":24,"Bots":0,"server_type":"Dedicated","server_os":"Linux","password":true,"vac":true,"version":"7757534","steam_id":85568392924866364,"keywords":["cp","nocrits","nodmgspread","uncletopia"],"game_id":440,"stv_port":27036,"stv_name":"Uncletopia | Chicago | 7 | Stopwatch Beta | STV","players":null},{"server_id":39,"name":"Uncletopia | Chicago | 8 | Community","name_short":"chi-8","host":"chi-2.us.uncletopia.com","port":27045,"enabled":true,"region":"us-central","cc":"us","latitude":41.881832,"longitude":-87.62318,"reserved":0,"last_update":"0001-01-01T00:00:00Z","name_a2s":"Uncletopia | Chicago | 8 | Community","protocol":17,"map":"pl_pier","folder":"tf","game":"Team Fortress","app_id":440,"player_count":0,"max_players":24,"Bots":0,"server_type":"Dedicated","server_os":"Linux","password":true,"vac":true,"version":"7757534","steam_id":85568392924866365,"keywords":["nocrits","nodmgspread","payload","uncletopia"],"game_id":440,"stv_port":27046,"stv_name":"Uncletopia | Chicago | 8 | Community | STV","players":null},{"server_id":8,"name":"Uncletopia | Dallas | 1 | All Maps","name_short":"dal-1","host":"dal-1.us.uncletopia.com","port":27015,"enabled":true,"region":"us-central","cc":"us","latitude":32.779167,"longitude":-96.80889,"reserved":0,"last_update":"0001-01-01T00:00:00Z","name_a2s":"Uncletopia | Dallas | 1 | All Maps","protocol":17,"map":"pl_upward","folder":"tf","game":"Team Fortress","app_id":440,"player_count":24,"max_players":24,"Bots":0,"server_type":"Dedicated","server_os":"Linux","password":true,"vac":true,"version":"7757534","steam_id":85568392924469986,"keywords":["nocrits","nodmgspread","payload","uncletopia"],"game_id":440,"stv_port":27016,"stv_name":"Uncletopia | Dallas | 1 | All Maps | STV","players":[{"user_id":140,"name":"Pew Pew ..","steam_id":76561199197023436,"connected_time":2198000000000,"state":"active","ping":87},{"user_id":147,"name":"dumb fuck","steam_id":76561198067773904,"connected_time":1847000000000,"state":"active","ping":54},{"user_id":155,"name":"Shidded And Farterd Myself :(","steam_id":76561198883379691,"connected_time":995000000000,"state":"active","ping":79},{"user_id":170,"name":"AmazingPlasma","steam_id":76561199005527586,"connected_time":306000000000,"state":"active","ping":104},{"user_id":143,"name":"bowlcut squidward gaming","steam_id":76561199105729447,"connected_time":1945000000000,"state":"active","ping":51},{"user_id":168,"name":"Jokergamma","steam_id":76561198807984541,"connected_time":508000000000,"state":"active","ping":50},{"user_id":133,"name":"Rin \"Hindwing\" Redtail","steam_id":76561199074865638,"connected_time":2895000000000,"state":"active","ping":49},{"user_id":149,"name":"PzVIIIMaus","steam_id":76561198346559365,"connected_time":1714000000000,"state":"active","ping":68},{"user_id":176,"name":"Smooth - Santana ft. Rob Thomas","steam_id":76561198145283389,"connected_time":293000000000,"state":"active","ping":90},{"user_id":158,"name":"ap","steam_id":76561198202273263,"connected_time":888000000000,"state":"active","ping":69},{"user_id":175,"name":"t.tv/FamilyGuyFunnyMoments277","steam_id":76561198416047580,"connected_time":297000000000,"state":"active","ping":92},{"user_id":178,"name":"resh","steam_id":76561198066619792,"connected_time":168000000000,"state":"active","ping":61},{"user_id":163,"name":"jayhanse","steam_id":76561198864515958,"connected_time":738000000000,"state":"active","ping":108},{"user_id":129,"name":"jturner1nm","steam_id":76561198344493652,"connected_time":3134000000000,"state":"active","ping":99},{"user_id":134,"name":"Patio","steam_id":76561197986082608,"connected_time":2846000000000,"state":"active","ping":99},{"user_id":177,"name":"geoff","steam_id":76561198038448355,"connected_time":283000000000,"state":"active","ping":60},{"user_id":159,"name":"Fish Roe Man","steam_id":76561198197796766,"connected_time":873000000000,"state":"active","ping":74},{"user_id":119,"name":"Sup m8","steam_id":76561198081659121,"connected_time":4397000000000,"state":"active","ping":59},{"user_id":169,"name":"disco","steam_id":76561198060756881,"connected_time":365000000000,"state":"active","ping":120},{"user_id":113,"name":"Fishstall","steam_id":76561198038126034,"connected_time":4920000000000,"state":"active","ping":62},{"user_id":166,"name":"GamingDC51","steam_id":76561198255089520,"connected_time":677000000000,"state":"active","ping":100},{"user_id":153,"name":"VixianUwU","steam_id":76561198948815060,"connected_time":1150000000000,"state":"active","ping":78},{"user_id":110,"name":"Motreir","steam_id":76561198151717946,"connected_time":6141000000000,"state":"active","ping":85},{"user_id":123,"name":"the smiling zombie","steam_id":76561199246231090,"connected_time":3866000000000,"state":"active","ping":83}]},{"server_id":108,"name":"Uncletopia | Dallas | 2 | All Maps","name_short":"dal-2","host":"dal-1.us.uncletopia.com","port":27025,"enabled":true,"region":"us-central","cc":"us","latitude":32.779167,"longitude":-96.80889,"reserved":0,"last_update":"0001-01-01T00:00:00Z","name_a2s":"Uncletopia | Dallas | 2 | All Maps","protocol":17,"map":"pl_wutville_event","folder":"tf","game":"Team Fortress","app_id":440,"player_count":4,"max_players":24,"Bots":0,"server_type":"Dedicated","server_os":"Linux","password":true,"vac":true,"version":"7757534","steam_id":85568392924469988,"keywords":["cp","nocrits","nodmgspread","uncletopia"],"game_id":440,"stv_port":27026,"stv_name":"Uncletopia | Dallas | 2 | All Maps | STV","players":[{"user_id":27,"name":"Ok then","steam_id":76561198891914787,"connected_time":68000000000,"state":"connecting","ping":141},{"user_id":23,"name":"SuperVitu64","steam_id":76561199172174151,"connected_time":566000000000,"state":"connecting","ping":214},{"user_id":18,"name":"maxfor1589","steam_id":76561199415395975,"connected_time":1668000000000,"state":"connecting","ping":99}]},{"server_id":5,"name":"Uncletopia | Frankfurt | 1 | All Maps","name_short":"frk-1","host":"frk-1.de.uncletopia.com","port":27015,"enabled":true,"region":"eu","cc":"de","latitude":50.110924,"longitude":8.682127,"reserved":0,"last_update":"0001-01-01T00:00:00Z","name_a2s":"Uncletopia | Frankfurt | 1 | All Maps","protocol":17,"map":"cp_dustbowl","folder":"tf","game":"Team Fortress","app_id":440,"player_count":24,"max_players":24,"Bots":0,"server_type":"Dedicated","server_os":"Linux","password":true,"vac":true,"version":"7757534","steam_id":85568392924469989,"keywords":["cp","nocrits","nodmgspread","uncletopia"],"game_id":440,"stv_port":27016,"stv_name":"Uncletopia | Frankfurt | 1 | All Maps | STV","players":[{"user_id":492,"name":"|-|…ÖGBA–ØD¬¢E¬£1N","steam_id":76561198103977997,"connected_time":635000000000,"state":"active","ping":51},{"user_id":493,"name":"peams","steam_id":76561198343328308,"connected_time":584000000000,"state":"active","ping":57},{"user_id":457,"name":"NaN","steam_id":76561198071098413,"connected_time":2779000000000,"state":"active","ping":45},{"user_id":481,"name":"PK Blizzard","steam_id":76561198039836567,"connected_time":807000000000,"state":"active","ping":59},{"user_id":501,"name":"Jonskans","steam_id":76561198448680595,"connected_time":85000000000,"state":"active","ping":82},{"user_id":461,"name":"whitefalcon_73","steam_id":76561198800596642,"connected_time":2581000000000,"state":"active","ping":101},{"user_id":494,"name":"NicatsCage","steam_id":76561198067271076,"connected_time":584000000000,"state":"active","ping":90},{"user_id":499,"name":"LOBZIK","steam_id":76561198114830120,"connected_time":171000000000,"state":"active","ping":75},{"user_id":471,"name":"HatMann","steam_id":76561198821664938,"connected_time":1257000000000,"state":"active","ping":80},{"user_id":482,"name":"THE MICROWAVER","steam_id":76561198327068020,"connected_time":806000000000,"state":"active","ping":75},{"user_id":503,"name":"WX-78","steam_id":76561199117263527,"connected_time":42000000000,"state":"spawning","ping":150},{"user_id":495,"name":"Lukero","steam_id":76561198301594341,"connected_time":569000000000,"state":"active","ping":69},{"user_id":498,"name":"Jhin","steam_id":76561198070137469,"connected_time":207000000000,"state":"active","ping":81},{"user_id":485,"name":"dollerboy","steam_id":76561199246428577,"connected_time":747000000000,"state":"active","ping":102},{"user_id":487,"name":"sork","steam_id":76561198082446459,"connected_time":732000000000,"state":"active","ping":67},{"user_id":444,"name":"Blooddream","steam_id":76561199084317500,"connected_time":4017000000000,"state":"active","ping":69},{"user_id":488,"name":"Lyell","steam_id":76561198350329389,"connected_time":703000000000,"state":"active","ping":87},{"user_id":490,"name":"Bowd3n","steam_id":76561198195602342,"connected_time":663000000000,"state":"active","ping":56},{"user_id":491,"name":"Gaming123","steam_id":76561198801780168,"connected_time":650000000000,"state":"active","ping":137},{"user_id":463,"name":"mordecai","steam_id":76561198000689264,"connected_time":2552000000000,"state":"active","ping":89},{"user_id":435,"name":"Kawa inka","steam_id":76561198055900955,"connected_time":4426000000000,"state":"active","ping":65},{"user_id":470,"name":"Spanish Shy Cat","steam_id":76561198808819694,"connected_time":1378000000000,"state":"active","ping":35},{"user_id":424,"name":"dirty","steam_id":76561197995572935,"connected_time":4637000000000,"state":"active","ping":86},{"user_id":500,"name":"Videogamer","steam_id":76561198106012909,"connected_time":171000000000,"state":"active","ping":67}]},{"server_id":110,"name":"Uncletopia | Frankfurt | 2 | All Maps","name_short":"frk-2","host":"frk-1.de.uncletopia.com","port":27025,"enabled":true,"region":"eu","cc":"de","latitude":50.110924,"longitude":8.682127,"reserved":0,"last_update":"0001-01-01T00:00:00Z","name_a2s":"Uncletopia | Frankfurt | 2 | All Maps","protocol":17,"map":"pl_goldrush","folder":"tf","game":"Team Fortress","app_id":440,"player_count":24,"max_players":24,"Bots":0,"server_type":"Dedicated","server_os":"Linux","password":true,"vac":true,"version":"7757534","steam_id":85568392924469990,"keywords":["nocrits","nodmgspread","payload","uncletopia"],"game_id":440,"stv_port":27026,"stv_name":"Uncletopia | Frankfurt | 2 | All Maps | STV","players":[{"user_id":428,"name":"tallevi8555","steam_id":76561199467013380,"connected_time":1476000000000,"state":"active","ping":117},{"user_id":402,"name":"Your dad","steam_id":76561199046215821,"connected_time":3260000000000,"state":"active","ping":49},{"user_id":419,"name":"Babatitiste","steam_id":76561198800212915,"connected_time":1800000000000,"state":"active","ping":71},{"user_id":422,"name":"Suetolog","steam_id":76561199053090212,"connected_time":1666000000000,"state":"active","ping":56},{"user_id":420,"name":"cloud","steam_id":76561198179768931,"connected_time":1747000000000,"state":"active","ping":60},{"user_id":399,"name":"Joe Blazey","steam_id":76561198931658649,"connected_time":3356000000000,"state":"active","ping":102},{"user_id":421,"name":"cockondiamonds","steam_id":76561199025738254,"connected_time":1739000000000,"state":"active","ping":63},{"user_id":440,"name":"remove public transport","steam_id":76561199433578516,"connected_time":0,"state":"connecting","ping":0},{"user_id":434,"name":"JohkupohkuXD","steam_id":76561198391108762,"connected_time":1140000000000,"state":"active","ping":84},{"user_id":406,"name":"Rose-Marie","steam_id":76561198055611092,"connected_time":2940000000000,"state":"active","ping":61},{"user_id":437,"name":"System","steam_id":76561199442503973,"connected_time":884000000000,"state":"active","ping":39},{"user_id":423,"name":"SubSilk","steam_id":76561199075279215,"connected_time":1663000000000,"state":"active","ping":181},{"user_id":394,"name":"wicc","steam_id":76561198893915644,"connected_time":3835000000000,"state":"active","ping":59},{"user_id":424,"name":"JAG","steam_id":76561199251178274,"connected_time":1632000000000,"state":"active","ping":176},{"user_id":397,"name":"Melon","steam_id":76561198150893860,"connected_time":3591000000000,"state":"active","ping":61},{"user_id":436,"name":"SuntanPikachu","steam_id":76561198121242476,"connected_time":928000000000,"state":"active","ping":69},{"user_id":426,"name":"yyny","steam_id":76561198066287297,"connected_time":1610000000000,"state":"active","ping":45},{"user_id":408,"name":"JohnTraveltime","steam_id":76561199244281754,"connected_time":2868000000000,"state":"active","ping":82},{"user_id":438,"name":"Heura","steam_id":76561198328304087,"connected_time":881000000000,"state":"active","ping":81},{"user_id":412,"name":"Ricky LaFleur","steam_id":76561198212565176,"connected_time":1969000000000,"state":"active","ping":64},{"user_id":413,"name":"Banana","steam_id":76561198155118706,"connected_time":1881000000000,"state":"active","ping":105},{"user_id":432,"name":"john fortress","steam_id":76561198013237629,"connected_time":1427000000000,"state":"active","ping":90},{"user_id":405,"name":"estrogen deliver","steam_id":76561198190259726,"connected_time":3208000000000,"state":"active","ping":85},{"user_id":387,"name":"Dummy","steam_id":76561198349741126,"connected_time":4304000000000,"state":"active","ping":77}]},{"server_id":308,"name":"Uncletopia | Frankfurt | 3 | All Maps","name_short":"frk-3","host":"frk-1.de.uncletopia.com","port":27035,"enabled":true,"region":"eu","cc":"de","latitude":50.110924,"longitude":8.682127,"reserved":0,"last_update":"0001-01-01T00:00:00Z","name_a2s":"Uncletopia | Frankfurt | 3 | All Maps","protocol":17,"map":"pl_pier","folder":"tf","game":"Team Fortress","app_id":440,"player_count":0,"max_players":24,"Bots":0,"server_type":"Dedicated","server_os":"Linux","password":true,"vac":true,"version":"7757534","steam_id":85568392924504274,"keywords":["nocrits","nodmgspread","payload","uncletopia"],"game_id":440,"stv_port":27036,"stv_name":"Uncletopia | Frankfurt | 3 | All Maps | STV","players":null},{"server_id":309,"name":"Uncletopia | Frankfurt | 4 | All Maps","name_short":"frk-4","host":"frk-1.de.uncletopia.com","port":27045,"enabled":true,"region":"eu","cc":"de","latitude":50.110924,"longitude":8.682127,"reserved":0,"last_update":"0001-01-01T00:00:00Z","name_a2s":"Uncletopia | Frankfurt | 4 | All Maps","protocol":17,"map":"pl_pier","folder":"tf","game":"Team Fortress","app_id":440,"player_count":24,"max_players":24,"Bots":0,"server_type":"Dedicated","server_os":"Linux","password":true,"vac":true,"version":"7757534","steam_id":85568392924504275,"keywords":["nocrits","nodmgspread","payload","uncletopia"],"game_id":440,"stv_port":27046,"stv_name":"Uncletopia | Frankfurt | 4 | All Maps | STV","players":[{"user_id":165,"name":"poorchel","steam_id":76561198056905953,"connected_time":1311000000000,"state":"active","ping":123},{"user_id":177,"name":"*^.^*","steam_id":76561198343506483,"connected_time":552000000000,"state":"active","ping":83},{"user_id":157,"name":"‚ô´‚òÖXriasp‚òÖ‚ô´","steam_id":76561198104721321,"connected_time":2014000000000,"state":"active","ping":72},{"user_id":173,"name":"alex47ka","steam_id":76561198117847251,"connected_time":1041000000000,"state":"active","ping":69},{"user_id":14,"name":"( Õ° Õ°¬∞ Õú  ñ Õ° Õ°¬∞) \\ ‚òû","steam_id":76561198084597975,"connected_time":10336000000000,"state":"active","ping":67},{"user_id":67,"name":"feed","steam_id":76561198311512285,"connected_time":7314000000000,"state":"active","ping":103},{"user_id":153,"name":"KajaStorm","steam_id":76561199215842872,"connected_time":2148000000000,"state":"active","ping":123},{"user_id":167,"name":"ùìüùì™ùìΩ","steam_id":76561198409650256,"connected_time":1290000000000,"state":"active","ping":46},{"user_id":161,"name":"Can my wife use your toilet?","steam_id":76561198132926700,"connected_time":1504000000000,"state":"active","ping":81},{"user_id":178,"name":"Albert Einstein","steam_id":76561198351190006,"connected_time":360000000000,"state":"active","ping":96},{"user_id":142,"name":"Ablativus","steam_id":76561198025698470,"connected_time":2897000000000,"state":"active","ping":62},{"user_id":176,"name":"lanzer","steam_id":76561198049983016,"connected_time":705000000000,"state":"active","ping":94},{"user_id":169,"name":"Panzerwaffle","steam_id":76561198030382800,"connected_time":1209000000000,"state":"active","ping":58},{"user_id":166,"name":"Newax","steam_id":76561198020758511,"connected_time":1303000000000,"state":"active","ping":61},{"user_id":154,"name":"lupe","steam_id":76561198079813788,"connected_time":2148000000000,"state":"active","ping":60},{"user_id":170,"name":"Tort","steam_id":76561198329646769,"connected_time":1173000000000,"state":"active","ping":68},{"user_id":141,"name":"Sniffz_2","steam_id":76561199433459491,"connected_time":2924000000000,"state":"active","ping":68},{"user_id":34,"name":"Skeletros","steam_id":76561198130969152,"connected_time":9253000000000,"state":"active","ping":138},{"user_id":134,"name":"beurgeur","steam_id":76561198872426314,"connected_time":3265000000000,"state":"active","ping":44},{"user_id":171,"name":"Dom.","steam_id":76561199065917088,"connected_time":1069000000000,"state":"active","ping":68},{"user_id":179,"name":"blackshogunate435","steam_id":76561198870671207,"connected_time":153000000000,"state":"active","ping":75},{"user_id":175,"name":"josh #rizzgod","steam_id":76561198013207524,"connected_time":801000000000,"state":"active","ping":67},{"user_id":172,"name":"outlaw","steam_id":76561198323805289,"connected_time":1053000000000,"state":"active","ping":46},{"user_id":156,"name":"Beans","steam_id":76561198159189417,"connected_time":2064000000000,"state":"active","ping":66}]},{"server_id":310,"name":"Uncletopia | Frankfurt | 5 | All Maps","name_short":"frk-5","host":"frk-1.de.uncletopia.com","port":27055,"enabled":true,"region":"eu","cc":"de","latitude":50.110924,"longitude":8.682127,"reserved":0,"last_update":"0001-01-01T00:00:00Z","name_a2s":"Uncletopia | Frankfurt | 5 | All Maps","protocol":17,"map":"cp_steel","folder":"tf","game":"Team Fortress","app_id":440,"player_count":24,"max_players":24,"Bots":0,"server_type":"Dedicated","server_os":"Linux","password":true,"vac":true,"version":"7757534","steam_id":85568392924504277,"keywords":["cp","nocrits","nodmgspread","uncletopia"],"game_id":440,"stv_port":27056,"stv_name":"Uncletopia | Frankfurt | 5 | All Maps | STV","players":[{"user_id":230,"name":"***** ***","steam_id":76561198048037379,"connected_time":1564000000000,"state":"active","ping":79},{"user_id":255,"name":"Vinhal Keller","steam_id":76561198145589528,"connected_time":625000000000,"state":"active","ping":37},{"user_id":240,"name":"giorno giovanna","steam_id":76561198993161087,"connected_time":1270000000000,"state":"active","ping":47},{"user_id":155,"name":"Welder","steam_id":76561198355300561,"connected_time":6065000000000,"state":"active","ping":66},{"user_id":192,"name":"Almond devourer","steam_id":76561198194866089,"connected_time":3482000000000,"state":"active","ping":82},{"user_id":258,"name":"theres a bomb in my tea","steam_id":76561199134149296,"connected_time":167000000000,"state":"active","ping":87},{"user_id":253,"name":"Pain","steam_id":76561198106997949,"connected_time":719000000000,"state":"active","ping":74},{"user_id":233,"name":"heavy sings (real)","steam_id":76561199023804405,"connected_time":1518000000000,"state":"active","ping":87},{"user_id":138,"name":"citronous","steam_id":76561198093290934,"connected_time":7193000000000,"state":"active","ping":54},{"user_id":219,"name":"PH4NTOMtry","steam_id":76561198979390263,"connected_time":1926000000000,"state":"active","ping":82},{"user_id":236,"name":"Elipse","steam_id":76561198813531365,"connected_time":1443000000000,"state":"active","ping":62},{"user_id":241,"name":"fediokorko","steam_id":76561199040359077,"connected_time":1193000000000,"state":"active","ping":120},{"user_id":237,"name":"8485y","steam_id":76561198002990168,"connected_time":1429000000000,"state":"active","ping":57},{"user_id":238,"name":"Ennard","steam_id":76561197999909200,"connected_time":1386000000000,"state":"active","ping":62},{"user_id":222,"name":"Greenmaker","steam_id":76561198060466591,"connected_time":1875000000000,"state":"active","ping":84},{"user_id":213,"name":"Zaijex","steam_id":76561198041442062,"connected_time":2196000000000,"state":"active","ping":76},{"user_id":242,"name":"fector","steam_id":76561199204249586,"connected_time":1125000000000,"state":"active","ping":135},{"user_id":243,"name":"[dopijus]","steam_id":76561198943009513,"connected_time":1123000000000,"state":"active","ping":88},{"user_id":259,"name":"Kruthal","steam_id":76561198245726582,"connected_time":58000000000,"state":"active","ping":76},{"user_id":245,"name":"portokalli","steam_id":76561198289735082,"connected_time":993000000000,"state":"active","ping":64},{"user_id":246,"name":"Vidrox #savetf2","steam_id":76561199217854983,"connected_time":989000000000,"state":"active","ping":93},{"user_id":252,"name":"B0r–µ–∞l","steam_id":76561198268369013,"connected_time":743000000000,"state":"active","ping":80},{"user_id":249,"name":"spillr-.-","steam_id":76561198031330889,"connected_time":952000000000,"state":"active","ping":72},{"user_id":228,"name":"TheodorTastatura","steam_id":76561199056064086,"connected_time":1704000000000,"state":"active","ping":95}]},{"server_id":311,"name":"Uncletopia | Frankfurt | 6 | All Maps","name_short":"frk-6","host":"frk-1.de.uncletopia.com","port":27065,"enabled":true,"region":"eu","cc":"de","latitude":50.110924,"longitude":8.682127,"reserved":0,"last_update":"0001-01-01T00:00:00Z","name_a2s":"Uncletopia | Frankfurt | 6 | All Maps","protocol":17,"map":"pl_frontier_final","folder":"tf","game":"Team Fortress","app_id":440,"player_count":24,"max_players":24,"Bots":0,"server_type":"Dedicated","server_os":"Linux","password":true,"vac":true,"version":"7757534","steam_id":85568392924504278,"keywords":["nocrits","nodmgspread","payload","uncletopia"],"game_id":440,"stv_port":27066,"stv_name":"Uncletopia | Frankfurt | 6 | All Maps | STV","players":[{"user_id":181,"name":"dominic :)","steam_id":76561198042663518,"connected_time":1777000000000,"state":"active","ping":66},{"user_id":202,"name":"Saul Goodman","steam_id":76561199436999523,"connected_time":484000000000,"state":"active","ping":71},{"user_id":217,"name":"hud_saytext_time 0","steam_id":76561198010327228,"connected_time":46000000000,"state":"active","ping":66},{"user_id":199,"name":"$t@lker_Tim","steam_id":76561198963658042,"connected_time":494000000000,"state":"active","ping":112},{"user_id":187,"name":"Chopperson_","steam_id":76561198873728497,"connected_time":1535000000000,"state":"active","ping":104},{"user_id":200,"name":"„ÇÜ„Åö potato bear","steam_id":76561198031286581,"connected_time":494000000000,"state":"active","ping":52},{"user_id":215,"name":"Qosmo","steam_id":76561197980806182,"connected_time":232000000000,"state":"active","ping":85},{"user_id":201,"name":"mhhhmmm mhhhmh mmmmmmmmhm mhhm","steam_id":76561199445584278,"connected_time":492000000000,"state":"active","ping":76},{"user_id":172,"name":"zaspanaa","steam_id":76561198294172474,"connected_time":2339000000000,"state":"active","ping":52},{"user_id":213,"name":"Mr.killer","steam_id":76561198290584189,"connected_time":300000000000,"state":"active","ping":94},{"user_id":204,"name":"„ÇÜ„Åö Gheist","steam_id":76561198178389593,"connected_time":473000000000,"state":"active","ping":78},{"user_id":168,"name":"Magirby","steam_id":76561198818777390,"connected_time":2625000000000,"state":"active","ping":128},{"user_id":218,"name":"Insain Bolt!","steam_id":76561198025687726,"connected_time":46000000000,"state":"active","ping":62},{"user_id":192,"name":"SpeddyMeddy","steam_id":76561197999693825,"connected_time":957000000000,"state":"active","ping":71},{"user_id":141,"name":"Mike Rizzowski","steam_id":76561198798657045,"connected_time":4779000000000,"state":"active","ping":74},{"user_id":205,"name":"Paska, perse vittu","steam_id":76561198093000666,"connected_time":456000000000,"state":"active","ping":78},{"user_id":211,"name":"„Äå‚óÜRaku‚Ä¢ „Äç","steam_id":76561198059283183,"connected_time":369000000000,"state":"active","ping":77},{"user_id":216,"name":"Nanitus","steam_id":76561198241772340,"connected_time":153000000000,"state":"active","ping":106},{"user_id":162,"name":"galaxy","steam_id":76561198164819022,"connected_time":2846000000000,"state":"active","ping":58},{"user_id":208,"name":"Solymr ibn Wali Barad","steam_id":76561198044008976,"connected_time":433000000000,"state":"active","ping":73},{"user_id":209,"name":"FatalRyhme","steam_id":76561198018713483,"connected_time":428000000000,"state":"active","ping":92},{"user_id":196,"name":"HeloOo_per The Communist","steam_id":76561199099995357,"connected_time":901000000000,"state":"active","ping":80},{"user_id":214,"name":"Dolcelatte","steam_id":76561198038501770,"connected_time":289000000000,"state":"active","ping":48},{"user_id":175,"name":"Rizzly Bear","steam_id":76561199012155377,"connected_time":1838000000000,"state":"active","ping":47}]},{"server_id":23,"name":"Uncletopia | Frankfurt | 7 | Stopwatch Beta","name_short":"frk-7","host":"frk-1.de.uncletopia.com","port":27075,"enabled":true,"region":"eu","cc":"de","latitude":50.110924,"longitude":8.682127,"reserved":0,"last_update":"0001-01-01T00:00:00Z","name_a2s":"Uncletopia | Frankfurt | 7 | Stopwatch Beta","protocol":17,"map":"pl_borneo","folder":"tf","game":"Team Fortress","app_id":440,"player_count":0,"max_players":24,"Bots":0,"server_type":"Dedicated","server_os":"Linux","password":true,"vac":true,"version":"7757534","steam_id":85568392924742827,"keywords":["nocrits","nodmgspread","payload","uncletopia"],"game_id":440,"stv_port":27076,"stv_name":"Uncletopia | Frankfurt | 7 | Stopwatch Beta | STV","players":null},{"server_id":24,"name":"Uncletopia | Frankfurt | 8 | Community","name_short":"frk-8","host":"frk-1.de.uncletopia.com","port":27085,"enabled":true,"region":"eu","cc":"de","latitude":50.110924,"longitude":8.682127,"reserved":0,"last_update":"0001-01-01T00:00:00Z","name_a2s":"Uncletopia | Frankfurt | 8 | Community","protocol":17,"map":"koth_cascade","folder":"tf","game":"Team Fortress","app_id":440,"player_count":0,"max_players":24,"Bots":0,"server_type":"Dedicated","server_os":"Linux","password":true,"vac":true,"version":"7757534","steam_id":85568392924742828,"keywords":["cp","nocrits","nodmgspread","uncletopia"],"game_id":440,"stv_port":27086,"stv_name":"Uncletopia | Frankfurt | 8 | Community | STV","players":null},{"server_id":202,"name":"Uncletopia | Hong Kong | 1 | All Maps","name_short":"hgk-1","host":"hgk-1.hk.uncletopia.com","port":27015,"enabled":true,"region":"asia","cc":"hk","latitude":22.302711,"longitude":114.177216,"reserved":0,"last_update":"0001-01-01T00:00:00Z","name_a2s":"Uncletopia | Hong Kong | 1 | All Maps","protocol":17,"map":"pl_barnblitz","folder":"tf","game":"Team Fortress","app_id":440,"player_count":16,"max_players":24,"Bots":0,"server_type":"Dedicated","server_os":"Linux","password":true,"vac":true,"version":"7757534","steam_id":85568392924494504,"keywords":["nocrits","nodmgspread","payload","uncletopia"],"game_id":440,"stv_port":27016,"stv_name":"Uncletopia | Hong Kong | 1 | All Maps | STV","players":[{"user_id":618,"name":"silverhouse7","steam_id":76561198349634906,"connected_time":12976000000000,"state":"active","ping":60},{"user_id":791,"name":"Saffron","steam_id":76561199025320247,"connected_time":1638000000000,"state":"active","ping":62},{"user_id":799,"name":"Mistralette","steam_id":76561199204625851,"connected_time":867000000000,"state":"active","ping":102},{"user_id":697,"name":"Violezine","steam_id":76561199000502615,"connected_time":11377000000000,"state":"active","ping":86},{"user_id":800,"name":"polapoo25","steam_id":76561199403671272,"connected_time":543000000000,"state":"active","ping":128},{"user_id":802,"name":"Putramandela","steam_id":76561199373932400,"connected_time":391000000000,"state":"active","ping":98},{"user_id":788,"name":"demon time","steam_id":76561198168212712,"connected_time":2714000000000,"state":"active","ping":68},{"user_id":761,"name":"Nimbus","steam_id":76561198877713016,"connected_time":5127000000000,"state":"active","ping":97},{"user_id":809,"name":"LudE","steam_id":76561198828840546,"connected_time":135000000000,"state":"active","ping":72},{"user_id":764,"name":"juan233","steam_id":76561198867566247,"connected_time":4968000000000,"state":"active","ping":108},{"user_id":807,"name":"17","steam_id":76561198241530712,"connected_time":228000000000,"state":"active","ping":53},{"user_id":790,"name":"Boo","steam_id":76561198200955590,"connected_time":2392000000000,"state":"active","ping":76},{"user_id":772,"name":"ir","steam_id":76561198924576271,"connected_time":4637000000000,"state":"active","ping":81},{"user_id":721,"name":"ey","steam_id":76561198413116920,"connected_time":8151000000000,"state":"active","ping":76},{"user_id":786,"name":"ÊØç„ÅÆËÇâÂõ£Â≠ê","steam_id":76561198069561896,"connected_time":3193000000000,"state":"active","ping":33},{"user_id":662,"name":"AmaiToxic","steam_id":76561199122491157,"connected_time":12250000000000,"state":"active","ping":74}]},{"server_id":1,"name":"Uncletopia | Los Angeles | 1 | All Maps","name_short":"lax-1","host":"lax-1.us.uncletopia.com","port":27015,"enabled":true,"region":"us-west","cc":"us","latitude":33.94279,"longitude":-118.41004,"reserved":0,"last_update":"0001-01-01T00:00:00Z","name_a2s":"Uncletopia | Los Angeles | 1 | All Maps","protocol":17,"map":"koth_viaduct","folder":"tf","game":"Team Fortress","app_id":440,"player_count":0,"max_players":24,"Bots":0,"server_type":"Dedicated","server_os":"Linux","password":true,"vac":true,"version":"7757534","steam_id":85568392924469991,"keywords":["cp","nocrits","nodmgspread","uncletopia"],"game_id":440,"stv_port":27016,"stv_name":"Uncletopia | Los Angeles | 1 | All Maps | STV","players":null},{"server_id":112,"name":"Uncletopia | Los Angeles | 2 | All Maps","name_short":"lax-2","host":"lax-1.us.uncletopia.com","port":27025,"enabled":true,"region":"us-west","cc":"us","latitude":33.94279,"longitude":-118.41004,"reserved":0,"last_update":"0001-01-01T00:00:00Z","name_a2s":"Uncletopia | Los Angeles | 2 | All Maps","protocol":17,"map":"cp_mountainlab","folder":"tf","game":"Team Fortress","app_id":440,"player_count":0,"max_players":24,"Bots":0,"server_type":"Dedicated","server_os":"Linux","password":true,"vac":true,"version":"7757534","steam_id":85568392924469992,"keywords":["cp","nocrits","nodmgspread","uncletopia"],"game_id":440,"stv_port":27026,"stv_name":"Uncletopia | Los Angeles | 2 | All Maps | STV","players":null},{"server_id":324,"name":"Uncletopia | Los Angeles | 3 | All Maps","name_short":"lax-3","host":"lax-1.us.uncletopia.com","port":27035,"enabled":true,"region":"us-west","cc":"us","latitude":33.94279,"longitude":-118.41004,"reserved":0,"last_update":"0001-01-01T00:00:00Z","name_a2s":"Uncletopia | Los Angeles | 3 | All Maps","protocol":17,"map":"cp_snakewater_final1","folder":"tf","game":"Team Fortress","app_id":440,"player_count":0,"max_players":24,"Bots":0,"server_type":"Dedicated","server_os":"Linux","password":true,"vac":true,"version":"7757534","steam_id":85568392924510198,"keywords":["cp","nocrits","nodmgspread","uncletopia"],"game_id":440,"stv_port":27036,"stv_name":"Uncletopia | Los Angeles | 3 | All Maps | STV","players":null},{"server_id":25,"name":"Uncletopia | Los Angeles | 4 | Stopwatch Beta","name_short":"lax-4","host":"lax-1.us.uncletopia.com","port":27045,"enabled":true,"region":"us-west","cc":"us","latitude":33.94279,"longitude":-118.41004,"reserved":0,"last_update":"0001-01-01T00:00:00Z","name_a2s":"Uncletopia | Los Angeles | 4 | Stopwatch Beta","protocol":17,"map":"koth_viaduct","folder":"tf","game":"Team Fortress","app_id":440,"player_count":0,"max_players":24,"Bots":0,"server_type":"Dedicated","server_os":"Linux","password":true,"vac":true,"version":"7757534","steam_id":85568392924510199,"keywords":["cp","nocrits","nodmgspread","uncletopia"],"game_id":440,"stv_port":27046,"stv_name":"Uncletopia | Los Angeles | 4 | Stopwatch Beta | STV","players":null},{"server_id":11,"name":"Uncletopia | London | 1 | All Maps","name_short":"lon-1","host":"lon-1.uk.uncletopia.com","port":27015,"enabled":true,"region":"eu","cc":"gb","latitude":51.509865,"longitude":-0.118092,"reserved":0,"last_update":"0001-01-01T00:00:00Z","name_a2s":"Uncletopia | London | 1 | All Maps","protocol":17,"map":"pl_pier","folder":"tf","game":"Team Fortress","app_id":440,"player_count":24,"max_players":24,"Bots":0,"server_type":"Dedicated","server_os":"Linux","password":true,"vac":true,"version":"7757534","steam_id":85568392924367362,"keywords":["nocrits","nodmgspread","payload","uncletopia"],"game_id":440,"stv_port":27016,"stv_name":"Uncletopia | London | 1 | All Maps | STV","players":[{"user_id":344,"name":"Dexity","steam_id":76561198056130461,"connected_time":8918000000000,"state":"active","ping":59},{"user_id":436,"name":"Crab communist","steam_id":76561198368339225,"connected_time":259000000000,"state":"active","ping":117},{"user_id":424,"name":"Jiggie","steam_id":76561198018134884,"connected_time":1979000000000,"state":"active","ping":81},{"user_id":429,"name":"MEDiUM","steam_id":76561198112328561,"connected_time":1358000000000,"state":"active","ping":86},{"user_id":428,"name":"Kenny","steam_id":76561198107911141,"connected_time":1614000000000,"state":"active","ping":68},{"user_id":404,"name":"cris","steam_id":76561198047662200,"connected_time":4802000000000,"state":"active","ping":46},{"user_id":385,"name":"Wiltaar","steam_id":76561198055530717,"connected_time":5933000000000,"state":"active","ping":55},{"user_id":338,"name":"ivanmixo","steam_id":76561198160213989,"connected_time":9510000000000,"state":"active","ping":72},{"user_id":430,"name":"Borat","steam_id":76561198122226417,"connected_time":853000000000,"state":"active","ping":42},{"user_id":433,"name":"Doomz","steam_id":76561198029147860,"connected_time":593000000000,"state":"active","ping":137},{"user_id":383,"name":"jona3838","steam_id":76561199097658195,"connected_time":6057000000000,"state":"active","ping":98},{"user_id":391,"name":"onku","steam_id":76561199230709660,"connected_time":5299000000000,"state":"active","ping":60},{"user_id":414,"name":"logo in the foam","steam_id":76561198188642265,"connected_time":3629000000000,"state":"active","ping":52},{"user_id":427,"name":"Aaron","steam_id":76561197990046953,"connected_time":1624000000000,"state":"active","ping":61},{"user_id":398,"name":"obscure","steam_id":76561198119532381,"connected_time":5138000000000,"state":"active","ping":51},{"user_id":354,"name":"Ark-e","steam_id":76561198261870909,"connected_time":7837000000000,"state":"active","ping":35},{"user_id":431,"name":"Blacksheep","steam_id":76561198019621063,"connected_time":840000000000,"state":"active","ping":50},{"user_id":432,"name":"Uncle Motong","steam_id":76561198029093635,"connected_time":824000000000,"state":"active","ping":63},{"user_id":426,"name":"Overhaul","steam_id":76561198878610347,"connected_time":1889000000000,"state":"active","ping":120},{"user_id":377,"name":"A Succulent Chinese Meal","steam_id":76561198069472440,"connected_time":6489000000000,"state":"active","ping":60},{"user_id":419,"name":"CarrierPigeon","steam_id":76561198143126135,"connected_time":2582000000000,"state":"active","ping":57},{"user_id":406,"name":"Celdis","steam_id":76561198079741434,"connected_time":4524000000000,"state":"active","ping":62},{"user_id":408,"name":"nudjura","steam_id":76561198281986139,"connected_time":4070000000000,"state":"active","ping":43},{"user_id":423,"name":"Beemo","steam_id":76561198029062932,"connected_time":2085000000000,"state":"active","ping":59}]},{"server_id":114,"name":"Uncletopia | London | 2 | All Maps","name_short":"lon-2","host":"lon-1.uk.uncletopia.com","port":27025,"enabled":true,"region":"eu","cc":"gb","latitude":51.509865,"longitude":-0.118092,"reserved":0,"last_update":"0001-01-01T00:00:00Z","name_a2s":"Uncletopia | London | 2 | All Maps","protocol":17,"map":"pl_borneo","folder":"tf","game":"Team Fortress","app_id":440,"player_count":24,"max_players":24,"Bots":0,"server_type":"Dedicated","server_os":"Linux","password":true,"vac":true,"version":"7757534","steam_id":85568392924470941,"keywords":["nocrits","nodmgspread","payload","uncletopia"],"game_id":440,"stv_port":27026,"stv_name":"Uncletopia | London | 2 | All Maps | STV","players":[{"user_id":634,"name":"GARbageTrash","steam_id":76561199101269633,"connected_time":152000000000,"state":"active","ping":88},{"user_id":623,"name":"SuportSub99","steam_id":76561198127688900,"connected_time":691000000000,"state":"active","ping":38},{"user_id":577,"name":"YourDoom","steam_id":76561198080790857,"connected_time":3983000000000,"state":"active","ping":37},{"user_id":632,"name":"benibachi","steam_id":76561198190816499,"connected_time":307000000000,"state":"active","ping":75},{"user_id":596,"name":"Fratm_Wolf","steam_id":76561199100512277,"connected_time":2634000000000,"state":"active","ping":76},{"user_id":525,"name":"AndroKing","steam_id":76561198840591678,"connected_time":6960000000000,"state":"active","ping":87},{"user_id":597,"name":"dash.","steam_id":76561198084796149,"connected_time":2585000000000,"state":"active","ping":47},{"user_id":591,"name":"Caerot","steam_id":76561198839000676,"connected_time":2786000000000,"state":"active","ping":73},{"user_id":590,"name":"Igames","steam_id":76561198414062544,"connected_time":2799000000000,"state":"active","ping":71},{"user_id":627,"name":"Dellroy","steam_id":76561198161222252,"connected_time":487000000000,"state":"active","ping":57},{"user_id":533,"name":"darktheif54","steam_id":76561198043650119,"connected_time":6227000000000,"state":"active","ping":53},{"user_id":622,"name":"The Fellow Feller","steam_id":76561198188864306,"connected_time":771000000000,"state":"active","ping":82},{"user_id":624,"name":"Bad and worse","steam_id":76561199385280253,"connected_time":686000000000,"state":"active","ping":115},{"user_id":631,"name":"dripstein","steam_id":76561198059598696,"connected_time":324000000000,"state":"active","ping":64},{"user_id":594,"name":"Penis Contortionist","steam_id":76561198073663784,"connected_time":2719000000000,"state":"active","ping":34},{"user_id":615,"name":"37-","steam_id":76561198102195119,"connected_time":1371000000000,"state":"active","ping":32},{"user_id":608,"name":"Official_Bananakin_Ita","steam_id":76561199208682492,"connected_time":2023000000000,"state":"active","ping":67},{"user_id":603,"name":"kotamine","steam_id":76561198068907991,"connected_time":2168000000000,"state":"active","ping":71},{"user_id":635,"name":"leo","steam_id":76561198088016140,"connected_time":137000000000,"state":"active","ping":127},{"user_id":600,"name":"rosepinkyfuzz","steam_id":76561198018546334,"connected_time":2227000000000,"state":"active","ping":75},{"user_id":636,"name":"a very lorge sergal","steam_id":76561197994934838,"connected_time":69000000000,"state":"active","ping":77},{"user_id":628,"name":"blue mean-eyes","steam_id":76561198060105180,"connected_time":442000000000,"state":"active","ping":63},{"user_id":619,"name":".::[SerafeTTiN]::.","steam_id":76561198009471724,"connected_time":1187000000000,"state":"active","ping":96},{"user_id":633,"name":"DarkFady","steam_id":76561198179099523,"connected_time":298000000000,"state":"active","ping":111}]},{"server_id":320,"name":"Uncletopia | London | 3 | All Maps","name_short":"lon-3","host":"lon-1.uk.uncletopia.com","port":27035,"enabled":true,"region":"eu","cc":"gb","latitude":51.509865,"longitude":-0.118092,"reserved":0,"last_update":"0001-01-01T00:00:00Z","name_a2s":"Uncletopia | London | 3 | All Maps","protocol":17,"map":"pl_upward","folder":"tf","game":"Team Fortress","app_id":440,"player_count":24,"max_players":24,"Bots":0,"server_type":"Dedicated","server_os":"Linux","password":true,"vac":true,"version":"7757534","steam_id":85568392924510192,"keywords":["nocrits","nodmgspread","payload","uncletopia"],"game_id":440,"stv_port":27036,"stv_name":"Uncletopia | London | 3 | All Maps | STV","players":[{"user_id":291,"name":"JimBowBlade","steam_id":76561198018620946,"connected_time":548000000000,"state":"active","ping":63},{"user_id":256,"name":"Rubi","steam_id":76561198139410003,"connected_time":1649000000000,"state":"active","ping":83},{"user_id":193,"name":"‚ú™ qua ‚ú™","steam_id":76561198066408333,"connected_time":8749000000000,"state":"active","ping":82},{"user_id":169,"name":"After8","steam_id":76561198090750865,"connected_time":10076000000000,"state":"active","ping":72},{"user_id":314,"name":"Mr. Mundy","steam_id":76561198132008918,"connected_time":122000000000,"state":"active","ping":80},{"user_id":251,"name":"Le Bon Toutou","steam_id":76561198300902712,"connected_time":2228000000000,"state":"active","ping":77},{"user_id":236,"name":"Na'vi Misato (by popular demand","steam_id":76561198130860698,"connected_time":3688000000000,"state":"active","ping":57},{"user_id":173,"name":"Hot Beverage Enjoyer","steam_id":76561198060638325,"connected_time":9959000000000,"state":"active","ping":49},{"user_id":205,"name":"Hexagon","steam_id":76561198151205758,"connected_time":5923000000000,"state":"active","ping":60},{"user_id":253,"name":"Kiryu Kazuma","steam_id":76561198120390292,"connected_time":2141000000000,"state":"active","ping":51},{"user_id":254,"name":"Spajro","steam_id":76561198257383813,"connected_time":2054000000000,"state":"active","ping":49},{"user_id":215,"name":"Atom","steam_id":76561198042963204,"connected_time":5433000000000,"state":"active","ping":56},{"user_id":240,"name":"Whizzo","steam_id":76561198058762428,"connected_time":3007000000000,"state":"active","ping":58},{"user_id":290,"name":"SilverSV","steam_id":76561198164579830,"connected_time":551000000000,"state":"active","ping":52},{"user_id":139,"name":"Cars","steam_id":76561198173329977,"connected_time":12152000000000,"state":"active","ping":56},{"user_id":315,"name":"kryhu","steam_id":76561198293327713,"connected_time":121000000000,"state":"active","ping":75},{"user_id":238,"name":"Anri Okita's Massive Milkers","steam_id":76561199186352720,"connected_time":3591000000000,"state":"active","ping":62},{"user_id":214,"name":"Tom","steam_id":76561198008519979,"connected_time":5462000000000,"state":"active","ping":68},{"user_id":222,"name":"Milfshake","steam_id":76561198208740557,"connected_time":4856000000000,"state":"active","ping":62},{"user_id":293,"name":"Pilorcio","steam_id":76561198036862688,"connected_time":539000000000,"state":"active","ping":91},{"user_id":258,"name":"Yessirskiii","steam_id":76561198179324075,"connected_time":1621000000000,"state":"active","ping":63},{"user_id":252,"name":"Raatel","steam_id":76561198370703651,"connected_time":2227000000000,"state":"active","ping":70},{"user_id":287,"name":"N3Q","steam_id":76561198992326520,"connected_time":589000000000,"state":"active","ping":71},{"user_id":294,"name":"kbbq","steam_id":76561198346638308,"connected_time":536000000000,"state":"active","ping":48}]},{"server_id":321,"name":"Uncletopia | London | 4 | All Maps","name_short":"lon-4","host":"lon-1.uk.uncletopia.com","port":27045,"enabled":true,"region":"eu","cc":"gb","latitude":51.509865,"longitude":-0.118092,"reserved":0,"last_update":"0001-01-01T00:00:00Z","name_a2s":"Uncletopia | London | 4 | All Maps","protocol":17,"map":"pl_frontier_final","folder":"tf","game":"Team Fortress","app_id":440,"player_count":24,"max_players":24,"Bots":0,"server_type":"Dedicated","server_os":"Linux","password":true,"vac":true,"version":"7757534","steam_id":85568392924510193,"keywords":["nocrits","nodmgspread","payload","uncletopia"],"game_id":440,"stv_port":27046,"stv_name":"Uncletopia | London | 4 | All Maps | STV","players":[{"user_id":265,"name":"reaus","steam_id":76561198184346587,"connected_time":107000000000,"state":"active","ping":69},{"user_id":251,"name":"ANKARA MESSI","steam_id":76561198083249161,"connected_time":431000000000,"state":"active","ping":63},{"user_id":243,"name":"ChrisMightShootYou (f2p)","steam_id":76561199002764196,"connected_time":1546000000000,"state":"active","ping":95},{"user_id":256,"name":"Rafalexis","steam_id":76561198055792457,"connected_time":368000000000,"state":"active","ping":77},{"user_id":263,"name":"Greencoffee","steam_id":76561198842090589,"connected_time":163000000000,"state":"active","ping":67},{"user_id":253,"name":"Cosmetic brain","steam_id":76561198055936410,"connected_time":406000000000,"state":"active","ping":84},{"user_id":222,"name":"fan","steam_id":76561198210792815,"connected_time":3461000000000,"state":"active","ping":82},{"user_id":199,"name":"Joseph Stalin","steam_id":76561198033199746,"connected_time":4142000000000,"state":"active","ping":47},{"user_id":159,"name":"M.L.JEW","steam_id":76561198997375055,"connected_time":7353000000000,"state":"active","ping":160},{"user_id":244,"name":"Tomau5","steam_id":76561198027409468,"connected_time":1521000000000,"state":"active","ping":54},{"user_id":172,"name":"[BUFF] Artgrenadier","steam_id":76561198063305359,"connected_time":6143000000000,"state":"active","ping":134},{"user_id":252,"name":"SupremeMug","steam_id":76561198267577251,"connected_time":414000000000,"state":"active","ping":89},{"user_id":203,"name":"Alerxy","steam_id":76561198930670117,"connected_time":4043000000000,"state":"active","ping":43},{"user_id":237,"name":"not drunk","steam_id":76561199184873889,"connected_time":1957000000000,"state":"active","ping":68},{"user_id":250,"name":"loveless","steam_id":76561198142256651,"connected_time":786000000000,"state":"active","ping":94},{"user_id":235,"name":"mickey the shark dude","steam_id":76561198925444073,"connected_time":2250000000000,"state":"active","ping":62},{"user_id":249,"name":"Bill","steam_id":76561198407800452,"connected_time":987000000000,"state":"active","ping":68},{"user_id":258,"name":"Parapluie","steam_id":76561197971640301,"connected_time":344000000000,"state":"active","ping":43},{"user_id":239,"name":"Pears, a Book By Ripnce Arrhy","steam_id":76561198051054132,"connected_time":1862000000000,"state":"active","ping":52},{"user_id":267,"name":"!ItzD4k1","steam_id":76561198976086401,"connected_time":33000000000,"state":"spawning","ping":111},{"user_id":262,"name":"khohol","steam_id":76561198386475480,"connected_time":203000000000,"state":"active","ping":87},{"user_id":209,"name":"majora's boostio","steam_id":76561198392628642,"connected_time":4004000000000,"state":"active","ping":46},{"user_id":186,"name":"bad at gaem","steam_id":76561198072373587,"connected_time":5238000000000,"state":"active","ping":64},{"user_id":268,"name":"leonardini.w #SaveTF2","steam_id":76561199097963071,"connected_time":26000000000,"state":"active","ping":89}]},{"server_id":21,"name":"Uncletopia | London | 5 | All Maps","name_short":"lon-5","host":"lon-1.uk.uncletopia.com","port":27055,"enabled":true,"region":"eu","cc":"gb","latitude":51.509865,"longitude":-0.118092,"reserved":0,"last_update":"0001-01-01T00:00:00Z","name_a2s":"Uncletopia | London | 5 | All Maps","protocol":17,"map":"koth_highpass","folder":"tf","game":"Team Fortress","app_id":440,"player_count":0,"max_players":24,"Bots":0,"server_type":"Dedicated","server_os":"Linux","password":true,"vac":true,"version":"7757534","steam_id":85568392924742829,"keywords":["cp","nocrits","nodmgspread","uncletopia"],"game_id":440,"stv_port":27056,"stv_name":"Uncletopia | London | 5 | All Maps | STV","players":null},{"server_id":22,"name":"Uncletopia | London | 6 | All Maps","name_short":"lon-6","host":"lon-1.uk.uncletopia.com","port":27065,"enabled":true,"region":"eu","cc":"gb","latitude":51.509865,"longitude":-0.118092,"reserved":0,"last_update":"0001-01-01T00:00:00Z","name_a2s":"Uncletopia | London | 6 | All Maps","protocol":17,"map":"pl_barnblitz","folder":"tf","game":"Team Fortress","app_id":440,"player_count":24,"max_players":24,"Bots":0,"server_type":"Dedicated","server_os":"Linux","password":true,"vac":true,"version":"7757534","steam_id":85568392924742830,"keywords":["nocrits","nodmgspread","payload","uncletopia"],"game_id":440,"stv_port":27066,"stv_name":"Uncletopia | London | 6 | All Maps | STV","players":[{"user_id":403,"name":"K.V. #RemoveRandomCrits","steam_id":76561197994832993,"connected_time":1293000000000,"state":"active","ping":81},{"user_id":431,"name":"David Random","steam_id":76561198144497918,"connected_time":420000000000,"state":"active","ping":89},{"user_id":430,"name":"blue","steam_id":76561198216200092,"connected_time":449000000000,"state":"active","ping":50},{"user_id":396,"name":"mge bro","steam_id":76561198796600155,"connected_time":1518000000000,"state":"active","ping":98},{"user_id":417,"name":"Festive Erma","steam_id":76561198038718342,"connected_time":1037000000000,"state":"active","ping":69},{"user_id":387,"name":"0xDEADBEEF","steam_id":76561199075416111,"connected_time":2443000000000,"state":"active","ping":74},{"user_id":266,"name":"HUIL","steam_id":76561198973440902,"connected_time":9807000000000,"state":"active","ping":143},{"user_id":426,"name":"ricky pee pee","steam_id":76561198152620745,"connected_time":595000000000,"state":"active","ping":56},{"user_id":428,"name":"Cleo!","steam_id":76561197995997318,"connected_time":523000000000,"state":"active","ping":51},{"user_id":377,"name":":)","steam_id":76561198039964082,"connected_time":3024000000000,"state":"active","ping":62},{"user_id":390,"name":"Bentley","steam_id":76561197978252169,"connected_time":2193000000000,"state":"active","ping":62},{"user_id":438,"name":"Redkiller","steam_id":76561199453655288,"connected_time":92000000000,"state":"active","ping":128},{"user_id":427,"name":"nik","steam_id":76561198210482280,"connected_time":595000000000,"state":"active","ping":52},{"user_id":433,"name":"BERLIN RP ZAKRIT","steam_id":76561198830119061,"connected_time":357000000000,"state":"active","ping":83},{"user_id":429,"name":"Apolo","steam_id":76561198116159344,"connected_time":507000000000,"state":"active","ping":40},{"user_id":401,"name":"Umby","steam_id":76561198166584580,"connected_time":1339000000000,"state":"active","ping":42},{"user_id":437,"name":"CrankShaft","steam_id":76561197970750813,"connected_time":137000000000,"state":"active","ping":119},{"user_id":424,"name":"(1):)","steam_id":76561198103988618,"connected_time":811000000000,"state":"active","ping":57},{"user_id":363,"name":"Pyro","steam_id":76561198860424456,"connected_time":3698000000000,"state":"active","ping":71},{"user_id":425,"name":"Mr. Pickles #SaveTF2","steam_id":76561199210183560,"connected_time":751000000000,"state":"active","ping":139},{"user_id":436,"name":"Albatar","steam_id":76561198079321557,"connected_time":265000000000,"state":"active","ping":66},{"user_id":366,"name":"lem0nadina","steam_id":76561198427611007,"connected_time":3417000000000,"state":"active","ping":115},{"user_id":423,"name":"Hyperek","steam_id":76561198130797464,"connected_time":841000000000,"state":"active","ping":75},{"user_id":435,"name":"Okonell[HUN]","steam_id":76561198032216617,"connected_time":316000000000,"state":"active","ping":84}]},{"server_id":40,"name":"Uncletopia | London | 7 | No Payload","name_short":"lon-7","host":"lon-1.uk.uncletopia.com","port":27075,"enabled":true,"region":"eu","cc":"gb","latitude":51.509865,"longitude":-0.118092,"reserved":0,"last_update":"0001-01-01T00:00:00Z","name_a2s":"Uncletopia | London | 7 | No Payload","protocol":17,"map":"cp_sunshine","folder":"tf","game":"Team Fortress","app_id":440,"player_count":19,"max_players":24,"Bots":0,"server_type":"Dedicated","server_os":"Linux","password":true,"vac":true,"version":"7757534","steam_id":85568392924964314,"keywords":["cp","nocrits","nodmgspread","uncletopia"],"game_id":440,"stv_port":27076,"stv_name":"Uncletopia | London | 7 | No Payload | STV","players":[{"user_id":446,"name":"lakaka","steam_id":76561199228904504,"connected_time":22000000000,"state":"active","ping":73},{"user_id":431,"name":"Le Beesechurger","steam_id":76561199098866433,"connected_time":492000000000,"state":"active","ping":49},{"user_id":435,"name":"ssjrone600","steam_id":76561199208263809,"connected_time":169000000000,"state":"active","ping":127},{"user_id":415,"name":"mt","steam_id":76561197961319303,"connected_time":974000000000,"state":"active","ping":52},{"user_id":436,"name":"The Rape Plan","steam_id":76561198826343966,"connected_time":160000000000,"state":"active","ping":114},{"user_id":421,"name":"mesoni","steam_id":76561199141290973,"connected_time":758000000000,"state":"active","ping":86},{"user_id":438,"name":"yer_nerd","steam_id":76561199435454093,"connected_time":146000000000,"state":"active","ping":125},{"user_id":440,"name":"Teamtrevien","steam_id":76561198085513932,"connected_time":56000000000,"state":"active","ping":63},{"user_id":441,"name":"Cthulhu","steam_id":76561198326381898,"connected_time":53000000000,"state":"active","ping":139},{"user_id":444,"name":"Totally Something","steam_id":76561198916824935,"connected_time":35000000000,"state":"active","ping":86},{"user_id":445,"name":"(1)7hero","steam_id":76561198118829945,"connected_time":24000000000,"state":"active","ping":107},{"user_id":422,"name":"InsectKing","steam_id":76561199013519071,"connected_time":733000000000,"state":"active","ping":36},{"user_id":423,"name":"Stoyach","steam_id":76561198042517412,"connected_time":720000000000,"state":"active","ping":60},{"user_id":426,"name":"venomew2","steam_id":76561198327081077,"connected_time":646000000000,"state":"active","ping":164},{"user_id":409,"name":"Fat Pigeon","steam_id":76561198817940142,"connected_time":1392000000000,"state":"active","ping":59},{"user_id":434,"name":"Dingus","steam_id":76561198140514058,"connected_time":279000000000,"state":"active","ping":35},{"user_id":427,"name":"Lucky Luke","steam_id":76561198194287034,"connected_time":624000000000,"state":"active","ping":101},{"user_id":430,"name":"!","steam_id":76561198427311326,"connected_time":526000000000,"state":"active","ping":74},{"user_id":428,"name":"405","steam_id":76561198377533237,"connected_time":603000000000,"state":"active","ping":82}]},{"server_id":41,"name":"Uncletopia | London | 8 | Community","name_short":"lon-8","host":"lon-1.uk.uncletopia.com","port":27085,"enabled":true,"region":"eu","cc":"gb","latitude":51.509865,"longitude":-0.118092,"reserved":0,"last_update":"0001-01-01T00:00:00Z","name_a2s":"Uncletopia | London | 8 | Community","protocol":17,"map":"workshop/koth_ashville_final.ugc2130459942","folder":"tf","game":"Team Fortress","app_id":440,"player_count":0,"max_players":24,"Bots":0,"server_type":"Dedicated","server_os":"Linux","password":true,"vac":true,"version":"7757534","steam_id":85568392924964315,"keywords":["cp","nocrits","nodmgspread","uncletopia"],"game_id":440,"stv_port":27086,"stv_name":"Uncletopia | London | 8 | Community | STV","players":null},{"server_id":300,"name":"Uncletopia | Montr√©al | 1 | All Maps","name_short":"mtl-1","host":"mtl-1.ca.uncletopia.com","port":27015,"enabled":true,"region":"us-east","cc":"ca","latitude":45.50889,"longitude":-73.56167,"reserved":0,"last_update":"0001-01-01T00:00:00Z","name_a2s":"Uncletopia | Montr√©al | 1 | All Maps","protocol":17,"map":"koth_cascade","folder":"tf","game":"Team Fortress","app_id":440,"player_count":0,"max_players":24,"Bots":0,"server_type":"Dedicated","server_os":"Linux","password":true,"vac":true,"version":"7757534","steam_id":85568392924500087,"keywords":["cp","nocrits","nodmgspread","uncletopia"],"game_id":440,"stv_port":27016,"stv_name":"Uncletopia | Montr√©al | 1 | All Maps | STV","players":null},{"server_id":301,"name":"Uncletopia | Montr√©al | 2 | All Maps","name_short":"mtl-2","host":"mtl-1.ca.uncletopia.com","port":27025,"enabled":true,"region":"us-east","cc":"ca","latitude":45.50889,"longitude":-73.56167,"reserved":0,"last_update":"0001-01-01T00:00:00Z","name_a2s":"Uncletopia | Montr√©al | 2 | All Maps","protocol":17,"map":"pl_borneo","folder":"tf","game":"Team Fortress","app_id":440,"player_count":0,"max_players":24,"Bots":0,"server_type":"Dedicated","server_os":"Linux","password":true,"vac":true,"version":"7757534","steam_id":85568392924500088,"keywords":["nocrits","nodmgspread","payload","uncletopia"],"game_id":440,"stv_port":27026,"stv_name":"Uncletopia | Montr√©al | 2 | All Maps | STV","players":null},{"server_id":302,"name":"Uncletopia | Montr√©al | 3 | All Maps","name_short":"mtl-3","host":"mtl-1.ca.uncletopia.com","port":27035,"enabled":true,"region":"us-east","cc":"ca","latitude":45.50889,"longitude":-73.56167,"reserved":0,"last_update":"0001-01-01T00:00:00Z","name_a2s":"Uncletopia | Montr√©al | 3 | All Maps","protocol":17,"map":"cp_sunshine","folder":"tf","game":"Team Fortress","app_id":440,"player_count":0,"max_players":24,"Bots":0,"server_type":"Dedicated","server_os":"Linux","password":true,"vac":true,"version":"7757534","steam_id":85568392924500089,"keywords":["cp","nocrits","nodmgspread","uncletopia"],"game_id":440,"stv_port":27036,"stv_name":"Uncletopia | Montr√©al | 3 | All Maps | STV","players":null},{"server_id":303,"name":"Uncletopia | Montr√©al | 4 | No Payload","name_short":"mtl-4","host":"mtl-1.ca.uncletopia.com","port":27045,"enabled":true,"region":"us-east","cc":"ca","latitude":45.50889,"longitude":-73.56167,"reserved":0,"last_update":"0001-01-01T00:00:00Z","name_a2s":"Uncletopia | Montr√©al | 4 | No Payload","protocol":17,"map":"koth_lakeside_final","folder":"tf","game":"Team Fortress","app_id":440,"player_count":0,"max_players":24,"Bots":0,"server_type":"Dedicated","server_os":"Linux","password":true,"vac":true,"version":"7757534","steam_id":85568392924500090,"keywords":["cp","nocrits","nodmgspread","uncletopia"],"game_id":440,"stv_port":27046,"stv_name":"Uncletopia | Montr√©al | 4 | No Payload | STV","players":null},{"server_id":13,"name":"Uncletopia | New York City | 1 | All Maps","name_short":"nyc-1","host":"nyc-1.us.uncletopia.com","port":27015,"enabled":true,"region":"us-east","cc":"us","latitude":40.73061,"longitude":-73.93524,"reserved":0,"last_update":"0001-01-01T00:00:00Z","name_a2s":"Uncletopia | New York City | 1 | All Maps","protocol":17,"map":"koth_viaduct","folder":"tf","game":"Team Fortress","app_id":440,"player_count":0,"max_players":24,"Bots":0,"server_type":"Dedicated","server_os":"Linux","password":true,"vac":true,"version":"7757534","steam_id":85568392924469993,"keywords":["cp","nocrits","nodmgspread","uncletopia"],"game_id":440,"stv_port":27016,"stv_name":"Uncletopia | New York City | 1 | All Maps | STV","players":null},{"server_id":14,"name":"Uncletopia | New York City | 2 | All Maps","name_short":"nyc-2","host":"nyc-1.us.uncletopia.com","port":27025,"enabled":true,"region":"us-east","cc":"us","latitude":40.73061,"longitude":-73.93524,"reserved":0,"last_update":"0001-01-01T00:00:00Z","name_a2s":"Uncletopia | New York City | 2 | All Maps","protocol":17,"map":"cp_granary","folder":"tf","game":"Team Fortress","app_id":440,"player_count":23,"max_players":24,"Bots":0,"server_type":"Dedicated","server_os":"Linux","password":true,"vac":true,"version":"7757534","steam_id":85568392924469994,"keywords":["cp","nocrits","nodmgspread","uncletopia"],"game_id":440,"stv_port":27026,"stv_name":"Uncletopia | New York City | 2 | All Maps | STV","players":[{"user_id":73,"name":"kwout","steam_id":76561197997139225,"connected_time":1309000000000,"state":"spawning","ping":42},{"user_id":94,"name":"ramoneFG.2012","steam_id":76561198353273436,"connected_time":493000000000,"state":"spawning","ping":63},{"user_id":75,"name":"Hook, Line, and Sphincter","steam_id":76561198078207743,"connected_time":1271000000000,"state":"spawning","ping":327},{"user_id":93,"name":"Ocean","steam_id":76561198862723526,"connected_time":529000000000,"state":"spawning","ping":78},{"user_id":60,"name":"The Predator‚Ñ¢","steam_id":76561198053832401,"connected_time":2256000000000,"state":"spawning","ping":107},{"user_id":90,"name":"li","steam_id":76561198077260471,"connected_time":553000000000,"state":"spawning","ping":111},{"user_id":97,"name":"Rein","steam_id":76561198300340427,"connected_time":60000000000,"state":"active","ping":149},{"user_id":77,"name":"A Puppy","steam_id":76561198828184456,"connected_time":1248000000000,"state":"active","ping":145},{"user_id":80,"name":"The Greendale Human Beings","steam_id":76561198055433422,"connected_time":1050000000000,"state":"active","ping":283},{"user_id":87,"name":"sansa musa","steam_id":76561198163723555,"connected_time":684000000000,"state":"active","ping":70},{"user_id":57,"name":"meghan trainor's bass","steam_id":76561198075858067,"connected_time":2825000000000,"state":"spawning","ping":116},{"user_id":56,"name":"sc67","steam_id":76561199302471485,"connected_time":2974000000000,"state":"spawning","ping":56},{"user_id":84,"name":"Anax Alter","steam_id":76561198110249546,"connected_time":849000000000,"state":"spawning","ping":43},{"user_id":72,"name":"guyinatophat51","steam_id":76561198180230694,"connected_time":1556000000000,"state":"active","ping":135},{"user_id":31,"name":"Yayifications","steam_id":76561198066227208,"connected_time":4998000000000,"state":"active","ping":42},{"user_id":68,"name":"Jailbreak","steam_id":76561198802085218,"connected_time":1762000000000,"state":"spawning","ping":68},{"user_id":69,"name":"fudo myoo","steam_id":76561198456258164,"connected_time":1742000000000,"state":"spawning","ping":66},{"user_id":61,"name":"Thog","steam_id":76561198093699060,"connected_time":2245000000000,"state":"spawning","ping":75},{"user_id":96,"name":"innisfree","steam_id":76561198109065124,"connected_time":118000000000,"state":"active","ping":65},{"user_id":85,"name":"JazzMuted","steam_id":76561197974184265,"connected_time":803000000000,"state":"spawning","ping":65},{"user_id":86,"name":"laxy","steam_id":76561198141469778,"connected_time":799000000000,"state":"spawning","ping":159},{"user_id":98,"name":"Room","steam_id":76561199174579733,"connected_time":9000000000,"state":"spawning","ping":80},{"user_id":92,"name":"Quansen","steam_id":76561198151594550,"connected_time":534000000000,"state":"spawning","ping":66}]},{"server_id":15,"name":"Uncletopia | New York City | 3 | Stopwatch Beta","name_short":"nyc-3","host":"nyc-1.us.uncletopia.com","port":27035,"enabled":true,"region":"us-east","cc":"us","latitude":40.73061,"longitude":-73.93524,"reserved":0,"last_update":"0001-01-01T00:00:00Z","name_a2s":"Uncletopia | New York City | 3 | Stopwatch Beta","protocol":17,"map":"koth_lakeside_final","folder":"tf","game":"Team Fortress","app_id":440,"player_count":0,"max_players":24,"Bots":0,"server_type":"Dedicated","server_os":"Linux","password":true,"vac":true,"version":"7757534","steam_id":85568392924742820,"keywords":["cp","nocrits","nodmgspread","uncletopia"],"game_id":440,"stv_port":27036,"stv_name":"Uncletopia | New York City | 3 | Stopwatch Beta | STV","players":null},{"server_id":16,"name":"Uncletopia | New York City | 4 | Community","name_short":"nyc-4","host":"nyc-1.us.uncletopia.com","port":27045,"enabled":true,"region":"us-east","cc":"us","latitude":40.73061,"longitude":-73.93524,"reserved":0,"last_update":"0001-01-01T00:00:00Z","name_a2s":"Uncletopia | New York City | 4 | Community","protocol":17,"map":"workshop/cp_villa_b19.ugc2113052569","folder":"tf","game":"Team Fortress","app_id":440,"player_count":0,"max_players":24,"Bots":0,"server_type":"Dedicated","server_os":"Linux","password":true,"vac":true,"version":"7757534","steam_id":85568392924742821,"keywords":["cp","nocrits","nodmgspread","uncletopia"],"game_id":440,"stv_port":27046,"stv_name":"Uncletopia | New York City | 4 | Community | STV","players":null},{"server_id":142,"name":"Uncletopia | S√£o Paulo | 1 | All Maps","name_short":"sao-1","host":"sao-1.br.uncletopia.com","port":27015,"enabled":true,"region":"sa","cc":"br","latitude":-23.533773,"longitude":-46.62529,"reserved":0,"last_update":"0001-01-01T00:00:00Z","name_a2s":"Uncletopia | S√£o Paulo | 1 | All Maps","protocol":17,"map":"cp_process_final","folder":"tf","game":"Team Fortress","app_id":440,"player_count":0,"max_players":24,"Bots":0,"server_type":"Dedicated","server_os":"Linux","password":true,"vac":true,"version":"7757534","steam_id":85568392924469996,"keywords":["cp","nocrits","nodmgspread","uncletopia"],"game_id":440,"stv_port":27016,"stv_name":"Uncletopia | S√£o Paulo | 1 | All Maps | STV","players":null},{"server_id":143,"name":"Uncletopia | S√£o Paulo | 2 | All Maps","name_short":"sao-2","host":"sao-2.br.uncletopia.com","port":27015,"enabled":true,"region":"sa","cc":"br","latitude":-23.533773,"longitude":-46.62529,"reserved":0,"last_update":"0001-01-01T00:00:00Z","name_a2s":"Uncletopia | S√£o Paulo | 2 | All Maps","protocol":17,"map":"cp_altitude","folder":"tf","game":"Team Fortress","app_id":440,"player_count":0,"max_players":24,"Bots":0,"server_type":"Dedicated","server_os":"Linux","password":true,"vac":true,"version":"7757534","steam_id":85568392924485349,"keywords":["cp","nocrits","nodmgspread","uncletopia"],"game_id":440,"stv_port":27016,"stv_name":"Uncletopia | S√£o Paulo | 2 | All Maps | STV","players":null},{"server_id":7,"name":"Uncletopia | Seattle | 1 | All Maps","name_short":"sea-1","host":"sea-1.us.uncletopia.com","port":27015,"enabled":true,"region":"us-west","cc":"us","latitude":47.608013,"longitude":-122.33517,"reserved":0,"last_update":"0001-01-01T00:00:00Z","name_a2s":"Uncletopia | Seattle | 1 | All Maps","protocol":17,"map":"koth_harvest_final","folder":"tf","game":"Team Fortress","app_id":440,"player_count":0,"max_players":24,"Bots":0,"server_type":"Dedicated","server_os":"Linux","password":true,"vac":true,"version":"7757534","steam_id":85568392924469997,"keywords":["cp","nocrits","nodmgspread","uncletopia"],"game_id":440,"stv_port":27016,"stv_name":"Uncletopia | Seattle | 1 | All Maps | STV","players":null},{"server_id":119,"name":"Uncletopia | Seattle | 2 | All Maps","name_short":"sea-2","host":"sea-1.us.uncletopia.com","port":27025,"enabled":true,"region":"us-west","cc":"us","latitude":47.608013,"longitude":-122.33517,"reserved":0,"last_update":"0001-01-01T00:00:00Z","name_a2s":"Uncletopia | Seattle | 2 | All Maps","protocol":17,"map":"pl_borneo","folder":"tf","game":"Team Fortress","app_id":440,"player_count":0,"max_players":24,"Bots":0,"server_type":"Dedicated","server_os":"Linux","password":true,"vac":true,"version":"7757534","steam_id":85568392924469998,"keywords":["nocrits","nodmgspread","payload","uncletopia"],"game_id":440,"stv_port":27026,"stv_name":"Uncletopia | Seattle | 2 | All Maps | STV","players":null},{"server_id":406,"name":"Uncletopia | Seattle | 3 | Stopwatch Beta","name_short":"sea-3","host":"sea-1.us.uncletopia.com","port":27035,"enabled":true,"region":"us-west","cc":"us","latitude":47.608013,"longitude":-122.33517,"reserved":0,"last_update":"0001-01-01T00:00:00Z","name_a2s":"Uncletopia | Seattle | 3 | Stopwatch Beta","protocol":17,"map":"cp_sunshine","folder":"tf","game":"Team Fortress","app_id":440,"player_count":0,"max_players":24,"Bots":0,"server_type":"Dedicated","server_os":"Linux","password":true,"vac":true,"version":"7757534","steam_id":85568392924515217,"keywords":["cp","nocrits","nodmgspread","uncletopia"],"game_id":440,"stv_port":27036,"stv_name":"Uncletopia | Seattle | 3 | Stopwatch Beta | STV","players":null},{"server_id":17,"name":"Uncletopia | San Francisco | 1 | All Maps","name_short":"sfo-1","host":"sfo-1.us.uncletopia.com","port":27015,"enabled":true,"region":"us-west","cc":"us","latitude":37.77397,"longitude":-122.4313,"reserved":0,"last_update":"0001-01-01T00:00:00Z","name_a2s":"Uncletopia | San Francisco | 1 | All Maps","protocol":17,"map":"pl_upward","folder":"tf","game":"Team Fortress","app_id":440,"player_count":24,"max_players":24,"Bots":0,"server_type":"Dedicated","server_os":"Linux","password":true,"vac":true,"version":"7757534","steam_id":85568392924469999,"keywords":["nocrits","nodmgspread","payload","uncletopia"],"game_id":440,"stv_port":27016,"stv_name":"Uncletopia | San Francisco | 1 | All Maps | STV","players":[{"user_id":90,"name":"lag","steam_id":76561197963872739,"connected_time":2406000000000,"state":"active","ping":34},{"user_id":114,"name":"A Random Guy","steam_id":76561198052725191,"connected_time":481000000000,"state":"active","ping":954},{"user_id":109,"name":"Green_GarBear","steam_id":76561199468912415,"connected_time":823000000000,"state":"active","ping":57},{"user_id":81,"name":"reece","steam_id":76561198065924206,"connected_time":3301000000000,"state":"active","ping":67},{"user_id":64,"name":"Cloudswallower","steam_id":76561198167583291,"connected_time":4076000000000,"state":"active","ping":118},{"user_id":102,"name":"North","steam_id":76561199173696836,"connected_time":1228000000000,"state":"active","ping":85},{"user_id":82,"name":"Quickxdeathx02","steam_id":76561198396771470,"connected_time":3274000000000,"state":"active","ping":83},{"user_id":110,"name":"Sivinus","steam_id":76561198025589541,"connected_time":762000000000,"state":"active","ping":69},{"user_id":72,"name":"rustyorion","steam_id":76561198439186347,"connected_time":3744000000000,"state":"active","ping":68},{"user_id":111,"name":"gristle","steam_id":76561198046815360,"connected_time":678000000000,"state":"active","ping":60},{"user_id":21,"name":"JesusLovesYouYAY","steam_id":76561199146362676,"connected_time":7219000000000,"state":"active","ping":62},{"user_id":22,"name":"Jesus Loves You57","steam_id":76561199058833769,"connected_time":7212000000000,"state":"active","ping":40},{"user_id":67,"name":"beatrix","steam_id":76561199057103062,"connected_time":3975000000000,"state":"active","ping":74},{"user_id":89,"name":"BarelyAnimateObject","steam_id":76561198986264116,"connected_time":2469000000000,"state":"active","ping":57},{"user_id":112,"name":"Kaedus","steam_id":76561198387362750,"connected_time":655000000000,"state":"active","ping":150},{"user_id":99,"name":"Ovr","steam_id":76561198405516708,"connected_time":1393000000000,"state":"active","ping":61},{"user_id":116,"name":" Ä.Íï§ÔΩ°.","steam_id":76561198029580420,"connected_time":33000000000,"state":"active","ping":154},{"user_id":78,"name":"Bellatrix","steam_id":76561198095560470,"connected_time":3531000000000,"state":"active","ping":72},{"user_id":85,"name":"LazyDoll","steam_id":76561198053186338,"connected_time":3170000000000,"state":"active","ping":73},{"user_id":115,"name":"Tom Skirrett","steam_id":76561198014600788,"connected_time":129000000000,"state":"active","ping":87},{"user_id":92,"name":"Sox","steam_id":76561198176379927,"connected_time":2160000000000,"state":"active","ping":98},{"user_id":88,"name":"OH JIMMY I'M HOME #SaveTf2","steam_id":76561198396658806,"connected_time":2547000000000,"state":"active","ping":61},{"user_id":44,"name":"The cloudpeople","steam_id":76561198909415646,"connected_time":6072000000000,"state":"active","ping":107},{"user_id":101,"name":"Titanopsis","steam_id":76561198041838392,"connected_time":1335000000000,"state":"active","ping":75}]},{"server_id":18,"name":"Uncletopia | San Francisco | 2 | All Maps","name_short":"sfo-2","host":"sfo-1.us.uncletopia.com","port":27025,"enabled":true,"region":"us-west","cc":"us","latitude":37.77397,"longitude":-122.4313,"reserved":0,"last_update":"0001-01-01T00:00:00Z","name_a2s":"Uncletopia | San Francisco | 2 | All Maps","protocol":17,"map":"koth_cascade","folder":"tf","game":"Team Fortress","app_id":440,"player_count":0,"max_players":24,"Bots":0,"server_type":"Dedicated","server_os":"Linux","password":true,"vac":true,"version":"7757534","steam_id":85568392924470000,"keywords":["cp","nocrits","nodmgspread","uncletopia"],"game_id":440,"stv_port":27026,"stv_name":"Uncletopia | San Francisco | 2 | All Maps | STV","players":null},{"server_id":19,"name":"Uncletopia | San Francisco | 3 | Stopwatch Beta","name_short":"sfo-3","host":"sfo-1.us.uncletopia.com","port":27035,"enabled":true,"region":"us-west","cc":"us","latitude":37.77397,"longitude":-122.4313,"reserved":0,"last_update":"0001-01-01T00:00:00Z","name_a2s":"Uncletopia | San Francisco | 3 | Stopwatch Beta","protocol":17,"map":"koth_viaduct","folder":"tf","game":"Team Fortress","app_id":440,"player_count":0,"max_players":24,"Bots":0,"server_type":"Dedicated","server_os":"Linux","password":true,"vac":true,"version":"7757534","steam_id":85568392924742824,"keywords":["cp","nocrits","nodmgspread","uncletopia"],"game_id":440,"stv_port":27036,"stv_name":"Uncletopia | San Francisco | 3 | Stopwatch Beta | STV","players":null},{"server_id":20,"name":"Uncletopia | San Francisco | 4 | Community","name_short":"sfo-4","host":"sfo-1.us.uncletopia.com","port":27045,"enabled":true,"region":"us-west","cc":"us","latitude":37.77397,"longitude":-122.4313,"reserved":0,"last_update":"0001-01-01T00:00:00Z","name_a2s":"Uncletopia | San Francisco | 4 | Community","protocol":17,"map":"workshop/koth_synthetic_rc6a.ugc1549817316","folder":"tf","game":"Team Fortress","app_id":440,"player_count":0,"max_players":24,"Bots":0,"server_type":"Dedicated","server_os":"Linux","password":true,"vac":true,"version":"7757534","steam_id":85568392924742826,"keywords":["cp","nocrits","nodmgspread","uncletopia"],"game_id":440,"stv_port":27046,"stv_name":"Uncletopia | San Francisco | 4 | Community | STV","players":null},{"server_id":141,"name":"Uncletopia | Sydney | 1 | All Maps","name_short":"syd-1","host":"syd-1.au.uncletopia.com","port":27015,"enabled":true,"region":"au","cc":"au","latitude":-33.865143,"longitude":151.2099,"reserved":0,"last_update":"0001-01-01T00:00:00Z","name_a2s":"Uncletopia | Sydney | 1 | All Maps","protocol":17,"map":"koth_viaduct","folder":"tf","game":"Team Fortress","app_id":440,"player_count":5,"max_players":24,"Bots":0,"server_type":"Dedicated","server_os":"Linux","password":true,"vac":true,"version":"7757534","steam_id":85568392924470001,"keywords":["cp","nocrits","nodmgspread","uncletopia"],"game_id":440,"stv_port":27016,"stv_name":"Uncletopia | Sydney | 1 | All Maps | STV","players":[{"user_id":505,"name":"Bootyhole Circumciser","steam_id":76561198373935254,"connected_time":743000000000,"state":"active","ping":250},{"user_id":510,"name":"Froomythical","steam_id":76561199193292825,"connected_time":501000000000,"state":"active","ping":272},{"user_id":507,"name":"Sandstorm in a bottle","steam_id":76561198966930054,"connected_time":650000000000,"state":"active","ping":270},{"user_id":508,"name":"Racc \u003c3","steam_id":76561199049412281,"connected_time":597000000000,"state":"active","ping":340},{"user_id":511,"name":"Om3gaB34t","steam_id":76561198855812365,"connected_time":251000000000,"state":"active","ping":263}]},{"server_id":123,"name":"Uncletopia | Sydney | 2 | All Maps","name_short":"syd-2","host":"syd-1.au.uncletopia.com","port":27025,"enabled":true,"region":"au","cc":"au","latitude":-33.865143,"longitude":151.2099,"reserved":0,"last_update":"0001-01-01T00:00:00Z","name_a2s":"Uncletopia | Sydney | 2 | All Maps","protocol":17,"map":"koth_highpass","folder":"tf","game":"Team Fortress","app_id":440,"player_count":0,"max_players":24,"Bots":0,"server_type":"Dedicated","server_os":"Linux","password":true,"vac":true,"version":"7757534","steam_id":85568392924470002,"keywords":["cp","nocrits","nodmgspread","uncletopia"],"game_id":440,"stv_port":27026,"stv_name":"Uncletopia | Sydney | 2 | All Maps | STV","players":null},{"server_id":395,"name":"Uncletopia | Sydney | 3 | All Maps","name_short":"syd-3","host":"syd-1.au.uncletopia.com","port":27035,"enabled":true,"region":"au","cc":"au","latitude":-33.865143,"longitude":151.2099,"reserved":0,"last_update":"0001-01-01T00:00:00Z","name_a2s":"Uncletopia | Sydney | 3 | All Maps","protocol":17,"map":"pl_badwater","folder":"tf","game":"Team Fortress","app_id":440,"player_count":0,"max_players":24,"Bots":0,"server_type":"Dedicated","server_os":"Linux","password":true,"vac":true,"version":"7757534","steam_id":85568392925194467,"keywords":["nocrits","nodmgspread","payload","uncletopia"],"game_id":440,"stv_port":27036,"stv_name":"Uncletopia | Sydney | 3 | All Maps | STV","players":null},{"server_id":396,"name":"Uncletopia | Sydney | 4 | All Maps","name_short":"syd-4","host":"syd-1.au.uncletopia.com","port":27045,"enabled":true,"region":"au","cc":"au","latitude":-33.865143,"longitude":151.2099,"reserved":0,"last_update":"0001-01-01T00:00:00Z","name_a2s":"Uncletopia | Sydney | 4 | All Maps","protocol":17,"map":"koth_highpass","folder":"tf","game":"Team Fortress","app_id":440,"player_count":0,"max_players":24,"Bots":0,"server_type":"Dedicated","server_os":"Linux","password":true,"vac":true,"version":"7757534","steam_id":85568392925397958,"keywords":["cp","nocrits","nodmgspread","uncletopia"],"game_id":440,"stv_port":27046,"stv_name":"Uncletopia | Sydney | 4 | All Maps | STV","players":null},{"server_id":58,"name":"Uncletopia | Sydney | 5 | Stopwatch Beta","name_short":"syd-5","host":"syd-1.au.uncletopia.com","port":27055,"enabled":true,"region":"au","cc":"au","latitude":-33.865143,"longitude":151.2099,"reserved":0,"last_update":"0001-01-01T00:00:00Z","name_a2s":"Uncletopia | Sydney | 5 | Stopwatch Beta","protocol":17,"map":"koth_lakeside_final","folder":"tf","game":"Team Fortress","app_id":440,"player_count":0,"max_players":24,"Bots":0,"server_type":"Dedicated","server_os":"Linux","password":true,"vac":true,"version":"7757534","steam_id":85568392925397959,"keywords":["cp","nocrits","nodmgspread","uncletopia"],"game_id":440,"stv_port":27056,"stv_name":"Uncletopia | Sydney | 5 | Stopwatch Beta | STV","players":null},{"server_id":59,"name":"Uncletopia | Sydney | 6 | Community","name_short":"syd-6","host":"syd-1.au.uncletopia.com","port":27065,"enabled":true,"region":"au","cc":"au","latitude":-33.865143,"longitude":151.2099,"reserved":0,"last_update":"0001-01-01T00:00:00Z","name_a2s":"Uncletopia | Sydney | 6 | Community","protocol":17,"map":"workshop/koth_ramjam_rc1.ugc459778887","folder":"tf","game":"Team Fortress","app_id":440,"player_count":0,"max_players":24,"Bots":0,"server_type":"Dedicated","server_os":"Linux","password":true,"vac":true,"version":"7757534","steam_id":85568392925397960,"keywords":["cp","nocrits","nodmgspread","uncletopia"],"game_id":440,"stv_port":27066,"stv_name":"Uncletopia | Sydney | 6 | Community | STV","players":null},{"server_id":49,"name":"Uncletopia | Warsaw | 1 | All Maps","name_short":"waw-1","host":"waw-1.pl.uncletopia.com","port":27015,"enabled":true,"region":"eu","cc":"pl","latitude":52.2297,"longitude":21.017532,"reserved":0,"last_update":"0001-01-01T00:00:00Z","name_a2s":"","protocol":0,"map":"","folder":"","game":"","app_id":0,"player_count":0,"max_players":0,"Bots":0,"server_type":"","server_os":"","password":false,"vac":false,"version":"","steam_id":0,"keywords":null,"game_id":0,"stv_port":0,"stv_name":"","players":null},{"server_id":50,"name":"Uncletopia | Warsaw | 2 | All Maps","name_short":"waw-2","host":"waw-1.pl.uncletopia.com","port":27025,"enabled":true,"region":"eu","cc":"pl","latitude":52.2297,"longitude":21.017532,"reserved":0,"last_update":"0001-01-01T00:00:00Z","name_a2s":"Uncletopia | Warsaw | 2 | All Maps","protocol":17,"map":"koth_highpass","folder":"tf","game":"Team Fortress","app_id":440,"player_count":0,"max_players":24,"Bots":0,"server_type":"Dedicated","server_os":"Linux","password":true,"vac":true,"version":"7757534","steam_id":85568392925397851,"keywords":["cp","nocrits","nodmgspread","uncletopia"],"game_id":440,"stv_port":27026,"stv_name":"Uncletopia | Warsaw | 2 | All Maps | STV","players":null},{"server_id":51,"name":"Uncletopia | Warsaw | 3 | All Maps","name_short":"waw-3","host":"waw-1.pl.uncletopia.com","port":27035,"enabled":true,"region":"eu","cc":"pl","latitude":52.2297,"longitude":21.017532,"reserved":0,"last_update":"0001-01-01T00:00:00Z","name_a2s":"Uncletopia | Warsaw | 3 | All Maps","protocol":17,"map":"koth_highpass","folder":"tf","game":"Team Fortress","app_id":440,"player_count":0,"max_players":24,"Bots":0,"server_type":"Dedicated","server_os":"Linux","password":true,"vac":true,"version":"7757534","steam_id":85568392925397852,"keywords":["cp","nocrits","nodmgspread","uncletopia"],"game_id":440,"stv_port":27036,"stv_name":"Uncletopia | Warsaw | 3 | All Maps | STV","players":null},{"server_id":52,"name":"Uncletopia | Warsaw | 4 | All Maps","name_short":"waw-4","host":"waw-1.pl.uncletopia.com","port":27045,"enabled":true,"region":"eu","cc":"pl","latitude":52.2297,"longitude":21.017532,"reserved":0,"last_update":"0001-01-01T00:00:00Z","name_a2s":"Uncletopia | Warsaw | 4 | All Maps","protocol":17,"map":"koth_highpass","folder":"tf","game":"Team Fortress","app_id":440,"player_count":0,"max_players":24,"Bots":0,"server_type":"Dedicated","server_os":"Linux","password":true,"vac":true,"version":"7757534","steam_id":85568392925397853,"keywords":["cp","nocrits","nodmgspread","uncletopia"],"game_id":440,"stv_port":27046,"stv_name":"Uncletopia | Warsaw | 4 | All Maps | STV","players":null},{"server_id":53,"name":"Uncletopia | Warsaw | 5 | Stopwatch Beta","name_short":"waw-5","host":"waw-1.pl.uncletopia.com","port":27055,"enabled":true,"region":"eu","cc":"pl","latitude":52.2297,"longitude":21.017532,"reserved":0,"last_update":"0001-01-01T00:00:00Z","name_a2s":"Uncletopia | Warsaw | 5 | Stopwatch Beta","protocol":17,"map":"pl_borneo","folder":"tf","game":"Team Fortress","app_id":440,"player_count":0,"max_players":24,"Bots":0,"server_type":"Dedicated","server_os":"Linux","password":true,"vac":true,"version":"7757534","steam_id":85568392925397854,"keywords":["nocrits","nodmgspread","payload","uncletopia"],"game_id":440,"stv_port":27056,"stv_name":"Uncletopia | Warsaw | 5 | Stopwatch Beta | STV","players":null},{"server_id":54,"name":"Uncletopia | Warsaw | 6 | Community","name_short":"waw-6","host":"waw-1.pl.uncletopia.com","port":27065,"enabled":true,"region":"eu","cc":"pl","latitude":52.2297,"longitude":21.017532,"reserved":0,"last_update":"0001-01-01T00:00:00Z","name_a2s":"Uncletopia | Warsaw | 6 | Community","protocol":17,"map":"workshop/cp_overgrown_rc7b.ugc503939302","folder":"tf","game":"Team Fortress","app_id":440,"player_count":0,"max_players":24,"Bots":0,"server_type":"Dedicated","server_os":"Linux","password":true,"vac":true,"version":"7757534","steam_id":85568392925397856,"keywords":["cp","nocrits","nodmgspread","uncletopia"],"game_id":440,"stv_port":27066,"stv_name":"Uncletopia | Warsaw | 6 | Community | STV","players":null}]}