{"status":true,"message":"","result":[{"server_id":9,"name":"Uncletopia | Atlanta | 1 | All Maps","name_short":"atl-1","host":"atl-1.us.uncletopia.com","port":27015,"enabled":true,"region":"us-east","cc":"us","latitude":33.753746,"longitude":-84.38633,"reserved":0,"last_update":"0001-01-01T00:00:00Z","name_a2s":"Uncletopia | Atlanta | 1 | All Maps","protocol":17,"map":"pl_pier","folder":"tf","game":"Team Fortress","app_id":440,"player_count":24,"max_players":24,"Bots":0,"server_type":"Dedicated","server_os":"Linux","password":true,"vac":true,"version":"7742253","steam_id":85568392924469982,"keywords":["nocrits","nodmgspread","payload","uncletopia"],"game_id":440,"stv_port":27016,"stv_name":"Uncletopia | Atlanta | 1 | All Maps | STV","players":[{"user_id":623,"name":"Semi","steam_id":76561199105889252,"connected_time":1596000000000,"state":"active","ping":161},{"user_id":628,"name":"garfield","steam_id":76561199082902507,"connected_time":830000000000,"state":"active","ping":45},{"user_id":518,"name":"--_Cook_--","steam_id":76561198080855748,"connected_time":14804000000000,"state":"active","ping":61},{"user_id":602,"name":"goober","steam_id":76561198943598378,"connected_time":4378000000000,"state":"active","ping":51},{"user_id":611,"name":"Bunt","steam_id":76561198124477567,"connected_time":2810000000000,"state":"active","ping":36},{"user_id":594,"name":"ATL1 | Lav4ie They/Them","steam_id":76561198825997674,"connected_time":5536000000000,"state":"active","ping":57},{"user_id":593,"name":"Crescent","steam_id":76561198095124633,"connected_time":5567000000000,"state":"active","ping":55},{"user_id":625,"name":"Rusted Cake","steam_id":76561198209755931,"connected_time":1591000000000,"state":"active","ping":80},{"user_id":538,"name":"shaderoses","steam_id":76561198070800500,"connected_time":12399000000000,"state":"active","ping":69},{"user_id":622,"name":"Jin","steam_id":76561198119873148,"connected_time":1784000000000,"state":"active","ping":76},{"user_id":608,"name":"NovaSc6ut","steam_id":76561198277163301,"connected_time":2942000000000,"state":"active","ping":86},{"user_id":629,"name":"the-willy12","steam_id":76561199145029672,"connected_time":816000000000,"state":"active","ping":86},{"user_id":631,"name":"gallowsCalibrator","steam_id":76561198404707578,"connected_time":8000000000,"state":"spawning","ping":54},{"user_id":614,"name":"Shmoopy","steam_id":76561198030459152,"connected_time":2315000000000,"state":"active","ping":61},{"user_id":615,"name":"Cine Hamal","steam_id":76561198079619374,"connected_time":2314000000000,"state":"active","ping":61},{"user_id":613,"name":"Chef","steam_id":76561198086523798,"connected_time":2328000000000,"state":"active","ping":64},{"user_id":612,"name":"Lunchboxx","steam_id":76561198079735916,"connected_time":2750000000000,"state":"active","ping":65},{"user_id":568,"name":"C papi","steam_id":76561198027779564,"connected_time":8836000000000,"state":"active","ping":57},{"user_id":599,"name":"ATL1 | Psionic Box","steam_id":76561198151019322,"connected_time":5038000000000,"state":"active","ping":75},{"user_id":627,"name":"twitch.tv/Yoshi21 | TF2Pugs.com","steam_id":76561198002516729,"connected_time":1413000000000,"state":"active","ping":56},{"user_id":618,"name":"Utah","steam_id":76561198108244455,"connected_time":2167000000000,"state":"active","ping":70},{"user_id":560,"name":"‚òô Corrupt ‚ùß","steam_id":76561197977631915,"connected_time":10243000000000,"state":"active","ping":67},{"user_id":574,"name":"DFR Le4n!!!","steam_id":76561198045522596,"connected_time":8401000000000,"state":"active","ping":69},{"user_id":621,"name":"lker","steam_id":76561197976975075,"connected_time":2073000000000,"state":"active","ping":45}]},{"server_id":400,"name":"Uncletopia | Atlanta | 3 | Stopwatch Beta","name_short":"atl-3","host":"atl-1.us.uncletopia.com","port":27035,"enabled":true,"region":"us-east","cc":"us","latitude":33.753746,"longitude":-84.38633,"reserved":0,"last_update":"0001-01-01T00:00:00Z","name_a2s":"Uncletopia | Atlanta | 3 | Stopwatch Beta","protocol":17,"map":"pl_upward","folder":"tf","game":"Team Fortress","app_id":440,"player_count":0,"max_players":24,"Bots":0,"server_type":"Dedicated","server_os":"Linux","password":true,"vac":true,"version":"7742253","steam_id":85568392924515187,"keywords":["nocrits","nodmgspread","payload","uncletopia"],"game_id":440,"stv_port":27036,"stv_name":"Uncletopia | Atlanta | 3 | Stopwatch Beta | STV","players":null},{"server_id":401,"name":"Uncletopia | Atlanta | 4 | No Payload","name_short":"atl-4","host":"atl-1.us.uncletopia.com","port":27045,"enabled":true,"region":"us-east","cc":"us","latitude":33.753746,"longitude":-84.38633,"reserved":0,"last_update":"0001-01-01T00:00:00Z","name_a2s":"Uncletopia | Atlanta | 4 | No Payload","protocol":17,"map":"pl_pier","folder":"tf","game":"Team Fortress","app_id":440,"player_count":0,"max_players":24,"Bots":0,"server_type":"Dedicated","server_os":"Linux","password":true,"vac":true,"version":"7723704","steam_id":85568392924515188,"keywords":["nocrits","nodmgspread","payload","uncletopia"],"game_id":440,"stv_port":27046,"stv_name":"Uncletopia | Atlanta | 4 | No Payload | STV","players":null},{"server_id":2,"name":"Uncletopia | Chicago | 1 | All Maps","name_short":"chi-1","host":"chi-1.us.uncletopia.com","port":27015,"enabled":true,"region":"us-central","cc":"us","latitude":41.881832,"longitude":-87.62318,"reserved":0,"last_update":"0001-01-01T00:00:00Z","name_a2s":"Uncletopia | Chicago | 1 | All Maps","protocol":17,"map":"pl_snowycoast","folder":"tf","game":"Team Fortress","app_id":440,"player_count":24,"max_players":24,"Bots":0,"server_type":"Dedicated","server_os":"Linux","password":true,"vac":true,"version":"7742253","steam_id":85568392924469984,"keywords":["nocrits","nodmgspread","payload","uncletopia"],"game_id":440,"stv_port":27016,"stv_name":"Uncletopia | Chicago | 1 | All Maps | STV","players":[{"user_id":763,"name":"glert","steam_id":76561198808378733,"connected_time":1828000000000,"state":"active","ping":76},{"user_id":764,"name":"Prismatic","steam_id":76561198109846228,"connected_time":1786000000000,"state":"active","ping":80},{"user_id":790,"name":"Colonel Chikara","steam_id":76561198010021087,"connected_time":703000000000,"state":"active","ping":88},{"user_id":791,"name":"so sad","steam_id":76561198069407799,"connected_time":691000000000,"state":"active","ping":87},{"user_id":772,"name":"Nespreco","steam_id":76561198252035336,"connected_time":1296000000000,"state":"active","ping":143},{"user_id":792,"name":"MR.meeseeks","steam_id":76561198294943420,"connected_time":683000000000,"state":"active","ping":74},{"user_id":773,"name":"LeTonzy","steam_id":76561198005806699,"connected_time":1240000000000,"state":"active","ping":110},{"user_id":775,"name":"Brynkiwi","steam_id":76561198052177917,"connected_time":1069000000000,"state":"active","ping":110},{"user_id":776,"name":"Ratman IV","steam_id":76561198296029842,"connected_time":1057000000000,"state":"active","ping":75},{"user_id":736,"name":"YukiTanuki","steam_id":76561198873907851,"connected_time":4906000000000,"state":"active","ping":79},{"user_id":777,"name":"Elastic Plastic","steam_id":76561198208256715,"connected_time":1052000000000,"state":"active","ping":68},{"user_id":778,"name":"Crimes4Slimes","steam_id":76561198138818355,"connected_time":1051000000000,"state":"active","ping":63},{"user_id":779,"name":"Ellh","steam_id":76561198166637056,"connected_time":1045000000000,"state":"active","ping":105},{"user_id":796,"name":"Militant Pacifist","steam_id":76561198290691432,"connected_time":73000000000,"state":"active","ping":89},{"user_id":795,"name":"Julia","steam_id":76561198175727790,"connected_time":196000000000,"state":"active","ping":103},{"user_id":781,"name":"Lore","steam_id":76561198098407538,"connected_time":1032000000000,"state":"active","ping":54},{"user_id":785,"name":"blockland.fan 3","steam_id":76561198148275870,"connected_time":953000000000,"state":"active","ping":93},{"user_id":783,"name":"Jorjor Well","steam_id":76561198199662083,"connected_time":1005000000000,"state":"active","ping":72},{"user_id":784,"name":"CopMCcopper","steam_id":76561198236011194,"connected_time":1000000000000,"state":"active","ping":69},{"user_id":786,"name":"NekoArc Zeon","steam_id":76561198096274909,"connected_time":930000000000,"state":"active","ping":66},{"user_id":787,"name":"xSloshua","steam_id":76561198268409369,"connected_time":924000000000,"state":"active","ping":45},{"user_id":788,"name":"Demo","steam_id":76561198360323450,"connected_time":899000000000,"state":"active","ping":58},{"user_id":789,"name":"Its Weskin Time","steam_id":76561198143876525,"connected_time":898000000000,"state":"active","ping":126}]},{"server_id":106,"name":"Uncletopia | Chicago | 2 | All Maps","name_short":"chi-2","host":"chi-1.us.uncletopia.com","port":27025,"enabled":true,"region":"us-central","cc":"us","latitude":41.881832,"longitude":-87.62318,"reserved":0,"last_update":"0001-01-01T00:00:00Z","name_a2s":"Uncletopia | Chicago | 2 | All Maps","protocol":17,"map":"cp_snakewater_final1","folder":"tf","game":"Team Fortress","app_id":440,"player_count":1,"max_players":24,"Bots":0,"server_type":"Dedicated","server_os":"Linux","password":true,"vac":true,"version":"7742253","steam_id":85568392924469985,"keywords":["cp","nocrits","nodmgspread","uncletopia"],"game_id":440,"stv_port":27026,"stv_name":"Uncletopia | Chicago | 2 | All Maps | STV","players":[{"user_id":764,"name":"Paul Badman","steam_id":76561198965289206,"connected_time":338000000000,"state":"active","ping":132}]},{"server_id":402,"name":"Uncletopia | Chicago | 3 | All Maps","name_short":"chi-3","host":"chi-1.us.uncletopia.com","port":27035,"enabled":true,"region":"us-central","cc":"us","latitude":41.881832,"longitude":-87.62318,"reserved":0,"last_update":"0001-01-01T00:00:00Z","name_a2s":"Uncletopia | Chicago | 3 | All Maps","protocol":17,"map":"pl_snowycoast","folder":"tf","game":"Team Fortress","app_id":440,"player_count":3,"max_players":24,"Bots":0,"server_type":"Dedicated","server_os":"Linux","password":true,"vac":true,"version":"7742253","steam_id":85568392924515191,"keywords":["nocrits","nodmgspread","payload","uncletopia"],"game_id":440,"stv_port":27036,"stv_name":"Uncletopia | Chicago | 3 | All Maps | STV","players":[{"user_id":679,"name":"Antknee","steam_id":76561198263793809,"connected_time":1138000000000,"state":"active","ping":73},{"user_id":680,"name":"Ender","steam_id":76561198845055020,"connected_time":727000000000,"state":"active","ping":150},{"user_id":619,"name":"Nexxii (They/She)","steam_id":76561198323633947,"connected_time":6137000000000,"state":"active","ping":73}]},{"server_id":403,"name":"Uncletopia | Chicago | 4 | All Maps","name_short":"chi-4","host":"chi-1.us.uncletopia.com","port":27045,"enabled":true,"region":"us-central","cc":"us","latitude":41.881832,"longitude":-87.62318,"reserved":0,"last_update":"0001-01-01T00:00:00Z","name_a2s":"Uncletopia | Chicago | 4 | All Maps","protocol":17,"map":"pl_borneo","folder":"tf","game":"Team Fortress","app_id":440,"player_count":19,"max_players":24,"Bots":0,"server_type":"Dedicated","server_os":"Linux","password":true,"vac":true,"version":"7742253","steam_id":85568392924515193,"keywords":["nocrits","nodmgspread","payload","uncletopia"],"game_id":440,"stv_port":27046,"stv_name":"Uncletopia | Chicago | 4 | All Maps | STV","players":[{"user_id":547,"name":"Technically Trajan","steam_id":76561198057374871,"connected_time":2001000000000,"state":"active","ping":59},{"user_id":563,"name":"Ghtf","steam_id":76561198237521982,"connected_time":1705000000000,"state":"active","ping":104},{"user_id":569,"name":"Pablo Rizzcobar","steam_id":76561198048696348,"connected_time":1375000000000,"state":"active","ping":67},{"user_id":546,"name":"That70sDog","steam_id":76561198119396142,"connected_time":2046000000000,"state":"active","ping":68},{"user_id":574,"name":"Frontier Psychiatrist","steam_id":76561198038689088,"connected_time":685000000000,"state":"active","ping":78},{"user_id":548,"name":"Keg","steam_id":76561198242688458,"connected_time":1987000000000,"state":"active","ping":139},{"user_id":581,"name":"ZenkoZSprite","steam_id":76561198190132250,"connected_time":249000000000,"state":"active","ping":59},{"user_id":582,"name":"SomeFuckingGuy","steam_id":76561199239165015,"connected_time":151000000000,"state":"active","ping":75},{"user_id":584,"name":"32 Benadryl","steam_id":76561198952696452,"connected_time":26000000000,"state":"active","ping":95},{"user_id":583,"name":"LalitoTV","steam_id":76561198334302951,"connected_time":142000000000,"state":"active","ping":108},{"user_id":552,"name":"benicetorice","steam_id":76561198088089632,"connected_time":1951000000000,"state":"active","ping":64},{"user_id":562,"name":"BILL NYE THE FAMILY GUY","steam_id":76561198380926090,"connected_time":1766000000000,"state":"active","ping":55},{"user_id":545,"name":"funkinear1001","steam_id":76561199157665272,"connected_time":2340000000000,"state":"active","ping":102},{"user_id":572,"name":"frog from pond","steam_id":76561198184900753,"connected_time":701000000000,"state":"active","ping":45},{"user_id":579,"name":"Bookmark","steam_id":76561198210918443,"connected_time":403000000000,"state":"active","ping":115},{"user_id":526,"name":"Myracle","steam_id":76561198070916920,"connected_time":4608000000000,"state":"active","ping":45},{"user_id":566,"name":"‚ö°VoltonBolton‚ö°","steam_id":76561198189176634,"connected_time":1473000000000,"state":"active","ping":77},{"user_id":568,"name":"‚ù§ Little Slime ‚ù§","steam_id":76561198190288063,"connected_time":1376000000000,"state":"active","ping":77},{"user_id":573,"name":"jayy.t","steam_id":76561198059575962,"connected_time":700000000000,"state":"active","ping":57}]},{"server_id":36,"name":"Uncletopia | Chicago | 5 | All Maps","name_short":"chi-5","host":"chi-2.us.uncletopia.com","port":27015,"enabled":true,"region":"us-central","cc":"us","latitude":41.881832,"longitude":-87.62318,"reserved":0,"last_update":"0001-01-01T00:00:00Z","name_a2s":"Uncletopia | Chicago | 5 | All Maps","protocol":17,"map":"pl_pier","folder":"tf","game":"Team Fortress","app_id":440,"player_count":24,"max_players":24,"Bots":0,"server_type":"Dedicated","server_os":"Linux","password":true,"vac":true,"version":"7742253","steam_id":85568392924866362,"keywords":["nocrits","nodmgspread","payload","uncletopia"],"game_id":440,"stv_port":27016,"stv_name":"Uncletopia | Chicago | 5 | All Maps | STV","players":[{"user_id":253,"name":"MasterGeek.MX","steam_id":76561198063355220,"connected_time":4734000000000,"state":"active","ping":108},{"user_id":302,"name":"music_hawk","steam_id":76561199183686977,"connected_time":65000000000,"state":"active","ping":102},{"user_id":274,"name":"Monsterjessy","steam_id":76561198035630985,"connected_time":3079000000000,"state":"active","ping":69},{"user_id":275,"name":"Schizo","steam_id":76561198125095908,"connected_time":3024000000000,"state":"active","ping":81},{"user_id":282,"name":"LizzyGizzyGuy","steam_id":76561199094073861,"connected_time":2806000000000,"state":"active","ping":54},{"user_id":277,"name":"Samsiel","steam_id":76561198094134951,"connected_time":2936000000000,"state":"active","ping":98},{"user_id":303,"name":"mothrising","steam_id":76561199239168878,"connected_time":47000000000,"state":"active","ping":102},{"user_id":247,"name":"Whitefang‚Ñ¢","steam_id":76561198045287631,"connected_time":5648000000000,"state":"active","ping":75},{"user_id":246,"name":"Oneal","steam_id":76561198026564095,"connected_time":5655000000000,"state":"active","ping":58},{"user_id":291,"name":"Psychosis","steam_id":76561198078659070,"connected_time":1815000000000,"state":"active","ping":78},{"user_id":266,"name":"gay intercourse enjoyer","steam_id":76561198083429635,"connected_time":3721000000000,"state":"active","ping":189},{"user_id":280,"name":"Saul Goodman","steam_id":76561198961669220,"connected_time":2880000000000,"state":"active","ping":90},{"user_id":281,"name":"spunchbib","steam_id":76561198811306733,"connected_time":2848000000000,"state":"active","ping":89},{"user_id":304,"name":"kursed","steam_id":76561198992371495,"connected_time":25000000000,"state":"active","ping":61},{"user_id":295,"name":"Koolaid","steam_id":76561199200296010,"connected_time":1202000000000,"state":"active","ping":78},{"user_id":248,"name":"Brade","steam_id":76561198041196115,"connected_time":5641000000000,"state":"active","ping":57},{"user_id":285,"name":"Rusty","steam_id":76561198055585129,"connected_time":2717000000000,"state":"active","ping":90},{"user_id":262,"name":"juliusgem","steam_id":76561198206751192,"connected_time":4099000000000,"state":"active","ping":128},{"user_id":305,"name":"Misosa","steam_id":76561198356960588,"connected_time":9000000000,"state":"spawning","ping":85},{"user_id":296,"name":"About That Beer I Owed Ya","steam_id":76561198071506287,"connected_time":1185000000000,"state":"active","ping":107},{"user_id":270,"name":"ipadkid","steam_id":76561199239446808,"connected_time":3533000000000,"state":"active","ping":89},{"user_id":267,"name":"InkQuil","steam_id":76561198135315642,"connected_time":3719000000000,"state":"active","ping":65},{"user_id":297,"name":"mrp","steam_id":76561198942843544,"connected_time":985000000000,"state":"active","ping":117},{"user_id":288,"name":"SHADOW (he/him)","steam_id":76561198207768148,"connected_time":2026000000000,"state":"active","ping":123}]},{"server_id":37,"name":"Uncletopia | Chicago | 6 | All Maps","name_short":"chi-6","host":"chi-2.us.uncletopia.com","port":27025,"enabled":true,"region":"us-central","cc":"us","latitude":41.881832,"longitude":-87.62318,"reserved":0,"last_update":"0001-01-01T00:00:00Z","name_a2s":"Uncletopia | Chicago | 6 | All Maps","protocol":17,"map":"koth_lakeside_final","folder":"tf","game":"Team Fortress","app_id":440,"player_count":22,"max_players":24,"Bots":0,"server_type":"Dedicated","server_os":"Linux","password":true,"vac":true,"version":"7742253","steam_id":85568392924866363,"keywords":["cp","nocrits","nodmgspread","uncletopia"],"game_id":440,"stv_port":27026,"stv_name":"Uncletopia | Chicago | 6 | All Maps | STV","players":[{"user_id":484,"name":"starboy","steam_id":76561198072072241,"connected_time":9676000000000,"state":"active","ping":51},{"user_id":567,"name":"goblin","steam_id":76561199004451589,"connected_time":2022000000000,"state":"active","ping":60},{"user_id":525,"name":"Cleric","steam_id":76561198045887994,"connected_time":6075000000000,"state":"active","ping":45},{"user_id":534,"name":"Reisen","steam_id":76561197968832019,"connected_time":5706000000000,"state":"active","ping":55},{"user_id":550,"name":"loveass","steam_id":76561198882399360,"connected_time":4334000000000,"state":"active","ping":101},{"user_id":586,"name":"regular_consuelo","steam_id":76561198327831852,"connected_time":380000000000,"state":"active","ping":66},{"user_id":581,"name":"Divine Kitty","steam_id":76561198293490689,"connected_time":509000000000,"state":"active","ping":101},{"user_id":584,"name":"bicth","steam_id":76561198086314381,"connected_time":409000000000,"state":"active","ping":79},{"user_id":585,"name":"poey","steam_id":76561198865346767,"connected_time":400000000000,"state":"active","ping":94},{"user_id":447,"name":"oak","steam_id":76561198092135570,"connected_time":11354000000000,"state":"active","ping":61},{"user_id":587,"name":"devamar","steam_id":76561198069115467,"connected_time":348000000000,"state":"active","ping":61},{"user_id":589,"name":"game sucks","steam_id":76561198237479738,"connected_time":273000000000,"state":"active","ping":75},{"user_id":580,"name":"Lil Spoook","steam_id":76561198115638936,"connected_time":765000000000,"state":"active","ping":58},{"user_id":568,"name":"sweaterfan","steam_id":76561199389567214,"connected_time":2015000000000,"state":"active","ping":59},{"user_id":590,"name":"Arrythmia","steam_id":76561198093748123,"connected_time":210000000000,"state":"active","ping":90},{"user_id":574,"name":"Joshei","steam_id":76561199036120282,"connected_time":1974000000000,"state":"active","ping":131},{"user_id":577,"name":"OkayPlank","steam_id":76561198053140170,"connected_time":1354000000000,"state":"active","ping":97},{"user_id":592,"name":"crackingcorn","steam_id":76561198281690779,"connected_time":157000000000,"state":"active","ping":108},{"user_id":579,"name":"Ignited","steam_id":76561198385604391,"connected_time":1054000000000,"state":"active","ping":70},{"user_id":593,"name":"eryn üó∫","steam_id":76561198004433070,"connected_time":106000000000,"state":"active","ping":76},{"user_id":594,"name":"nell","steam_id":76561198136225723,"connected_time":97000000000,"state":"active","ping":70},{"user_id":513,"name":"Theory-ZaZa","steam_id":76561198116419931,"connected_time":7625000000000,"state":"active","ping":106}]},{"server_id":38,"name":"Uncletopia | Chicago | 7 | Stopwatch Beta","name_short":"chi-7","host":"chi-2.us.uncletopia.com","port":27035,"enabled":true,"region":"us-central","cc":"us","latitude":41.881832,"longitude":-87.62318,"reserved":0,"last_update":"0001-01-01T00:00:00Z","name_a2s":"Uncletopia | Chicago | 7 | Stopwatch Beta","protocol":17,"map":"pl_upward","folder":"tf","game":"Team Fortress","app_id":440,"player_count":0,"max_players":24,"Bots":0,"server_type":"Dedicated","server_os":"Linux","password":true,"vac":true,"version":"7742253","steam_id":85568392924866364,"keywords":["nocrits","nodmgspread","payload","uncletopia"],"game_id":440,"stv_port":27036,"stv_name":"Uncletopia | Chicago | 7 | Stopwatch Beta | STV","players":null},{"server_id":39,"name":"Uncletopia | Chicago | 8 | Community","name_short":"chi-8","host":"chi-2.us.uncletopia.com","port":27045,"enabled":true,"region":"us-central","cc":"us","latitude":41.881832,"longitude":-87.62318,"reserved":0,"last_update":"0001-01-01T00:00:00Z","name_a2s":"Uncletopia | Chicago | 8 | Community","protocol":17,"map":"workshop/koth_product_final.ugc454272353","folder":"tf","game":"Team Fortress","app_id":440,"player_count":0,"max_players":24,"Bots":0,"server_type":"Dedicated","server_os":"Linux","password":true,"vac":true,"version":"7742253","steam_id":85568392924866365,"keywords":["cp","nocrits","nodmgspread","uncletopia"],"game_id":440,"stv_port":27046,"stv_name":"Uncletopia | Chicago | 8 | Community | STV","players":null},{"server_id":8,"name":"Uncletopia | Dallas | 1 | All Maps","name_short":"dal-1","host":"dal-1.us.uncletopia.com","port":27015,"enabled":true,"region":"us-central","cc":"us","latitude":32.779167,"longitude":-96.80889,"reserved":0,"last_update":"0001-01-01T00:00:00Z","name_a2s":"Uncletopia | Dallas | 1 | All Maps","protocol":17,"map":"cp_sunshine","folder":"tf","game":"Team Fortress","app_id":440,"player_count":2,"max_players":24,"Bots":0,"server_type":"Dedicated","server_os":"Linux","password":true,"vac":true,"version":"7742253","steam_id":85568392924469986,"keywords":["cp","nocrits","nodmgspread","uncletopia"],"game_id":440,"stv_port":27016,"stv_name":"Uncletopia | Dallas | 1 | All Maps | STV","players":[{"user_id":803,"name":"—Ö–∏—Ç—Ä–∞—è –º–∞–Ω–¥–∞—Ä–∏–Ω–∫","steam_id":76561198402900403,"connected_time":511000000000,"state":"active","ping":210},{"user_id":791,"name":"Kingcole2022","steam_id":76561198030663950,"connected_time":2912000000000,"state":"active","ping":86}]},{"server_id":108,"name":"Uncletopia | Dallas | 2 | All Maps","name_short":"dal-2","host":"dal-1.us.uncletopia.com","port":27025,"enabled":true,"region":"us-central","cc":"us","latitude":32.779167,"longitude":-96.80889,"reserved":0,"last_update":"0001-01-01T00:00:00Z","name_a2s":"Uncletopia | Dallas | 2 | All Maps","protocol":17,"map":"pl_pier","folder":"tf","game":"Team Fortress","app_id":440,"player_count":23,"max_players":24,"Bots":0,"server_type":"Dedicated","server_os":"Linux","password":true,"vac":true,"version":"7742253","steam_id":85568392924469988,"keywords":["nocrits","nodmgspread","payload","uncletopia"],"game_id":440,"stv_port":27026,"stv_name":"Uncletopia | Dallas | 2 | All Maps | STV","players":[{"user_id":707,"name":"tacofever","steam_id":76561198010966507,"connected_time":227000000000,"state":"active","ping":75},{"user_id":699,"name":"boombox","steam_id":76561198237013798,"connected_time":1292000000000,"state":"active","ping":89},{"user_id":633,"name":"Professor Cuthbert Calculus","steam_id":76561198003257461,"connected_time":6856000000000,"state":"active","ping":92},{"user_id":692,"name":"floofy","steam_id":76561198389769098,"connected_time":2156000000000,"state":"active","ping":97},{"user_id":695,"name":"Nidus | IFN.GG","steam_id":76561198886277516,"connected_time":1821000000000,"state":"active","ping":58},{"user_id":697,"name":"JZ","steam_id":76561198377029198,"connected_time":1471000000000,"state":"active","ping":95},{"user_id":666,"name":"Rin \"Hindwing\" Redtail","steam_id":76561199074865638,"connected_time":3845000000000,"state":"active","ping":47},{"user_id":630,"name":"Alset","steam_id":76561197993820174,"connected_time":7411000000000,"state":"active","ping":44},{"user_id":711,"name":"rainwarden","steam_id":76561198085183458,"connected_time":200000000000,"state":"active","ping":94},{"user_id":706,"name":"[GUT] RiDiK¬Æ","steam_id":76561197969756446,"connected_time":253000000000,"state":"active","ping":76},{"user_id":705,"name":"Rat Smacker","steam_id":76561199090197628,"connected_time":593000000000,"state":"active","ping":62},{"user_id":708,"name":"Punished Jeff #NeverSimpAgain","steam_id":76561198304252584,"connected_time":217000000000,"state":"active","ping":85},{"user_id":664,"name":"JasonIsGold79","steam_id":76561198101441539,"connected_time":3901000000000,"state":"active","ping":85},{"user_id":659,"name":"AlaNo","steam_id":76561198133099582,"connected_time":4303000000000,"state":"active","ping":76},{"user_id":690,"name":"jaboody","steam_id":76561197997274845,"connected_time":2198000000000,"state":"active","ping":88},{"user_id":696,"name":"Dr. Livesey","steam_id":76561198260799901,"connected_time":1523000000000,"state":"active","ping":113},{"user_id":709,"name":"minion from minions","steam_id":76561199001464827,"connected_time":214000000000,"state":"active","ping":62},{"user_id":632,"name":"Anderswo","steam_id":76561198253224241,"connected_time":6958000000000,"state":"active","ping":103},{"user_id":710,"name":"\u003c blank \u003e","steam_id":76561198061448188,"connected_time":208000000000,"state":"active","ping":89},{"user_id":713,"name":"orangk","steam_id":76561198026604607,"connected_time":162000000000,"state":"active","ping":67},{"user_id":698,"name":"Joey The Goat","steam_id":76561198864691307,"connected_time":1416000000000,"state":"active","ping":75},{"user_id":616,"name":"redzach","steam_id":76561198444094359,"connected_time":8610000000000,"state":"active","ping":76},{"user_id":702,"name":"Smitty Werbenjagermanjensen","steam_id":76561198065782439,"connected_time":1249000000000,"state":"active","ping":99}]},{"server_id":5,"name":"Uncletopia | Frankfurt | 1 | All Maps","name_short":"frk-1","host":"frk-1.de.uncletopia.com","port":27015,"enabled":true,"region":"eu","cc":"de","latitude":50.110924,"longitude":8.682127,"reserved":0,"last_update":"0001-01-01T00:00:00Z","name_a2s":"Uncletopia | Frankfurt | 1 | All Maps","protocol":17,"map":"pl_borneo","folder":"tf","game":"Team Fortress","app_id":440,"player_count":5,"max_players":24,"Bots":0,"server_type":"Dedicated","server_os":"Linux","password":true,"vac":true,"version":"7742253","steam_id":85568392924469989,"keywords":["nocrits","nodmgspread","payload","uncletopia"],"game_id":440,"stv_port":27016,"stv_name":"Uncletopia | Frankfurt | 1 | All Maps | STV","players":[{"user_id":4,"name":"fried","steam_id":76561198307522022,"connected_time":511000000000,"state":"active","ping":69},{"user_id":6,"name":"MarkBV","steam_id":76561198427014506,"connected_time":460000000000,"state":"active","ping":132},{"user_id":7,"name":"viktor610126","steam_id":76561198386462300,"connected_time":460000000000,"state":"active","ping":104},{"user_id":8,"name":"Rumblers","steam_id":76561198342993279,"connected_time":211000000000,"state":"active","ping":103},{"user_id":9,"name":"jker","steam_id":76561198816714058,"connected_time":33000000000,"state":"active","ping":90}]},{"server_id":110,"name":"Uncletopia | Frankfurt | 2 | All Maps","name_short":"frk-2","host":"frk-1.de.uncletopia.com","port":27025,"enabled":true,"region":"eu","cc":"de","latitude":50.110924,"longitude":8.682127,"reserved":0,"last_update":"0001-01-01T00:00:00Z","name_a2s":"Uncletopia | Frankfurt | 2 | All Maps","protocol":17,"map":"pl_swiftwater_final1","folder":"tf","game":"Team Fortress","app_id":440,"player_count":0,"max_players":24,"Bots":0,"server_type":"Dedicated","server_os":"Linux","password":true,"vac":true,"version":"7742253","steam_id":85568392924469990,"keywords":["nocrits","nodmgspread","payload","uncletopia"],"game_id":440,"stv_port":27026,"stv_name":"Uncletopia | Frankfurt | 2 | All Maps | STV","players":null},{"server_id":308,"name":"Uncletopia | Frankfurt | 3 | All Maps","name_short":"frk-3","host":"frk-1.de.uncletopia.com","port":27035,"enabled":true,"region":"eu","cc":"de","latitude":50.110924,"longitude":8.682127,"reserved":0,"last_update":"0001-01-01T00:00:00Z","name_a2s":"Uncletopia | Frankfurt | 3 | All Maps","protocol":17,"map":"cp_dustbowl","folder":"tf","game":"Team Fortress","app_id":440,"player_count":0,"max_players":24,"Bots":0,"server_type":"Dedicated","server_os":"Linux","password":true,"vac":true,"version":"7742253","steam_id":85568392924504274,"keywords":["cp","nocrits","nodmgspread","uncletopia"],"game_id":440,"stv_port":27036,"stv_name":"Uncletopia | Frankfurt | 3 | All Maps | STV","players":null},{"server_id":309,"name":"Uncletopia | Frankfurt | 4 | All Maps","name_short":"frk-4","host":"frk-1.de.uncletopia.com","port":27045,"enabled":true,"region":"eu","cc":"de","latitude":50.110924,"longitude":8.682127,"reserved":0,"last_update":"0001-01-01T00:00:00Z","name_a2s":"Uncletopia | Frankfurt | 4 | All Maps","protocol":17,"map":"cp_sunshine","folder":"tf","game":"Team Fortress","app_id":440,"player_count":0,"max_players":24,"Bots":0,"server_type":"Dedicated","server_os":"Linux","password":true,"vac":true,"version":"7742253","steam_id":85568392924504275,"keywords":["cp","nocrits","nodmgspread","uncletopia"],"game_id":440,"stv_port":27046,"stv_name":"Uncletopia | Frankfurt | 4 | All Maps | STV","players":null},{"server_id":310,"name":"Uncletopia | Frankfurt | 5 | All Maps","name_short":"frk-5","host":"frk-1.de.uncletopia.com","port":27055,"enabled":true,"region":"eu","cc":"de","latitude":50.110924,"longitude":8.682127,"reserved":0,"last_update":"0001-01-01T00:00:00Z","name_a2s":"Uncletopia | Frankfurt | 5 | All Maps","protocol":17,"map":"cp_sunshine","folder":"tf","game":"Team Fortress","app_id":440,"player_count":0,"max_players":24,"Bots":0,"server_type":"Dedicated","server_os":"Linux","password":true,"vac":true,"version":"7742253","steam_id":85568392924504277,"keywords":["cp","nocrits","nodmgspread","uncletopia"],"game_id":440,"stv_port":27056,"stv_name":"Uncletopia | Frankfurt | 5 | All Maps | STV","players":null},{"server_id":311,"name":"Uncletopia | Frankfurt | 6 | All Maps","name_short":"frk-6","host":"frk-1.de.uncletopia.com","port":27065,"enabled":true,"region":"eu","cc":"de","latitude":50.110924,"longitude":8.682127,"reserved":0,"last_update":"0001-01-01T00:00:00Z","name_a2s":"Uncletopia | Frankfurt | 6 | All Maps","protocol":17,"map":"koth_lakeside_final","folder":"tf","game":"Team Fortress","app_id":440,"player_count":0,"max_players":24,"Bots":0,"server_type":"Dedicated","server_os":"Linux","password":true,"vac":true,"version":"7742253","steam_id":85568392924504278,"keywords":["cp","nocrits","nodmgspread","uncletopia"],"game_id":440,"stv_port":27066,"stv_name":"Uncletopia | Frankfurt | 6 | All Maps | STV","players":null},{"server_id":23,"name":"Uncletopia | Frankfurt | 7 | Stopwatch Beta","name_short":"frk-7","host":"frk-1.de.uncletopia.com","port":27075,"enabled":true,"region":"eu","cc":"de","latitude":50.110924,"longitude":8.682127,"reserved":0,"last_update":"0001-01-01T00:00:00Z","name_a2s":"Uncletopia | Frankfurt | 7 | Stopwatch Beta","protocol":17,"map":"pl_badwater","folder":"tf","game":"Team Fortress","app_id":440,"player_count":0,"max_players":24,"Bots":0,"server_type":"Dedicated","server_os":"Linux","password":true,"vac":true,"version":"7742253","steam_id":85568392924742827,"keywords":["nocrits","nodmgspread","payload","uncletopia"],"game_id":440,"stv_port":27076,"stv_name":"Uncletopia | Frankfurt | 7 | Stopwatch Beta | STV","players":null},{"server_id":24,"name":"Uncletopia | Frankfurt | 8 | Community","name_short":"frk-8","host":"frk-1.de.uncletopia.com","port":27085,"enabled":true,"region":"eu","cc":"de","latitude":50.110924,"longitude":8.682127,"reserved":0,"last_update":"0001-01-01T00:00:00Z","name_a2s":"Uncletopia | Frankfurt | 8 | Community","protocol":17,"map":"koth_cascade","folder":"tf","game":"Team Fortress","app_id":440,"player_count":0,"max_players":24,"Bots":0,"server_type":"Dedicated","server_os":"Linux","password":true,"vac":true,"version":"7742253","steam_id":85568392924742828,"keywords":["cp","nocrits","nodmgspread","uncletopia"],"game_id":440,"stv_port":27086,"stv_name":"Uncletopia | Frankfurt | 8 | Community | STV","players":null},{"server_id":202,"name":"Uncletopia | Hong Kong | 1 | All Maps","name_short":"hgk-1","host":"hgk-1.hk.uncletopia.com","port":27015,"enabled":true,"region":"asia","cc":"hk","latitude":22.302711,"longitude":114.177216,"reserved":0,"last_update":"0001-01-01T00:00:00Z","name_a2s":"Uncletopia | Hong Kong | 1 | All Maps","protocol":17,"map":"pl_barnblitz","folder":"tf","game":"Team Fortress","app_id":440,"player_count":24,"max_players":24,"Bots":0,"server_type":"Dedicated","server_os":"Linux","password":true,"vac":true,"version":"7742253","steam_id":85568392924494504,"keywords":["nocrits","nodmgspread","payload","uncletopia"],"game_id":440,"stv_port":27016,"stv_name":"Uncletopia | Hong Kong | 1 | All Maps | STV","players":[{"user_id":161,"name":"corpse_cadaver","steam_id":76561199225360457,"connected_time":2976000000000,"state":"active","ping":65},{"user_id":196,"name":"Loid Forgor","steam_id":76561198811532659,"connected_time":1022000000000,"state":"active","ping":80},{"user_id":162,"name":"smol - est","steam_id":76561198293775978,"connected_time":2933000000000,"state":"active","ping":100},{"user_id":157,"name":"spinach hero","steam_id":76561198042539541,"connected_time":3226000000000,"state":"active","ping":82},{"user_id":127,"name":"Momoxhien","steam_id":76561198414997429,"connected_time":7050000000000,"state":"active","ping":62},{"user_id":151,"name":"ocha „ÅäËå∂ Ï†ÑÌÜµÏ∞®","steam_id":76561199224096189,"connected_time":4401000000000,"state":"active","ping":89},{"user_id":180,"name":"brizzard","steam_id":76561198048438653,"connected_time":1747000000000,"state":"active","ping":48},{"user_id":188,"name":"lettuce at 58p","steam_id":76561199401283123,"connected_time":1319000000000,"state":"active","ping":89},{"user_id":178,"name":"literal trash","steam_id":76561199429882426,"connected_time":1824000000000,"state":"active","ping":72},{"user_id":181,"name":"Cashewal","steam_id":76561198381576087,"connected_time":1737000000000,"state":"active","ping":120},{"user_id":173,"name":"MS PowerPoint","steam_id":76561198369523192,"connected_time":2196000000000,"state":"active","ping":62},{"user_id":185,"name":"DREAMER","steam_id":76561198987918600,"connected_time":1547000000000,"state":"active","ping":91},{"user_id":159,"name":"derek.patriarca30","steam_id":76561199427230206,"connected_time":2981000000000,"state":"active","ping":61},{"user_id":182,"name":"=)","steam_id":76561198360026912,"connected_time":1695000000000,"state":"active","ping":89},{"user_id":163,"name":"timmy.1366","steam_id":76561199065433547,"connected_time":2913000000000,"state":"active","ping":77},{"user_id":158,"name":"Steve","steam_id":76561198429235506,"connected_time":3124000000000,"state":"active","ping":85},{"user_id":197,"name":"Sizrayn","steam_id":76561198438091233,"connected_time":970000000000,"state":"active","ping":87},{"user_id":193,"name":"vgames9","steam_id":76561198218803580,"connected_time":1211000000000,"state":"active","ping":70},{"user_id":174,"name":"Wx","steam_id":76561199217780897,"connected_time":2187000000000,"state":"active","ping":120},{"user_id":176,"name":":)","steam_id":76561198437941450,"connected_time":1832000000000,"state":"active","ping":76},{"user_id":168,"name":"wait of the world","steam_id":76561198819895048,"connected_time":2562000000000,"state":"active","ping":37},{"user_id":198,"name":"high on perfume rn fr","steam_id":76561199174449723,"connected_time":636000000000,"state":"active","ping":137},{"user_id":169,"name":"GreggieBoi","steam_id":76561199085200364,"connected_time":2537000000000,"state":"active","ping":61},{"user_id":183,"name":"Monday","steam_id":76561198829584056,"connected_time":1692000000000,"state":"active","ping":33}]},{"server_id":1,"name":"Uncletopia | Los Angeles | 1 | All Maps","name_short":"lax-1","host":"lax-1.us.uncletopia.com","port":27015,"enabled":true,"region":"us-west","cc":"us","latitude":33.94279,"longitude":-118.41004,"reserved":0,"last_update":"0001-01-01T00:00:00Z","name_a2s":"Uncletopia | Los Angeles | 1 | All Maps","protocol":17,"map":"pl_frontier_final","folder":"tf","game":"Team Fortress","app_id":440,"player_count":0,"max_players":24,"Bots":0,"server_type":"Dedicated","server_os":"Linux","password":true,"vac":true,"version":"7742253","steam_id":85568392924469991,"keywords":["nocrits","nodmgspread","payload","uncletopia"],"game_id":440,"stv_port":27016,"stv_name":"Uncletopia | Los Angeles | 1 | All Maps | STV","players":null},{"server_id":112,"name":"Uncletopia | Los Angeles | 2 | All Maps","name_short":"lax-2","host":"lax-1.us.uncletopia.com","port":27025,"enabled":true,"region":"us-west","cc":"us","latitude":33.94279,"longitude":-118.41004,"reserved":0,"last_update":"0001-01-01T00:00:00Z","name_a2s":"Uncletopia | Los Angeles | 2 | All Maps","protocol":17,"map":"cp_steel","folder":"tf","game":"Team Fortress","app_id":440,"player_count":22,"max_players":24,"Bots":0,"server_type":"Dedicated","server_os":"Linux","password":true,"vac":true,"version":"7742253","steam_id":85568392924469992,"keywords":["cp","nocrits","nodmgspread","uncletopia"],"game_id":440,"stv_port":27026,"stv_name":"Uncletopia | Los Angeles | 2 | All Maps | STV","players":[{"user_id":284,"name":"Squatter1","steam_id":76561198078987734,"connected_time":3550000000000,"state":"active","ping":63},{"user_id":282,"name":"Koopa Paratroopa","steam_id":76561198035448426,"connected_time":3812000000000,"state":"active","ping":65},{"user_id":326,"name":"winky","steam_id":76561199128617780,"connected_time":293000000000,"state":"active","ping":76},{"user_id":323,"name":"Moosepie","steam_id":76561199241155474,"connected_time":668000000000,"state":"active","ping":120},{"user_id":324,"name":"AKKAWI","steam_id":76561198203159952,"connected_time":586000000000,"state":"active","ping":60},{"user_id":317,"name":"Majestic-A","steam_id":76561198988062101,"connected_time":1433000000000,"state":"active","ping":66},{"user_id":325,"name":"_spaceman_","steam_id":76561198353808504,"connected_time":349000000000,"state":"active","ping":110},{"user_id":322,"name":"Battery_Included","steam_id":76561198067164431,"connected_time":1115000000000,"state":"active","ping":44},{"user_id":313,"name":"soda heater","steam_id":76561198864545608,"connected_time":1519000000000,"state":"active","ping":65},{"user_id":318,"name":"invb","steam_id":76561197998263914,"connected_time":1398000000000,"state":"active","ping":110},{"user_id":289,"name":"stoned jester","steam_id":76561198079609974,"connected_time":3143000000000,"state":"active","ping":60},{"user_id":291,"name":"DarthJiggles","steam_id":76561198088383875,"connected_time":3113000000000,"state":"active","ping":51},{"user_id":327,"name":"Sharp","steam_id":76561198044565001,"connected_time":230000000000,"state":"active","ping":105},{"user_id":309,"name":"MantisTobboggan","steam_id":76561197969447887,"connected_time":2126000000000,"state":"active","ping":94},{"user_id":311,"name":"machomelon","steam_id":76561198043683564,"connected_time":1787000000000,"state":"active","ping":48},{"user_id":328,"name":"Thicket","steam_id":76561198371066702,"connected_time":196000000000,"state":"active","ping":46},{"user_id":274,"name":"Hank The Bartender","steam_id":76561197998414260,"connected_time":4549000000000,"state":"active","ping":67},{"user_id":299,"name":"Sloppy Joe (Extra Sauce)","steam_id":76561198359703432,"connected_time":2840000000000,"state":"active","ping":44},{"user_id":329,"name":"The Population of Sweden","steam_id":76561198202201644,"connected_time":158000000000,"state":"active","ping":63},{"user_id":330,"name":"Major Rabbit","steam_id":76561198086047613,"connected_time":154000000000,"state":"active","ping":90},{"user_id":331,"name":"S.N.A.F.U.","steam_id":76561197980128424,"connected_time":17000000000,"state":"active","ping":102},{"user_id":215,"name":"Deku Scrublord","steam_id":76561198036602402,"connected_time":8496000000000,"state":"active","ping":105}]},{"server_id":324,"name":"Uncletopia | Los Angeles | 3 | All Maps","name_short":"lax-3","host":"lax-1.us.uncletopia.com","port":27035,"enabled":true,"region":"us-west","cc":"us","latitude":33.94279,"longitude":-118.41004,"reserved":0,"last_update":"0001-01-01T00:00:00Z","name_a2s":"Uncletopia | Los Angeles | 3 | All Maps","protocol":17,"map":"cp_snakewater_final1","folder":"tf","game":"Team Fortress","app_id":440,"player_count":24,"max_players":24,"Bots":0,"server_type":"Dedicated","server_os":"Linux","password":true,"vac":true,"version":"7742253","steam_id":85568392924510198,"keywords":["cp","nocrits","nodmgspread","uncletopia"],"game_id":440,"stv_port":27036,"stv_name":"Uncletopia | Los Angeles | 3 | All Maps | STV","players":[{"user_id":220,"name":"0r161n4lj0k3","steam_id":76561198127328235,"connected_time":265000000000,"state":"active","ping":58},{"user_id":223,"name":"busting on dave","steam_id":76561198072789439,"connected_time":177000000000,"state":"active","ping":61},{"user_id":209,"name":"Brocklee","steam_id":76561198189330642,"connected_time":753000000000,"state":"active","ping":48},{"user_id":182,"name":"Seriously Bruh","steam_id":76561198070408485,"connected_time":2656000000000,"state":"active","ping":90},{"user_id":211,"name":"bad spy player","steam_id":76561198873699671,"connected_time":675000000000,"state":"active","ping":73},{"user_id":219,"name":"waugdog","steam_id":76561198329297764,"connected_time":302000000000,"state":"active","ping":58},{"user_id":194,"name":"Tenma","steam_id":76561198296557689,"connected_time":1698000000000,"state":"active","ping":47},{"user_id":217,"name":"Damo","steam_id":76561197979442728,"connected_time":340000000000,"state":"active","ping":51},{"user_id":214,"name":"Saggle","steam_id":76561198056075147,"connected_time":561000000000,"state":"active","ping":183},{"user_id":121,"name":"Schnitz","steam_id":76561198265484253,"connected_time":6566000000000,"state":"active","ping":53},{"user_id":180,"name":"RMBL","steam_id":76561198150137369,"connected_time":2661000000000,"state":"active","ping":51},{"user_id":204,"name":"Vegan Veal","steam_id":76561198123607452,"connected_time":1231000000000,"state":"active","ping":66},{"user_id":208,"name":"The Color Cyan idk im blind","steam_id":76561198978548208,"connected_time":768000000000,"state":"active","ping":58},{"user_id":226,"name":"checkswing","steam_id":76561198999816132,"connected_time":85000000000,"state":"active","ping":104},{"user_id":221,"name":"Ghee Buttersnaps","steam_id":76561199225708271,"connected_time":261000000000,"state":"active","ping":83},{"user_id":192,"name":"SmallErection","steam_id":76561198071770147,"connected_time":1774000000000,"state":"active","ping":93},{"user_id":161,"name":"Will (becoming Enlightened)","steam_id":76561198397037834,"connected_time":4648000000000,"state":"spawning","ping":91},{"user_id":216,"name":"yoyo","steam_id":76561198285758098,"connected_time":510000000000,"state":"active","ping":69},{"user_id":195,"name":"yema","steam_id":76561198095638530,"connected_time":1695000000000,"state":"active","ping":112},{"user_id":200,"name":"ChipperGunslinger","steam_id":76561199100483140,"connected_time":1407000000000,"state":"active","ping":50},{"user_id":224,"name":"Vojdo","steam_id":76561198064781517,"connected_time":144000000000,"state":"active","ping":50},{"user_id":198,"name":"practicer","steam_id":76561199082610233,"connected_time":1477000000000,"state":"active","ping":109},{"user_id":207,"name":"mu","steam_id":76561197997530228,"connected_time":817000000000,"state":"active","ping":81},{"user_id":225,"name":"‚ú™ Hank","steam_id":76561198149253873,"connected_time":133000000000,"state":"active","ping":178}]},{"server_id":25,"name":"Uncletopia | Los Angeles | 4 | Stopwatch Beta","name_short":"lax-4","host":"lax-1.us.uncletopia.com","port":27045,"enabled":true,"region":"us-west","cc":"us","latitude":33.94279,"longitude":-118.41004,"reserved":0,"last_update":"0001-01-01T00:00:00Z","name_a2s":"Uncletopia | Los Angeles | 4 | Stopwatch Beta","protocol":17,"map":"workshop/koth_product_final.ugc454272353","folder":"tf","game":"Team Fortress","app_id":440,"player_count":0,"max_players":24,"Bots":0,"server_type":"Dedicated","server_os":"Linux","password":true,"vac":true,"version":"7742253","steam_id":85568392924510199,"keywords":["cp","nocrits","nodmgspread","uncletopia"],"game_id":440,"stv_port":27046,"stv_name":"Uncletopia | Los Angeles | 4 | Stopwatch Beta | STV","players":null},{"server_id":11,"name":"Uncletopia | London | 1 | All Maps","name_short":"lon-1","host":"lon-1.uk.uncletopia.com","port":27015,"enabled":true,"region":"eu","cc":"gb","latitude":51.509865,"longitude":-0.118092,"reserved":0,"last_update":"0001-01-01T00:00:00Z","name_a2s":"Uncletopia | London | 1 | All Maps","protocol":17,"map":"cp_altitude","folder":"tf","game":"Team Fortress","app_id":440,"player_count":0,"max_players":24,"Bots":0,"server_type":"Dedicated","server_os":"Linux","password":true,"vac":true,"version":"7742253","steam_id":85568392924367362,"keywords":["cp","nocrits","nodmgspread","uncletopia"],"game_id":440,"stv_port":27016,"stv_name":"Uncletopia | London | 1 | All Maps | STV","players":null},{"server_id":114,"name":"Uncletopia | London | 2 | All Maps","name_short":"lon-2","host":"lon-1.uk.uncletopia.com","port":27025,"enabled":true,"region":"eu","cc":"gb","latitude":51.509865,"longitude":-0.118092,"reserved":0,"last_update":"0001-01-01T00:00:00Z","name_a2s":"Uncletopia | London | 2 | All Maps","protocol":17,"map":"pl_swiftwater_final1","folder":"tf","game":"Team Fortress","app_id":440,"player_count":0,"max_players":24,"Bots":0,"server_type":"Dedicated","server_os":"Linux","password":true,"vac":true,"version":"7742253","steam_id":85568392924470941,"keywords":["nocrits","nodmgspread","payload","uncletopia"],"game_id":440,"stv_port":27026,"stv_name":"Uncletopia | London | 2 | All Maps | STV","players":null},{"server_id":320,"name":"Uncletopia | London | 3 | All Maps","name_short":"lon-3","host":"lon-1.uk.uncletopia.com","port":27035,"enabled":true,"region":"eu","cc":"gb","latitude":51.509865,"longitude":-0.118092,"reserved":0,"last_update":"0001-01-01T00:00:00Z","name_a2s":"Uncletopia | London | 3 | All Maps","protocol":17,"map":"pl_barnblitz","folder":"tf","game":"Team Fortress","app_id":440,"player_count":24,"max_players":24,"Bots":0,"server_type":"Dedicated","server_os":"Linux","password":true,"vac":true,"version":"7742253","steam_id":85568392924510192,"keywords":["nocrits","nodmgspread","payload","uncletopia"],"game_id":440,"stv_port":27036,"stv_name":"Uncletopia | London | 3 | All Maps | STV","players":[{"user_id":3,"name":"CarbonPan","steam_id":76561198072169983,"connected_time":4406000000000,"state":"active","ping":103},{"user_id":4,"name":"kowots","steam_id":76561199011311315,"connected_time":4404000000000,"state":"active","ping":96},{"user_id":52,"name":"thekoolest88","steam_id":76561199022415672,"connected_time":844000000000,"state":"active","ping":144},{"user_id":6,"name":"Rat head","steam_id":76561198184360615,"connected_time":4398000000000,"state":"active","ping":106},{"user_id":22,"name":"thomas +","steam_id":76561198355097756,"connected_time":2645000000000,"state":"active","ping":50},{"user_id":57,"name":"Yassine","steam_id":76561198140565712,"connected_time":563000000000,"state":"active","ping":52},{"user_id":9,"name":"autistic luigi","steam_id":76561199218285040,"connected_time":3958000000000,"state":"active","ping":75},{"user_id":36,"name":"–†–æ–±–æ –î–µ–¥","steam_id":76561199128673518,"connected_time":1694000000000,"state":"active","ping":115},{"user_id":60,"name":"Linux Lesbian","steam_id":76561198205464653,"connected_time":383000000000,"state":"active","ping":80},{"user_id":12,"name":"Echo of Abyss","steam_id":76561198981841782,"connected_time":3553000000000,"state":"active","ping":72},{"user_id":55,"name":"del2o","steam_id":76561199072601822,"connected_time":801000000000,"state":"active","ping":132},{"user_id":42,"name":"Ian","steam_id":76561198159334435,"connected_time":1481000000000,"state":"active","ping":197},{"user_id":15,"name":"Loop_Cat","steam_id":76561199045902145,"connected_time":3213000000000,"state":"active","ping":118},{"user_id":56,"name":"Ranidaphobia","steam_id":76561198865564747,"connected_time":772000000000,"state":"active","ping":85},{"user_id":38,"name":"Noodle","steam_id":76561197997208006,"connected_time":1608000000000,"state":"active","ping":60},{"user_id":59,"name":"Groose","steam_id":76561198261094295,"connected_time":496000000000,"state":"active","ping":60},{"user_id":20,"name":"Kiyo I #SaveTF2","steam_id":76561198215758605,"connected_time":2760000000000,"state":"active","ping":73},{"user_id":28,"name":"Absence blood","steam_id":76561198343654266,"connected_time":2197000000000,"state":"active","ping":130},{"user_id":61,"name":"pekoraali","steam_id":76561198112012468,"connected_time":272000000000,"state":"active","ping":90},{"user_id":39,"name":"phos","steam_id":76561198173383621,"connected_time":1607000000000,"state":"active","ping":61},{"user_id":44,"name":"night.s","steam_id":76561198326287823,"connected_time":1460000000000,"state":"active","ping":68},{"user_id":46,"name":"Warrior","steam_id":76561198187911222,"connected_time":1326000000000,"state":"active","ping":53},{"user_id":48,"name":"Carsen","steam_id":76561198225481404,"connected_time":1094000000000,"state":"active","ping":124},{"user_id":51,"name":"Cass","steam_id":76561198934205195,"connected_time":869000000000,"state":"active","ping":49}]},{"server_id":321,"name":"Uncletopia | London | 4 | All Maps","name_short":"lon-4","host":"lon-1.uk.uncletopia.com","port":27045,"enabled":true,"region":"eu","cc":"gb","latitude":51.509865,"longitude":-0.118092,"reserved":0,"last_update":"0001-01-01T00:00:00Z","name_a2s":"Uncletopia | London | 4 | All Maps","protocol":17,"map":"koth_highpass","folder":"tf","game":"Team Fortress","app_id":440,"player_count":0,"max_players":24,"Bots":0,"server_type":"Dedicated","server_os":"Linux","password":true,"vac":true,"version":"7742253","steam_id":85568392924510193,"keywords":["cp","nocrits","nodmgspread","uncletopia"],"game_id":440,"stv_port":27046,"stv_name":"Uncletopia | London | 4 | All Maps | STV","players":null},{"server_id":21,"name":"Uncletopia | London | 5 | All Maps","name_short":"lon-5","host":"lon-1.uk.uncletopia.com","port":27055,"enabled":true,"region":"eu","cc":"gb","latitude":51.509865,"longitude":-0.118092,"reserved":0,"last_update":"0001-01-01T00:00:00Z","name_a2s":"Uncletopia | London | 5 | All Maps","protocol":17,"map":"pl_frontier_final","folder":"tf","game":"Team Fortress","app_id":440,"player_count":0,"max_players":24,"Bots":0,"server_type":"Dedicated","server_os":"Linux","password":true,"vac":true,"version":"7742253","steam_id":85568392924742829,"keywords":["nocrits","nodmgspread","payload","uncletopia"],"game_id":440,"stv_port":27056,"stv_name":"Uncletopia | London | 5 | All Maps | STV","players":null},{"server_id":22,"name":"Uncletopia | London | 6 | All Maps","name_short":"lon-6","host":"lon-1.uk.uncletopia.com","port":27065,"enabled":true,"region":"eu","cc":"gb","latitude":51.509865,"longitude":-0.118092,"reserved":0,"last_update":"0001-01-01T00:00:00Z","name_a2s":"Uncletopia | London | 6 | All Maps","protocol":17,"map":"pl_borneo","folder":"tf","game":"Team Fortress","app_id":440,"player_count":0,"max_players":24,"Bots":0,"server_type":"Dedicated","server_os":"Linux","password":true,"vac":true,"version":"7742253","steam_id":85568392924742830,"keywords":["nocrits","nodmgspread","payload","uncletopia"],"game_id":440,"stv_port":27066,"stv_name":"Uncletopia | London | 6 | All Maps | STV","players":null},{"server_id":40,"name":"Uncletopia | London | 7 | No Payload","name_short":"lon-7","host":"lon-1.uk.uncletopia.com","port":27075,"enabled":true,"region":"eu","cc":"gb","latitude":51.509865,"longitude":-0.118092,"reserved":0,"last_update":"0001-01-01T00:00:00Z","name_a2s":"Uncletopia | London | 7 | No Payload","protocol":17,"map":"koth_viaduct","folder":"tf","game":"Team Fortress","app_id":440,"player_count":0,"max_players":24,"Bots":0,"server_type":"Dedicated","server_os":"Linux","password":true,"vac":true,"version":"7742253","steam_id":85568392924964314,"keywords":["cp","nocrits","nodmgspread","uncletopia"],"game_id":440,"stv_port":27076,"stv_name":"Uncletopia | London | 7 | No Payload | STV","players":null},{"server_id":41,"name":"Uncletopia | London | 8 | Community","name_short":"lon-8","host":"lon-1.uk.uncletopia.com","port":27085,"enabled":true,"region":"eu","cc":"gb","latitude":51.509865,"longitude":-0.118092,"reserved":0,"last_update":"0001-01-01T00:00:00Z","name_a2s":"Uncletopia | London | 8 | Community","protocol":17,"map":"cp_altitude","folder":"tf","game":"Team Fortress","app_id":440,"player_count":0,"max_players":24,"Bots":0,"server_type":"Dedicated","server_os":"Linux","password":true,"vac":true,"version":"7742253","steam_id":85568392924964315,"keywords":["cp","nocrits","nodmgspread","uncletopia"],"game_id":440,"stv_port":27086,"stv_name":"Uncletopia | London | 8 | Community | STV","players":null},{"server_id":300,"name":"Uncletopia | Montr√©al | 1 | All Maps","name_short":"mtl-1","host":"mtl-1.ca.uncletopia.com","port":27015,"enabled":true,"region":"us-east","cc":"ca","latitude":45.50889,"longitude":-73.56167,"reserved":0,"last_update":"0001-01-01T00:00:00Z","name_a2s":"Uncletopia | Montr√©al | 1 | All Maps","protocol":17,"map":"cp_mountainlab","folder":"tf","game":"Team Fortress","app_id":440,"player_count":0,"max_players":24,"Bots":0,"server_type":"Dedicated","server_os":"Linux","password":true,"vac":true,"version":"7742253","steam_id":85568392924500087,"keywords":["cp","nocrits","nodmgspread","uncletopia"],"game_id":440,"stv_port":27016,"stv_name":"Uncletopia | Montr√©al | 1 | All Maps | STV","players":null},{"server_id":301,"name":"Uncletopia | Montr√©al | 2 | All Maps","name_short":"mtl-2","host":"mtl-1.ca.uncletopia.com","port":27025,"enabled":true,"region":"us-east","cc":"ca","latitude":45.50889,"longitude":-73.56167,"reserved":0,"last_update":"0001-01-01T00:00:00Z","name_a2s":"Uncletopia | Montr√©al | 2 | All Maps","protocol":17,"map":"cp_altitude","folder":"tf","game":"Team Fortress","app_id":440,"player_count":0,"max_players":24,"Bots":0,"server_type":"Dedicated","server_os":"Linux","password":true,"vac":true,"version":"7742253","steam_id":85568392924500088,"keywords":["cp","nocrits","nodmgspread","uncletopia"],"game_id":440,"stv_port":27026,"stv_name":"Uncletopia | Montr√©al | 2 | All Maps | STV","players":null},{"server_id":302,"name":"Uncletopia | Montr√©al | 3 | All Maps","name_short":"mtl-3","host":"mtl-1.ca.uncletopia.com","port":27035,"enabled":true,"region":"us-east","cc":"ca","latitude":45.50889,"longitude":-73.56167,"reserved":0,"last_update":"0001-01-01T00:00:00Z","name_a2s":"Uncletopia | Montr√©al | 3 | All Maps","protocol":17,"map":"cp_process_final","folder":"tf","game":"Team Fortress","app_id":440,"player_count":0,"max_players":24,"Bots":0,"server_type":"Dedicated","server_os":"Linux","password":true,"vac":true,"version":"7742253","steam_id":85568392924500089,"keywords":["cp","nocrits","nodmgspread","uncletopia"],"game_id":440,"stv_port":27036,"stv_name":"Uncletopia | Montr√©al | 3 | All Maps | STV","players":null},{"server_id":303,"name":"Uncletopia | Montr√©al | 4 | No Payload","name_short":"mtl-4","host":"mtl-1.ca.uncletopia.com","port":27045,"enabled":true,"region":"us-east","cc":"ca","latitude":45.50889,"longitude":-73.56167,"reserved":0,"last_update":"0001-01-01T00:00:00Z","name_a2s":"Uncletopia | Montr√©al | 4 | No Payload","protocol":17,"map":"plr_pipeline","folder":"tf","game":"Team Fortress","app_id":440,"player_count":0,"max_players":24,"Bots":0,"server_type":"Dedicated","server_os":"Linux","password":true,"vac":true,"version":"7742253","steam_id":85568392924500090,"keywords":["nocrits","nodmgspread","payload","uncletopia"],"game_id":440,"stv_port":27046,"stv_name":"Uncletopia | Montr√©al | 4 | No Payload | STV","players":null},{"server_id":13,"name":"Uncletopia | New York City | 1 | All Maps","name_short":"nyc-1","host":"nyc-1.us.uncletopia.com","port":27015,"enabled":true,"region":"us-east","cc":"us","latitude":40.73061,"longitude":-73.93524,"reserved":0,"last_update":"0001-01-01T00:00:00Z","name_a2s":"Uncletopia | New York City | 1 | All Maps","protocol":17,"map":"koth_highpass","folder":"tf","game":"Team Fortress","app_id":440,"player_count":24,"max_players":24,"Bots":0,"server_type":"Dedicated","server_os":"Linux","password":true,"vac":true,"version":"7742253","steam_id":85568392924469993,"keywords":["cp","nocrits","nodmgspread","uncletopia"],"game_id":440,"stv_port":27016,"stv_name":"Uncletopia | New York City | 1 | All Maps | STV","players":[{"user_id":768,"name":"suissaC","steam_id":76561198801527477,"connected_time":2991000000000,"state":"active","ping":62},{"user_id":796,"name":"A Puppy","steam_id":76561198828184456,"connected_time":1479000000000,"state":"active","ping":45},{"user_id":790,"name":"Gooey Gaped Grannys","steam_id":76561198089731303,"connected_time":1701000000000,"state":"active","ping":51},{"user_id":809,"name":"Walter White","steam_id":76561198870018009,"connected_time":448000000000,"state":"active","ping":82},{"user_id":808,"name":"Jude","steam_id":76561198041832304,"connected_time":641000000000,"state":"active","ping":56},{"user_id":693,"name":"Zed","steam_id":76561197961852209,"connected_time":8122000000000,"state":"active","ping":65},{"user_id":803,"name":"Undertime Slopper","steam_id":76561198396789061,"connected_time":891000000000,"state":"active","ping":91},{"user_id":800,"name":"Yuzu","steam_id":76561198417913035,"connected_time":955000000000,"state":"active","ping":63},{"user_id":812,"name":"Uhonlapjontetzika","steam_id":76561199431280503,"connected_time":149000000000,"state":"active","ping":53},{"user_id":799,"name":"Laelaps","steam_id":76561198100061416,"connected_time":971000000000,"state":"active","ping":45},{"user_id":798,"name":"Amogus The Sussy Baka ‡∂û","steam_id":76561198008577961,"connected_time":1177000000000,"state":"active","ping":63},{"user_id":775,"name":"Jarryl97","steam_id":76561198055451373,"connected_time":2654000000000,"state":"active","ping":92},{"user_id":725,"name":"coffeeghost","steam_id":76561198155142385,"connected_time":6096000000000,"state":"active","ping":75},{"user_id":804,"name":"Crap","steam_id":76561198877229175,"connected_time":879000000000,"state":"active","ping":131},{"user_id":792,"name":"Peter Turbo","steam_id":76561198300976003,"connected_time":1669000000000,"state":"active","ping":49},{"user_id":813,"name":"Rein","steam_id":76561198300340427,"connected_time":144000000000,"state":"active","ping":75},{"user_id":797,"name":"MeatwadMeatwad","steam_id":76561198202194160,"connected_time":1458000000000,"state":"active","ping":74},{"user_id":715,"name":"Brass beast heavy","steam_id":76561198274197623,"connected_time":6736000000000,"state":"active","ping":134},{"user_id":793,"name":"non_ai","steam_id":76561198270951938,"connected_time":1617000000000,"state":"active","ping":45},{"user_id":810,"name":"vyx","steam_id":76561198037205391,"connected_time":431000000000,"state":"active","ping":64},{"user_id":806,"name":"sky","steam_id":76561198849263860,"connected_time":832000000000,"state":"active","ping":41},{"user_id":719,"name":"Big Time Bobby","steam_id":76561198935266162,"connected_time":6660000000000,"state":"active","ping":62},{"user_id":783,"name":"Yakul","steam_id":76561198100040013,"connected_time":2242000000000,"state":"active","ping":81},{"user_id":784,"name":"C0RV3L","steam_id":76561199205094837,"connected_time":2213000000000,"state":"active","ping":65}]},{"server_id":14,"name":"Uncletopia | New York City | 2 | All Maps","name_short":"nyc-2","host":"nyc-1.us.uncletopia.com","port":27025,"enabled":true,"region":"us-east","cc":"us","latitude":40.73061,"longitude":-73.93524,"reserved":0,"last_update":"0001-01-01T00:00:00Z","name_a2s":"Uncletopia | New York City | 2 | All Maps","protocol":17,"map":"cp_mountainlab","folder":"tf","game":"Team Fortress","app_id":440,"player_count":0,"max_players":24,"Bots":0,"server_type":"Dedicated","server_os":"Linux","password":true,"vac":true,"version":"7742253","steam_id":85568392924469994,"keywords":["cp","nocrits","nodmgspread","uncletopia"],"game_id":440,"stv_port":27026,"stv_name":"Uncletopia | New York City | 2 | All Maps | STV","players":null},{"server_id":15,"name":"Uncletopia | New York City | 3 | Stopwatch Beta","name_short":"nyc-3","host":"nyc-1.us.uncletopia.com","port":27035,"enabled":true,"region":"us-east","cc":"us","latitude":40.73061,"longitude":-73.93524,"reserved":0,"last_update":"0001-01-01T00:00:00Z","name_a2s":"Uncletopia | New York City | 3 | Stopwatch Beta","protocol":17,"map":"workshop/pl_summercoast_rc8e.ugc1761528829","folder":"tf","game":"Team Fortress","app_id":440,"player_count":0,"max_players":24,"Bots":0,"server_type":"Dedicated","server_os":"Linux","password":true,"vac":true,"version":"7742253","steam_id":85568392924742820,"keywords":["nocrits","nodmgspread","payload","uncletopia"],"game_id":440,"stv_port":27036,"stv_name":"Uncletopia | New York City | 3 | Stopwatch Beta | STV","players":null},{"server_id":16,"name":"Uncletopia | New York City | 4 | Community","name_short":"nyc-4","host":"nyc-1.us.uncletopia.com","port":27045,"enabled":true,"region":"us-east","cc":"us","latitude":40.73061,"longitude":-73.93524,"reserved":0,"last_update":"0001-01-01T00:00:00Z","name_a2s":"Uncletopia | New York City | 4 | Community","protocol":17,"map":"workshop/cp_caldera_rc2.ugc2834196889","folder":"tf","game":"Team Fortress","app_id":440,"player_count":0,"max_players":24,"Bots":0,"server_type":"Dedicated","server_os":"Linux","password":true,"vac":true,"version":"7742253","steam_id":85568392924742821,"keywords":["cp","nocrits","nodmgspread","uncletopia"],"game_id":440,"stv_port":27046,"stv_name":"Uncletopia | New York City | 4 | Community | STV","players":null},{"server_id":142,"name":"Uncletopia | S√£o Paulo | 1 | All Maps","name_short":"sao-1","host":"sao-1.br.uncletopia.com","port":27015,"enabled":true,"region":"sa","cc":"br","latitude":-23.533773,"longitude":-46.62529,"reserved":0,"last_update":"0001-01-01T00:00:00Z","name_a2s":"Uncletopia | S√£o Paulo | 1 | All Maps","protocol":17,"map":"plr_hightower","folder":"tf","game":"Team Fortress","app_id":440,"player_count":0,"max_players":24,"Bots":0,"server_type":"Dedicated","server_os":"Linux","password":true,"vac":true,"version":"7742253","steam_id":85568392924469996,"keywords":["nocrits","nodmgspread","payload","uncletopia"],"game_id":440,"stv_port":27016,"stv_name":"Uncletopia | S√£o Paulo | 1 | All Maps | STV","players":null},{"server_id":143,"name":"Uncletopia | S√£o Paulo | 2 | All Maps","name_short":"sao-2","host":"sao-2.br.uncletopia.com","port":27015,"enabled":true,"region":"sa","cc":"br","latitude":-23.533773,"longitude":-46.62529,"reserved":0,"last_update":"0001-01-01T00:00:00Z","name_a2s":"Uncletopia | S√£o Paulo | 2 | All Maps","protocol":17,"map":"cp_mountainlab","folder":"tf","game":"Team Fortress","app_id":440,"player_count":0,"max_players":24,"Bots":0,"server_type":"Dedicated","server_os":"Linux","password":true,"vac":true,"version":"7742253","steam_id":85568392924485349,"keywords":["cp","nocrits","nodmgspread","uncletopia"],"game_id":440,"stv_port":27016,"stv_name":"Uncletopia | S√£o Paulo | 2 | All Maps | STV","players":null},{"server_id":7,"name":"Uncletopia | Seattle | 1 | All Maps","name_short":"sea-1","host":"sea-1.us.uncletopia.com","port":27015,"enabled":true,"region":"us-west","cc":"us","latitude":47.608013,"longitude":-122.33517,"reserved":0,"last_update":"0001-01-01T00:00:00Z","name_a2s":"Uncletopia | Seattle | 1 | All Maps","protocol":17,"map":"pl_frontier_final","folder":"tf","game":"Team Fortress","app_id":440,"player_count":24,"max_players":24,"Bots":0,"server_type":"Dedicated","server_os":"Linux","password":true,"vac":true,"version":"7742253","steam_id":85568392924469997,"keywords":["nocrits","nodmgspread","payload","uncletopia"],"game_id":440,"stv_port":27016,"stv_name":"Uncletopia | Seattle | 1 | All Maps | STV","players":[{"user_id":634,"name":"Mr.Thirteen","steam_id":76561198047468836,"connected_time":1620000000000,"state":"active","ping":62},{"user_id":655,"name":"goldhed","steam_id":76561198051751133,"connected_time":345000000000,"state":"active","ping":51},{"user_id":643,"name":"BlajGomeB0ss","steam_id":76561199039825099,"connected_time":845000000000,"state":"active","ping":49},{"user_id":636,"name":"Voxeltile","steam_id":76561198043724134,"connected_time":1602000000000,"state":"active","ping":57},{"user_id":633,"name":"Attrition","steam_id":76561197969881916,"connected_time":1624000000000,"state":"active","ping":59},{"user_id":645,"name":"pcplace","steam_id":76561198097987387,"connected_time":844000000000,"state":"active","ping":44},{"user_id":631,"name":"gorlab","steam_id":76561198025089694,"connected_time":2122000000000,"state":"active","ping":64},{"user_id":392,"name":"soup","steam_id":76561198043209046,"connected_time":22198000000000,"state":"active","ping":80},{"user_id":639,"name":"DoctorHa","steam_id":76561198044026008,"connected_time":1564000000000,"state":"active","ping":86},{"user_id":647,"name":"G. Howard Dee","steam_id":76561198058382812,"connected_time":789000000000,"state":"active","ping":87},{"user_id":648,"name":"Scut","steam_id":76561198973734291,"connected_time":769000000000,"state":"active","ping":63},{"user_id":630,"name":"Lily Thorn","steam_id":76561198305488625,"connected_time":2158000000000,"state":"active","ping":64},{"user_id":601,"name":"Professor Sex","steam_id":76561198396414319,"connected_time":4225000000000,"state":"active","ping":87},{"user_id":622,"name":"SvicidalBug","steam_id":76561198221390504,"connected_time":2480000000000,"state":"active","ping":68},{"user_id":608,"name":"Mak","steam_id":76561198089197922,"connected_time":4000000000000,"state":"active","ping":51},{"user_id":649,"name":"loyaldandan0764","steam_id":76561199231020424,"connected_time":769000000000,"state":"active","ping":65},{"user_id":640,"name":"Agent86","steam_id":76561198046794593,"connected_time":1552000000000,"state":"active","ping":86},{"user_id":617,"name":"LederBoy","steam_id":76561198051822369,"connected_time":3533000000000,"state":"active","ping":61},{"user_id":652,"name":"BEASTxGODx420","steam_id":76561198184814466,"connected_time":721000000000,"state":"active","ping":57},{"user_id":642,"name":"Batman Grant Williams","steam_id":76561198115458307,"connected_time":1354000000000,"state":"active","ping":85},{"user_id":646,"name":"Frongus","steam_id":76561197979056451,"connected_time":827000000000,"state":"active","ping":46},{"user_id":638,"name":"mumbles","steam_id":76561197994528974,"connected_time":1577000000000,"state":"active","ping":80},{"user_id":656,"name":"Delta","steam_id":76561198021957971,"connected_time":35000000000,"state":"active","ping":71},{"user_id":653,"name":"doopsies","steam_id":76561198083000867,"connected_time":569000000000,"state":"active","ping":51}]},{"server_id":119,"name":"Uncletopia | Seattle | 2 | All Maps","name_short":"sea-2","host":"sea-1.us.uncletopia.com","port":27025,"enabled":true,"region":"us-west","cc":"us","latitude":47.608013,"longitude":-122.33517,"reserved":0,"last_update":"0001-01-01T00:00:00Z","name_a2s":"Uncletopia | Seattle | 2 | All Maps","protocol":17,"map":"pl_wutville_event","folder":"tf","game":"Team Fortress","app_id":440,"player_count":17,"max_players":24,"Bots":0,"server_type":"Dedicated","server_os":"Linux","password":true,"vac":true,"version":"7742253","steam_id":85568392924469998,"keywords":["nocrits","nodmgspread","payload","uncletopia"],"game_id":440,"stv_port":27026,"stv_name":"Uncletopia | Seattle | 2 | All Maps | STV","players":[{"user_id":506,"name":"PorgyPork","steam_id":76561198824399078,"connected_time":4864000000000,"state":"active","ping":49},{"user_id":548,"name":"Mom","steam_id":76561198207936000,"connected_time":139000000000,"state":"active","ping":69},{"user_id":547,"name":"Deno! Í∞ÑÎ∂Ä","steam_id":76561198041113335,"connected_time":248000000000,"state":"active","ping":50},{"user_id":545,"name":"Cuno Doesn't Care!","steam_id":76561198007372782,"connected_time":687000000000,"state":"active","ping":65},{"user_id":513,"name":"bloblobber (weaponized bathtub)","steam_id":76561198035698704,"connected_time":4116000000000,"state":"active","ping":73},{"user_id":507,"name":"General Fisticuffs","steam_id":76561198255721392,"connected_time":4825000000000,"state":"active","ping":104},{"user_id":544,"name":"punt kick kids","steam_id":76561198094749400,"connected_time":807000000000,"state":"active","ping":59},{"user_id":496,"name":"Blurpee","steam_id":76561198057197988,"connected_time":6556000000000,"state":"active","ping":53},{"user_id":543,"name":"Yo, merry Christmas!","steam_id":76561198421913648,"connected_time":974000000000,"state":"active","ping":52},{"user_id":540,"name":"Optimore","steam_id":76561198047662990,"connected_time":1400000000000,"state":"active","ping":60},{"user_id":534,"name":"en.wikipedia.org/wiki/Nae_Nae","steam_id":76561198418288939,"connected_time":1750000000000,"state":"active","ping":59},{"user_id":453,"name":"KingTinkerer","steam_id":76561198226856548,"connected_time":11407000000000,"state":"active","ping":67},{"user_id":519,"name":"The King of Piss World","steam_id":76561198082806956,"connected_time":3120000000000,"state":"active","ping":147},{"user_id":347,"name":"tweaker","steam_id":76561198115269587,"connected_time":19287000000000,"state":"active","ping":111},{"user_id":532,"name":"ah piss I left the oven on agai","steam_id":76561198160569248,"connected_time":1947000000000,"state":"active","ping":84},{"user_id":541,"name":"goofy goober","steam_id":76561198870747314,"connected_time":1333000000000,"state":"active","ping":57},{"user_id":509,"name":"scarfhero","steam_id":76561198257541502,"connected_time":4763000000000,"state":"active","ping":51}]},{"server_id":406,"name":"Uncletopia | Seattle | 3 | Stopwatch Beta","name_short":"sea-3","host":"sea-1.us.uncletopia.com","port":27035,"enabled":true,"region":"us-west","cc":"us","latitude":47.608013,"longitude":-122.33517,"reserved":0,"last_update":"0001-01-01T00:00:00Z","name_a2s":"Uncletopia | Seattle | 3 | Stopwatch Beta","protocol":17,"map":"pl_borneo","folder":"tf","game":"Team Fortress","app_id":440,"player_count":0,"max_players":24,"Bots":0,"server_type":"Dedicated","server_os":"Linux","password":true,"vac":true,"version":"7742253","steam_id":85568392924515217,"keywords":["nocrits","nodmgspread","payload","uncletopia"],"game_id":440,"stv_port":27036,"stv_name":"Uncletopia | Seattle | 3 | Stopwatch Beta | STV","players":null},{"server_id":17,"name":"Uncletopia | San Francisco | 1 | All Maps","name_short":"sfo-1","host":"sfo-1.us.uncletopia.com","port":27015,"enabled":true,"region":"us-west","cc":"us","latitude":37.77397,"longitude":-122.4313,"reserved":0,"last_update":"0001-01-01T00:00:00Z","name_a2s":"Uncletopia | San Francisco | 1 | All Maps","protocol":17,"map":"koth_highpass","folder":"tf","game":"Team Fortress","app_id":440,"player_count":0,"max_players":24,"Bots":0,"server_type":"Dedicated","server_os":"Linux","password":true,"vac":true,"version":"7742253","steam_id":85568392924469999,"keywords":["cp","nocrits","nodmgspread","uncletopia"],"game_id":440,"stv_port":27016,"stv_name":"Uncletopia | San Francisco | 1 | All Maps | STV","players":null},{"server_id":18,"name":"Uncletopia | San Francisco | 2 | All Maps","name_short":"sfo-2","host":"sfo-1.us.uncletopia.com","port":27025,"enabled":true,"region":"us-west","cc":"us","latitude":37.77397,"longitude":-122.4313,"reserved":0,"last_update":"0001-01-01T00:00:00Z","name_a2s":"Uncletopia | San Francisco | 2 | All Maps","protocol":17,"map":"cp_dustbowl","folder":"tf","game":"Team Fortress","app_id":440,"player_count":3,"max_players":24,"Bots":0,"server_type":"Dedicated","server_os":"Linux","password":true,"vac":true,"version":"7742253","steam_id":85568392924470000,"keywords":["cp","nocrits","nodmgspread","uncletopia"],"game_id":440,"stv_port":27026,"stv_name":"Uncletopia | San Francisco | 2 | All Maps | STV","players":[{"user_id":189,"name":"Soap Man","steam_id":76561198000490235,"connected_time":706000000000,"state":"active","ping":75},{"user_id":190,"name":"Fierce Unggoy","steam_id":76561198262565372,"connected_time":226000000000,"state":"active","ping":65},{"user_id":183,"name":"o2","steam_id":76561199262570913,"connected_time":1705000000000,"state":"active","ping":221}]},{"server_id":19,"name":"Uncletopia | San Francisco | 3 | Stopwatch Beta","name_short":"sfo-3","host":"sfo-1.us.uncletopia.com","port":27035,"enabled":true,"region":"us-west","cc":"us","latitude":37.77397,"longitude":-122.4313,"reserved":0,"last_update":"0001-01-01T00:00:00Z","name_a2s":"Uncletopia | San Francisco | 3 | Stopwatch Beta","protocol":17,"map":"workshop/cp_process_f11.ugc2302948105","folder":"tf","game":"Team Fortress","app_id":440,"player_count":0,"max_players":24,"Bots":0,"server_type":"Dedicated","server_os":"Linux","password":true,"vac":true,"version":"7742253","steam_id":85568392924742824,"keywords":["cp","nocrits","nodmgspread","uncletopia"],"game_id":440,"stv_port":27036,"stv_name":"Uncletopia | San Francisco | 3 | Stopwatch Beta | STV","players":null},{"server_id":20,"name":"Uncletopia | San Francisco | 4 | Community","name_short":"sfo-4","host":"sfo-1.us.uncletopia.com","port":27045,"enabled":true,"region":"us-west","cc":"us","latitude":37.77397,"longitude":-122.4313,"reserved":0,"last_update":"0001-01-01T00:00:00Z","name_a2s":"Uncletopia | San Francisco | 4 | Community","protocol":17,"map":"workshop/cp_reckoner_rc6.ugc674719999","folder":"tf","game":"Team Fortress","app_id":440,"player_count":0,"max_players":24,"Bots":0,"server_type":"Dedicated","server_os":"Linux","password":true,"vac":true,"version":"7742253","steam_id":85568392924742826,"keywords":["cp","nocrits","nodmgspread","uncletopia"],"game_id":440,"stv_port":27046,"stv_name":"Uncletopia | San Francisco | 4 | Community | STV","players":null},{"server_id":141,"name":"Uncletopia | Sydney | 1 | All Maps","name_short":"syd-1","host":"syd-1.au.uncletopia.com","port":27015,"enabled":true,"region":"au","cc":"au","latitude":-33.865143,"longitude":151.2099,"reserved":0,"last_update":"0001-01-01T00:00:00Z","name_a2s":"Uncletopia | Sydney | 1 | All Maps","protocol":17,"map":"pl_barnblitz","folder":"tf","game":"Team Fortress","app_id":440,"player_count":24,"max_players":24,"Bots":0,"server_type":"Dedicated","server_os":"Linux","password":true,"vac":true,"version":"7742253","steam_id":85568392924470001,"keywords":["nocrits","nodmgspread","payload","uncletopia"],"game_id":440,"stv_port":27016,"stv_name":"Uncletopia | Sydney | 1 | All Maps | STV","players":[{"user_id":556,"name":"A threat unbeknownst","steam_id":76561198293776102,"connected_time":374000000000,"state":"active","ping":41},{"user_id":550,"name":"Reiwa 5","steam_id":76561199126303228,"connected_time":760000000000,"state":"active","ping":45},{"user_id":544,"name":"Bubbles","steam_id":76561197998937425,"connected_time":1292000000000,"state":"active","ping":97},{"user_id":487,"name":"April","steam_id":76561198848287180,"connected_time":4326000000000,"state":"active","ping":54},{"user_id":548,"name":"speed lover","steam_id":76561198072382387,"connected_time":891000000000,"state":"active","ping":60},{"user_id":449,"name":"broccoli","steam_id":76561198362942706,"connected_time":6977000000000,"state":"active","ping":66},{"user_id":538,"name":"Averg","steam_id":76561199116359172,"connected_time":1465000000000,"state":"active","ping":46},{"user_id":555,"name":"CaptainCPA","steam_id":76561198002453118,"connected_time":378000000000,"state":"active","ping":46},{"user_id":489,"name":"CheeseFlag126","steam_id":76561199262769917,"connected_time":4230000000000,"state":"active","ping":45},{"user_id":521,"name":"BOT Gary","steam_id":76561198376950841,"connected_time":1937000000000,"state":"active","ping":73},{"user_id":547,"name":"Rogue (Anti-fire)","steam_id":76561198055404248,"connected_time":917000000000,"state":"active","ping":48},{"user_id":552,"name":"michael","steam_id":76561198052848358,"connected_time":681000000000,"state":"active","ping":61},{"user_id":558,"name":"seiran","steam_id":76561198880907232,"connected_time":295000000000,"state":"active","ping":102},{"user_id":493,"name":"Wake'n'Bake'n'Make'n'Bacon","steam_id":76561198061960926,"connected_time":4104000000000,"state":"active","ping":91},{"user_id":553,"name":"covenofbats","steam_id":76561198152117315,"connected_time":650000000000,"state":"active","ping":48},{"user_id":510,"name":"999999999 IN A DREAM","steam_id":76561199057568663,"connected_time":2926000000000,"state":"active","ping":60},{"user_id":554,"name":"Grozny Cactus","steam_id":76561198017345421,"connected_time":642000000000,"state":"active","ping":40},{"user_id":498,"name":"Autistic Raptor","steam_id":76561198354523762,"connected_time":3830000000000,"state":"active","ping":45},{"user_id":557,"name":"normans on sabbatical honey","steam_id":76561198082423230,"connected_time":363000000000,"state":"active","ping":77},{"user_id":517,"name":"Mr_Elliott442","steam_id":76561199006390352,"connected_time":2193000000000,"state":"active","ping":78},{"user_id":546,"name":"SassnCheeky","steam_id":76561197993875592,"connected_time":960000000000,"state":"active","ping":58},{"user_id":519,"name":"Pompadouraus","steam_id":76561198327530525,"connected_time":2143000000000,"state":"active","ping":75},{"user_id":500,"name":"tweedie","steam_id":76561198063425523,"connected_time":3806000000000,"state":"active","ping":58},{"user_id":520,"name":"CypressFluff (She/Her)","steam_id":76561198174667818,"connected_time":2141000000000,"state":"active","ping":62}]},{"server_id":123,"name":"Uncletopia | Sydney | 2 | All Maps","name_short":"syd-2","host":"syd-1.au.uncletopia.com","port":27025,"enabled":true,"region":"au","cc":"au","latitude":-33.865143,"longitude":151.2099,"reserved":0,"last_update":"0001-01-01T00:00:00Z","name_a2s":"Uncletopia | Sydney | 2 | All Maps","protocol":17,"map":"pl_swiftwater_final1","folder":"tf","game":"Team Fortress","app_id":440,"player_count":24,"max_players":24,"Bots":0,"server_type":"Dedicated","server_os":"Linux","password":true,"vac":true,"version":"7742253","steam_id":85568392924470002,"keywords":["nocrits","nodmgspread","payload","uncletopia"],"game_id":440,"stv_port":27026,"stv_name":"Uncletopia | Sydney | 2 | All Maps | STV","players":[{"user_id":301,"name":"RA RA","steam_id":76561198361139900,"connected_time":1155000000000,"state":"active","ping":58},{"user_id":310,"name":"clout","steam_id":76561198073310502,"connected_time":606000000000,"state":"active","ping":75},{"user_id":259,"name":"is there room","steam_id":76561198132937542,"connected_time":3707000000000,"state":"active","ping":66},{"user_id":297,"name":"Pug","steam_id":76561198136794372,"connected_time":1469000000000,"state":"active","ping":41},{"user_id":242,"name":"Soru","steam_id":76561198010844786,"connected_time":5127000000000,"state":"active","ping":63},{"user_id":248,"name":"Ganome Chilled","steam_id":76561198064898965,"connected_time":4725000000000,"state":"active","ping":79},{"user_id":269,"name":"tobys carvery","steam_id":76561198061532381,"connected_time":3268000000000,"state":"active","ping":57},{"user_id":312,"name":"Ishanu","steam_id":76561198009397092,"connected_time":284000000000,"state":"active","ping":65},{"user_id":290,"name":"Trevor‚ò≠snip‚ò≠snip‚ò≠","steam_id":76561198977373167,"connected_time":1745000000000,"state":"active","ping":101},{"user_id":311,"name":"Toemare","steam_id":76561199136118662,"connected_time":327000000000,"state":"active","ping":62},{"user_id":299,"name":"Stayfucking1.5metresaway","steam_id":76561198070569251,"connected_time":1258000000000,"state":"active","ping":62},{"user_id":313,"name":"Conga Lyne","steam_id":76561198091892821,"connected_time":281000000000,"state":"active","ping":66},{"user_id":309,"name":"Dr Rags","steam_id":76561198179481430,"connected_time":689000000000,"state":"active","ping":95},{"user_id":288,"name":"Macca","steam_id":76561198010207998,"connected_time":2353000000000,"state":"active","ping":59},{"user_id":302,"name":"slime","steam_id":76561199176020333,"connected_time":1129000000000,"state":"active","ping":63},{"user_id":277,"name":"LeoJoeD","steam_id":76561198161848749,"connected_time":2945000000000,"state":"active","ping":40},{"user_id":289,"name":"AcidOxidant","steam_id":76561198053504029,"connected_time":2260000000000,"state":"active","ping":44},{"user_id":305,"name":"problade10","steam_id":76561199219056674,"connected_time":1018000000000,"state":"active","ping":67},{"user_id":280,"name":"SamK #DestroyTF2","steam_id":76561198149051619,"connected_time":2908000000000,"state":"active","ping":60},{"user_id":303,"name":"lemur","steam_id":76561198278239170,"connected_time":1129000000000,"state":"active","ping":79},{"user_id":308,"name":"sSubtlüî±","steam_id":76561198102080207,"connected_time":951000000000,"state":"active","ping":50},{"user_id":304,"name":"Dash Alpha","steam_id":76561198088180926,"connected_time":1112000000000,"state":"active","ping":66},{"user_id":284,"name":"Spicy Baguette","steam_id":76561198238030210,"connected_time":2671000000000,"state":"active","ping":46},{"user_id":293,"name":"SPIRIT OF POISON","steam_id":76561198027629227,"connected_time":1584000000000,"state":"active","ping":43}]},{"server_id":395,"name":"Uncletopia | Sydney | 3 | All Maps","name_short":"syd-3","host":"syd-1.au.uncletopia.com","port":27035,"enabled":true,"region":"au","cc":"au","latitude":-33.865143,"longitude":151.2099,"reserved":0,"last_update":"0001-01-01T00:00:00Z","name_a2s":"Uncletopia | Sydney | 3 | All Maps","protocol":17,"map":"koth_viaduct","folder":"tf","game":"Team Fortress","app_id":440,"player_count":1,"max_players":24,"Bots":0,"server_type":"Dedicated","server_os":"Linux","password":true,"vac":true,"version":"7742253","steam_id":85568392925194467,"keywords":["cp","nocrits","nodmgspread","uncletopia"],"game_id":440,"stv_port":27036,"stv_name":"Uncletopia | Sydney | 3 | All Maps | STV","players":[{"user_id":18,"name":"spacewielder","steam_id":76561198155133814,"connected_time":108000000000,"state":"active","ping":100}]},{"server_id":396,"name":"Uncletopia | Sydney | 4 | All Maps","name_short":"syd-4","host":"syd-1.au.uncletopia.com","port":27045,"enabled":true,"region":"au","cc":"au","latitude":-33.865143,"longitude":151.2099,"reserved":0,"last_update":"0001-01-01T00:00:00Z","name_a2s":"Uncletopia | Sydney | 4 | All Maps","protocol":17,"map":"cp_mountainlab","folder":"tf","game":"Team Fortress","app_id":440,"player_count":0,"max_players":24,"Bots":0,"server_type":"Dedicated","server_os":"Linux","password":true,"vac":true,"version":"7742253","steam_id":85568392925397958,"keywords":["cp","nocrits","nodmgspread","uncletopia"],"game_id":440,"stv_port":27046,"stv_name":"Uncletopia | Sydney | 4 | All Maps | STV","players":null},{"server_id":58,"name":"Uncletopia | Sydney | 5 | Stopwatch Beta","name_short":"syd-5","host":"syd-1.au.uncletopia.com","port":27055,"enabled":true,"region":"au","cc":"au","latitude":-33.865143,"longitude":151.2099,"reserved":0,"last_update":"0001-01-01T00:00:00Z","name_a2s":"Uncletopia | Sydney | 5 | Stopwatch Beta","protocol":17,"map":"workshop/koth_ramjam_rc1.ugc459778887","folder":"tf","game":"Team Fortress","app_id":440,"player_count":0,"max_players":24,"Bots":0,"server_type":"Dedicated","server_os":"Linux","password":true,"vac":true,"version":"7742253","steam_id":85568392925397959,"keywords":["cp","nocrits","nodmgspread","uncletopia"],"game_id":440,"stv_port":27056,"stv_name":"Uncletopia | Sydney | 5 | Stopwatch Beta | STV","players":null},{"server_id":59,"name":"Uncletopia | Sydney | 6 | Community","name_short":"syd-6","host":"syd-1.au.uncletopia.com","port":27065,"enabled":true,"region":"au","cc":"au","latitude":-33.865143,"longitude":151.2099,"reserved":0,"last_update":"0001-01-01T00:00:00Z","name_a2s":"Uncletopia | Sydney | 6 | Community","protocol":17,"map":"workshop/koth_ramjam_rc1.ugc459778887","folder":"tf","game":"Team Fortress","app_id":440,"player_count":0,"max_players":24,"Bots":0,"server_type":"Dedicated","server_os":"Linux","password":true,"vac":true,"version":"7742253","steam_id":85568392925397960,"keywords":["cp","nocrits","nodmgspread","uncletopia"],"game_id":440,"stv_port":27066,"stv_name":"Uncletopia | Sydney | 6 | Community | STV","players":null},{"server_id":49,"name":"Uncletopia | Warsaw | 1 | All Maps","name_short":"waw-1","host":"waw-1.pl.uncletopia.com","port":27015,"enabled":true,"region":"eu","cc":"pl","latitude":52.2297,"longitude":21.017532,"reserved":0,"last_update":"0001-01-01T00:00:00Z","name_a2s":"","protocol":0,"map":"","folder":"","game":"","app_id":0,"player_count":0,"max_players":0,"Bots":0,"server_type":"","server_os":"","password":false,"vac":false,"version":"","steam_id":0,"keywords":null,"game_id":0,"stv_port":0,"stv_name":"","players":null},{"server_id":50,"name":"Uncletopia | Warsaw | 2 | All Maps","name_short":"waw-2","host":"waw-1.pl.uncletopia.com","port":27025,"enabled":true,"region":"eu","cc":"pl","latitude":52.2297,"longitude":21.017532,"reserved":0,"last_update":"0001-01-01T00:00:00Z","name_a2s":"Uncletopia | Warsaw | 2 | All Maps","protocol":17,"map":"cp_snakewater_final1","folder":"tf","game":"Team Fortress","app_id":440,"player_count":0,"max_players":24,"Bots":0,"server_type":"Dedicated","server_os":"Linux","password":true,"vac":true,"version":"7742253","steam_id":85568392925397851,"keywords":["cp","nocrits","nodmgspread","uncletopia"],"game_id":440,"stv_port":27026,"stv_name":"Uncletopia | Warsaw | 2 | All Maps | STV","players":null},{"server_id":51,"name":"Uncletopia | Warsaw | 3 | All Maps","name_short":"waw-3","host":"waw-1.pl.uncletopia.com","port":27035,"enabled":true,"region":"eu","cc":"pl","latitude":52.2297,"longitude":21.017532,"reserved":0,"last_update":"0001-01-01T00:00:00Z","name_a2s":"Uncletopia | Warsaw | 3 | All Maps","protocol":17,"map":"koth_lakeside_final","folder":"tf","game":"Team Fortress","app_id":440,"player_count":0,"max_players":24,"Bots":0,"server_type":"Dedicated","server_os":"Linux","password":true,"vac":true,"version":"7742253","steam_id":85568392925397852,"keywords":["cp","nocrits","nodmgspread","uncletopia"],"game_id":440,"stv_port":27036,"stv_name":"Uncletopia | Warsaw | 3 | All Maps | STV","players":null},{"server_id":52,"name":"Uncletopia | Warsaw | 4 | All Maps","name_short":"waw-4","host":"waw-1.pl.uncletopia.com","port":27045,"enabled":true,"region":"eu","cc":"pl","latitude":52.2297,"longitude":21.017532,"reserved":0,"last_update":"0001-01-01T00:00:00Z","name_a2s":"Uncletopia | Warsaw | 4 | All Maps","protocol":17,"map":"pl_upward","folder":"tf","game":"Team Fortress","app_id":440,"player_count":0,"max_players":24,"Bots":0,"server_type":"Dedicated","server_os":"Linux","password":true,"vac":true,"version":"7742253","steam_id":85568392925397853,"keywords":["nocrits","nodmgspread","payload","uncletopia"],"game_id":440,"stv_port":27046,"stv_name":"Uncletopia | Warsaw | 4 | All Maps | STV","players":null},{"server_id":53,"name":"Uncletopia | Warsaw | 5 | Stopwatch Beta","name_short":"waw-5","host":"waw-1.pl.uncletopia.com","port":27055,"enabled":true,"region":"eu","cc":"pl","latitude":52.2297,"longitude":21.017532,"reserved":0,"last_update":"0001-01-01T00:00:00Z","name_a2s":"Uncletopia | Warsaw | 5 | Stopwatch Beta","protocol":17,"map":"pl_swiftwater_final1","folder":"tf","game":"Team Fortress","app_id":440,"player_count":0,"max_players":24,"Bots":0,"server_type":"Dedicated","server_os":"Linux","password":true,"vac":true,"version":"7742253","steam_id":85568392925397854,"keywords":["nocrits","nodmgspread","payload","uncletopia"],"game_id":440,"stv_port":27056,"stv_name":"Uncletopia | Warsaw | 5 | Stopwatch Beta | STV","players":null},{"server_id":54,"name":"Uncletopia | Warsaw | 6 | Community","name_short":"waw-6","host":"waw-1.pl.uncletopia.com","port":27065,"enabled":true,"region":"eu","cc":"pl","latitude":52.2297,"longitude":21.017532,"reserved":0,"last_update":"0001-01-01T00:00:00Z","name_a2s":"Uncletopia | Warsaw | 6 | Community","protocol":17,"map":"koth_highpass","folder":"tf","game":"Team Fortress","app_id":440,"player_count":0,"max_players":24,"Bots":0,"server_type":"Dedicated","server_os":"Linux","password":true,"vac":true,"version":"7742253","steam_id":85568392925397856,"keywords":["cp","nocrits","nodmgspread","uncletopia"],"game_id":440,"stv_port":27066,"stv_name":"Uncletopia | Warsaw | 6 | Community | STV","players":null}]}