{"status":true,"message":"","result":[{"server_id":9,"name":"Uncletopia | Atlanta | 1 | All Maps","name_short":"atl-1","host":"atl-1.us.uncletopia.com","port":27015,"enabled":true,"region":"us-east","cc":"us","latitude":33.753746,"longitude":-84.38633,"reserved":0,"last_update":"0001-01-01T00:00:00Z","name_a2s":"Uncletopia | Atlanta | 1 | All Maps","protocol":17,"map":"plr_hightower","folder":"tf","game":"Team Fortress","app_id":440,"player_count":24,"max_players":24,"Bots":0,"server_type":"Dedicated","server_os":"Linux","password":true,"vac":true,"version":"7961495","steam_id":85568392924469982,"keywords":["nocrits","nodmgspread","payload","uncletopia"],"game_id":440,"stv_port":27016,"stv_name":"Uncletopia | Atlanta | 1 | All Maps | STV","players":null},{"server_id":104,"name":"Uncletopia | Atlanta | 2 | All Maps","name_short":"atl-2","host":"atl-1.us.uncletopia.com","port":27025,"enabled":true,"region":"us-east","cc":"us","latitude":33.753746,"longitude":-84.38633,"reserved":0,"last_update":"0001-01-01T00:00:00Z","name_a2s":"Uncletopia | Atlanta | 2 | All Maps","protocol":17,"map":"koth_cascade","folder":"tf","game":"Team Fortress","app_id":440,"player_count":1,"max_players":24,"Bots":0,"server_type":"Dedicated","server_os":"Linux","password":true,"vac":true,"version":"7961495","steam_id":85568392924469983,"keywords":["cp","nocrits","nodmgspread","uncletopia"],"game_id":440,"stv_port":27026,"stv_name":"Uncletopia | Atlanta | 2 | All Maps | STV","players":null},{"server_id":400,"name":"Uncletopia | Atlanta | 3 | Stopwatch","name_short":"atl-3","host":"atl-1.us.uncletopia.com","port":27035,"enabled":true,"region":"us-east","cc":"us","latitude":33.753746,"longitude":-84.38633,"reserved":0,"last_update":"0001-01-01T00:00:00Z","name_a2s":"Uncletopia | Atlanta | 3 | Stopwatch","protocol":17,"map":"cp_reckoner_rc6","folder":"tf","game":"Team Fortress","app_id":440,"player_count":0,"max_players":24,"Bots":0,"server_type":"Dedicated","server_os":"Linux","password":true,"vac":true,"version":"7961495","steam_id":85568392924515187,"keywords":["cp","nocrits","nodmgspread","uncletopia"],"game_id":440,"stv_port":27036,"stv_name":"Uncletopia | Atlanta | 3 | Stopwatch | STV","players":null},{"server_id":401,"name":"Uncletopia | Atlanta | 4 | Community","name_short":"atl-4","host":"atl-1.us.uncletopia.com","port":27045,"enabled":true,"region":"us-east","cc":"us","latitude":33.753746,"longitude":-84.38633,"reserved":0,"last_update":"0001-01-01T00:00:00Z","name_a2s":"Uncletopia | Atlanta | 4 | Community","protocol":17,"map":"koth_ashville_final","folder":"tf","game":"Team Fortress","app_id":440,"player_count":0,"max_players":24,"Bots":0,"server_type":"Dedicated","server_os":"Linux","password":true,"vac":true,"version":"7961495","steam_id":85568392924515188,"keywords":["cp","nocrits","nodmgspread","uncletopia"],"game_id":440,"stv_port":27046,"stv_name":"Uncletopia | Atlanta | 4 | Community | STV","players":null},{"server_id":2,"name":"Uncletopia | Chicago | 1 | All Maps","name_short":"chi-1","host":"chi-1.us.uncletopia.com","port":27015,"enabled":true,"region":"us-central","cc":"us","latitude":41.881832,"longitude":-87.62318,"reserved":0,"last_update":"0001-01-01T00:00:00Z","name_a2s":"Uncletopia | Chicago | 1 | All Maps","protocol":17,"map":"pl_badwater","folder":"tf","game":"Team Fortress","app_id":440,"player_count":24,"max_players":24,"Bots":0,"server_type":"Dedicated","server_os":"Linux","password":true,"vac":true,"version":"7961495","steam_id":85568392924469984,"keywords":["nocrits","nodmgspread","payload","uncletopia"],"game_id":440,"stv_port":27016,"stv_name":"Uncletopia | Chicago | 1 | All Maps | STV","players":[{"user_id":404,"name":"Crazy Ivan","steam_id":76561197993072059,"connected_time":689000000000,"state":"active","ping":80},{"user_id":401,"name":"borabora","steam_id":76561199148553839,"connected_time":913000000000,"state":"active","ping":76},{"user_id":394,"name":"killerpi","steam_id":76561198007786114,"connected_time":1416000000000,"state":"active","ping":83},{"user_id":395,"name":"Cavalgada","steam_id":76561198876980205,"connected_time":1407000000000,"state":"active","ping":179},{"user_id":388,"name":"Disco Fever","steam_id":76561198069532215,"connected_time":2237000000000,"state":"active","ping":70},{"user_id":338,"name":"Ras","steam_id":76561198123546775,"connected_time":6437000000000,"state":"active","ping":88},{"user_id":383,"name":"Nukemaster9000","steam_id":76561197985642201,"connected_time":2293000000000,"state":"active","ping":48},{"user_id":405,"name":"‡∏∏","steam_id":76561198170624701,"connected_time":668000000000,"state":"active","ping":72},{"user_id":389,"name":"The Gronkler","steam_id":76561198019915822,"connected_time":2227000000000,"state":"active","ping":69},{"user_id":403,"name":"Stupid Sexy Flanders #Save tf2","steam_id":76561198136311983,"connected_time":696000000000,"state":"active","ping":85},{"user_id":377,"name":"loscemo","steam_id":76561197994884609,"connected_time":3055000000000,"state":"active","ping":66},{"user_id":376,"name":"Acro","steam_id":76561198092451804,"connected_time":3357000000000,"state":"active","ping":69},{"user_id":384,"name":"daffodil","steam_id":76561198049480053,"connected_time":2287000000000,"state":"active","ping":60},{"user_id":391,"name":"Shame","steam_id":76561198100490994,"connected_time":1956000000000,"state":"active","ping":75},{"user_id":378,"name":"Milkmur","steam_id":76561198210043821,"connected_time":2891000000000,"state":"active","ping":63},{"user_id":402,"name":"Zesty Zucchini Ziti","steam_id":76561198092494136,"connected_time":732000000000,"state":"active","ping":61},{"user_id":355,"name":"Comradical","steam_id":76561197990808285,"connected_time":5410000000000,"state":"active","ping":71},{"user_id":294,"name":"scared of a fish ‚óè","steam_id":76561198999217575,"connected_time":10141000000000,"state":"active","ping":91},{"user_id":393,"name":"Glennithy","steam_id":76561198339332079,"connected_time":1587000000000,"state":"active","ping":86},{"user_id":399,"name":"conman games","steam_id":76561199005954896,"connected_time":994000000000,"state":"active","ping":83},{"user_id":400,"name":"D.E.O","steam_id":76561198096992957,"connected_time":933000000000,"state":"active","ping":125},{"user_id":406,"name":"Dallas","steam_id":76561198066542919,"connected_time":662000000000,"state":"active","ping":94},{"user_id":407,"name":"River","steam_id":76561198137529294,"connected_time":661000000000,"state":"active","ping":60},{"user_id":390,"name":"suicide pro","steam_id":76561198057076267,"connected_time":2097000000000,"state":"active","ping":76}]},{"server_id":106,"name":"Uncletopia | Chicago | 2 | All Maps","name_short":"chi-2","host":"chi-1.us.uncletopia.com","port":27025,"enabled":true,"region":"us-central","cc":"us","latitude":41.881832,"longitude":-87.62318,"reserved":0,"last_update":"0001-01-01T00:00:00Z","name_a2s":"Uncletopia | Chicago | 2 | All Maps","protocol":17,"map":"pl_swiftwater_final1","folder":"tf","game":"Team Fortress","app_id":440,"player_count":24,"max_players":24,"Bots":0,"server_type":"Dedicated","server_os":"Linux","password":true,"vac":true,"version":"7961495","steam_id":85568392924469985,"keywords":["nocrits","nodmgspread","payload","uncletopia"],"game_id":440,"stv_port":27026,"stv_name":"Uncletopia | Chicago | 2 | All Maps | STV","players":[{"user_id":281,"name":"Quansen","steam_id":76561198151594550,"connected_time":334000000000,"state":"active","ping":50},{"user_id":165,"name":"that shit for the birds","steam_id":76561198142756572,"connected_time":8024000000000,"state":"active","ping":60},{"user_id":238,"name":"1985 Toyota Sprinter Trueno","steam_id":76561198436383373,"connected_time":2389000000000,"state":"active","ping":107},{"user_id":273,"name":"craven","steam_id":76561198088191503,"connected_time":430000000000,"state":"active","ping":73},{"user_id":285,"name":"Henry Ota-Clay","steam_id":76561198053232470,"connected_time":261000000000,"state":"active","ping":64},{"user_id":264,"name":"BL√òRG","steam_id":76561198036126673,"connected_time":1061000000000,"state":"active","ping":79},{"user_id":261,"name":"Allahgator","steam_id":76561198280659041,"connected_time":1224000000000,"state":"active","ping":78},{"user_id":287,"name":"boowomp","steam_id":76561198177893343,"connected_time":33000000000,"state":"spawning","ping":74},{"user_id":276,"name":"fifteen22","steam_id":76561198138781868,"connected_time":402000000000,"state":"active","ping":72},{"user_id":270,"name":"Window Licker #pride","steam_id":76561198386717007,"connected_time":611000000000,"state":"active","ping":59},{"user_id":256,"name":"serious","steam_id":76561198040671133,"connected_time":1308000000000,"state":"active","ping":57},{"user_id":250,"name":"SilverLife25","steam_id":76561198392015722,"connected_time":1574000000000,"state":"active","ping":96},{"user_id":277,"name":"Assitins","steam_id":76561198041572892,"connected_time":395000000000,"state":"active","ping":77},{"user_id":278,"name":"SlurpyTheDog","steam_id":76561198799733154,"connected_time":392000000000,"state":"active","ping":64},{"user_id":274,"name":"staks","steam_id":76561198059570070,"connected_time":425000000000,"state":"active","ping":54},{"user_id":246,"name":"I GOT A BRAND NEW CHAIN","steam_id":76561198072179483,"connected_time":1710000000000,"state":"active","ping":90},{"user_id":251,"name":"atlas","steam_id":76561198398383076,"connected_time":1563000000000,"state":"active","ping":82},{"user_id":275,"name":"Aggressive Expansion","steam_id":76561198060029617,"connected_time":423000000000,"state":"active","ping":64},{"user_id":280,"name":"qFrontier","steam_id":76561199103766971,"connected_time":367000000000,"state":"active","ping":53},{"user_id":279,"name":"RoseaVenefica","steam_id":76561198020660560,"connected_time":383000000000,"state":"active","ping":63},{"user_id":260,"name":"oshawa_guy","steam_id":76561198121105098,"connected_time":1239000000000,"state":"active","ping":88},{"user_id":229,"name":"njkni","steam_id":76561199061380038,"connected_time":3336000000000,"state":"active","ping":69},{"user_id":283,"name":"Dr_chilly","steam_id":76561198445383213,"connected_time":270000000000,"state":"active","ping":100},{"user_id":286,"name":"og biden pack cart","steam_id":76561198253731826,"connected_time":204000000000,"state":"active","ping":62}]},{"server_id":402,"name":"Uncletopia | Chicago | 3 | All Maps","name_short":"chi-3","host":"chi-1.us.uncletopia.com","port":27035,"enabled":true,"region":"us-central","cc":"us","latitude":41.881832,"longitude":-87.62318,"reserved":0,"last_update":"0001-01-01T00:00:00Z","name_a2s":"Uncletopia | Chicago | 3 | All Maps","protocol":17,"map":"pl_thundermountain","folder":"tf","game":"Team Fortress","app_id":440,"player_count":24,"max_players":24,"Bots":0,"server_type":"Dedicated","server_os":"Linux","password":true,"vac":true,"version":"7961495","steam_id":85568392924515191,"keywords":["nocrits","nodmgspread","payload","uncletopia"],"game_id":440,"stv_port":27036,"stv_name":"Uncletopia | Chicago | 3 | All Maps | STV","players":[{"user_id":166,"name":"clavin_","steam_id":76561198046398447,"connected_time":2226000000000,"state":"active","ping":47},{"user_id":103,"name":"rice","steam_id":76561198119326733,"connected_time":5696000000000,"state":"active","ping":86},{"user_id":192,"name":"The No-Longer Mute","steam_id":76561198078359985,"connected_time":43000000000,"state":"active","ping":55},{"user_id":172,"name":"Sunshine","steam_id":76561198885528098,"connected_time":2098000000000,"state":"active","ping":75},{"user_id":188,"name":"soltuno","steam_id":76561198074430565,"connected_time":475000000000,"state":"active","ping":119},{"user_id":193,"name":"gideon nav my beloved","steam_id":76561198259092181,"connected_time":33000000000,"state":"active","ping":65},{"user_id":104,"name":"Crabby Patty","steam_id":76561198071150936,"connected_time":5655000000000,"state":"active","ping":85},{"user_id":184,"name":"Polar","steam_id":76561198271964253,"connected_time":622000000000,"state":"active","ping":78},{"user_id":146,"name":"\"eLaStiGo GoMeZ\"","steam_id":76561198056834532,"connected_time":3026000000000,"state":"active","ping":58},{"user_id":153,"name":"Pfc. BRUH [10th MD]","steam_id":76561198870051584,"connected_time":2717000000000,"state":"active","ping":99},{"user_id":180,"name":"Pepefuckurmom","steam_id":76561199467404806,"connected_time":1671000000000,"state":"active","ping":173},{"user_id":144,"name":"Big Bill Haywood","steam_id":76561198142290733,"connected_time":3169000000000,"state":"active","ping":73},{"user_id":168,"name":"xX$VV@G_R3@P3R_$3X_$1\u0026Y3R_2008X","steam_id":76561198207215752,"connected_time":2213000000000,"state":"active","ping":74},{"user_id":174,"name":"Sickmind33","steam_id":76561198036248611,"connected_time":2066000000000,"state":"active","ping":43},{"user_id":154,"name":"toss","steam_id":76561198024060038,"connected_time":2717000000000,"state":"active","ping":63},{"user_id":123,"name":"Gailus (She/Her)","steam_id":76561198319509387,"connected_time":4334000000000,"state":"active","ping":60},{"user_id":177,"name":"Sergeant Joker #savetf2","steam_id":76561198854616604,"connected_time":1939000000000,"state":"active","ping":70},{"user_id":183,"name":"veryscaryreaper","steam_id":76561198380018244,"connected_time":1197000000000,"state":"active","ping":75},{"user_id":169,"name":"Artgrendadier","steam_id":76561198063305359,"connected_time":2211000000000,"state":"active","ping":70},{"user_id":185,"name":"bumrusherz","steam_id":76561198440658195,"connected_time":593000000000,"state":"active","ping":74},{"user_id":190,"name":"Zadamouse #SaveTF2","steam_id":76561198243810876,"connected_time":106000000000,"state":"active","ping":75},{"user_id":191,"name":"cofi","steam_id":76561198077504898,"connected_time":104000000000,"state":"active","ping":66},{"user_id":187,"name":"OctoHam","steam_id":76561198143371318,"connected_time":493000000000,"state":"active","ping":94},{"user_id":179,"name":"badasscoolboy57","steam_id":76561198795412055,"connected_time":1730000000000,"state":"active","ping":83}]},{"server_id":403,"name":"Uncletopia | Chicago | 4 | All Maps","name_short":"chi-4","host":"chi-1.us.uncletopia.com","port":27045,"enabled":true,"region":"us-central","cc":"us","latitude":41.881832,"longitude":-87.62318,"reserved":0,"last_update":"0001-01-01T00:00:00Z","name_a2s":"Uncletopia | Chicago | 4 | All Maps","protocol":17,"map":"cp_dustbowl","folder":"tf","game":"Team Fortress","app_id":440,"player_count":23,"max_players":24,"Bots":0,"server_type":"Dedicated","server_os":"Linux","password":true,"vac":true,"version":"7961495","steam_id":85568392924515193,"keywords":["cp","nocrits","nodmgspread","uncletopia"],"game_id":440,"stv_port":27046,"stv_name":"Uncletopia | Chicago | 4 | All Maps | STV","players":[{"user_id":78,"name":"Dr. Derp","steam_id":76561198032242494,"connected_time":784000000000,"state":"active","ping":55},{"user_id":55,"name":"zuma deluxe","steam_id":76561198059041027,"connected_time":2249000000000,"state":"active","ping":112},{"user_id":54,"name":"Doggo","steam_id":76561198179274557,"connected_time":2533000000000,"state":"active","ping":165},{"user_id":28,"name":"Venk","steam_id":76561198251131422,"connected_time":3922000000000,"state":"active","ping":70},{"user_id":14,"name":"Scientific Triumph","steam_id":76561198815127418,"connected_time":4944000000000,"state":"active","ping":174},{"user_id":70,"name":"femtofarad‚Ñ¢","steam_id":76561198308583053,"connected_time":1161000000000,"state":"active","ping":84},{"user_id":25,"name":"da pwo","steam_id":76561198963115673,"connected_time":4178000000000,"state":"active","ping":68},{"user_id":59,"name":"The Caretaker","steam_id":76561198125241411,"connected_time":1988000000000,"state":"active","ping":112},{"user_id":16,"name":"shitass (Reaping and Sowing)","steam_id":76561198210572481,"connected_time":4693000000000,"state":"active","ping":75},{"user_id":17,"name":"soarinlauren","steam_id":76561199482944619,"connected_time":4673000000000,"state":"active","ping":79},{"user_id":77,"name":"Joe Family guy","steam_id":76561198065327106,"connected_time":898000000000,"state":"active","ping":61},{"user_id":50,"name":"Elliot","steam_id":76561198052843856,"connected_time":2990000000000,"state":"active","ping":63},{"user_id":52,"name":"yeah right","steam_id":76561198301127098,"connected_time":2708000000000,"state":"active","ping":111},{"user_id":81,"name":"veemo","steam_id":76561198321393225,"connected_time":55000000000,"state":"active","ping":129},{"user_id":56,"name":"Blanke","steam_id":76561198068912412,"connected_time":2073000000000,"state":"active","ping":72},{"user_id":80,"name":"Itsagreyarea","steam_id":76561199496467388,"connected_time":497000000000,"state":"active","ping":99},{"user_id":75,"name":"1st place love live fan","steam_id":76561198037951506,"connected_time":1062000000000,"state":"active","ping":60},{"user_id":47,"name":"Rornir","steam_id":76561198081829615,"connected_time":3188000000000,"state":"active","ping":34},{"user_id":82,"name":"shitcock","steam_id":76561199407965593,"connected_time":51000000000,"state":"spawning","ping":132},{"user_id":57,"name":"GlingGlop95","steam_id":76561198386865528,"connected_time":2067000000000,"state":"active","ping":90},{"user_id":51,"name":"reii","steam_id":76561198134442912,"connected_time":2982000000000,"state":"active","ping":74},{"user_id":45,"name":"YOU WHAT?!","steam_id":76561198418679471,"connected_time":3327000000000,"state":"active","ping":60},{"user_id":79,"name":"Black_chestnut","steam_id":76561198155524915,"connected_time":664000000000,"state":"active","ping":85}]},{"server_id":36,"name":"Uncletopia | Chicago | 5 | All Maps","name_short":"chi-5","host":"chi-2.us.uncletopia.com","port":27015,"enabled":true,"region":"us-central","cc":"us","latitude":41.881832,"longitude":-87.62318,"reserved":0,"last_update":"0001-01-01T00:00:00Z","name_a2s":"Uncletopia | Chicago | 5 | All Maps","protocol":17,"map":"koth_viaduct","folder":"tf","game":"Team Fortress","app_id":440,"player_count":0,"max_players":24,"Bots":0,"server_type":"Dedicated","server_os":"Linux","password":true,"vac":true,"version":"7961495","steam_id":85568392924866362,"keywords":["cp","nocrits","nodmgspread","uncletopia"],"game_id":440,"stv_port":27016,"stv_name":"Uncletopia | Chicago | 5 | All Maps | STV","players":null},{"server_id":37,"name":"Uncletopia | Chicago | 6 | All Maps","name_short":"chi-6","host":"chi-2.us.uncletopia.com","port":27025,"enabled":true,"region":"us-central","cc":"us","latitude":41.881832,"longitude":-87.62318,"reserved":0,"last_update":"0001-01-01T00:00:00Z","name_a2s":"Uncletopia | Chicago | 6 | All Maps","protocol":17,"map":"cp_fastlane","folder":"tf","game":"Team Fortress","app_id":440,"player_count":23,"max_players":24,"Bots":0,"server_type":"Dedicated","server_os":"Linux","password":true,"vac":true,"version":"7961495","steam_id":85568392924866363,"keywords":["cp","nocrits","nodmgspread","uncletopia"],"game_id":440,"stv_port":27026,"stv_name":"Uncletopia | Chicago | 6 | All Maps | STV","players":[{"user_id":328,"name":"Oogle","steam_id":76561198041815877,"connected_time":1646000000000,"state":"active","ping":59},{"user_id":324,"name":"Chicago Shoplifter","steam_id":76561197986530028,"connected_time":1752000000000,"state":"active","ping":96},{"user_id":343,"name":"OrangeShoes","steam_id":76561197971249940,"connected_time":331000000000,"state":"active","ping":77},{"user_id":309,"name":"ShofaX","steam_id":76561198199768014,"connected_time":3134000000000,"state":"active","ping":74},{"user_id":330,"name":"blossom","steam_id":76561198042735130,"connected_time":1523000000000,"state":"active","ping":99},{"user_id":323,"name":"twizted","steam_id":76561197960407274,"connected_time":1760000000000,"state":"active","ping":67},{"user_id":265,"name":"super clickteam fusion","steam_id":76561198275101482,"connected_time":6826000000000,"state":"active","ping":138},{"user_id":296,"name":"NUt","steam_id":76561198031007966,"connected_time":3620000000000,"state":"active","ping":57},{"user_id":327,"name":"SHADY SWEATER SALESMAN","steam_id":76561198014616865,"connected_time":1703000000000,"state":"active","ping":63},{"user_id":242,"name":"Domswish","steam_id":76561198331444240,"connected_time":8145000000000,"state":"active","ping":68},{"user_id":303,"name":"An Engineer","steam_id":76561198110381643,"connected_time":3318000000000,"state":"active","ping":64},{"user_id":312,"name":"wish you were here","steam_id":76561198282764599,"connected_time":2978000000000,"state":"active","ping":49},{"user_id":342,"name":"dansal","steam_id":76561197997042510,"connected_time":471000000000,"state":"active","ping":88},{"user_id":318,"name":"VX Ghost","steam_id":76561198072541436,"connected_time":2671000000000,"state":"active","ping":46},{"user_id":333,"name":"oopsboom24","steam_id":76561199105248648,"connected_time":1465000000000,"state":"active","ping":92},{"user_id":311,"name":"Average Anarchist","steam_id":76561199175442910,"connected_time":3058000000000,"state":"active","ping":80},{"user_id":278,"name":"TheSquirrelofHuscurl","steam_id":76561198073379623,"connected_time":5722000000000,"state":"active","ping":121},{"user_id":286,"name":"Visual Depression","steam_id":76561198825918366,"connected_time":4563000000000,"state":"active","ping":113},{"user_id":335,"name":"KarmaKid","steam_id":76561198079580094,"connected_time":1437000000000,"state":"active","ping":64},{"user_id":336,"name":"trobin120","steam_id":76561199122420273,"connected_time":1372000000000,"state":"active","ping":63},{"user_id":319,"name":"CaioXDD5","steam_id":76561198323025785,"connected_time":2604000000000,"state":"active","ping":179},{"user_id":338,"name":"Rein","steam_id":76561198300340427,"connected_time":1296000000000,"state":"active","ping":62},{"user_id":341,"name":"Inevitable","steam_id":76561198210050169,"connected_time":618000000000,"state":"active","ping":71}]},{"server_id":38,"name":"Uncletopia | Chicago | 7 | Stopwatch","name_short":"chi-7","host":"chi-2.us.uncletopia.com","port":27035,"enabled":true,"region":"us-central","cc":"us","latitude":41.881832,"longitude":-87.62318,"reserved":0,"last_update":"0001-01-01T00:00:00Z","name_a2s":"Uncletopia | Chicago | 7 | Stopwatch","protocol":17,"map":"pl_badwater","folder":"tf","game":"Team Fortress","app_id":440,"player_count":0,"max_players":24,"Bots":0,"server_type":"Dedicated","server_os":"Linux","password":true,"vac":true,"version":"7961495","steam_id":85568392924866364,"keywords":["nocrits","nodmgspread","payload","uncletopia"],"game_id":440,"stv_port":27036,"stv_name":"Uncletopia | Chicago | 7 | Stopwatch | STV","players":null},{"server_id":39,"name":"Uncletopia | Chicago | 8 | Community","name_short":"chi-8","host":"chi-2.us.uncletopia.com","port":27045,"enabled":true,"region":"us-central","cc":"us","latitude":41.881832,"longitude":-87.62318,"reserved":0,"last_update":"0001-01-01T00:00:00Z","name_a2s":"Uncletopia | Chicago | 8 | Community","protocol":17,"map":"pl_pier","folder":"tf","game":"Team Fortress","app_id":440,"player_count":0,"max_players":24,"Bots":0,"server_type":"Dedicated","server_os":"Linux","password":true,"vac":true,"version":"7961495","steam_id":85568392924866365,"keywords":["nocrits","nodmgspread","payload","uncletopia"],"game_id":440,"stv_port":27046,"stv_name":"Uncletopia | Chicago | 8 | Community | STV","players":null},{"server_id":8,"name":"Uncletopia | Dallas | 1 | All Maps","name_short":"dal-1","host":"dal-1.us.uncletopia.com","port":27015,"enabled":true,"region":"us-central","cc":"us","latitude":32.779167,"longitude":-96.80889,"reserved":0,"last_update":"0001-01-01T00:00:00Z","name_a2s":"Uncletopia | Dallas | 1 | All Maps","protocol":17,"map":"pl_badwater","folder":"tf","game":"Team Fortress","app_id":440,"player_count":19,"max_players":24,"Bots":0,"server_type":"Dedicated","server_os":"Linux","password":true,"vac":true,"version":"7961495","steam_id":85568392924469986,"keywords":["nocrits","nodmgspread","payload","uncletopia"],"game_id":440,"stv_port":27016,"stv_name":"Uncletopia | Dallas | 1 | All Maps | STV","players":[{"user_id":181,"name":"SmugCoffeeMan","steam_id":76561198040765030,"connected_time":345000000000,"state":"active","ping":60},{"user_id":192,"name":"Aeris","steam_id":76561198287271028,"connected_time":60000000000,"state":"active","ping":75},{"user_id":183,"name":"TinnCann","steam_id":76561198370910909,"connected_time":276000000000,"state":"active","ping":91},{"user_id":184,"name":"pigswill","steam_id":76561197999081865,"connected_time":263000000000,"state":"active","ping":90},{"user_id":185,"name":"pim","steam_id":76561198095163441,"connected_time":257000000000,"state":"active","ping":46},{"user_id":186,"name":"barth","steam_id":76561198292896412,"connected_time":246000000000,"state":"active","ping":58},{"user_id":156,"name":"Shameless Kuma Player","steam_id":76561198097700500,"connected_time":2617000000000,"state":"active","ping":68},{"user_id":176,"name":"mootier","steam_id":76561198030365192,"connected_time":849000000000,"state":"active","ping":82},{"user_id":147,"name":"KaosInfinite","steam_id":76561198009126350,"connected_time":3618000000000,"state":"active","ping":74},{"user_id":191,"name":"poiuytrewqwqwqwqwqwqwqwqwqwqwqw","steam_id":76561199105253001,"connected_time":149000000000,"state":"active","ping":93},{"user_id":175,"name":"Captain Underbelly","steam_id":76561198811270935,"connected_time":1109000000000,"state":"active","ping":92},{"user_id":171,"name":"Din√∂bro","steam_id":76561198065597770,"connected_time":1666000000000,"state":"active","ping":65},{"user_id":149,"name":"Locomotive","steam_id":76561199152926930,"connected_time":3478000000000,"state":"active","ping":65},{"user_id":177,"name":"Hebe","steam_id":76561198000777479,"connected_time":848000000000,"state":"active","ping":172},{"user_id":42,"name":"HOODOO_LOVER_2007","steam_id":76561199087691214,"connected_time":12729000000000,"state":"active","ping":97},{"user_id":180,"name":"Xrath","steam_id":76561198220741860,"connected_time":508000000000,"state":"active","ping":83},{"user_id":188,"name":"Serenue","steam_id":76561199040361250,"connected_time":242000000000,"state":"active","ping":107},{"user_id":189,"name":"Mellou","steam_id":76561198212048740,"connected_time":241000000000,"state":"active","ping":48},{"user_id":190,"name":"Cosmic Torgue","steam_id":76561198828724945,"connected_time":237000000000,"state":"active","ping":100}]},{"server_id":108,"name":"Uncletopia | Dallas | 2 | All Maps","name_short":"dal-2","host":"dal-1.us.uncletopia.com","port":27025,"enabled":true,"region":"us-central","cc":"us","latitude":32.779167,"longitude":-96.80889,"reserved":0,"last_update":"0001-01-01T00:00:00Z","name_a2s":"Uncletopia | Dallas | 2 | All Maps","protocol":17,"map":"pl_snowycoast","folder":"tf","game":"Team Fortress","app_id":440,"player_count":24,"max_players":24,"Bots":0,"server_type":"Dedicated","server_os":"Linux","password":true,"vac":true,"version":"7961495","steam_id":85568392924469988,"keywords":["nocrits","nodmgspread","payload","uncletopia"],"game_id":440,"stv_port":27026,"stv_name":"Uncletopia | Dallas | 2 | All Maps | STV","players":[{"user_id":169,"name":"MALWARE9000","steam_id":76561198065238093,"connected_time":573000000000,"state":"connecting","ping":274},{"user_id":151,"name":"FROYO shroud","steam_id":76561198020534493,"connected_time":1165000000000,"state":"active","ping":79},{"user_id":125,"name":"rAnch","steam_id":76561198024562587,"connected_time":2945000000000,"state":"active","ping":34},{"user_id":112,"name":"hforce11","steam_id":76561198087647130,"connected_time":3706000000000,"state":"active","ping":57},{"user_id":155,"name":"Adalbern","steam_id":76561197991785034,"connected_time":1024000000000,"state":"active","ping":92},{"user_id":167,"name":"J.C. Leyendenton","steam_id":76561198096306325,"connected_time":759000000000,"state":"active","ping":90},{"user_id":140,"name":"hubida","steam_id":76561198084582998,"connected_time":2433000000000,"state":"active","ping":48},{"user_id":123,"name":"Shitty Pilot","steam_id":76561198042723469,"connected_time":3014000000000,"state":"active","ping":55},{"user_id":168,"name":"yomommasabitch","steam_id":76561198323217150,"connected_time":739000000000,"state":"active","ping":44},{"user_id":156,"name":"charm quark","steam_id":76561198098770777,"connected_time":1007000000000,"state":"active","ping":106},{"user_id":170,"name":"celery","steam_id":76561199004451589,"connected_time":180000000000,"state":"active","ping":45},{"user_id":148,"name":"Engineer who laughs at snow","steam_id":76561199061965517,"connected_time":1693000000000,"state":"active","ping":53},{"user_id":173,"name":"Rin \"Hindwing\" Redtail","steam_id":76561199074865638,"connected_time":150000000000,"state":"active","ping":54},{"user_id":171,"name":"chiswola","steam_id":76561198046920142,"connected_time":175000000000,"state":"active","ping":97},{"user_id":172,"name":"phallic tractor","steam_id":76561198361326855,"connected_time":158000000000,"state":"active","ping":89},{"user_id":95,"name":"Ahkmid the Emoji Turban Guy","steam_id":76561198142599650,"connected_time":4244000000000,"state":"active","ping":76},{"user_id":176,"name":"7thelden","steam_id":76561198297428761,"connected_time":5000000000,"state":"spawning","ping":72},{"user_id":120,"name":"Sckuish","steam_id":76561198297216345,"connected_time":3303000000000,"state":"active","ping":49},{"user_id":113,"name":"Oopsie Daisy ‚ùã","steam_id":76561198042144492,"connected_time":3675000000000,"state":"active","ping":68},{"user_id":174,"name":"Tuffcookie34","steam_id":76561198309031637,"connected_time":141000000000,"state":"active","ping":45},{"user_id":136,"name":"Chunk Stuffer","steam_id":76561198856508573,"connected_time":2642000000000,"state":"active","ping":46},{"user_id":175,"name":"GCA The Knock Fan","steam_id":76561198133102865,"connected_time":116000000000,"state":"active","ping":59},{"user_id":158,"name":"KazmirlYT","steam_id":76561198116008410,"connected_time":946000000000,"state":"active","ping":107},{"user_id":166,"name":"rune simpa","steam_id":76561198046174848,"connected_time":778000000000,"state":"active","ping":59}]},{"server_id":404,"name":"Uncletopia | Dallas | 3 | All Maps","name_short":"dal-3","host":"dal-1.us.uncletopia.com","port":27035,"enabled":true,"region":"us-central","cc":"us","latitude":32.779167,"longitude":-96.80889,"reserved":0,"last_update":"0001-01-01T00:00:00Z","name_a2s":"Uncletopia | Dallas | 3 | All Maps","protocol":17,"map":"cp_dustbowl","folder":"tf","game":"Team Fortress","app_id":440,"player_count":0,"max_players":24,"Bots":0,"server_type":"Dedicated","server_os":"Linux","password":true,"vac":true,"version":"7961495","steam_id":85568392924515219,"keywords":["cp","nocrits","nodmgspread","uncletopia"],"game_id":440,"stv_port":27036,"stv_name":"Uncletopia | Dallas | 3 | All Maps | STV","players":null},{"server_id":405,"name":"Uncletopia | Dallas | 4 | Community","name_short":"dal-4","host":"dal-1.us.uncletopia.com","port":27045,"enabled":true,"region":"us-central","cc":"us","latitude":32.779167,"longitude":-96.80889,"reserved":0,"last_update":"0001-01-01T00:00:00Z","name_a2s":"Uncletopia | Dallas | 4 | Community","protocol":17,"map":"workshop/pl_barnblitz_pro7.ugc582280235","folder":"tf","game":"Team Fortress","app_id":440,"player_count":0,"max_players":24,"Bots":0,"server_type":"Dedicated","server_os":"Linux","password":true,"vac":true,"version":"7961495","steam_id":85568392924515220,"keywords":["nocrits","nodmgspread","payload","uncletopia"],"game_id":440,"stv_port":27046,"stv_name":"Uncletopia | Dallas | 4 | Community | STV","players":null},{"server_id":5,"name":"Uncletopia | Frankfurt | 1 | All Maps","name_short":"frk-1","host":"frk-1.de.uncletopia.com","port":27015,"enabled":true,"region":"eu","cc":"de","latitude":50.110924,"longitude":8.682127,"reserved":0,"last_update":"0001-01-01T00:00:00Z","name_a2s":"Uncletopia | Frankfurt | 1 | All Maps","protocol":17,"map":"pl_borneo","folder":"tf","game":"Team Fortress","app_id":440,"player_count":24,"max_players":24,"Bots":0,"server_type":"Dedicated","server_os":"Linux","password":true,"vac":true,"version":"7961495","steam_id":85568392924469989,"keywords":["nocrits","nodmgspread","payload","uncletopia"],"game_id":440,"stv_port":27016,"stv_name":"Uncletopia | Frankfurt | 1 | All Maps | STV","players":[{"user_id":430,"name":"James Deer","steam_id":76561198140014793,"connected_time":5867000000000,"state":"active","ping":60},{"user_id":472,"name":"Kardiol","steam_id":76561198122344852,"connected_time":3171000000000,"state":"active","ping":66},{"user_id":458,"name":"Toasty5050","steam_id":76561198073540881,"connected_time":4804000000000,"state":"active","ping":43},{"user_id":431,"name":"fuyunoLuna","steam_id":76561198108237246,"connected_time":5850000000000,"state":"active","ping":61},{"user_id":498,"name":"Aristotle Voulton","steam_id":76561198100174923,"connected_time":1144000000000,"state":"active","ping":70},{"user_id":499,"name":"jovi_","steam_id":76561198449280552,"connected_time":1012000000000,"state":"active","ping":59},{"user_id":482,"name":"full power heart attack","steam_id":76561199196568965,"connected_time":1910000000000,"state":"active","ping":85},{"user_id":494,"name":"TOP G","steam_id":76561198138928548,"connected_time":1357000000000,"state":"active","ping":46},{"user_id":435,"name":"Rimx","steam_id":76561198053034840,"connected_time":5694000000000,"state":"active","ping":90},{"user_id":436,"name":"pizzaboob (im funny)","steam_id":76561198097507847,"connected_time":5580000000000,"state":"active","ping":75},{"user_id":492,"name":"Samuel L. Jackson","steam_id":76561198130427881,"connected_time":1438000000000,"state":"active","ping":153},{"user_id":503,"name":"syms","steam_id":76561198066679812,"connected_time":33000000000,"state":"spawning","ping":75},{"user_id":484,"name":"Righty","steam_id":76561199224705434,"connected_time":1835000000000,"state":"active","ping":121},{"user_id":457,"name":"Cheshireycat (sladak sam)","steam_id":76561198067204908,"connected_time":4810000000000,"state":"active","ping":71},{"user_id":496,"name":"rower123","steam_id":76561198265062481,"connected_time":1302000000000,"state":"active","ping":85},{"user_id":474,"name":"I919I","steam_id":76561198141049923,"connected_time":2868000000000,"state":"active","ping":74},{"user_id":485,"name":"ANGHENFILOD","steam_id":76561199492622823,"connected_time":1815000000000,"state":"active","ping":54},{"user_id":486,"name":"clean carp","steam_id":76561198127053294,"connected_time":1798000000000,"state":"active","ping":66},{"user_id":487,"name":"Panino","steam_id":76561198078880332,"connected_time":1757000000000,"state":"active","ping":75},{"user_id":502,"name":"FoOzTV","steam_id":76561197998636728,"connected_time":204000000000,"state":"active","ping":72},{"user_id":488,"name":"nero","steam_id":76561199104782664,"connected_time":1754000000000,"state":"active","ping":67},{"user_id":465,"name":"Finnish Farmer","steam_id":76561198205366043,"connected_time":3947000000000,"state":"active","ping":84},{"user_id":501,"name":"cuddles","steam_id":76561198805181599,"connected_time":430000000000,"state":"active","ping":70},{"user_id":497,"name":"Repa24","steam_id":76561198033016390,"connected_time":1229000000000,"state":"active","ping":74}]},{"server_id":110,"name":"Uncletopia | Frankfurt | 2 | All Maps","name_short":"frk-2","host":"frk-1.de.uncletopia.com","port":27025,"enabled":true,"region":"eu","cc":"de","latitude":50.110924,"longitude":8.682127,"reserved":0,"last_update":"0001-01-01T00:00:00Z","name_a2s":"Uncletopia | Frankfurt | 2 | All Maps","protocol":17,"map":"pl_barnblitz","folder":"tf","game":"Team Fortress","app_id":440,"player_count":24,"max_players":24,"Bots":0,"server_type":"Dedicated","server_os":"Linux","password":true,"vac":true,"version":"7961495","steam_id":85568392924469990,"keywords":["nocrits","nodmgspread","payload","uncletopia"],"game_id":440,"stv_port":27026,"stv_name":"Uncletopia | Frankfurt | 2 | All Maps | STV","players":[{"user_id":193,"name":"lulu","steam_id":76561199147764133,"connected_time":10768000000000,"state":"active","ping":72},{"user_id":330,"name":"RED.","steam_id":76561199488958640,"connected_time":184000000000,"state":"active","ping":74},{"user_id":297,"name":"Saucisse","steam_id":76561198119955969,"connected_time":3170000000000,"state":"active","ping":59},{"user_id":318,"name":"D_Ink","steam_id":76561198267716662,"connected_time":1182000000000,"state":"active","ping":52},{"user_id":258,"name":"After8","steam_id":76561198090750865,"connected_time":5882000000000,"state":"active","ping":62},{"user_id":270,"name":"‚ô†Anti_BOI‚ô†","steam_id":76561198274593231,"connected_time":4707000000000,"state":"active","ping":65},{"user_id":298,"name":"Makkie","steam_id":76561198118950916,"connected_time":3167000000000,"state":"active","ping":78},{"user_id":307,"name":"Jeffrey Harpen","steam_id":76561199073314677,"connected_time":2571000000000,"state":"active","ping":64},{"user_id":312,"name":"Cheers Mate!","steam_id":76561198265192382,"connected_time":1968000000000,"state":"active","ping":61},{"user_id":324,"name":"zek","steam_id":76561198862763731,"connected_time":752000000000,"state":"active","ping":60},{"user_id":325,"name":"Osqq :s","steam_id":76561198075465106,"connected_time":729000000000,"state":"active","ping":66},{"user_id":310,"name":"morbius (a lenda da marvel)","steam_id":76561198156198125,"connected_time":1994000000000,"state":"active","ping":90},{"user_id":257,"name":"Nozzo","steam_id":76561198012367783,"connected_time":5933000000000,"state":"active","ping":61},{"user_id":300,"name":"sokige","steam_id":76561198167112371,"connected_time":3095000000000,"state":"active","ping":90},{"user_id":326,"name":"$ithead","steam_id":76561199027635172,"connected_time":718000000000,"state":"active","ping":57},{"user_id":329,"name":"hhhhhh","steam_id":76561198031982574,"connected_time":455000000000,"state":"active","ping":50},{"user_id":316,"name":"phonkluverr","steam_id":76561198197156573,"connected_time":1395000000000,"state":"active","ping":97},{"user_id":311,"name":"U ALREADY KNOW","steam_id":76561198204858259,"connected_time":1984000000000,"state":"active","ping":91},{"user_id":291,"name":"Smilo","steam_id":76561198841481172,"connected_time":3578000000000,"state":"active","ping":105},{"user_id":313,"name":"lvl. 50 honkler","steam_id":76561198061688660,"connected_time":1958000000000,"state":"active","ping":98},{"user_id":301,"name":"SpineJuice","steam_id":76561199084272069,"connected_time":3084000000000,"state":"active","ping":68},{"user_id":328,"name":"Coca162","steam_id":76561198230656540,"connected_time":677000000000,"state":"active","ping":56},{"user_id":296,"name":"Pegasir‚Ñ¢","steam_id":76561198041376808,"connected_time":3207000000000,"state":"active","ping":50},{"user_id":331,"name":"Grey goose 6L by barack obama","steam_id":76561198235787750,"connected_time":42000000000,"state":"active","ping":87}]},{"server_id":308,"name":"Uncletopia | Frankfurt | 3 | All Maps","name_short":"frk-3","host":"frk-1.de.uncletopia.com","port":27035,"enabled":true,"region":"eu","cc":"de","latitude":50.110924,"longitude":8.682127,"reserved":0,"last_update":"0001-01-01T00:00:00Z","name_a2s":"Uncletopia | Frankfurt | 3 | All Maps","protocol":17,"map":"pl_barnblitz","folder":"tf","game":"Team Fortress","app_id":440,"player_count":21,"max_players":24,"Bots":0,"server_type":"Dedicated","server_os":"Linux","password":true,"vac":true,"version":"7961495","steam_id":85568392924504274,"keywords":["nocrits","nodmgspread","payload","uncletopia"],"game_id":440,"stv_port":27036,"stv_name":"Uncletopia | Frankfurt | 3 | All Maps | STV","players":[{"user_id":156,"name":"Gamlader","steam_id":76561198306177608,"connected_time":1704000000000,"state":"active","ping":84},{"user_id":174,"name":"Just Call Me Spooky","steam_id":76561198296002067,"connected_time":1046000000000,"state":"spawning","ping":88},{"user_id":157,"name":"55555","steam_id":76561199060683386,"connected_time":1698000000000,"state":"active","ping":96},{"user_id":134,"name":"PiN hEaD","steam_id":76561198834713682,"connected_time":3572000000000,"state":"spawning","ping":78},{"user_id":158,"name":"Burak","steam_id":76561198441622971,"connected_time":1659000000000,"state":"active","ping":86},{"user_id":192,"name":"‚íø‚í∫‚í∫‚ìè‚ìÑ","steam_id":76561198123592400,"connected_time":13000000000,"state":"active","ping":83},{"user_id":190,"name":"üîÆDrNobodyüîÆ","steam_id":76561198358529983,"connected_time":288000000000,"state":"spawning","ping":81},{"user_id":191,"name":"Qdarks","steam_id":76561198013391340,"connected_time":27000000000,"state":"active","ping":146},{"user_id":138,"name":"cheeselover5","steam_id":76561198105189907,"connected_time":3493000000000,"state":"active","ping":50},{"user_id":193,"name":"shablool","steam_id":76561199192795613,"connected_time":12000000000,"state":"spawning","ping":95},{"user_id":155,"name":"fish","steam_id":76561198092096689,"connected_time":1843000000000,"state":"active","ping":62},{"user_id":188,"name":"Truegear","steam_id":76561198059511386,"connected_time":408000000000,"state":"active","ping":127},{"user_id":178,"name":"mq","steam_id":76561198091888948,"connected_time":969000000000,"state":"active","ping":73},{"user_id":184,"name":"MikuViku","steam_id":76561198389247480,"connected_time":497000000000,"state":"active","ping":99},{"user_id":185,"name":"obi","steam_id":76561198040154461,"connected_time":492000000000,"state":"spawning","ping":153},{"user_id":165,"name":"Industrial Revolution","steam_id":76561198230811124,"connected_time":1434000000000,"state":"active","ping":146},{"user_id":194,"name":"manure merchant","steam_id":76561198010109316,"connected_time":11000000000,"state":"spawning","ping":61},{"user_id":168,"name":"sex toilet","steam_id":76561198412197820,"connected_time":1421000000000,"state":"spawning","ping":80},{"user_id":173,"name":"confusion","steam_id":76561199199499453,"connected_time":1166000000000,"state":"spawning","ping":71},{"user_id":147,"name":"DaiDaiMu :3","steam_id":76561198052794823,"connected_time":3065000000000,"state":"active","ping":60},{"user_id":126,"name":"Imperial City Guard","steam_id":76561198083355845,"connected_time":4206000000000,"state":"spawning","ping":61}]},{"server_id":309,"name":"Uncletopia | Frankfurt | 4 | All Maps","name_short":"frk-4","host":"frk-1.de.uncletopia.com","port":27045,"enabled":true,"region":"eu","cc":"de","latitude":50.110924,"longitude":8.682127,"reserved":0,"last_update":"0001-01-01T00:00:00Z","name_a2s":"Uncletopia | Frankfurt | 4 | All Maps","protocol":17,"map":"pl_frontier_final","folder":"tf","game":"Team Fortress","app_id":440,"player_count":3,"max_players":24,"Bots":0,"server_type":"Dedicated","server_os":"Linux","password":true,"vac":true,"version":"7961495","steam_id":85568392924504275,"keywords":["nocrits","nodmgspread","payload","uncletopia"],"game_id":440,"stv_port":27046,"stv_name":"Uncletopia | Frankfurt | 4 | All Maps | STV","players":[{"user_id":45,"name":"burritoeater","steam_id":76561199124197813,"connected_time":154000000000,"state":"active","ping":77},{"user_id":20,"name":"Kekkonen","steam_id":76561198944072942,"connected_time":4153000000000,"state":"active","ping":84},{"user_id":33,"name":"practicing medicine","steam_id":76561198004065704,"connected_time":2132000000000,"state":"active","ping":186}]},{"server_id":310,"name":"Uncletopia | Frankfurt | 5 | All Maps","name_short":"frk-5","host":"frk-1.de.uncletopia.com","port":27055,"enabled":true,"region":"eu","cc":"de","latitude":50.110924,"longitude":8.682127,"reserved":0,"last_update":"0001-01-01T00:00:00Z","name_a2s":"Uncletopia | Frankfurt | 5 | All Maps","protocol":17,"map":"cp_process_final","folder":"tf","game":"Team Fortress","app_id":440,"player_count":24,"max_players":24,"Bots":0,"server_type":"Dedicated","server_os":"Linux","password":true,"vac":true,"version":"7961495","steam_id":85568392924504277,"keywords":["cp","nocrits","nodmgspread","uncletopia"],"game_id":440,"stv_port":27056,"stv_name":"Uncletopia | Frankfurt | 5 | All Maps | STV","players":[{"user_id":332,"name":"Mega Man Legends 3","steam_id":76561198014110199,"connected_time":439000000000,"state":"active","ping":54},{"user_id":327,"name":"Q U E E N A L E X","steam_id":76561198186341157,"connected_time":979000000000,"state":"active","ping":58},{"user_id":314,"name":"ShadowTwin","steam_id":76561198046658200,"connected_time":1740000000000,"state":"active","ping":81},{"user_id":282,"name":"Egor Pomidor","steam_id":76561199175688390,"connected_time":4425000000000,"state":"active","ping":74},{"user_id":330,"name":"L√∂dde","steam_id":76561198274165770,"connected_time":589000000000,"state":"active","ping":68},{"user_id":331,"name":"Merca #savetf2","steam_id":76561198088782472,"connected_time":572000000000,"state":"active","ping":48},{"user_id":309,"name":"SpiGo","steam_id":76561198051069962,"connected_time":1959000000000,"state":"active","ping":74},{"user_id":317,"name":"MackPack","steam_id":76561198104243355,"connected_time":1702000000000,"state":"active","ping":56},{"user_id":170,"name":"Scandinavian sleeping and livin","steam_id":76561198241982958,"connected_time":13281000000000,"state":"active","ping":96},{"user_id":307,"name":"SaltyLove","steam_id":76561198268617503,"connected_time":2557000000000,"state":"active","ping":180},{"user_id":336,"name":"ONI","steam_id":76561199038860035,"connected_time":121000000000,"state":"active","ping":75},{"user_id":312,"name":"Ripulihobitti69[FIN]","steam_id":76561198102003678,"connected_time":1760000000000,"state":"active","ping":77},{"user_id":334,"name":"Marabosha","steam_id":76561198137599173,"connected_time":281000000000,"state":"active","ping":105},{"user_id":328,"name":"Altraverdo","steam_id":76561198063933880,"connected_time":867000000000,"state":"active","ping":42},{"user_id":338,"name":"Doctor Marijuana","steam_id":76561198288289879,"connected_time":87000000000,"state":"active","ping":62},{"user_id":289,"name":"Glass Kon","steam_id":76561198000042666,"connected_time":4137000000000,"state":"active","ping":162},{"user_id":316,"name":"eepy gaming","steam_id":76561198299094088,"connected_time":1734000000000,"state":"active","ping":160},{"user_id":335,"name":"Valfezant","steam_id":76561199063983797,"connected_time":145000000000,"state":"active","ping":53},{"user_id":318,"name":"Fridge","steam_id":76561198071665589,"connected_time":1537000000000,"state":"active","ping":89},{"user_id":321,"name":"heddwch","steam_id":76561198076097983,"connected_time":1477000000000,"state":"active","ping":75},{"user_id":337,"name":"JohkupohkuXD","steam_id":76561198391108762,"connected_time":96000000000,"state":"active","ping":96},{"user_id":284,"name":"Buru","steam_id":76561198024146649,"connected_time":4408000000000,"state":"active","ping":45},{"user_id":329,"name":"Relic","steam_id":76561199499093258,"connected_time":655000000000,"state":"active","ping":42},{"user_id":333,"name":"LickKing","steam_id":76561198128569949,"connected_time":406000000000,"state":"active","ping":54}]},{"server_id":311,"name":"Uncletopia | Frankfurt | 6 | All Maps","name_short":"frk-6","host":"frk-1.de.uncletopia.com","port":27065,"enabled":true,"region":"eu","cc":"de","latitude":50.110924,"longitude":8.682127,"reserved":0,"last_update":"0001-01-01T00:00:00Z","name_a2s":"Uncletopia | Frankfurt | 6 | All Maps","protocol":17,"map":"plr_pipeline","folder":"tf","game":"Team Fortress","app_id":440,"player_count":0,"max_players":24,"Bots":0,"server_type":"Dedicated","server_os":"Linux","password":true,"vac":true,"version":"7961495","steam_id":85568392924504278,"keywords":["nocrits","nodmgspread","payload","uncletopia"],"game_id":440,"stv_port":27066,"stv_name":"Uncletopia | Frankfurt | 6 | All Maps | STV","players":null},{"server_id":23,"name":"Uncletopia | Frankfurt | 7 | Stopwatch","name_short":"frk-7","host":"frk-1.de.uncletopia.com","port":27075,"enabled":true,"region":"eu","cc":"de","latitude":50.110924,"longitude":8.682127,"reserved":0,"last_update":"0001-01-01T00:00:00Z","name_a2s":"Uncletopia | Frankfurt | 7 | Stopwatch","protocol":17,"map":"workshop/koth_bagel_rc6.ugc2514036946","folder":"tf","game":"Team Fortress","app_id":440,"player_count":0,"max_players":24,"Bots":0,"server_type":"Dedicated","server_os":"Linux","password":true,"vac":true,"version":"7961495","steam_id":85568392924742827,"keywords":["cp","nocrits","nodmgspread","uncletopia"],"game_id":440,"stv_port":27076,"stv_name":"Uncletopia | Frankfurt | 7 | Stopwatch | STV","players":null},{"server_id":24,"name":"Uncletopia | Frankfurt | 8 | Community","name_short":"frk-8","host":"frk-1.de.uncletopia.com","port":27085,"enabled":true,"region":"eu","cc":"de","latitude":50.110924,"longitude":8.682127,"reserved":0,"last_update":"0001-01-01T00:00:00Z","name_a2s":"Uncletopia | Frankfurt | 8 | Community","protocol":17,"map":"workshop/koth_kemptown_rc1.ugc767410655","folder":"tf","game":"Team Fortress","app_id":440,"player_count":0,"max_players":24,"Bots":0,"server_type":"Dedicated","server_os":"Linux","password":true,"vac":true,"version":"7961495","steam_id":85568392924742828,"keywords":["cp","nocrits","nodmgspread","uncletopia"],"game_id":440,"stv_port":27086,"stv_name":"Uncletopia | Frankfurt | 8 | Community | STV","players":null},{"server_id":202,"name":"Uncletopia | Hong Kong | 1 | All Maps","name_short":"hgk-1","host":"hgk-1.hk.uncletopia.com","port":27015,"enabled":true,"region":"asia","cc":"hk","latitude":22.302711,"longitude":114.177216,"reserved":0,"last_update":"0001-01-01T00:00:00Z","name_a2s":"Uncletopia | Hong Kong | 1 | All Maps","protocol":17,"map":"koth_viaduct","folder":"tf","game":"Team Fortress","app_id":440,"player_count":0,"max_players":24,"Bots":0,"server_type":"Dedicated","server_os":"Linux","password":true,"vac":true,"version":"7961495","steam_id":85568392924494504,"keywords":["cp","nocrits","nodmgspread","uncletopia"],"game_id":440,"stv_port":27016,"stv_name":"Uncletopia | Hong Kong | 1 | All Maps | STV","players":null},{"server_id":1,"name":"Uncletopia | Los Angeles | 1 | All Maps","name_short":"lax-1","host":"lax-1.us.uncletopia.com","port":27015,"enabled":true,"region":"us-west","cc":"us","latitude":33.94279,"longitude":-118.41004,"reserved":0,"last_update":"0001-01-01T00:00:00Z","name_a2s":"Uncletopia | Los Angeles | 1 | All Maps","protocol":17,"map":"pl_swiftwater_final1","folder":"tf","game":"Team Fortress","app_id":440,"player_count":0,"max_players":24,"Bots":0,"server_type":"Dedicated","server_os":"Linux","password":true,"vac":true,"version":"7961495","steam_id":85568392924469991,"keywords":["nocrits","nodmgspread","payload","uncletopia"],"game_id":440,"stv_port":27016,"stv_name":"Uncletopia | Los Angeles | 1 | All Maps | STV","players":null},{"server_id":112,"name":"Uncletopia | Los Angeles | 2 | All Maps","name_short":"lax-2","host":"lax-1.us.uncletopia.com","port":27025,"enabled":true,"region":"us-west","cc":"us","latitude":33.94279,"longitude":-118.41004,"reserved":0,"last_update":"0001-01-01T00:00:00Z","name_a2s":"Uncletopia | Los Angeles | 2 | All Maps","protocol":17,"map":"pl_pier","folder":"tf","game":"Team Fortress","app_id":440,"player_count":24,"max_players":24,"Bots":0,"server_type":"Dedicated","server_os":"Linux","password":true,"vac":true,"version":"7961495","steam_id":85568392924469992,"keywords":["nocrits","nodmgspread","payload","uncletopia"],"game_id":440,"stv_port":27026,"stv_name":"Uncletopia | Los Angeles | 2 | All Maps | STV","players":[{"user_id":44,"name":"Severeburrito16","steam_id":76561198353155991,"connected_time":937000000000,"state":"active","ping":101},{"user_id":6,"name":"roach","steam_id":76561198354811369,"connected_time":3951000000000,"state":"active","ping":48},{"user_id":8,"name":"Plague Medic","steam_id":76561198035784649,"connected_time":3568000000000,"state":"active","ping":50},{"user_id":39,"name":"CaptainRedbeard","steam_id":76561198058647430,"connected_time":1055000000000,"state":"active","ping":84},{"user_id":11,"name":"usedhalfcart","steam_id":76561198072621852,"connected_time":3082000000000,"state":"active","ping":89},{"user_id":47,"name":"FI LO","steam_id":76561198976530881,"connected_time":787000000000,"state":"active","ping":43},{"user_id":22,"name":"hatsune miku","steam_id":76561199445009981,"connected_time":1784000000000,"state":"active","ping":78},{"user_id":49,"name":"Joe Biden (Deceased)","steam_id":76561198170427507,"connected_time":187000000000,"state":"active","ping":51},{"user_id":41,"name":"MelonLikeAFelon","steam_id":76561198060170336,"connected_time":1030000000000,"state":"active","ping":80},{"user_id":46,"name":"Mint Jelly","steam_id":76561197991286751,"connected_time":794000000000,"state":"active","ping":93},{"user_id":50,"name":"Seven","steam_id":76561198259947055,"connected_time":186000000000,"state":"active","ping":87},{"user_id":21,"name":"Insomniac","steam_id":76561199180653046,"connected_time":1974000000000,"state":"active","ping":163},{"user_id":24,"name":"Brass","steam_id":76561198275581643,"connected_time":1736000000000,"state":"active","ping":88},{"user_id":51,"name":"leumas","steam_id":76561198240408540,"connected_time":166000000000,"state":"active","ping":93},{"user_id":52,"name":"SkooberDoodle","steam_id":76561198828522414,"connected_time":162000000000,"state":"active","ping":104},{"user_id":27,"name":"Lonlily","steam_id":76561198130418647,"connected_time":1659000000000,"state":"active","ping":65},{"user_id":28,"name":"SneekiCheekiQbone","steam_id":76561198045077980,"connected_time":1653000000000,"state":"active","ping":45},{"user_id":42,"name":"mew","steam_id":76561198118644686,"connected_time":1022000000000,"state":"active","ping":51},{"user_id":32,"name":"Skeleop","steam_id":76561198981106464,"connected_time":1514000000000,"state":"active","ping":49},{"user_id":53,"name":"the keebler","steam_id":76561199486326945,"connected_time":129000000000,"state":"active","ping":99},{"user_id":48,"name":"noceof","steam_id":76561198043656816,"connected_time":704000000000,"state":"active","ping":168},{"user_id":35,"name":"waffle","steam_id":76561198077799844,"connected_time":1391000000000,"state":"active","ping":59},{"user_id":36,"name":"oil","steam_id":76561198099980149,"connected_time":1321000000000,"state":"active","ping":49},{"user_id":37,"name":"CometDrg0n_","steam_id":76561198175713051,"connected_time":1202000000000,"state":"active","ping":76}]},{"server_id":324,"name":"Uncletopia | Los Angeles | 3 | All Maps","name_short":"lax-3","host":"lax-1.us.uncletopia.com","port":27035,"enabled":true,"region":"us-west","cc":"us","latitude":33.94279,"longitude":-118.41004,"reserved":0,"last_update":"0001-01-01T00:00:00Z","name_a2s":"Uncletopia | Los Angeles | 3 | All Maps","protocol":17,"map":"pl_frontier_final","folder":"tf","game":"Team Fortress","app_id":440,"player_count":0,"max_players":24,"Bots":0,"server_type":"Dedicated","server_os":"Linux","password":true,"vac":true,"version":"7961495","steam_id":85568392924510198,"keywords":["nocrits","nodmgspread","payload","uncletopia"],"game_id":440,"stv_port":27036,"stv_name":"Uncletopia | Los Angeles | 3 | All Maps | STV","players":null},{"server_id":25,"name":"Uncletopia | Los Angeles | 4 | Stopwatch","name_short":"lax-4","host":"lax-1.us.uncletopia.com","port":27045,"enabled":true,"region":"us-west","cc":"us","latitude":33.94279,"longitude":-118.41004,"reserved":0,"last_update":"0001-01-01T00:00:00Z","name_a2s":"Uncletopia | Los Angeles | 4 | Stopwatch","protocol":17,"map":"cp_snakewater_final1","folder":"tf","game":"Team Fortress","app_id":440,"player_count":0,"max_players":24,"Bots":0,"server_type":"Dedicated","server_os":"Linux","password":true,"vac":true,"version":"7961495","steam_id":85568392924510199,"keywords":["cp","nocrits","nodmgspread","uncletopia"],"game_id":440,"stv_port":27046,"stv_name":"Uncletopia | Los Angeles | 4 | Stopwatch | STV","players":null},{"server_id":11,"name":"Uncletopia | London | 1 | All Maps","name_short":"lon-1","host":"lon-1.uk.uncletopia.com","port":27015,"enabled":true,"region":"eu","cc":"gb","latitude":51.509865,"longitude":-0.118092,"reserved":0,"last_update":"0001-01-01T00:00:00Z","name_a2s":"Uncletopia | London | 1 | All Maps","protocol":17,"map":"pl_upward","folder":"tf","game":"Team Fortress","app_id":440,"player_count":24,"max_players":24,"Bots":0,"server_type":"Dedicated","server_os":"Linux","password":true,"vac":true,"version":"7961495","steam_id":85568392924367362,"keywords":["nocrits","nodmgspread","payload","uncletopia"],"game_id":440,"stv_port":27016,"stv_name":"Uncletopia | London | 1 | All Maps | STV","players":[{"user_id":576,"name":"BEDA","steam_id":76561198277943630,"connected_time":325000000000,"state":"active","ping":73},{"user_id":580,"name":"Gregger","steam_id":76561198179654605,"connected_time":201000000000,"state":"active","ping":44},{"user_id":539,"name":"SpacePig","steam_id":76561198044662873,"connected_time":5608000000000,"state":"active","ping":97},{"user_id":546,"name":"KnugenIV","steam_id":76561198127091993,"connected_time":4835000000000,"state":"active","ping":59},{"user_id":582,"name":"Jude!","steam_id":76561197983597798,"connected_time":77000000000,"state":"active","ping":40},{"user_id":574,"name":"Haschgott 2.0","steam_id":76561198049820307,"connected_time":1333000000000,"state":"active","ping":74},{"user_id":570,"name":"Bumblebee","steam_id":76561198033551105,"connected_time":1410000000000,"state":"active","ping":76},{"user_id":549,"name":"keleos82","steam_id":76561198123916013,"connected_time":4634000000000,"state":"active","ping":68},{"user_id":567,"name":"jermany (not jerma)","steam_id":76561198126599355,"connected_time":2013000000000,"state":"active","ping":61},{"user_id":575,"name":"Mircoxi","steam_id":76561199407632710,"connected_time":328000000000,"state":"active","ping":56},{"user_id":566,"name":"Sinnamonsters","steam_id":76561198423422354,"connected_time":2024000000000,"state":"active","ping":141},{"user_id":536,"name":"trite","steam_id":76561197983765323,"connected_time":5872000000000,"state":"active","ping":52},{"user_id":554,"name":"shooer!","steam_id":76561198110531281,"connected_time":4396000000000,"state":"active","ping":73},{"user_id":578,"name":"odran","steam_id":76561199122931272,"connected_time":301000000000,"state":"active","ping":56},{"user_id":577,"name":"dec","steam_id":76561198009660168,"connected_time":325000000000,"state":"active","ping":59},{"user_id":552,"name":"Sherlock Bond","steam_id":76561198042045955,"connected_time":4427000000000,"state":"active","ping":46},{"user_id":568,"name":"BreadBubbles","steam_id":76561198174332826,"connected_time":1473000000000,"state":"active","ping":60},{"user_id":581,"name":"nappo","steam_id":76561198060105180,"connected_time":196000000000,"state":"active","ping":79},{"user_id":565,"name":"Judicator Slifer","steam_id":76561198062255803,"connected_time":2032000000000,"state":"active","ping":74},{"user_id":553,"name":"Baba Sraka","steam_id":76561198128292318,"connected_time":4421000000000,"state":"active","ping":131},{"user_id":571,"name":"mcmurrayjack998","steam_id":76561199235624366,"connected_time":1393000000000,"state":"active","ping":153},{"user_id":579,"name":"DECEARING EGG","steam_id":76561198062934599,"connected_time":281000000000,"state":"active","ping":54},{"user_id":562,"name":"‚∏∏aura‚∏∏","steam_id":76561198066258544,"connected_time":2331000000000,"state":"active","ping":63},{"user_id":544,"name":"Purps","steam_id":76561198053886680,"connected_time":5034000000000,"state":"active","ping":47}]},{"server_id":114,"name":"Uncletopia | London | 2 | All Maps","name_short":"lon-2","host":"lon-1.uk.uncletopia.com","port":27025,"enabled":true,"region":"eu","cc":"gb","latitude":51.509865,"longitude":-0.118092,"reserved":0,"last_update":"0001-01-01T00:00:00Z","name_a2s":"Uncletopia | London | 2 | All Maps","protocol":17,"map":"pl_pier","folder":"tf","game":"Team Fortress","app_id":440,"player_count":24,"max_players":24,"Bots":0,"server_type":"Dedicated","server_os":"Linux","password":true,"vac":true,"version":"7961495","steam_id":85568392924470941,"keywords":["nocrits","nodmgspread","payload","uncletopia"],"game_id":440,"stv_port":27026,"stv_name":"Uncletopia | London | 2 | All Maps | STV","players":[{"user_id":749,"name":"Dƒ´ng.Zh√®n1996","steam_id":76561198152681460,"connected_time":1300000000000,"state":"active","ping":77},{"user_id":778,"name":"Hexakosioihexekontahexaphobia","steam_id":76561198070805240,"connected_time":178000000000,"state":"active","ping":98},{"user_id":779,"name":"Tywhip","steam_id":76561199207545191,"connected_time":175000000000,"state":"active","ping":57},{"user_id":737,"name":"Dewotter","steam_id":76561198007653168,"connected_time":2277000000000,"state":"active","ping":60},{"user_id":745,"name":"lillunya ‚ô°","steam_id":76561198330418866,"connected_time":1519000000000,"state":"active","ping":68},{"user_id":701,"name":"s a i","steam_id":76561197970379754,"connected_time":4306000000000,"state":"active","ping":63},{"user_id":756,"name":"finbar","steam_id":76561198056812396,"connected_time":1057000000000,"state":"active","ping":74},{"user_id":732,"name":"zayd","steam_id":76561198895235231,"connected_time":2551000000000,"state":"active","ping":58},{"user_id":706,"name":"Be_kind","steam_id":76561198053996691,"connected_time":3454000000000,"state":"active","ping":105},{"user_id":752,"name":"SirToast","steam_id":76561199229729107,"connected_time":1183000000000,"state":"active","ping":76},{"user_id":765,"name":"Teetsi","steam_id":76561198072027352,"connected_time":574000000000,"state":"active","ping":58},{"user_id":758,"name":"MovingIsOverRated","steam_id":76561198385633292,"connected_time":1002000000000,"state":"active","ping":97},{"user_id":763,"name":"Valkry","steam_id":76561198083425408,"connected_time":604000000000,"state":"active","ping":45},{"user_id":760,"name":"DottorPuce","steam_id":76561198070413248,"connected_time":868000000000,"state":"active","ping":74},{"user_id":715,"name":"Mastenbier","steam_id":76561199067658590,"connected_time":3222000000000,"state":"active","ping":134},{"user_id":777,"name":"hawkblob","steam_id":76561198803720565,"connected_time":272000000000,"state":"active","ping":84},{"user_id":767,"name":"[WPF] I Bleed Butter","steam_id":76561198130814770,"connected_time":540000000000,"state":"active","ping":61},{"user_id":755,"name":"Buford","steam_id":76561198129828715,"connected_time":1095000000000,"state":"active","ping":66},{"user_id":748,"name":"Metalizer","steam_id":76561198099595082,"connected_time":1313000000000,"state":"active","ping":75},{"user_id":768,"name":"Dis1Scrub","steam_id":76561199124334044,"connected_time":512000000000,"state":"active","ping":60},{"user_id":773,"name":"Glad","steam_id":76561198093397695,"connected_time":417000000000,"state":"active","ping":88},{"user_id":685,"name":"MangoL","steam_id":76561199169391713,"connected_time":5529000000000,"state":"active","ping":90},{"user_id":739,"name":"spy's arent real","steam_id":76561198165871469,"connected_time":2058000000000,"state":"active","ping":76},{"user_id":774,"name":"Yun Sung-Bin","steam_id":76561198113455777,"connected_time":415000000000,"state":"active","ping":61}]},{"server_id":320,"name":"Uncletopia | London | 3 | All Maps","name_short":"lon-3","host":"lon-1.uk.uncletopia.com","port":27035,"enabled":true,"region":"eu","cc":"gb","latitude":51.509865,"longitude":-0.118092,"reserved":0,"last_update":"0001-01-01T00:00:00Z","name_a2s":"Uncletopia | London | 3 | All Maps","protocol":17,"map":"pl_frontier_final","folder":"tf","game":"Team Fortress","app_id":440,"player_count":24,"max_players":24,"Bots":0,"server_type":"Dedicated","server_os":"Linux","password":true,"vac":true,"version":"7961495","steam_id":85568392924510192,"keywords":["nocrits","nodmgspread","payload","uncletopia"],"game_id":440,"stv_port":27036,"stv_name":"Uncletopia | London | 3 | All Maps | STV","players":[{"user_id":541,"name":"Implywood (they/them)","steam_id":76561198096762648,"connected_time":1025000000000,"state":"active","ping":50},{"user_id":534,"name":"OrangeBanana","steam_id":76561199230233875,"connected_time":1350000000000,"state":"active","ping":54},{"user_id":542,"name":"TendedKibbles0","steam_id":76561198320304516,"connected_time":967000000000,"state":"active","ping":137},{"user_id":543,"name":"Dr. Funkenstein","steam_id":76561197977816210,"connected_time":953000000000,"state":"active","ping":62},{"user_id":560,"name":"stormerzz","steam_id":76561198058030238,"connected_time":679000000000,"state":"active","ping":46},{"user_id":545,"name":"Marshmellow :3 (she/her)","steam_id":76561199102005549,"connected_time":935000000000,"state":"active","ping":67},{"user_id":546,"name":"ant753","steam_id":76561198103458889,"connected_time":926000000000,"state":"active","ping":68},{"user_id":332,"name":"yuno appreciator","steam_id":76561198083286511,"connected_time":13358000000000,"state":"active","ping":35},{"user_id":566,"name":"deeazz","steam_id":76561199401283123,"connected_time":13000000000,"state":"active","ping":48},{"user_id":548,"name":"Ducobu 3 for Nintendo Wii NOW","steam_id":76561198056221804,"connected_time":903000000000,"state":"active","ping":55},{"user_id":565,"name":"Nickbro101","steam_id":76561198044271692,"connected_time":55000000000,"state":"active","ping":50},{"user_id":533,"name":"Ziltoid","steam_id":76561198020753675,"connected_time":1414000000000,"state":"active","ping":71},{"user_id":561,"name":"Noob_with_source","steam_id":76561198870362103,"connected_time":473000000000,"state":"active","ping":58},{"user_id":567,"name":"Dill Killem","steam_id":76561199071571354,"connected_time":11000000000,"state":"active","ping":81},{"user_id":559,"name":"Ben Shapiro Gaming","steam_id":76561198004196048,"connected_time":726000000000,"state":"active","ping":161},{"user_id":527,"name":"pajasafr","steam_id":76561198114268509,"connected_time":1824000000000,"state":"active","ping":63},{"user_id":551,"name":"guru{Hari}","steam_id":76561197997001681,"connected_time":846000000000,"state":"active","ping":76},{"user_id":552,"name":"ma","steam_id":76561198055745563,"connected_time":822000000000,"state":"spawning","ping":62},{"user_id":553,"name":"Ë∑ØÊòìÂêâ Luigi ÂÖÑÂºüË∑ØÊòìÂêâ","steam_id":76561198890131398,"connected_time":808000000000,"state":"active","ping":58},{"user_id":554,"name":"Definitely J.P. Morgan","steam_id":76561199122376235,"connected_time":794000000000,"state":"active","ping":168},{"user_id":557,"name":"hud_saytext_time 0","steam_id":76561198010327228,"connected_time":761000000000,"state":"active","ping":67},{"user_id":558,"name":"shadye6363","steam_id":76561199232803221,"connected_time":760000000000,"state":"active","ping":73},{"user_id":564,"name":"CRANK","steam_id":76561198188720263,"connected_time":154000000000,"state":"active","ping":62},{"user_id":497,"name":"hyvakii705","steam_id":76561198086630552,"connected_time":4456000000000,"state":"active","ping":77}]},{"server_id":321,"name":"Uncletopia | London | 4 | All Maps","name_short":"lon-4","host":"lon-1.uk.uncletopia.com","port":27045,"enabled":true,"region":"eu","cc":"gb","latitude":51.509865,"longitude":-0.118092,"reserved":0,"last_update":"0001-01-01T00:00:00Z","name_a2s":"Uncletopia | London | 4 | All Maps","protocol":17,"map":"cp_snakewater_final1","folder":"tf","game":"Team Fortress","app_id":440,"player_count":24,"max_players":24,"Bots":0,"server_type":"Dedicated","server_os":"Linux","password":true,"vac":true,"version":"7961495","steam_id":85568392924510193,"keywords":["cp","nocrits","nodmgspread","uncletopia"],"game_id":440,"stv_port":27046,"stv_name":"Uncletopia | London | 4 | All Maps | STV","players":[{"user_id":498,"name":"MensRightsActivist","steam_id":76561199482149729,"connected_time":25000000000,"state":"spawning","ping":1586},{"user_id":497,"name":"Tickleshits","steam_id":76561198159197241,"connected_time":122000000000,"state":"active","ping":48},{"user_id":469,"name":"LEGEND FUMO.","steam_id":76561198061033903,"connected_time":1377000000000,"state":"active","ping":54},{"user_id":443,"name":"Ullr","steam_id":76561198140547483,"connected_time":3647000000000,"state":"active","ping":45},{"user_id":492,"name":"SneakySneaker","steam_id":76561198027302478,"connected_time":267000000000,"state":"active","ping":59},{"user_id":454,"name":"Bobirulez","steam_id":76561198009125458,"connected_time":3007000000000,"state":"active","ping":75},{"user_id":457,"name":"Udinese Dion","steam_id":76561198067931573,"connected_time":2532000000000,"state":"active","ping":57},{"user_id":476,"name":"Baron","steam_id":76561198021901783,"connected_time":653000000000,"state":"active","ping":55},{"user_id":480,"name":"Nithle","steam_id":76561198025372740,"connected_time":523000000000,"state":"active","ping":30},{"user_id":483,"name":"Rock..","steam_id":76561198004641963,"connected_time":441000000000,"state":"active","ping":81},{"user_id":479,"name":"Teecho","steam_id":76561197995269610,"connected_time":613000000000,"state":"active","ping":57},{"user_id":447,"name":"ANABOLIC HAMPSTER 2009","steam_id":76561198163081194,"connected_time":3528000000000,"state":"active","ping":45},{"user_id":485,"name":"stephenshields2020","steam_id":76561199063375137,"connected_time":413000000000,"state":"active","ping":68},{"user_id":452,"name":"agent youppii","steam_id":76561198055264447,"connected_time":3284000000000,"state":"active","ping":60},{"user_id":448,"name":"choob303","steam_id":76561198206375860,"connected_time":3494000000000,"state":"active","ping":54},{"user_id":453,"name":"xavier","steam_id":76561198076494034,"connected_time":3166000000000,"state":"active","ping":50},{"user_id":486,"name":"rets_","steam_id":76561198061551392,"connected_time":410000000000,"state":"active","ping":48},{"user_id":487,"name":"Economic crisis","steam_id":76561198063562843,"connected_time":398000000000,"state":"active","ping":73},{"user_id":493,"name":"AmadStatistician","steam_id":76561198163654770,"connected_time":262000000000,"state":"active","ping":66},{"user_id":436,"name":"ASSEMBLE FROYO BROS","steam_id":76561198116223995,"connected_time":4260000000000,"state":"active","ping":56},{"user_id":494,"name":"WAEEEJ","steam_id":76561198135626480,"connected_time":260000000000,"state":"active","ping":43},{"user_id":490,"name":"Horo","steam_id":76561198009504508,"connected_time":365000000000,"state":"active","ping":60},{"user_id":495,"name":"scramble","steam_id":76561197980736364,"connected_time":256000000000,"state":"active","ping":85},{"user_id":496,"name":"Conan","steam_id":76561198158321202,"connected_time":241000000000,"state":"active","ping":57}]},{"server_id":21,"name":"Uncletopia | London | 5 | All Maps","name_short":"lon-5","host":"lon-1.uk.uncletopia.com","port":27055,"enabled":true,"region":"eu","cc":"gb","latitude":51.509865,"longitude":-0.118092,"reserved":0,"last_update":"0001-01-01T00:00:00Z","name_a2s":"Uncletopia | London | 5 | All Maps","protocol":17,"map":"pl_barnblitz","folder":"tf","game":"Team Fortress","app_id":440,"player_count":17,"max_players":24,"Bots":0,"server_type":"Dedicated","server_os":"Linux","password":true,"vac":true,"version":"7961495","steam_id":85568392924742829,"keywords":["nocrits","nodmgspread","payload","uncletopia"],"game_id":440,"stv_port":27056,"stv_name":"Uncletopia | London | 5 | All Maps | STV","players":[{"user_id":458,"name":"Pyrolander","steam_id":76561198050785450,"connected_time":132000000000,"state":"active","ping":47},{"user_id":452,"name":"Snokie Boi","steam_id":76561198081126247,"connected_time":641000000000,"state":"active","ping":39},{"user_id":419,"name":"raebbitos","steam_id":76561198167580006,"connected_time":1563000000000,"state":"active","ping":55},{"user_id":445,"name":"Sixten the Pale","steam_id":76561197981806008,"connected_time":1098000000000,"state":"active","ping":68},{"user_id":418,"name":"‚ò†Holy(cz)‚ò†","steam_id":76561197985535494,"connected_time":1644000000000,"state":"active","ping":81},{"user_id":356,"name":"Summer ‚ô•","steam_id":76561198047723907,"connected_time":3665000000000,"state":"active","ping":24},{"user_id":451,"name":"haraldÔº®Ôº°Ôº≤Ôº°Ôº¨Ôº§","steam_id":76561198116998970,"connected_time":670000000000,"state":"active","ping":71},{"user_id":424,"name":"BELADIT","steam_id":76561198011911501,"connected_time":1523000000000,"state":"active","ping":81},{"user_id":304,"name":"ScampSixteen","steam_id":76561198021771000,"connected_time":6708000000000,"state":"active","ping":44},{"user_id":459,"name":"H-say","steam_id":76561198177400362,"connected_time":91000000000,"state":"active","ping":93},{"user_id":447,"name":"gagalak","steam_id":76561198089979108,"connected_time":879000000000,"state":"active","ping":104},{"user_id":412,"name":"clock tower","steam_id":76561199394371317,"connected_time":2049000000000,"state":"active","ping":70},{"user_id":333,"name":"powej","steam_id":76561198056381418,"connected_time":4595000000000,"state":"active","ping":30},{"user_id":453,"name":"Sybelle","steam_id":76561198219839811,"connected_time":639000000000,"state":"active","ping":83},{"user_id":351,"name":"Doc_Yokai","steam_id":76561199104590330,"connected_time":4014000000000,"state":"active","ping":65},{"user_id":388,"name":"Asfedia","steam_id":76561199386836351,"connected_time":2863000000000,"state":"active","ping":58},{"user_id":456,"name":"LiterallyRyanGosling","steam_id":76561199017856691,"connected_time":598000000000,"state":"active","ping":54}]},{"server_id":22,"name":"Uncletopia | London | 6 | All Maps","name_short":"lon-6","host":"lon-1.uk.uncletopia.com","port":27065,"enabled":true,"region":"eu","cc":"gb","latitude":51.509865,"longitude":-0.118092,"reserved":0,"last_update":"0001-01-01T00:00:00Z","name_a2s":"Uncletopia | London | 6 | All Maps","protocol":17,"map":"cp_freight_final1","folder":"tf","game":"Team Fortress","app_id":440,"player_count":13,"max_players":24,"Bots":0,"server_type":"Dedicated","server_os":"Linux","password":true,"vac":true,"version":"7961495","steam_id":85568392924742830,"keywords":["cp","nocrits","nodmgspread","uncletopia"],"game_id":440,"stv_port":27066,"stv_name":"Uncletopia | London | 6 | All Maps | STV","players":[{"user_id":272,"name":"–ì—Ä–∏–±–Ω–∏–∫","steam_id":76561198978262040,"connected_time":663000000000,"state":"active","ping":86},{"user_id":276,"name":"Daan77","steam_id":76561198129940468,"connected_time":520000000000,"state":"active","ping":70},{"user_id":274,"name":"Compact","steam_id":76561198995253046,"connected_time":599000000000,"state":"active","ping":54},{"user_id":279,"name":"elmstJP ‚Ç™ F4.exe","steam_id":76561197997909480,"connected_time":299000000000,"state":"active","ping":77},{"user_id":277,"name":"Yobopan","steam_id":76561198088064860,"connected_time":492000000000,"state":"active","ping":61},{"user_id":281,"name":"Polimm","steam_id":76561198136992316,"connected_time":137000000000,"state":"active","ping":53},{"user_id":280,"name":"Hann√º","steam_id":76561197969886128,"connected_time":209000000000,"state":"active","ping":57},{"user_id":283,"name":"Stalin","steam_id":76561199221478774,"connected_time":62000000000,"state":"active","ping":104},{"user_id":284,"name":"Indomitable Truck-sama","steam_id":76561198826861582,"connected_time":55000000000,"state":"active","ping":53},{"user_id":203,"name":"F4.exe","steam_id":76561198278822807,"connected_time":5769000000000,"state":"active","ping":67},{"user_id":285,"name":"ThatJoJoGuy","steam_id":76561199208152141,"connected_time":47000000000,"state":"spawning","ping":54},{"user_id":286,"name":"Balls","steam_id":76561198086400484,"connected_time":0,"state":"spawning","ping":22},{"user_id":197,"name":"toomas2018(real)(official)","steam_id":76561199105796083,"connected_time":6182000000000,"state":"active","ping":76}]},{"server_id":40,"name":"Uncletopia | London | 7 | Stopwatch","name_short":"lon-7","host":"lon-1.uk.uncletopia.com","port":27075,"enabled":true,"region":"eu","cc":"gb","latitude":51.509865,"longitude":-0.118092,"reserved":0,"last_update":"0001-01-01T00:00:00Z","name_a2s":"Uncletopia | London | 7 | Stopwatch","protocol":17,"map":"workshop/koth_product_final.ugc454272353","folder":"tf","game":"Team Fortress","app_id":440,"player_count":2,"max_players":24,"Bots":0,"server_type":"Dedicated","server_os":"Linux","password":true,"vac":true,"version":"7961495","steam_id":85568392924964314,"keywords":["cp","nocrits","nodmgspread","uncletopia"],"game_id":440,"stv_port":27076,"stv_name":"Uncletopia | London | 7 | Stopwatch | STV","players":[{"user_id":17,"name":"plep","steam_id":76561198041463901,"connected_time":211000000000,"state":"active","ping":42},{"user_id":13,"name":"varhah","steam_id":76561198046277176,"connected_time":748000000000,"state":"active","ping":137}]},{"server_id":41,"name":"Uncletopia | London | 8 | Community","name_short":"lon-8","host":"lon-1.uk.uncletopia.com","port":27085,"enabled":true,"region":"eu","cc":"gb","latitude":51.509865,"longitude":-0.118092,"reserved":0,"last_update":"0001-01-01T00:00:00Z","name_a2s":"Uncletopia | London | 8 | Community","protocol":17,"map":"workshop/koth_trenchfoot_b1a.ugc731436616","folder":"tf","game":"Team Fortress","app_id":440,"player_count":0,"max_players":24,"Bots":0,"server_type":"Dedicated","server_os":"Linux","password":true,"vac":true,"version":"7961495","steam_id":85568392924964315,"keywords":["cp","nocrits","nodmgspread","uncletopia"],"game_id":440,"stv_port":27086,"stv_name":"Uncletopia | London | 8 | Community | STV","players":null},{"server_id":300,"name":"Uncletopia | Montr√©al | 1 | One Thousand Uncles","name_short":"mtl-1","host":"mtl-1.ca.uncletopia.com","port":27015,"enabled":true,"region":"us-east","cc":"ca","latitude":45.50889,"longitude":-73.56167,"reserved":0,"last_update":"0001-01-01T00:00:00Z","name_a2s":"","protocol":0,"map":"","folder":"","game":"","app_id":0,"player_count":4,"max_players":0,"Bots":0,"server_type":"","server_os":"","password":false,"vac":false,"version":"","steam_id":0,"keywords":null,"game_id":0,"stv_port":0,"stv_name":"","players":[{"user_id":136,"name":"Jerphf","steam_id":76561198328825964,"connected_time":597000000000,"state":"active","ping":66},{"user_id":133,"name":"Beauregard","steam_id":76561197975136040,"connected_time":2169000000000,"state":"active","ping":105},{"user_id":134,"name":"LightBulbGlue #SaveTF2","steam_id":76561198329573529,"connected_time":2143000000000,"state":"active","ping":71},{"user_id":137,"name":"Watong","steam_id":76561199074388745,"connected_time":72000000000,"state":"active","ping":138}]},{"server_id":301,"name":"Uncletopia | Montr√©al | 2 | One Thousand Uncles","name_short":"mtl-2","host":"mtl-1.ca.uncletopia.com","port":27025,"enabled":true,"region":"us-east","cc":"ca","latitude":45.50889,"longitude":-73.56167,"reserved":0,"last_update":"0001-01-01T00:00:00Z","name_a2s":"","protocol":0,"map":"","folder":"","game":"","app_id":0,"player_count":1,"max_players":0,"Bots":0,"server_type":"","server_os":"","password":false,"vac":false,"version":"","steam_id":0,"keywords":null,"game_id":0,"stv_port":0,"stv_name":"","players":[{"user_id":56,"name":"BIGGEST MAC","steam_id":76561198847517098,"connected_time":786000000000,"state":"active","ping":73}]},{"server_id":302,"name":"Uncletopia | Montr√©al | 3 | One Thousand Uncles","name_short":"mtl-3","host":"mtl-1.ca.uncletopia.com","port":27035,"enabled":true,"region":"us-east","cc":"ca","latitude":45.50889,"longitude":-73.56167,"reserved":0,"last_update":"0001-01-01T00:00:00Z","name_a2s":"","protocol":0,"map":"","folder":"","game":"","app_id":0,"player_count":0,"max_players":0,"Bots":0,"server_type":"","server_os":"","password":false,"vac":false,"version":"","steam_id":0,"keywords":null,"game_id":0,"stv_port":0,"stv_name":"","players":null},{"server_id":13,"name":"Uncletopia | New York City | 1 | All Maps","name_short":"nyc-1","host":"nyc-1.us.uncletopia.com","port":27015,"enabled":true,"region":"us-east","cc":"us","latitude":40.73061,"longitude":-73.93524,"reserved":0,"last_update":"0001-01-01T00:00:00Z","name_a2s":"Uncletopia | New York City | 1 | All Maps","protocol":17,"map":"pl_snowycoast","folder":"tf","game":"Team Fortress","app_id":440,"player_count":24,"max_players":24,"Bots":0,"server_type":"Dedicated","server_os":"Linux","password":true,"vac":true,"version":"7961495","steam_id":85568392924469993,"keywords":["nocrits","nodmgspread","payload","uncletopia"],"game_id":440,"stv_port":27016,"stv_name":"Uncletopia | New York City | 1 | All Maps | STV","players":[{"user_id":99,"name":"chum (she.her)","steam_id":76561197974924583,"connected_time":434000000000,"state":"active","ping":55},{"user_id":87,"name":"Zanartan","steam_id":76561198050528902,"connected_time":1194000000000,"state":"active","ping":171},{"user_id":38,"name":"Cyberpunk McDonald's Play Place","steam_id":76561198063512035,"connected_time":5084000000000,"state":"active","ping":60},{"user_id":70,"name":"Anxiety.mov","steam_id":76561198028145216,"connected_time":3012000000000,"state":"active","ping":31},{"user_id":88,"name":"TheSantaStalker","steam_id":76561198044411734,"connected_time":1181000000000,"state":"active","ping":128},{"user_id":92,"name":"dirty dank","steam_id":76561198360904432,"connected_time":1098000000000,"state":"active","ping":60},{"user_id":84,"name":"FAKE TAXI PRANKS","steam_id":76561198136746987,"connected_time":1638000000000,"state":"active","ping":80},{"user_id":98,"name":"ÓÑë Mistah Static ÓÑë","steam_id":76561198039275341,"connected_time":627000000000,"state":"active","ping":58},{"user_id":83,"name":"Orange Triangle","steam_id":76561198320498182,"connected_time":1830000000000,"state":"active","ping":85},{"user_id":40,"name":"nothere","steam_id":76561198341624641,"connected_time":5048000000000,"state":"active","ping":74},{"user_id":90,"name":"StupidSexyFlanders","steam_id":76561198029760463,"connected_time":1120000000000,"state":"active","ping":76},{"user_id":73,"name":"Judge Judy and executioner","steam_id":76561198015235881,"connected_time":2889000000000,"state":"active","ping":52},{"user_id":78,"name":"Napoleon Dynamite","steam_id":76561198068064706,"connected_time":2529000000000,"state":"active","ping":44},{"user_id":91,"name":"Gardyloo_","steam_id":76561198353424759,"connected_time":1114000000000,"state":"active","ping":55},{"user_id":36,"name":"MrEdman4","steam_id":76561198062233923,"connected_time":5154000000000,"state":"active","ping":46},{"user_id":77,"name":"Kzgamer","steam_id":76561198809770239,"connected_time":2545000000000,"state":"active","ping":53},{"user_id":101,"name":"Novu","steam_id":76561198886997024,"connected_time":124000000000,"state":"active","ping":73},{"user_id":76,"name":"Wet Crayons","steam_id":76561198079851392,"connected_time":2793000000000,"state":"active","ping":68},{"user_id":94,"name":"The jesus guy (FRNK)","steam_id":76561198237997622,"connected_time":1079000000000,"state":"active","ping":165},{"user_id":95,"name":"-Greasy Goblin-","steam_id":76561198956977812,"connected_time":1059000000000,"state":"active","ping":73},{"user_id":97,"name":"chill guy","steam_id":76561198322479866,"connected_time":683000000000,"state":"active","ping":42},{"user_id":85,"name":"rivera","steam_id":76561198051058706,"connected_time":1511000000000,"state":"active","ping":45},{"user_id":96,"name":"Zawg","steam_id":76561198346423306,"connected_time":1021000000000,"state":"active","ping":71},{"user_id":100,"name":"The Guy","steam_id":76561198799183693,"connected_time":431000000000,"state":"active","ping":92}]},{"server_id":14,"name":"Uncletopia | New York City | 2 | All Maps","name_short":"nyc-2","host":"nyc-1.us.uncletopia.com","port":27025,"enabled":true,"region":"us-east","cc":"us","latitude":40.73061,"longitude":-73.93524,"reserved":0,"last_update":"0001-01-01T00:00:00Z","name_a2s":"Uncletopia | New York City | 2 | All Maps","protocol":17,"map":"koth_lakeside_final","folder":"tf","game":"Team Fortress","app_id":440,"player_count":0,"max_players":24,"Bots":0,"server_type":"Dedicated","server_os":"Linux","password":true,"vac":true,"version":"7961495","steam_id":85568392924469994,"keywords":["cp","nocrits","nodmgspread","uncletopia"],"game_id":440,"stv_port":27026,"stv_name":"Uncletopia | New York City | 2 | All Maps | STV","players":null},{"server_id":15,"name":"Uncletopia | New York City | 3 | Stopwatch","name_short":"nyc-3","host":"nyc-1.us.uncletopia.com","port":27035,"enabled":true,"region":"us-east","cc":"us","latitude":40.73061,"longitude":-73.93524,"reserved":0,"last_update":"0001-01-01T00:00:00Z","name_a2s":"Uncletopia | New York City | 3 | Stopwatch","protocol":17,"map":"pl_snowycoast","folder":"tf","game":"Team Fortress","app_id":440,"player_count":0,"max_players":24,"Bots":0,"server_type":"Dedicated","server_os":"Linux","password":true,"vac":true,"version":"7961495","steam_id":85568392924742820,"keywords":["nocrits","nodmgspread","payload","uncletopia"],"game_id":440,"stv_port":27036,"stv_name":"Uncletopia | New York City | 3 | Stopwatch | STV","players":null},{"server_id":16,"name":"Uncletopia | New York City | 4 | Community","name_short":"nyc-4","host":"nyc-1.us.uncletopia.com","port":27045,"enabled":true,"region":"us-east","cc":"us","latitude":40.73061,"longitude":-73.93524,"reserved":0,"last_update":"0001-01-01T00:00:00Z","name_a2s":"Uncletopia | New York City | 4 | Community","protocol":17,"map":"cp_altitude","folder":"tf","game":"Team Fortress","app_id":440,"player_count":0,"max_players":24,"Bots":0,"server_type":"Dedicated","server_os":"Linux","password":true,"vac":true,"version":"7961495","steam_id":85568392924742821,"keywords":["cp","nocrits","nodmgspread","uncletopia"],"game_id":440,"stv_port":27046,"stv_name":"Uncletopia | New York City | 4 | Community | STV","players":null},{"server_id":142,"name":"Uncletopia | S√£o Paulo | 1 | All Maps","name_short":"sao-1","host":"sao-1.br.uncletopia.com","port":27015,"enabled":true,"region":"sa","cc":"br","latitude":-23.533773,"longitude":-46.62529,"reserved":0,"last_update":"0001-01-01T00:00:00Z","name_a2s":"Uncletopia | S√£o Paulo | 1 | All Maps","protocol":17,"map":"pl_upward","folder":"tf","game":"Team Fortress","app_id":440,"player_count":0,"max_players":24,"Bots":0,"server_type":"Dedicated","server_os":"Linux","password":true,"vac":true,"version":"7961495","steam_id":85568392924469996,"keywords":["nocrits","nodmgspread","payload","uncletopia"],"game_id":440,"stv_port":27016,"stv_name":"Uncletopia | S√£o Paulo | 1 | All Maps | STV","players":null},{"server_id":143,"name":"Uncletopia | S√£o Paulo | 2 | Community","name_short":"sao-2","host":"sao-2.br.uncletopia.com","port":27015,"enabled":true,"region":"sa","cc":"br","latitude":-23.533773,"longitude":-46.62529,"reserved":0,"last_update":"0001-01-01T00:00:00Z","name_a2s":"Uncletopia | S√£o Paulo | 2 | Community","protocol":17,"map":"pl_badwater","folder":"tf","game":"Team Fortress","app_id":440,"player_count":0,"max_players":24,"Bots":0,"server_type":"Dedicated","server_os":"Linux","password":true,"vac":true,"version":"7961495","steam_id":85568392924485349,"keywords":["nocrits","nodmgspread","payload","uncletopia"],"game_id":440,"stv_port":27016,"stv_name":"Uncletopia | S√£o Paulo | 2 | Community | STV","players":null},{"server_id":7,"name":"Uncletopia | Seattle | 1 | All Maps","name_short":"sea-1","host":"sea-1.us.uncletopia.com","port":27015,"enabled":true,"region":"us-west","cc":"us","latitude":47.608013,"longitude":-122.33517,"reserved":0,"last_update":"0001-01-01T00:00:00Z","name_a2s":"Uncletopia | Seattle | 1 | All Maps","protocol":17,"map":"pl_snowycoast","folder":"tf","game":"Team Fortress","app_id":440,"player_count":24,"max_players":24,"Bots":0,"server_type":"Dedicated","server_os":"Linux","password":true,"vac":true,"version":"7961495","steam_id":85568392924469997,"keywords":["nocrits","nodmgspread","payload","uncletopia"],"game_id":440,"stv_port":27016,"stv_name":"Uncletopia | Seattle | 1 | All Maps | STV","players":[{"user_id":230,"name":"Donkski","steam_id":76561198406895347,"connected_time":2492000000000,"state":"active","ping":71},{"user_id":248,"name":"Nom Skirrett","steam_id":76561198014600788,"connected_time":1454000000000,"state":"active","ping":62},{"user_id":219,"name":"no vc no c","steam_id":76561197989503095,"connected_time":3425000000000,"state":"active","ping":152},{"user_id":256,"name":"Jebecky","steam_id":76561198093727162,"connected_time":633000000000,"state":"active","ping":132},{"user_id":231,"name":"tr","steam_id":76561198046944222,"connected_time":2261000000000,"state":"active","ping":45},{"user_id":221,"name":"Zetta","steam_id":76561198045710113,"connected_time":3267000000000,"state":"active","ping":89},{"user_id":243,"name":"Dog","steam_id":76561198041841128,"connected_time":1775000000000,"state":"active","ping":76},{"user_id":260,"name":"Saturnalien","steam_id":76561198057056295,"connected_time":605000000000,"state":"active","ping":107},{"user_id":257,"name":"MrYadaization","steam_id":76561198050770818,"connected_time":633000000000,"state":"active","ping":56},{"user_id":252,"name":"ed","steam_id":76561198080475712,"connected_time":924000000000,"state":"active","ping":75},{"user_id":254,"name":"slushy :))","steam_id":76561198135281802,"connected_time":646000000000,"state":"active","ping":32},{"user_id":226,"name":"jacix3 [silly doggie :3]","steam_id":76561198205004165,"connected_time":2657000000000,"state":"active","ping":57},{"user_id":218,"name":"F2P","steam_id":76561198199217834,"connected_time":3611000000000,"state":"active","ping":77},{"user_id":261,"name":"Sicko Mode (Chris Pratt Cover)","steam_id":76561198315786174,"connected_time":599000000000,"state":"active","ping":114},{"user_id":258,"name":"dree says relax!","steam_id":76561198079178866,"connected_time":626000000000,"state":"active","ping":121},{"user_id":255,"name":"smeasly","steam_id":76561198028718812,"connected_time":638000000000,"state":"active","ping":44},{"user_id":229,"name":"Lily Thorn","steam_id":76561198305488625,"connected_time":2546000000000,"state":"active","ping":77},{"user_id":265,"name":"Spam The Alien","steam_id":76561199122290968,"connected_time":198000000000,"state":"active","ping":78},{"user_id":182,"name":"banana","steam_id":76561198306393090,"connected_time":6390000000000,"state":"active","ping":90},{"user_id":195,"name":"SwearWord","steam_id":76561199131184237,"connected_time":5217000000000,"state":"active","ping":63},{"user_id":233,"name":"T√ºCold","steam_id":76561198111278197,"connected_time":2123000000000,"state":"active","ping":46},{"user_id":266,"name":"Keamy","steam_id":76561199471434875,"connected_time":195000000000,"state":"active","ping":45},{"user_id":247,"name":"Daz","steam_id":76561198041431938,"connected_time":1462000000000,"state":"active","ping":52},{"user_id":213,"name":"Pneumo.","steam_id":76561197987911883,"connected_time":3696000000000,"state":"active","ping":59}]},{"server_id":119,"name":"Uncletopia | Seattle | 2 | All Maps","name_short":"sea-2","host":"sea-1.us.uncletopia.com","port":27025,"enabled":true,"region":"us-west","cc":"us","latitude":47.608013,"longitude":-122.33517,"reserved":0,"last_update":"0001-01-01T00:00:00Z","name_a2s":"Uncletopia | Seattle | 2 | All Maps","protocol":17,"map":"koth_cascade","folder":"tf","game":"Team Fortress","app_id":440,"player_count":5,"max_players":24,"Bots":0,"server_type":"Dedicated","server_os":"Linux","password":true,"vac":true,"version":"7961495","steam_id":85568392924469998,"keywords":["cp","nocrits","nodmgspread","uncletopia"],"game_id":440,"stv_port":27026,"stv_name":"Uncletopia | Seattle | 2 | All Maps | STV","players":[{"user_id":11,"name":"Spicy Chicken","steam_id":76561198074209737,"connected_time":935000000000,"state":"active","ping":90},{"user_id":15,"name":"Jade Greenleaf","steam_id":76561198304845413,"connected_time":620000000000,"state":"active","ping":113},{"user_id":13,"name":"Lazy Broadcasts","steam_id":76561198132871394,"connected_time":793000000000,"state":"active","ping":54},{"user_id":16,"name":"Goose","steam_id":76561198036774894,"connected_time":537000000000,"state":"active","ping":34},{"user_id":17,"name":"wmjledger","steam_id":76561198443046861,"connected_time":246000000000,"state":"active","ping":42}]},{"server_id":406,"name":"Uncletopia | Seattle | 3 | Stopwatch","name_short":"sea-3","host":"sea-1.us.uncletopia.com","port":27035,"enabled":true,"region":"us-west","cc":"us","latitude":47.608013,"longitude":-122.33517,"reserved":0,"last_update":"0001-01-01T00:00:00Z","name_a2s":"Uncletopia | Seattle | 3 | Stopwatch","protocol":17,"map":"cp_snakewater_final1","folder":"tf","game":"Team Fortress","app_id":440,"player_count":0,"max_players":24,"Bots":0,"server_type":"Dedicated","server_os":"Linux","password":true,"vac":true,"version":"7961495","steam_id":85568392924515217,"keywords":["cp","nocrits","nodmgspread","uncletopia"],"game_id":440,"stv_port":27036,"stv_name":"Uncletopia | Seattle | 3 | Stopwatch | STV","players":null},{"server_id":17,"name":"Uncletopia | San Francisco | 1 | All Maps","name_short":"sfo-1","host":"sfo-1.us.uncletopia.com","port":27015,"enabled":true,"region":"us-west","cc":"us","latitude":37.77397,"longitude":-122.4313,"reserved":0,"last_update":"0001-01-01T00:00:00Z","name_a2s":"Uncletopia | San Francisco | 1 | All Maps","protocol":17,"map":"koth_cascade","folder":"tf","game":"Team Fortress","app_id":440,"player_count":0,"max_players":24,"Bots":0,"server_type":"Dedicated","server_os":"Linux","password":true,"vac":true,"version":"7961495","steam_id":85568392924469999,"keywords":["cp","nocrits","nodmgspread","uncletopia"],"game_id":440,"stv_port":27016,"stv_name":"Uncletopia | San Francisco | 1 | All Maps | STV","players":null},{"server_id":18,"name":"Uncletopia | San Francisco | 2 | All Maps","name_short":"sfo-2","host":"sfo-1.us.uncletopia.com","port":27025,"enabled":true,"region":"us-west","cc":"us","latitude":37.77397,"longitude":-122.4313,"reserved":0,"last_update":"0001-01-01T00:00:00Z","name_a2s":"Uncletopia | San Francisco | 2 | All Maps","protocol":17,"map":"pl_frontier_final","folder":"tf","game":"Team Fortress","app_id":440,"player_count":0,"max_players":24,"Bots":0,"server_type":"Dedicated","server_os":"Linux","password":true,"vac":true,"version":"7961495","steam_id":85568392924470000,"keywords":["nocrits","nodmgspread","payload","uncletopia"],"game_id":440,"stv_port":27026,"stv_name":"Uncletopia | San Francisco | 2 | All Maps | STV","players":null},{"server_id":19,"name":"Uncletopia | San Francisco | 3 | Stopwatch","name_short":"sfo-3","host":"sfo-1.us.uncletopia.com","port":27035,"enabled":true,"region":"us-west","cc":"us","latitude":37.77397,"longitude":-122.4313,"reserved":0,"last_update":"0001-01-01T00:00:00Z","name_a2s":"Uncletopia | San Francisco | 3 | Stopwatch","protocol":17,"map":"pl_pier","folder":"tf","game":"Team Fortress","app_id":440,"player_count":0,"max_players":24,"Bots":0,"server_type":"Dedicated","server_os":"Linux","password":true,"vac":true,"version":"7961495","steam_id":85568392924742824,"keywords":["nocrits","nodmgspread","payload","uncletopia"],"game_id":440,"stv_port":27036,"stv_name":"Uncletopia | San Francisco | 3 | Stopwatch | STV","players":null},{"server_id":20,"name":"Uncletopia | San Francisco | 4 | Community","name_short":"sfo-4","host":"sfo-1.us.uncletopia.com","port":27045,"enabled":true,"region":"us-west","cc":"us","latitude":37.77397,"longitude":-122.4313,"reserved":0,"last_update":"0001-01-01T00:00:00Z","name_a2s":"Uncletopia | San Francisco | 4 | Community","protocol":17,"map":"pl_pier","folder":"tf","game":"Team Fortress","app_id":440,"player_count":0,"max_players":24,"Bots":0,"server_type":"Dedicated","server_os":"Linux","password":true,"vac":true,"version":"7961495","steam_id":85568392924742826,"keywords":["nocrits","nodmgspread","payload","uncletopia"],"game_id":440,"stv_port":27046,"stv_name":"Uncletopia | San Francisco | 4 | Community | STV","players":null},{"server_id":141,"name":"Uncletopia | Sydney | 1 | All Maps","name_short":"syd-1","host":"syd-1.au.uncletopia.com","port":27015,"enabled":true,"region":"au","cc":"au","latitude":-33.865143,"longitude":151.2099,"reserved":0,"last_update":"0001-01-01T00:00:00Z","name_a2s":"Uncletopia | Sydney | 1 | All Maps","protocol":17,"map":"koth_viaduct","folder":"tf","game":"Team Fortress","app_id":440,"player_count":0,"max_players":24,"Bots":0,"server_type":"Dedicated","server_os":"Linux","password":true,"vac":true,"version":"7961495","steam_id":85568392924470001,"keywords":["cp","nocrits","nodmgspread","uncletopia"],"game_id":440,"stv_port":27016,"stv_name":"Uncletopia | Sydney | 1 | All Maps | STV","players":null},{"server_id":123,"name":"Uncletopia | Sydney | 2 | All Maps","name_short":"syd-2","host":"syd-1.au.uncletopia.com","port":27025,"enabled":true,"region":"au","cc":"au","latitude":-33.865143,"longitude":151.2099,"reserved":0,"last_update":"0001-01-01T00:00:00Z","name_a2s":"Uncletopia | Sydney | 2 | All Maps","protocol":17,"map":"koth_lakeside_final","folder":"tf","game":"Team Fortress","app_id":440,"player_count":0,"max_players":24,"Bots":0,"server_type":"Dedicated","server_os":"Linux","password":true,"vac":true,"version":"7961495","steam_id":85568392924470002,"keywords":["cp","nocrits","nodmgspread","uncletopia"],"game_id":440,"stv_port":27026,"stv_name":"Uncletopia | Sydney | 2 | All Maps | STV","players":null},{"server_id":395,"name":"Uncletopia | Sydney | 3 | All Maps","name_short":"syd-3","host":"syd-1.au.uncletopia.com","port":27035,"enabled":true,"region":"au","cc":"au","latitude":-33.865143,"longitude":151.2099,"reserved":0,"last_update":"0001-01-01T00:00:00Z","name_a2s":"Uncletopia | Sydney | 3 | All Maps","protocol":17,"map":"pl_frontier_final","folder":"tf","game":"Team Fortress","app_id":440,"player_count":0,"max_players":24,"Bots":0,"server_type":"Dedicated","server_os":"Linux","password":true,"vac":true,"version":"7961495","steam_id":85568392925194467,"keywords":["nocrits","nodmgspread","payload","uncletopia"],"game_id":440,"stv_port":27036,"stv_name":"Uncletopia | Sydney | 3 | All Maps | STV","players":null},{"server_id":396,"name":"Uncletopia | Sydney | 4 | All Maps","name_short":"syd-4","host":"syd-1.au.uncletopia.com","port":27045,"enabled":true,"region":"au","cc":"au","latitude":-33.865143,"longitude":151.2099,"reserved":0,"last_update":"0001-01-01T00:00:00Z","name_a2s":"Uncletopia | Sydney | 4 | All Maps","protocol":17,"map":"cp_process_final","folder":"tf","game":"Team Fortress","app_id":440,"player_count":0,"max_players":24,"Bots":0,"server_type":"Dedicated","server_os":"Linux","password":true,"vac":true,"version":"7961495","steam_id":85568392925397958,"keywords":["cp","nocrits","nodmgspread","uncletopia"],"game_id":440,"stv_port":27046,"stv_name":"Uncletopia | Sydney | 4 | All Maps | STV","players":null},{"server_id":58,"name":"Uncletopia | Sydney | 5 | Stopwatch","name_short":"syd-5","host":"syd-1.au.uncletopia.com","port":27055,"enabled":true,"region":"au","cc":"au","latitude":-33.865143,"longitude":151.2099,"reserved":0,"last_update":"0001-01-01T00:00:00Z","name_a2s":"Uncletopia | Sydney | 5 | Stopwatch","protocol":17,"map":"pl_frontier_final","folder":"tf","game":"Team Fortress","app_id":440,"player_count":0,"max_players":24,"Bots":0,"server_type":"Dedicated","server_os":"Linux","password":true,"vac":true,"version":"7961495","steam_id":85568392925397959,"keywords":["nocrits","nodmgspread","payload","uncletopia"],"game_id":440,"stv_port":27056,"stv_name":"Uncletopia | Sydney | 5 | Stopwatch | STV","players":null},{"server_id":59,"name":"Uncletopia | Sydney | 6 | Community","name_short":"syd-6","host":"syd-1.au.uncletopia.com","port":27065,"enabled":true,"region":"au","cc":"au","latitude":-33.865143,"longitude":151.2099,"reserved":0,"last_update":"0001-01-01T00:00:00Z","name_a2s":"Uncletopia | Sydney | 6 | Community","protocol":17,"map":"cp_sunshine","folder":"tf","game":"Team Fortress","app_id":440,"player_count":0,"max_players":24,"Bots":0,"server_type":"Dedicated","server_os":"Linux","password":true,"vac":true,"version":"7961495","steam_id":85568392925397960,"keywords":["cp","nocrits","nodmgspread","uncletopia"],"game_id":440,"stv_port":27066,"stv_name":"Uncletopia | Sydney | 6 | Community | STV","players":null},{"server_id":49,"name":"Uncletopia | Warsaw | 1 | One Thousand Uncles","name_short":"waw-1","host":"waw-1.pl.uncletopia.com","port":27015,"enabled":true,"region":"eu","cc":"pl","latitude":52.2297,"longitude":21.017532,"reserved":0,"last_update":"0001-01-01T00:00:00Z","name_a2s":"Uncletopia | Warsaw | 1 | One Thousand Uncles","protocol":17,"map":"pl_thundermountain","folder":"tf","game":"Team Fortress","app_id":440,"player_count":23,"max_players":32,"Bots":16,"server_type":"Dedicated","server_os":"Linux","password":true,"vac":true,"version":"7961495","steam_id":85568392925397850,"keywords":["alltalk","bots","danepve","increased_maxplayers","nocrits","norespawntime","payload","uncletopia"],"game_id":440,"stv_port":0,"stv_name":"","players":[{"user_id":315,"name":"Ramzus","steam_id":76561198012385070,"connected_time":763000000000,"state":"active","ping":89},{"user_id":314,"name":"mikA_molchA‚ô•","steam_id":76561198134497032,"connected_time":1428000000000,"state":"active","ping":82},{"user_id":316,"name":"Bottle O' Scrumpy","steam_id":76561199244250562,"connected_time":179000000000,"state":"active","ping":112},{"user_id":317,"name":"wurlmon","steam_id":76561198113052745,"connected_time":70000000000,"state":"active","ping":140},{"user_id":312,"name":"Postyro-man","steam_id":76561198048832733,"connected_time":2365000000000,"state":"active","ping":40},{"user_id":300,"name":"‚àö(-Wolf)","steam_id":76561198024769704,"connected_time":4297000000000,"state":"active","ping":56},{"user_id":253,"name":"adv6","steam_id":76561198029789989,"connected_time":6943000000000,"state":"active","ping":69}]},{"server_id":50,"name":"Uncletopia | Warsaw | 2 | One Thousand Uncles","name_short":"waw-2","host":"waw-1.pl.uncletopia.com","port":27025,"enabled":true,"region":"eu","cc":"pl","latitude":52.2297,"longitude":21.017532,"reserved":0,"last_update":"0001-01-01T00:00:00Z","name_a2s":"Uncletopia | Warsaw | 2 | One Thousand Uncles","protocol":17,"map":"pl_thundermountain","folder":"tf","game":"Team Fortress","app_id":440,"player_count":23,"max_players":32,"Bots":16,"server_type":"Dedicated","server_os":"Linux","password":true,"vac":true,"version":"7961495","steam_id":85568392925397851,"keywords":["alltalk","bots","danepve","increased_maxplayers","nocrits","norespawntime","payload","uncletopia"],"game_id":440,"stv_port":0,"stv_name":"","players":[{"user_id":76,"name":"SharkLH","steam_id":76561199192138643,"connected_time":2201000000000,"state":"active","ping":83},{"user_id":45,"name":"KipxSateee","steam_id":76561198149158137,"connected_time":3145000000000,"state":"active","ping":66},{"user_id":4,"name":"pyro gaming","steam_id":76561198087970118,"connected_time":5439000000000,"state":"active","ping":51},{"user_id":12,"name":"Doctor Medic","steam_id":76561198100957443,"connected_time":5437000000000,"state":"active","ping":79},{"user_id":84,"name":"dollerboy","steam_id":76561199246428577,"connected_time":389000000000,"state":"active","ping":101},{"user_id":24,"name":"Boomer Shooter Consoomer","steam_id":76561198079752648,"connected_time":5371000000000,"state":"active","ping":75},{"user_id":31,"name":"Ziemniaczki z koperkiem","steam_id":76561198829123464,"connected_time":4427000000000,"state":"active","ping":42}]},{"server_id":51,"name":"Uncletopia | Warsaw | 3 | All Maps","name_short":"waw-3","host":"waw-1.pl.uncletopia.com","port":27035,"enabled":true,"region":"eu","cc":"pl","latitude":52.2297,"longitude":21.017532,"reserved":0,"last_update":"0001-01-01T00:00:00Z","name_a2s":"Uncletopia | Warsaw | 3 | All Maps","protocol":17,"map":"cp_altitude","folder":"tf","game":"Team Fortress","app_id":440,"player_count":2,"max_players":24,"Bots":0,"server_type":"Dedicated","server_os":"Linux","password":true,"vac":true,"version":"7961495","steam_id":85568392925397852,"keywords":["cp","nocrits","nodmgspread","uncletopia"],"game_id":440,"stv_port":27036,"stv_name":"Uncletopia | Warsaw | 3 | All Maps | STV","players":[{"user_id":177,"name":"TERRORIST","steam_id":76561199096023182,"connected_time":979000000000,"state":"active","ping":83},{"user_id":168,"name":"DKn","steam_id":76561197996374556,"connected_time":2027000000000,"state":"active","ping":120}]},{"server_id":52,"name":"Uncletopia | Warsaw | 4 | All Maps","name_short":"waw-4","host":"waw-1.pl.uncletopia.com","port":27045,"enabled":true,"region":"eu","cc":"pl","latitude":52.2297,"longitude":21.017532,"reserved":0,"last_update":"0001-01-01T00:00:00Z","name_a2s":"Uncletopia | Warsaw | 4 | All Maps","protocol":17,"map":"pl_pier","folder":"tf","game":"Team Fortress","app_id":440,"player_count":6,"max_players":24,"Bots":0,"server_type":"Dedicated","server_os":"Linux","password":true,"vac":true,"version":"7961495","steam_id":85568392925397853,"keywords":["nocrits","nodmgspread","payload","uncletopia"],"game_id":440,"stv_port":27046,"stv_name":"Uncletopia | Warsaw | 4 | All Maps | STV","players":[{"user_id":140,"name":"olsolsols12","steam_id":76561198089444052,"connected_time":2152000000000,"state":"active","ping":66},{"user_id":141,"name":"Carrot","steam_id":76561198119340863,"connected_time":2017000000000,"state":"active","ping":66},{"user_id":142,"name":"mh","steam_id":76561198442932674,"connected_time":1981000000000,"state":"active","ping":62},{"user_id":143,"name":"abipinch","steam_id":76561199104348040,"connected_time":1910000000000,"state":"active","ping":66},{"user_id":145,"name":"niallmrl","steam_id":76561198324221284,"connected_time":1257000000000,"state":"active","ping":71},{"user_id":146,"name":"[Plotholers] odacovA","steam_id":76561199383345208,"connected_time":844000000000,"state":"active","ping":169}]},{"server_id":53,"name":"Uncletopia | Warsaw | 5 | Stopwatch","name_short":"waw-5","host":"waw-1.pl.uncletopia.com","port":27055,"enabled":true,"region":"eu","cc":"pl","latitude":52.2297,"longitude":21.017532,"reserved":0,"last_update":"0001-01-01T00:00:00Z","name_a2s":"Uncletopia | Warsaw | 5 | Stopwatch","protocol":17,"map":"workshop/pl_vigil_rc10.ugc1266210012","folder":"tf","game":"Team Fortress","app_id":440,"player_count":0,"max_players":24,"Bots":0,"server_type":"Dedicated","server_os":"Linux","password":true,"vac":true,"version":"7961495","steam_id":85568392925397854,"keywords":["nocrits","nodmgspread","payload","uncletopia"],"game_id":440,"stv_port":27056,"stv_name":"Uncletopia | Warsaw | 5 | Stopwatch | STV","players":null},{"server_id":54,"name":"Uncletopia | Warsaw | 6 | Community","name_short":"waw-6","host":"waw-1.pl.uncletopia.com","port":27065,"enabled":true,"region":"eu","cc":"pl","latitude":52.2297,"longitude":21.017532,"reserved":0,"last_update":"0001-01-01T00:00:00Z","name_a2s":"Uncletopia | Warsaw | 6 | Community","protocol":17,"map":"workshop/koth_slaughter_rc1.ugc1712845210","folder":"tf","game":"Team Fortress","app_id":440,"player_count":0,"max_players":24,"Bots":0,"server_type":"Dedicated","server_os":"Linux","password":true,"vac":true,"version":"7961495","steam_id":85568392925397856,"keywords":["cp","nocrits","nodmgspread","uncletopia"],"game_id":440,"stv_port":27066,"stv_name":"Uncletopia | Warsaw | 6 | Community | STV","players":null}]}