{"status":true,"message":"","result":[{"server_id":9,"name":"Uncletopia | Atlanta | 1 | All Maps","name_short":"atl-1","host":"atl-1.us.uncletopia.com","port":27015,"enabled":true,"region":"us-east","cc":"us","latitude":33.753746,"longitude":-84.38633,"reserved":0,"last_update":"0001-01-01T00:00:00Z","name_a2s":"Uncletopia | Atlanta | 1 | All Maps","protocol":17,"map":"pl_frontier_final","folder":"tf","game":"Team Fortress","app_id":440,"player_count":24,"max_players":24,"Bots":0,"server_type":"Dedicated","server_os":"Linux","password":true,"vac":true,"version":"7882260","steam_id":85568392924469982,"keywords":["nocrits","nodmgspread","payload","uncletopia"],"game_id":440,"stv_port":27016,"stv_name":"Uncletopia | Atlanta | 1 | All Maps | STV","players":[{"user_id":71,"name":"Feistypanda34","steam_id":76561198260910134,"connected_time":2498000000000,"state":"active","ping":84},{"user_id":72,"name":"milk master","steam_id":76561198127851014,"connected_time":2459000000000,"state":"active","ping":69},{"user_id":73,"name":"Scrux","steam_id":76561198129763115,"connected_time":2451000000000,"state":"active","ping":114},{"user_id":85,"name":"\\#2 pooper southeast div","steam_id":76561198057076267,"connected_time":855000000000,"state":"active","ping":72},{"user_id":94,"name":"TheKromeDome","steam_id":76561198288951592,"connected_time":655000000000,"state":"active","ping":172},{"user_id":69,"name":"rat","steam_id":76561198313364985,"connected_time":2583000000000,"state":"active","ping":98},{"user_id":65,"name":"Gaiduk","steam_id":76561198112323877,"connected_time":2752000000000,"state":"active","ping":95},{"user_id":88,"name":"William Wallace","steam_id":76561199343316814,"connected_time":838000000000,"state":"active","ping":55},{"user_id":90,"name":"Rat-ortastic","steam_id":76561198105613110,"connected_time":812000000000,"state":"active","ping":74},{"user_id":35,"name":"frizzle fried","steam_id":76561198062991744,"connected_time":3996000000000,"state":"active","ping":59},{"user_id":82,"name":"Jrock","steam_id":76561198045715996,"connected_time":1121000000000,"state":"active","ping":79},{"user_id":79,"name":"metalfan666|bday tmrw|","steam_id":76561198386344068,"connected_time":1477000000000,"state":"active","ping":72},{"user_id":97,"name":"braindead","steam_id":76561198263631055,"connected_time":508000000000,"state":"active","ping":45},{"user_id":46,"name":"jump_apex_b1","steam_id":76561198092135570,"connected_time":3574000000000,"state":"active","ping":60},{"user_id":86,"name":"yoodle doodle","steam_id":76561198054897884,"connected_time":854000000000,"state":"active","ping":62},{"user_id":68,"name":"highschool drop-out","steam_id":76561198366299848,"connected_time":2681000000000,"state":"active","ping":49},{"user_id":98,"name":"[TSG] Turner's Chocolate Milk","steam_id":76561198058963288,"connected_time":464000000000,"state":"active","ping":66},{"user_id":93,"name":"Juan Soto Enjoyer","steam_id":76561198066115299,"connected_time":663000000000,"state":"active","ping":100},{"user_id":50,"name":"HTA","steam_id":76561198043879140,"connected_time":3410000000000,"state":"active","ping":67},{"user_id":84,"name":"guesstwo","steam_id":76561198813574552,"connected_time":873000000000,"state":"active","ping":45},{"user_id":52,"name":"V!CT!M","steam_id":76561198962721502,"connected_time":3368000000000,"state":"active","ping":78},{"user_id":91,"name":"Ypuoi","steam_id":76561198170203261,"connected_time":797000000000,"state":"active","ping":126},{"user_id":87,"name":"1001NinjaDucks","steam_id":76561198058169660,"connected_time":852000000000,"state":"active","ping":60},{"user_id":95,"name":"Minion Fartly","steam_id":76561197987805095,"connected_time":618000000000,"state":"active","ping":95}]},{"server_id":104,"name":"Uncletopia | Atlanta | 2 | All Maps","name_short":"atl-2","host":"atl-1.us.uncletopia.com","port":27025,"enabled":true,"region":"us-east","cc":"us","latitude":33.753746,"longitude":-84.38633,"reserved":0,"last_update":"0001-01-01T00:00:00Z","name_a2s":"Uncletopia | Atlanta | 2 | All Maps","protocol":17,"map":"cp_process_final","folder":"tf","game":"Team Fortress","app_id":440,"player_count":0,"max_players":24,"Bots":0,"server_type":"Dedicated","server_os":"Linux","password":true,"vac":true,"version":"7882260","steam_id":85568392924469983,"keywords":["cp","nocrits","nodmgspread","uncletopia"],"game_id":440,"stv_port":27026,"stv_name":"Uncletopia | Atlanta | 2 | All Maps | STV","players":null},{"server_id":400,"name":"Uncletopia | Atlanta | 3 | Community","name_short":"atl-3","host":"atl-1.us.uncletopia.com","port":27035,"enabled":true,"region":"us-east","cc":"us","latitude":33.753746,"longitude":-84.38633,"reserved":0,"last_update":"0001-01-01T00:00:00Z","name_a2s":"Uncletopia | Atlanta | 3 | Community","protocol":17,"map":"cp_sunshine","folder":"tf","game":"Team Fortress","app_id":440,"player_count":0,"max_players":24,"Bots":0,"server_type":"Dedicated","server_os":"Linux","password":true,"vac":true,"version":"7882260","steam_id":85568392924515187,"keywords":["cp","nocrits","nodmgspread","uncletopia"],"game_id":440,"stv_port":27036,"stv_name":"Uncletopia | Atlanta | 3 | Community | STV","players":null},{"server_id":401,"name":"Uncletopia | Atlanta | 4 | No Payload","name_short":"atl-4","host":"atl-1.us.uncletopia.com","port":27045,"enabled":true,"region":"us-east","cc":"us","latitude":33.753746,"longitude":-84.38633,"reserved":0,"last_update":"0001-01-01T00:00:00Z","name_a2s":"","protocol":0,"map":"","folder":"","game":"","app_id":0,"player_count":0,"max_players":0,"Bots":0,"server_type":"","server_os":"","password":false,"vac":false,"version":"","steam_id":0,"keywords":null,"game_id":0,"stv_port":0,"stv_name":"","players":null},{"server_id":2,"name":"Uncletopia | Chicago | 1 | All Maps","name_short":"chi-1","host":"chi-1.us.uncletopia.com","port":27015,"enabled":true,"region":"us-central","cc":"us","latitude":41.881832,"longitude":-87.62318,"reserved":0,"last_update":"0001-01-01T00:00:00Z","name_a2s":"Uncletopia | Chicago | 1 | All Maps","protocol":17,"map":"pl_swiftwater_final1","folder":"tf","game":"Team Fortress","app_id":440,"player_count":24,"max_players":24,"Bots":0,"server_type":"Dedicated","server_os":"Linux","password":true,"vac":true,"version":"7882260","steam_id":85568392924469984,"keywords":["nocrits","nodmgspread","payload","uncletopia"],"game_id":440,"stv_port":27016,"stv_name":"Uncletopia | Chicago | 1 | All Maps | STV","players":[{"user_id":256,"name":"El 7 de fontana","steam_id":76561198025668771,"connected_time":555000000000,"state":"active","ping":135},{"user_id":258,"name":"Shiro","steam_id":76561197979915878,"connected_time":405000000000,"state":"active","ping":150},{"user_id":259,"name":"Blackbird","steam_id":76561198127818333,"connected_time":398000000000,"state":"active","ping":55},{"user_id":250,"name":"Norman","steam_id":76561198154715990,"connected_time":802000000000,"state":"active","ping":93},{"user_id":234,"name":"magickxanadu","steam_id":76561199117360103,"connected_time":1903000000000,"state":"active","ping":69},{"user_id":249,"name":"FoxThane","steam_id":76561198067641929,"connected_time":830000000000,"state":"active","ping":113},{"user_id":252,"name":"raduski","steam_id":76561198795699119,"connected_time":737000000000,"state":"active","ping":89},{"user_id":227,"name":"AudaCD","steam_id":76561198202775853,"connected_time":2402000000000,"state":"active","ping":72},{"user_id":244,"name":"Mookie Burns","steam_id":76561199202153909,"connected_time":1155000000000,"state":"active","ping":80},{"user_id":255,"name":"ROGUE-PLANET","steam_id":76561198116023052,"connected_time":645000000000,"state":"active","ping":65},{"user_id":260,"name":"gideon nav my beloved","steam_id":76561198259092181,"connected_time":185000000000,"state":"active","ping":62},{"user_id":137,"name":"Anonymous Redneck","steam_id":76561198006140954,"connected_time":8944000000000,"state":"active","ping":74},{"user_id":196,"name":"Sartupial","steam_id":76561198443169940,"connected_time":4721000000000,"state":"active","ping":65},{"user_id":239,"name":"Whoa","steam_id":76561197970353496,"connected_time":1815000000000,"state":"active","ping":79},{"user_id":214,"name":"milo","steam_id":76561199061380038,"connected_time":3441000000000,"state":"active","ping":75},{"user_id":257,"name":"VerdantSunset","steam_id":76561198062313478,"connected_time":536000000000,"state":"active","ping":86},{"user_id":117,"name":"Obelisk","steam_id":76561198049416866,"connected_time":9629000000000,"state":"active","ping":78},{"user_id":245,"name":"Mister36","steam_id":76561198019132100,"connected_time":1125000000000,"state":"active","ping":55},{"user_id":222,"name":"Im High","steam_id":76561198049954886,"connected_time":2861000000000,"state":"active","ping":75},{"user_id":242,"name":"177013","steam_id":76561198072303290,"connected_time":1422000000000,"state":"active","ping":65},{"user_id":221,"name":"Cofi","steam_id":76561199026721822,"connected_time":2926000000000,"state":"active","ping":112},{"user_id":211,"name":"substance","steam_id":76561198050103868,"connected_time":3883000000000,"state":"active","ping":107},{"user_id":217,"name":"Za Zombie","steam_id":76561198055545262,"connected_time":3379000000000,"state":"active","ping":72},{"user_id":248,"name":"w","steam_id":76561197999666480,"connected_time":855000000000,"state":"active","ping":114}]},{"server_id":106,"name":"Uncletopia | Chicago | 2 | All Maps","name_short":"chi-2","host":"chi-1.us.uncletopia.com","port":27025,"enabled":true,"region":"us-central","cc":"us","latitude":41.881832,"longitude":-87.62318,"reserved":0,"last_update":"0001-01-01T00:00:00Z","name_a2s":"Uncletopia | Chicago | 2 | All Maps","protocol":17,"map":"cp_snakewater_final1","folder":"tf","game":"Team Fortress","app_id":440,"player_count":0,"max_players":24,"Bots":0,"server_type":"Dedicated","server_os":"Linux","password":true,"vac":true,"version":"7882260","steam_id":85568392924469985,"keywords":["cp","nocrits","nodmgspread","uncletopia"],"game_id":440,"stv_port":27026,"stv_name":"Uncletopia | Chicago | 2 | All Maps | STV","players":null},{"server_id":402,"name":"Uncletopia | Chicago | 3 | All Maps","name_short":"chi-3","host":"chi-1.us.uncletopia.com","port":27035,"enabled":true,"region":"us-central","cc":"us","latitude":41.881832,"longitude":-87.62318,"reserved":0,"last_update":"0001-01-01T00:00:00Z","name_a2s":"Uncletopia | Chicago | 3 | All Maps","protocol":17,"map":"cp_process_final","folder":"tf","game":"Team Fortress","app_id":440,"player_count":24,"max_players":24,"Bots":0,"server_type":"Dedicated","server_os":"Linux","password":true,"vac":true,"version":"7882260","steam_id":85568392924515191,"keywords":["cp","nocrits","nodmgspread","uncletopia"],"game_id":440,"stv_port":27036,"stv_name":"Uncletopia | Chicago | 3 | All Maps | STV","players":[{"user_id":94,"name":"Dr. Ôº¥ÔΩâÔΩçÔΩìÔΩãÔΩÅ","steam_id":76561198272075712,"connected_time":4242000000000,"state":"active","ping":65},{"user_id":138,"name":"Darling","steam_id":76561198127525888,"connected_time":597000000000,"state":"active","ping":69},{"user_id":105,"name":"The Poopshitter","steam_id":76561198870068763,"connected_time":3469000000000,"state":"active","ping":87},{"user_id":131,"name":"Sprit ‚ô•","steam_id":76561198268780781,"connected_time":737000000000,"state":"active","ping":45},{"user_id":129,"name":"feller","steam_id":76561198329367716,"connected_time":1254000000000,"state":"active","ping":114},{"user_id":98,"name":"Smileyface101","steam_id":76561198072769766,"connected_time":4054000000000,"state":"active","ping":97},{"user_id":128,"name":"Boomer Gaming","steam_id":76561198037803087,"connected_time":1426000000000,"state":"active","ping":66},{"user_id":132,"name":"PootOS","steam_id":76561198160462155,"connected_time":721000000000,"state":"active","ping":77},{"user_id":140,"name":"BonesJohnson","steam_id":76561198799169951,"connected_time":495000000000,"state":"active","ping":143},{"user_id":135,"name":"James","steam_id":76561198077251918,"connected_time":700000000000,"state":"active","ping":94},{"user_id":104,"name":"a hedgehog","steam_id":76561198019010682,"connected_time":3553000000000,"state":"active","ping":47},{"user_id":122,"name":"Roland","steam_id":76561198190288063,"connected_time":1824000000000,"state":"active","ping":75},{"user_id":111,"name":"Cute Anime Girl","steam_id":76561198086797729,"connected_time":3284000000000,"state":"active","ping":85},{"user_id":116,"name":"Omnidirectional Rage","steam_id":76561199154188122,"connected_time":2607000000000,"state":"active","ping":56},{"user_id":108,"name":"aussie","steam_id":76561198374523099,"connected_time":3423000000000,"state":"active","ping":100},{"user_id":110,"name":"| d || e || t |_","steam_id":76561198170859755,"connected_time":3408000000000,"state":"active","ping":58},{"user_id":112,"name":"poe","steam_id":76561198155720118,"connected_time":3252000000000,"state":"active","ping":52},{"user_id":118,"name":"Cheese Cowboy","steam_id":76561198189176634,"connected_time":1868000000000,"state":"active","ping":77},{"user_id":130,"name":"guac","steam_id":76561198070305720,"connected_time":1039000000000,"state":"active","ping":80},{"user_id":136,"name":"horactix","steam_id":76561198239158944,"connected_time":664000000000,"state":"active","ping":59},{"user_id":134,"name":"mantis","steam_id":76561198303349370,"connected_time":719000000000,"state":"active","ping":61},{"user_id":137,"name":"Red Future","steam_id":76561198205420063,"connected_time":653000000000,"state":"active","ping":91},{"user_id":139,"name":"Nuwrox1","steam_id":76561198406951007,"connected_time":590000000000,"state":"active","ping":66},{"user_id":142,"name":"A Can of Arizona Green Tea","steam_id":76561198062481133,"connected_time":447000000000,"state":"active","ping":77}]},{"server_id":403,"name":"Uncletopia | Chicago | 4 | All Maps","name_short":"chi-4","host":"chi-1.us.uncletopia.com","port":27045,"enabled":true,"region":"us-central","cc":"us","latitude":41.881832,"longitude":-87.62318,"reserved":0,"last_update":"0001-01-01T00:00:00Z","name_a2s":"Uncletopia | Chicago | 4 | All Maps","protocol":17,"map":"koth_viaduct","folder":"tf","game":"Team Fortress","app_id":440,"player_count":24,"max_players":24,"Bots":0,"server_type":"Dedicated","server_os":"Linux","password":true,"vac":true,"version":"7882260","steam_id":85568392924515193,"keywords":["cp","nocrits","nodmgspread","uncletopia"],"game_id":440,"stv_port":27046,"stv_name":"Uncletopia | Chicago | 4 | All Maps | STV","players":[{"user_id":274,"name":"TwoBit","steam_id":76561198062437559,"connected_time":381000000000,"state":"active","ping":76},{"user_id":258,"name":"Green Icicle","steam_id":76561198069624529,"connected_time":1714000000000,"state":"active","ping":81},{"user_id":266,"name":"capeeKo","steam_id":76561197970346623,"connected_time":757000000000,"state":"active","ping":77},{"user_id":236,"name":"Ass Blaster, Disaster Master","steam_id":76561197997774469,"connected_time":3105000000000,"state":"active","ping":90},{"user_id":255,"name":"Superseee","steam_id":76561198199919747,"connected_time":2292000000000,"state":"active","ping":114},{"user_id":262,"name":"IMCR8Z","steam_id":76561198069345132,"connected_time":1283000000000,"state":"active","ping":86},{"user_id":277,"name":"[GrGr]Target1801","steam_id":76561198148021922,"connected_time":103000000000,"state":"active","ping":152},{"user_id":250,"name":"ARGON Soulidity","steam_id":76561198429603550,"connected_time":2604000000000,"state":"active","ping":81},{"user_id":275,"name":"stall","steam_id":76561199152861652,"connected_time":317000000000,"state":"active","ping":56},{"user_id":185,"name":"goblino","steam_id":76561198068260422,"connected_time":6158000000000,"state":"active","ping":47},{"user_id":221,"name":"JD","steam_id":76561198202669250,"connected_time":3783000000000,"state":"active","ping":71},{"user_id":201,"name":"Maverick","steam_id":76561198322829814,"connected_time":5248000000000,"state":"active","ping":79},{"user_id":251,"name":"The Announcer's Feet","steam_id":76561199443456893,"connected_time":2571000000000,"state":"active","ping":73},{"user_id":259,"name":"Pombley","steam_id":76561198141227263,"connected_time":1575000000000,"state":"active","ping":84},{"user_id":242,"name":"Cwiishe","steam_id":76561199482943969,"connected_time":3060000000000,"state":"active","ping":61},{"user_id":265,"name":"gabaghoulio","steam_id":76561198013650292,"connected_time":841000000000,"state":"active","ping":113},{"user_id":167,"name":"Horrizan","steam_id":76561197965028480,"connected_time":8635000000000,"state":"active","ping":76},{"user_id":260,"name":"bloompi","steam_id":76561198136308630,"connected_time":1547000000000,"state":"active","ping":48},{"user_id":272,"name":"DarkEmpireOne","steam_id":76561198106849547,"connected_time":455000000000,"state":"active","ping":57},{"user_id":276,"name":"Walkiing","steam_id":76561198074473413,"connected_time":148000000000,"state":"active","ping":45},{"user_id":268,"name":"blueink","steam_id":76561199118761255,"connected_time":755000000000,"state":"active","ping":86},{"user_id":273,"name":"ShaggyTax8930","steam_id":76561198880156558,"connected_time":453000000000,"state":"active","ping":85},{"user_id":269,"name":"MMMPHH","steam_id":76561199224120496,"connected_time":738000000000,"state":"active","ping":76},{"user_id":254,"name":"Anyar","steam_id":76561198160174097,"connected_time":2537000000000,"state":"active","ping":63}]},{"server_id":36,"name":"Uncletopia | Chicago | 5 | All Maps","name_short":"chi-5","host":"chi-2.us.uncletopia.com","port":27015,"enabled":true,"region":"us-central","cc":"us","latitude":41.881832,"longitude":-87.62318,"reserved":0,"last_update":"0001-01-01T00:00:00Z","name_a2s":"Uncletopia | Chicago | 5 | All Maps","protocol":17,"map":"pl_badwater","folder":"tf","game":"Team Fortress","app_id":440,"player_count":0,"max_players":24,"Bots":0,"server_type":"Dedicated","server_os":"Linux","password":true,"vac":true,"version":"7882260","steam_id":85568392924866362,"keywords":["nocrits","nodmgspread","payload","uncletopia"],"game_id":440,"stv_port":27016,"stv_name":"Uncletopia | Chicago | 5 | All Maps | STV","players":null},{"server_id":37,"name":"Uncletopia | Chicago | 6 | All Maps","name_short":"chi-6","host":"chi-2.us.uncletopia.com","port":27025,"enabled":true,"region":"us-central","cc":"us","latitude":41.881832,"longitude":-87.62318,"reserved":0,"last_update":"0001-01-01T00:00:00Z","name_a2s":"Uncletopia | Chicago | 6 | All Maps","protocol":17,"map":"koth_cascade","folder":"tf","game":"Team Fortress","app_id":440,"player_count":0,"max_players":24,"Bots":0,"server_type":"Dedicated","server_os":"Linux","password":true,"vac":true,"version":"7882260","steam_id":85568392924866363,"keywords":["cp","nocrits","nodmgspread","uncletopia"],"game_id":440,"stv_port":27026,"stv_name":"Uncletopia | Chicago | 6 | All Maps | STV","players":null},{"server_id":38,"name":"Uncletopia | Chicago | 7 | Stopwatch Beta","name_short":"chi-7","host":"chi-2.us.uncletopia.com","port":27035,"enabled":true,"region":"us-central","cc":"us","latitude":41.881832,"longitude":-87.62318,"reserved":0,"last_update":"0001-01-01T00:00:00Z","name_a2s":"Uncletopia | Chicago | 7 | Stopwatch Beta","protocol":17,"map":"pl_borneo","folder":"tf","game":"Team Fortress","app_id":440,"player_count":0,"max_players":24,"Bots":0,"server_type":"Dedicated","server_os":"Linux","password":true,"vac":true,"version":"7882260","steam_id":85568392924866364,"keywords":["nocrits","nodmgspread","payload","uncletopia"],"game_id":440,"stv_port":27036,"stv_name":"Uncletopia | Chicago | 7 | Stopwatch Beta | STV","players":null},{"server_id":39,"name":"Uncletopia | Chicago | 8 | Community","name_short":"chi-8","host":"chi-2.us.uncletopia.com","port":27045,"enabled":true,"region":"us-central","cc":"us","latitude":41.881832,"longitude":-87.62318,"reserved":0,"last_update":"0001-01-01T00:00:00Z","name_a2s":"Uncletopia | Chicago | 8 | Community","protocol":17,"map":"cp_snakewater_final1","folder":"tf","game":"Team Fortress","app_id":440,"player_count":0,"max_players":24,"Bots":0,"server_type":"Dedicated","server_os":"Linux","password":true,"vac":true,"version":"7882260","steam_id":85568392924866365,"keywords":["cp","nocrits","nodmgspread","uncletopia"],"game_id":440,"stv_port":27046,"stv_name":"Uncletopia | Chicago | 8 | Community | STV","players":null},{"server_id":8,"name":"Uncletopia | Dallas | 1 | All Maps","name_short":"dal-1","host":"dal-1.us.uncletopia.com","port":27015,"enabled":true,"region":"us-central","cc":"us","latitude":32.779167,"longitude":-96.80889,"reserved":0,"last_update":"0001-01-01T00:00:00Z","name_a2s":"Uncletopia | Dallas | 1 | All Maps","protocol":17,"map":"cp_process_final","folder":"tf","game":"Team Fortress","app_id":440,"player_count":8,"max_players":24,"Bots":0,"server_type":"Dedicated","server_os":"Linux","password":true,"vac":true,"version":"7882260","steam_id":85568392924469986,"keywords":["cp","nocrits","nodmgspread","uncletopia"],"game_id":440,"stv_port":27016,"stv_name":"Uncletopia | Dallas | 1 | All Maps | STV","players":[{"user_id":7,"name":"snick","steam_id":76561198066566813,"connected_time":315000000000,"state":"active","ping":110},{"user_id":8,"name":"KittyToy","steam_id":76561198043990701,"connected_time":299000000000,"state":"active","ping":105},{"user_id":9,"name":"shadow wizard money gang","steam_id":76561199261094823,"connected_time":170000000000,"state":"active","ping":224},{"user_id":10,"name":"MrvicaKing69","steam_id":76561199268407840,"connected_time":147000000000,"state":"connecting","ping":0},{"user_id":11,"name":"Don't Fuckle with Shuckle","steam_id":76561199020102367,"connected_time":99000000000,"state":"active","ping":101},{"user_id":12,"name":"faka","steam_id":76561199093280815,"connected_time":73000000000,"state":"active","ping":104},{"user_id":14,"name":"jeff_fan","steam_id":76561198086420687,"connected_time":27000000000,"state":"active","ping":79},{"user_id":15,"name":"turntechGodhead","steam_id":76561198113793427,"connected_time":25000000000,"state":"active","ping":88}]},{"server_id":108,"name":"Uncletopia | Dallas | 2 | All Maps","name_short":"dal-2","host":"dal-1.us.uncletopia.com","port":27025,"enabled":true,"region":"us-central","cc":"us","latitude":32.779167,"longitude":-96.80889,"reserved":0,"last_update":"0001-01-01T00:00:00Z","name_a2s":"Uncletopia | Dallas | 2 | All Maps","protocol":17,"map":"pl_frontier_final","folder":"tf","game":"Team Fortress","app_id":440,"player_count":0,"max_players":24,"Bots":0,"server_type":"Dedicated","server_os":"Linux","password":true,"vac":true,"version":"7882260","steam_id":85568392924469988,"keywords":["nocrits","nodmgspread","payload","uncletopia"],"game_id":440,"stv_port":27026,"stv_name":"Uncletopia | Dallas | 2 | All Maps | STV","players":null},{"server_id":5,"name":"Uncletopia | Frankfurt | 1 | All Maps","name_short":"frk-1","host":"frk-1.de.uncletopia.com","port":27015,"enabled":true,"region":"eu","cc":"de","latitude":50.110924,"longitude":8.682127,"reserved":0,"last_update":"0001-01-01T00:00:00Z","name_a2s":"Uncletopia | Frankfurt | 1 | All Maps","protocol":17,"map":"pl_badwater","folder":"tf","game":"Team Fortress","app_id":440,"player_count":24,"max_players":24,"Bots":0,"server_type":"Dedicated","server_os":"Linux","password":true,"vac":true,"version":"7882260","steam_id":85568392924469989,"keywords":["nocrits","nodmgspread","payload","uncletopia"],"game_id":440,"stv_port":27016,"stv_name":"Uncletopia | Frankfurt | 1 | All Maps | STV","players":[{"user_id":438,"name":":)","steam_id":76561198039964082,"connected_time":1147000000000,"state":"active","ping":55},{"user_id":401,"name":"adam.prochazka2009","steam_id":76561198157511897,"connected_time":3270000000000,"state":"active","ping":47},{"user_id":447,"name":"Accident","steam_id":76561198115160396,"connected_time":871000000000,"state":"active","ping":64},{"user_id":411,"name":"Solymr ibn Wali Barad","steam_id":76561198044008976,"connected_time":2827000000000,"state":"active","ping":74},{"user_id":440,"name":"Wardruna96","steam_id":76561199057083828,"connected_time":1110000000000,"state":"active","ping":89},{"user_id":388,"name":"Archsam","steam_id":76561198137828616,"connected_time":4170000000000,"state":"active","ping":59},{"user_id":414,"name":"FUKAYU","steam_id":76561198380484033,"connected_time":2785000000000,"state":"active","ping":53},{"user_id":441,"name":"Katero","steam_id":76561198059920958,"connected_time":1105000000000,"state":"active","ping":52},{"user_id":418,"name":"sareena","steam_id":76561198810194062,"connected_time":2509000000000,"state":"active","ping":75},{"user_id":452,"name":"leminsc8","steam_id":76561198825084995,"connected_time":525000000000,"state":"active","ping":35},{"user_id":433,"name":"One-Face","steam_id":76561197999384826,"connected_time":1563000000000,"state":"active","ping":42},{"user_id":446,"name":"Spectral Sloth","steam_id":76561198170083139,"connected_time":901000000000,"state":"active","ping":83},{"user_id":419,"name":"chocolate flavoured femboy","steam_id":76561198819353867,"connected_time":2475000000000,"state":"active","ping":55},{"user_id":457,"name":"generic alias","steam_id":76561198271607226,"connected_time":342000000000,"state":"active","ping":90},{"user_id":422,"name":"Violet Hunii","steam_id":76561198207752648,"connected_time":2421000000000,"state":"active","ping":121},{"user_id":437,"name":"morco3420","steam_id":76561199360257938,"connected_time":1436000000000,"state":"active","ping":80},{"user_id":459,"name":"Hetmanych","steam_id":76561198870926865,"connected_time":36000000000,"state":"active","ping":58},{"user_id":393,"name":"def","steam_id":76561198857396812,"connected_time":4096000000000,"state":"active","ping":48},{"user_id":412,"name":"Gekko","steam_id":76561198869884227,"connected_time":2823000000000,"state":"active","ping":88},{"user_id":365,"name":"üòà COCKDESTROYER üòà","steam_id":76561198042846999,"connected_time":5840000000000,"state":"active","ping":64},{"user_id":458,"name":"deadfish","steam_id":76561198068685830,"connected_time":280000000000,"state":"active","ping":68},{"user_id":429,"name":"peso enjoyer","steam_id":76561198798177799,"connected_time":2049000000000,"state":"active","ping":73},{"user_id":432,"name":"‚ô• trixy ‚ô•","steam_id":76561199474154775,"connected_time":1630000000000,"state":"active","ping":60},{"user_id":450,"name":"Kahvi","steam_id":76561198723244199,"connected_time":587000000000,"state":"active","ping":87}]},{"server_id":110,"name":"Uncletopia | Frankfurt | 2 | All Maps","name_short":"frk-2","host":"frk-1.de.uncletopia.com","port":27025,"enabled":true,"region":"eu","cc":"de","latitude":50.110924,"longitude":8.682127,"reserved":0,"last_update":"0001-01-01T00:00:00Z","name_a2s":"Uncletopia | Frankfurt | 2 | All Maps","protocol":17,"map":"pl_pier","folder":"tf","game":"Team Fortress","app_id":440,"player_count":24,"max_players":24,"Bots":0,"server_type":"Dedicated","server_os":"Linux","password":true,"vac":true,"version":"7882260","steam_id":85568392924469990,"keywords":["nocrits","nodmgspread","payload","uncletopia"],"game_id":440,"stv_port":27026,"stv_name":"Uncletopia | Frankfurt | 2 | All Maps | STV","players":[{"user_id":207,"name":"wgbubl","steam_id":76561199133004884,"connected_time":6080000000000,"state":"active","ping":97},{"user_id":262,"name":"Seron-Lowell","steam_id":76561198070291347,"connected_time":1306000000000,"state":"active","ping":51},{"user_id":276,"name":"Mr.Twinkls","steam_id":76561197980803560,"connected_time":283000000000,"state":"active","ping":89},{"user_id":260,"name":"skatie","steam_id":76561198169487380,"connected_time":1347000000000,"state":"active","ping":74},{"user_id":240,"name":"vanhavitsi","steam_id":76561198380373488,"connected_time":3055000000000,"state":"active","ping":95},{"user_id":268,"name":"Haha?","steam_id":76561198056882245,"connected_time":910000000000,"state":"active","ping":55},{"user_id":271,"name":"Cross Breeze","steam_id":76561198043420803,"connected_time":729000000000,"state":"active","ping":60},{"user_id":238,"name":"Chloemew","steam_id":76561198042071762,"connected_time":3252000000000,"state":"active","ping":60},{"user_id":233,"name":"Meem","steam_id":76561199088570961,"connected_time":3444000000000,"state":"active","ping":96},{"user_id":129,"name":"Pronton","steam_id":76561198082502910,"connected_time":10449000000000,"state":"active","ping":50},{"user_id":273,"name":"cazador","steam_id":76561198123096922,"connected_time":587000000000,"state":"active","ping":93},{"user_id":277,"name":"Ôº≠ÔΩÅÔΩÉÔΩâÔΩéÔΩîÔΩèÔΩìÔΩà","steam_id":76561198074294565,"connected_time":277000000000,"state":"active","ping":77},{"user_id":218,"name":"twitch/auratf2","steam_id":76561197988085026,"connected_time":5251000000000,"state":"active","ping":70},{"user_id":278,"name":"hisham","steam_id":76561198414437290,"connected_time":228000000000,"state":"active","ping":106},{"user_id":254,"name":"Metal Pipe","steam_id":76561199001657140,"connected_time":1917000000000,"state":"active","ping":87},{"user_id":199,"name":"mixxxa_french","steam_id":76561198085098243,"connected_time":6613000000000,"state":"active","ping":115},{"user_id":274,"name":"Asa Mitaka","steam_id":76561198361723475,"connected_time":550000000000,"state":"active","ping":71},{"user_id":270,"name":"Xydran","steam_id":76561198042397402,"connected_time":894000000000,"state":"active","ping":69},{"user_id":264,"name":"admetos","steam_id":76561198879373065,"connected_time":1228000000000,"state":"active","ping":60},{"user_id":136,"name":"bunglar","steam_id":76561198027374166,"connected_time":10229000000000,"state":"active","ping":53},{"user_id":259,"name":"–ü–∏—Å—è –¢–æ–ª—Å—Ç—ã–π","steam_id":76561198172046813,"connected_time":1411000000000,"state":"active","ping":75},{"user_id":267,"name":"Artificial.Ignorance","steam_id":76561198453090180,"connected_time":1103000000000,"state":"active","ping":177},{"user_id":256,"name":"pijukaaaaaaaa","steam_id":76561198083063005,"connected_time":1863000000000,"state":"active","ping":52},{"user_id":265,"name":"Thors","steam_id":76561197968739075,"connected_time":1221000000000,"state":"active","ping":55}]},{"server_id":308,"name":"Uncletopia | Frankfurt | 3 | All Maps","name_short":"frk-3","host":"frk-1.de.uncletopia.com","port":27035,"enabled":true,"region":"eu","cc":"de","latitude":50.110924,"longitude":8.682127,"reserved":0,"last_update":"0001-01-01T00:00:00Z","name_a2s":"Uncletopia | Frankfurt | 3 | All Maps","protocol":17,"map":"pl_upward","folder":"tf","game":"Team Fortress","app_id":440,"player_count":24,"max_players":24,"Bots":0,"server_type":"Dedicated","server_os":"Linux","password":true,"vac":true,"version":"7882260","steam_id":85568392924504274,"keywords":["nocrits","nodmgspread","payload","uncletopia"],"game_id":440,"stv_port":27036,"stv_name":"Uncletopia | Frankfurt | 3 | All Maps | STV","players":[{"user_id":97,"name":"Ratatatatatatouille","steam_id":76561198182267098,"connected_time":228000000000,"state":"active","ping":86},{"user_id":60,"name":"Healix","steam_id":76561198130270161,"connected_time":2810000000000,"state":"active","ping":52},{"user_id":87,"name":"Popop","steam_id":76561198004793795,"connected_time":1555000000000,"state":"active","ping":46},{"user_id":93,"name":"G.R.E","steam_id":76561197979806514,"connected_time":575000000000,"state":"active","ping":46},{"user_id":51,"name":"eva.","steam_id":76561198054474684,"connected_time":3166000000000,"state":"active","ping":73},{"user_id":85,"name":"After8","steam_id":76561198090750865,"connected_time":1605000000000,"state":"active","ping":72},{"user_id":48,"name":"Goga11","steam_id":76561198451145010,"connected_time":3662000000000,"state":"active","ping":120},{"user_id":98,"name":"Leibeigener","steam_id":76561199275478305,"connected_time":139000000000,"state":"active","ping":42},{"user_id":88,"name":"SlinkyJapaleno","steam_id":76561198132842721,"connected_time":1517000000000,"state":"active","ping":74},{"user_id":91,"name":"Mav","steam_id":76561198004403881,"connected_time":1203000000000,"state":"active","ping":58},{"user_id":30,"name":"PanPatrik","steam_id":76561198293331527,"connected_time":4466000000000,"state":"active","ping":52},{"user_id":89,"name":"fmdi","steam_id":76561199433879329,"connected_time":1365000000000,"state":"active","ping":70},{"user_id":73,"name":"‚úûhe joy of recycling","steam_id":76561198415564349,"connected_time":1959000000000,"state":"active","ping":65},{"user_id":90,"name":"madijo","steam_id":76561198012617400,"connected_time":1333000000000,"state":"active","ping":61},{"user_id":72,"name":"Piss Man","steam_id":76561198860861032,"connected_time":2036000000000,"state":"active","ping":73},{"user_id":70,"name":"Chromega","steam_id":76561199075307750,"connected_time":2380000000000,"state":"active","ping":59},{"user_id":68,"name":"ackh noo","steam_id":76561198066287297,"connected_time":2468000000000,"state":"active","ping":56},{"user_id":27,"name":"simon","steam_id":76561198880361394,"connected_time":4526000000000,"state":"active","ping":50},{"user_id":28,"name":"T3dwig","steam_id":76561198300746283,"connected_time":4507000000000,"state":"active","ping":83},{"user_id":96,"name":"piper","steam_id":76561198095560087,"connected_time":311000000000,"state":"active","ping":64},{"user_id":65,"name":"Khalid","steam_id":76561198081243855,"connected_time":2695000000000,"state":"active","ping":120},{"user_id":37,"name":"Pinkchup","steam_id":76561198106802803,"connected_time":4188000000000,"state":"active","ping":74},{"user_id":69,"name":"joachym","steam_id":76561198428579761,"connected_time":2464000000000,"state":"active","ping":64},{"user_id":84,"name":"Lyell","steam_id":76561198350329389,"connected_time":1613000000000,"state":"active","ping":80}]},{"server_id":309,"name":"Uncletopia | Frankfurt | 4 | All Maps","name_short":"frk-4","host":"frk-1.de.uncletopia.com","port":27045,"enabled":true,"region":"eu","cc":"de","latitude":50.110924,"longitude":8.682127,"reserved":0,"last_update":"0001-01-01T00:00:00Z","name_a2s":"Uncletopia | Frankfurt | 4 | All Maps","protocol":17,"map":"koth_highpass","folder":"tf","game":"Team Fortress","app_id":440,"player_count":24,"max_players":24,"Bots":0,"server_type":"Dedicated","server_os":"Linux","password":true,"vac":true,"version":"7882260","steam_id":85568392924504275,"keywords":["cp","nocrits","nodmgspread","uncletopia"],"game_id":440,"stv_port":27046,"stv_name":"Uncletopia | Frankfurt | 4 | All Maps | STV","players":[{"user_id":462,"name":"Ketich","steam_id":76561198021772703,"connected_time":4513000000000,"state":"active","ping":64},{"user_id":496,"name":"Adolf gayming","steam_id":76561198830058797,"connected_time":2558000000000,"state":"active","ping":73},{"user_id":505,"name":"≈ªhƒÖ≈Ñ√üƒõ√± ƒ∂ƒÅ¬ßƒô√±√∏v","steam_id":76561198994666888,"connected_time":2016000000000,"state":"active","ping":151},{"user_id":516,"name":"Valdis","steam_id":76561198057340489,"connected_time":591000000000,"state":"active","ping":56},{"user_id":518,"name":"pajer0","steam_id":76561198002913482,"connected_time":429000000000,"state":"active","ping":108},{"user_id":499,"name":"wolffy","steam_id":76561198083145076,"connected_time":2209000000000,"state":"active","ping":45},{"user_id":520,"name":"Dorich","steam_id":76561198287126217,"connected_time":213000000000,"state":"active","ping":59},{"user_id":501,"name":"Mario","steam_id":76561198053838936,"connected_time":2188000000000,"state":"active","ping":81},{"user_id":497,"name":"duddles","steam_id":76561197972385612,"connected_time":2305000000000,"state":"active","ping":58},{"user_id":358,"name":"S.Scary","steam_id":76561198248602386,"connected_time":12436000000000,"state":"active","ping":65},{"user_id":507,"name":"balls","steam_id":76561198058461401,"connected_time":1598000000000,"state":"active","ping":48},{"user_id":492,"name":"Mussolini","steam_id":76561198218384865,"connected_time":2802000000000,"state":"active","ping":94},{"user_id":481,"name":"ksg","steam_id":76561198042894236,"connected_time":3601000000000,"state":"active","ping":69},{"user_id":438,"name":"NoMaD994","steam_id":76561198051908201,"connected_time":6848000000000,"state":"active","ping":93},{"user_id":502,"name":"Prototype M.A.K","steam_id":76561198416932796,"connected_time":2167000000000,"state":"active","ping":81},{"user_id":503,"name":"The Sex Defender","steam_id":76561198165732391,"connected_time":2128000000000,"state":"active","ping":99},{"user_id":508,"name":"Welrod Gaming","steam_id":76561198439201906,"connected_time":1586000000000,"state":"active","ping":177},{"user_id":475,"name":"844box","steam_id":76561198368131280,"connected_time":3977000000000,"state":"active","ping":100},{"user_id":493,"name":"a bullet","steam_id":76561198809248362,"connected_time":2799000000000,"state":"active","ping":81},{"user_id":521,"name":"That Phlog mfer","steam_id":76561198050416948,"connected_time":154000000000,"state":"active","ping":57},{"user_id":514,"name":"Adib al-asfar","steam_id":76561198095691592,"connected_time":781000000000,"state":"active","ping":57},{"user_id":519,"name":"raTo","steam_id":76561198088433976,"connected_time":415000000000,"state":"active","ping":77},{"user_id":515,"name":"the indomitable human spirit","steam_id":76561199444971686,"connected_time":777000000000,"state":"active","ping":59},{"user_id":512,"name":"Peigg","steam_id":76561198414749782,"connected_time":894000000000,"state":"active","ping":90}]},{"server_id":310,"name":"Uncletopia | Frankfurt | 5 | All Maps","name_short":"frk-5","host":"frk-1.de.uncletopia.com","port":27055,"enabled":true,"region":"eu","cc":"de","latitude":50.110924,"longitude":8.682127,"reserved":0,"last_update":"0001-01-01T00:00:00Z","name_a2s":"Uncletopia | Frankfurt | 5 | All Maps","protocol":17,"map":"cp_egypt_final","folder":"tf","game":"Team Fortress","app_id":440,"player_count":24,"max_players":24,"Bots":0,"server_type":"Dedicated","server_os":"Linux","password":true,"vac":true,"version":"7882260","steam_id":85568392924504277,"keywords":["cp","nocrits","nodmgspread","uncletopia"],"game_id":440,"stv_port":27056,"stv_name":"Uncletopia | Frankfurt | 5 | All Maps | STV","players":[{"user_id":350,"name":"≈Ωilet","steam_id":76561198189553021,"connected_time":6570000000000,"state":"active","ping":60},{"user_id":351,"name":"mar≈°al","steam_id":76561198179392402,"connected_time":6557000000000,"state":"active","ping":48},{"user_id":420,"name":"senko","steam_id":76561198002990168,"connected_time":686000000000,"state":"active","ping":46},{"user_id":415,"name":"koray","steam_id":76561198260506514,"connected_time":893000000000,"state":"active","ping":60},{"user_id":422,"name":"Greyhunter","steam_id":76561197960884202,"connected_time":649000000000,"state":"active","ping":57},{"user_id":397,"name":"snowycoast","steam_id":76561198346638308,"connected_time":1561000000000,"state":"active","ping":59},{"user_id":380,"name":"Chopperson_","steam_id":76561198873728497,"connected_time":3541000000000,"state":"active","ping":106},{"user_id":396,"name":"j o n","steam_id":76561199229511741,"connected_time":1769000000000,"state":"active","ping":70},{"user_id":430,"name":"Spell Montassier","steam_id":76561198406319751,"connected_time":246000000000,"state":"active","ping":59},{"user_id":394,"name":"Der Herr Doktor","steam_id":76561198119476089,"connected_time":2013000000000,"state":"active","ping":57},{"user_id":402,"name":"mrklulz","steam_id":76561198120166752,"connected_time":1328000000000,"state":"active","ping":68},{"user_id":423,"name":"benifis163","steam_id":76561198420973492,"connected_time":600000000000,"state":"active","ping":102},{"user_id":403,"name":"BoomBoom","steam_id":76561198094337443,"connected_time":1319000000000,"state":"active","ping":87},{"user_id":404,"name":"RSG","steam_id":76561198146333046,"connected_time":1313000000000,"state":"active","ping":88},{"user_id":429,"name":"YuraGreek","steam_id":76561198050182252,"connected_time":395000000000,"state":"active","ping":85},{"user_id":409,"name":"Mr.Schnittlauch","steam_id":76561198295868113,"connected_time":967000000000,"state":"active","ping":67},{"user_id":378,"name":"stefanbejenari","steam_id":76561199466718294,"connected_time":3745000000000,"state":"active","ping":76},{"user_id":425,"name":"strahphic","steam_id":76561199279295106,"connected_time":567000000000,"state":"active","ping":118},{"user_id":411,"name":"alset333","steam_id":76561198405345260,"connected_time":952000000000,"state":"active","ping":127},{"user_id":412,"name":"Counter Plexus","steam_id":76561198081479942,"connected_time":931000000000,"state":"active","ping":88},{"user_id":433,"name":"Fridge","steam_id":76561198071665589,"connected_time":17000000000,"state":"active","ping":283},{"user_id":426,"name":"Choirboy (He/Hymn)","steam_id":76561198183949987,"connected_time":555000000000,"state":"active","ping":73},{"user_id":431,"name":"CAMON ENGELAND","steam_id":76561198054301125,"connected_time":146000000000,"state":"active","ping":100},{"user_id":419,"name":"tob:ias","steam_id":76561198832146626,"connected_time":772000000000,"state":"active","ping":46}]},{"server_id":311,"name":"Uncletopia | Frankfurt | 6 | All Maps","name_short":"frk-6","host":"frk-1.de.uncletopia.com","port":27065,"enabled":true,"region":"eu","cc":"de","latitude":50.110924,"longitude":8.682127,"reserved":0,"last_update":"0001-01-01T00:00:00Z","name_a2s":"Uncletopia | Frankfurt | 6 | All Maps","protocol":17,"map":"cp_sunshine","folder":"tf","game":"Team Fortress","app_id":440,"player_count":0,"max_players":24,"Bots":0,"server_type":"Dedicated","server_os":"Linux","password":true,"vac":true,"version":"7882260","steam_id":85568392924504278,"keywords":["cp","nocrits","nodmgspread","uncletopia"],"game_id":440,"stv_port":27066,"stv_name":"Uncletopia | Frankfurt | 6 | All Maps | STV","players":null},{"server_id":23,"name":"Uncletopia | Frankfurt | 7 | Stopwatch Beta","name_short":"frk-7","host":"frk-1.de.uncletopia.com","port":27075,"enabled":true,"region":"eu","cc":"de","latitude":50.110924,"longitude":8.682127,"reserved":0,"last_update":"0001-01-01T00:00:00Z","name_a2s":"Uncletopia | Frankfurt | 7 | Stopwatch Beta","protocol":17,"map":"workshop/pl_badwater_pro_v12.ugc2142942074","folder":"tf","game":"Team Fortress","app_id":440,"player_count":0,"max_players":24,"Bots":0,"server_type":"Dedicated","server_os":"Linux","password":true,"vac":true,"version":"7882260","steam_id":85568392924742827,"keywords":["nocrits","nodmgspread","payload","uncletopia"],"game_id":440,"stv_port":27076,"stv_name":"Uncletopia | Frankfurt | 7 | Stopwatch Beta | STV","players":null},{"server_id":24,"name":"Uncletopia | Frankfurt | 8 | Community","name_short":"frk-8","host":"frk-1.de.uncletopia.com","port":27085,"enabled":true,"region":"eu","cc":"de","latitude":50.110924,"longitude":8.682127,"reserved":0,"last_update":"0001-01-01T00:00:00Z","name_a2s":"Uncletopia | Frankfurt | 8 | Community","protocol":17,"map":"workshop/cp_villa_b19.ugc2113052569","folder":"tf","game":"Team Fortress","app_id":440,"player_count":0,"max_players":24,"Bots":0,"server_type":"Dedicated","server_os":"Linux","password":true,"vac":true,"version":"7882260","steam_id":85568392924742828,"keywords":["cp","nocrits","nodmgspread","uncletopia"],"game_id":440,"stv_port":27086,"stv_name":"Uncletopia | Frankfurt | 8 | Community | STV","players":null},{"server_id":202,"name":"Uncletopia | Hong Kong | 1 | All Maps","name_short":"hgk-1","host":"hgk-1.hk.uncletopia.com","port":27015,"enabled":true,"region":"asia","cc":"hk","latitude":22.302711,"longitude":114.177216,"reserved":0,"last_update":"0001-01-01T00:00:00Z","name_a2s":"Uncletopia | Hong Kong | 1 | All Maps","protocol":17,"map":"cp_mountainlab","folder":"tf","game":"Team Fortress","app_id":440,"player_count":0,"max_players":24,"Bots":0,"server_type":"Dedicated","server_os":"Linux","password":true,"vac":true,"version":"7882260","steam_id":85568392924494504,"keywords":["cp","nocrits","nodmgspread","uncletopia"],"game_id":440,"stv_port":27016,"stv_name":"Uncletopia | Hong Kong | 1 | All Maps | STV","players":null},{"server_id":1,"name":"Uncletopia | Los Angeles | 1 | All Maps","name_short":"lax-1","host":"lax-1.us.uncletopia.com","port":27015,"enabled":true,"region":"us-west","cc":"us","latitude":33.94279,"longitude":-118.41004,"reserved":0,"last_update":"0001-01-01T00:00:00Z","name_a2s":"Uncletopia | Los Angeles | 1 | All Maps","protocol":17,"map":"pl_pier","folder":"tf","game":"Team Fortress","app_id":440,"player_count":0,"max_players":24,"Bots":0,"server_type":"Dedicated","server_os":"Linux","password":true,"vac":true,"version":"7882260","steam_id":85568392924469991,"keywords":["nocrits","nodmgspread","payload","uncletopia"],"game_id":440,"stv_port":27016,"stv_name":"Uncletopia | Los Angeles | 1 | All Maps | STV","players":null},{"server_id":112,"name":"Uncletopia | Los Angeles | 2 | All Maps","name_short":"lax-2","host":"lax-1.us.uncletopia.com","port":27025,"enabled":true,"region":"us-west","cc":"us","latitude":33.94279,"longitude":-118.41004,"reserved":0,"last_update":"0001-01-01T00:00:00Z","name_a2s":"Uncletopia | Los Angeles | 2 | All Maps","protocol":17,"map":"cp_sunshine","folder":"tf","game":"Team Fortress","app_id":440,"player_count":1,"max_players":24,"Bots":0,"server_type":"Dedicated","server_os":"Linux","password":true,"vac":true,"version":"7882260","steam_id":85568392924469992,"keywords":["cp","nocrits","nodmgspread","uncletopia"],"game_id":440,"stv_port":27026,"stv_name":"Uncletopia | Los Angeles | 2 | All Maps | STV","players":[{"user_id":4,"name":"MrvicaKing69","steam_id":76561199268407840,"connected_time":111000000000,"state":"spawning","ping":217}]},{"server_id":324,"name":"Uncletopia | Los Angeles | 3 | All Maps","name_short":"lax-3","host":"lax-1.us.uncletopia.com","port":27035,"enabled":true,"region":"us-west","cc":"us","latitude":33.94279,"longitude":-118.41004,"reserved":0,"last_update":"0001-01-01T00:00:00Z","name_a2s":"Uncletopia | Los Angeles | 3 | All Maps","protocol":17,"map":"cp_sunshine","folder":"tf","game":"Team Fortress","app_id":440,"player_count":0,"max_players":24,"Bots":0,"server_type":"Dedicated","server_os":"Linux","password":true,"vac":true,"version":"7882260","steam_id":85568392924510198,"keywords":["cp","nocrits","nodmgspread","uncletopia"],"game_id":440,"stv_port":27036,"stv_name":"Uncletopia | Los Angeles | 3 | All Maps | STV","players":null},{"server_id":25,"name":"Uncletopia | Los Angeles | 4 | Stopwatch Beta","name_short":"lax-4","host":"lax-1.us.uncletopia.com","port":27045,"enabled":true,"region":"us-west","cc":"us","latitude":33.94279,"longitude":-118.41004,"reserved":0,"last_update":"0001-01-01T00:00:00Z","name_a2s":"Uncletopia | Los Angeles | 4 | Stopwatch Beta","protocol":17,"map":"cp_snakewater_final1","folder":"tf","game":"Team Fortress","app_id":440,"player_count":0,"max_players":24,"Bots":0,"server_type":"Dedicated","server_os":"Linux","password":true,"vac":true,"version":"7882260","steam_id":85568392924510199,"keywords":["cp","nocrits","nodmgspread","uncletopia"],"game_id":440,"stv_port":27046,"stv_name":"Uncletopia | Los Angeles | 4 | Stopwatch Beta | STV","players":null},{"server_id":11,"name":"Uncletopia | London | 1 | All Maps","name_short":"lon-1","host":"lon-1.uk.uncletopia.com","port":27015,"enabled":true,"region":"eu","cc":"gb","latitude":51.509865,"longitude":-0.118092,"reserved":0,"last_update":"0001-01-01T00:00:00Z","name_a2s":"Uncletopia | London | 1 | All Maps","protocol":17,"map":"pl_rumford_event","folder":"tf","game":"Team Fortress","app_id":440,"player_count":24,"max_players":24,"Bots":0,"server_type":"Dedicated","server_os":"Linux","password":true,"vac":true,"version":"7882260","steam_id":85568392924367362,"keywords":["nocrits","nodmgspread","payload","uncletopia"],"game_id":440,"stv_port":27016,"stv_name":"Uncletopia | London | 1 | All Maps | STV","players":[{"user_id":139,"name":"Son Goku","steam_id":76561199383437138,"connected_time":1743000000000,"state":"active","ping":114},{"user_id":83,"name":"Silent","steam_id":76561198344588858,"connected_time":4989000000000,"state":"active","ping":50},{"user_id":132,"name":"Lubrsi","steam_id":76561198040208195,"connected_time":2099000000000,"state":"active","ping":45},{"user_id":124,"name":"zebulon","steam_id":76561198384683504,"connected_time":2503000000000,"state":"active","ping":54},{"user_id":160,"name":"LegoBoy","steam_id":76561197983095579,"connected_time":23000000000,"state":"spawning","ping":87},{"user_id":105,"name":"shooer! :D \u003e\u003c(((¬∫\u003e","steam_id":76561198110531281,"connected_time":3838000000000,"state":"active","ping":66},{"user_id":156,"name":"SKFBoge","steam_id":76561198269038278,"connected_time":823000000000,"state":"active","ping":81},{"user_id":119,"name":"clunk","steam_id":76561198836460767,"connected_time":2575000000000,"state":"active","ping":68},{"user_id":147,"name":"ayadam","steam_id":76561198161515769,"connected_time":1419000000000,"state":"active","ping":110},{"user_id":158,"name":"Show me your gun","steam_id":76561198368339225,"connected_time":535000000000,"state":"active","ping":125},{"user_id":152,"name":"gabagool","steam_id":76561198307111838,"connected_time":1065000000000,"state":"active","ping":28},{"user_id":138,"name":"Scarlet","steam_id":76561198075966579,"connected_time":1761000000000,"state":"active","ping":41},{"user_id":153,"name":"Jinx my beloved","steam_id":76561198819986745,"connected_time":1038000000000,"state":"active","ping":108},{"user_id":157,"name":"Ferlo","steam_id":76561198095561504,"connected_time":813000000000,"state":"active","ping":47},{"user_id":126,"name":"Alexandre","steam_id":76561198121784446,"connected_time":2461000000000,"state":"active","ping":37},{"user_id":148,"name":"ack","steam_id":76561198139796077,"connected_time":1310000000000,"state":"active","ping":57},{"user_id":133,"name":"Hat Lover","steam_id":76561198312283433,"connected_time":2099000000000,"state":"active","ping":96},{"user_id":149,"name":"sleppykoche milk boy","steam_id":76561199046520128,"connected_time":1205000000000,"state":"active","ping":60},{"user_id":142,"name":"wasto-/-‚Ñ¢","steam_id":76561198102888038,"connected_time":1663000000000,"state":"active","ping":59},{"user_id":134,"name":"Uncommon","steam_id":76561198832659399,"connected_time":2080000000000,"state":"active","ping":100},{"user_id":159,"name":"Agartha Dweller","steam_id":76561198076881381,"connected_time":406000000000,"state":"active","ping":78},{"user_id":154,"name":"Lucan","steam_id":76561198219195135,"connected_time":1029000000000,"state":"active","ping":51},{"user_id":143,"name":"XBOX Sturux","steam_id":76561198277644122,"connected_time":1642000000000,"state":"active","ping":80},{"user_id":145,"name":"Xx_EpicGaymer_xX","steam_id":76561198846784757,"connected_time":1605000000000,"state":"active","ping":59}]},{"server_id":114,"name":"Uncletopia | London | 2 | All Maps","name_short":"lon-2","host":"lon-1.uk.uncletopia.com","port":27025,"enabled":true,"region":"eu","cc":"gb","latitude":51.509865,"longitude":-0.118092,"reserved":0,"last_update":"0001-01-01T00:00:00Z","name_a2s":"Uncletopia | London | 2 | All Maps","protocol":17,"map":"koth_lakeside_final","folder":"tf","game":"Team Fortress","app_id":440,"player_count":25,"max_players":24,"Bots":0,"server_type":"Dedicated","server_os":"Linux","password":true,"vac":true,"version":"7882260","steam_id":85568392924470941,"keywords":["cp","nocrits","nodmgspread","uncletopia"],"game_id":440,"stv_port":27026,"stv_name":"Uncletopia | London | 2 | All Maps | STV","players":[{"user_id":19,"name":"JOHN GAMING (#1 gunspy)","steam_id":76561199085822219,"connected_time":2135000000000,"state":"active","ping":89},{"user_id":20,"name":"Well-seasoned mokI","steam_id":76561198964028825,"connected_time":2066000000000,"state":"active","ping":52},{"user_id":21,"name":"MEDIC!","steam_id":76561198970762992,"connected_time":1795000000000,"state":"active","ping":82},{"user_id":24,"name":"fr√∂ga","steam_id":76561198412559828,"connected_time":1206000000000,"state":"active","ping":112},{"user_id":25,"name":"ùíüùí∂ùìáùëíùìÉ","steam_id":76561199400777240,"connected_time":1190000000000,"state":"active","ping":108},{"user_id":26,"name":"Spich","steam_id":76561199017245962,"connected_time":1066000000000,"state":"active","ping":88},{"user_id":28,"name":"Jeffrey Harpen","steam_id":76561199073314677,"connected_time":951000000000,"state":"active","ping":75},{"user_id":29,"name":"‚òÜMiNTERRRRR‚òÜ","steam_id":76561198799866156,"connected_time":797000000000,"state":"active","ping":112},{"user_id":30,"name":"MarkBV","steam_id":76561198427014506,"connected_time":757000000000,"state":"active","ping":133},{"user_id":33,"name":"Medium-Sized Scout","steam_id":76561198972176909,"connected_time":640000000000,"state":"active","ping":165},{"user_id":32,"name":"LEBren","steam_id":76561199229295431,"connected_time":717000000000,"state":"active","ping":53},{"user_id":34,"name":"a freakin' knight","steam_id":76561198371341044,"connected_time":637000000000,"state":"active","ping":138},{"user_id":55,"name":"sam-","steam_id":76561198013770973,"connected_time":36000000000,"state":"active","ping":73},{"user_id":36,"name":"Mr. Compress","steam_id":76561198082943599,"connected_time":598000000000,"state":"active","ping":75},{"user_id":37,"name":"FlukeY","steam_id":76561198026137327,"connected_time":551000000000,"state":"active","ping":55},{"user_id":48,"name":"The Lunch Duke","steam_id":76561199175023352,"connected_time":249000000000,"state":"active","ping":31},{"user_id":54,"name":"Kacperos12","steam_id":76561198044168268,"connected_time":92000000000,"state":"active","ping":96},{"user_id":41,"name":"ThatGamingKiwi","steam_id":76561199170522237,"connected_time":450000000000,"state":"active","ping":147},{"user_id":49,"name":"P9Nexus","steam_id":76561198073416257,"connected_time":200000000000,"state":"active","ping":56},{"user_id":44,"name":"Synted TF2.LT","steam_id":76561198032441551,"connected_time":375000000000,"state":"active","ping":75},{"user_id":46,"name":"[LFT] | ‚Ñ§ar","steam_id":76561199019585369,"connected_time":354000000000,"state":"active","ping":93},{"user_id":47,"name":"Spectre","steam_id":76561198163819482,"connected_time":345000000000,"state":"active","ping":70},{"user_id":50,"name":"WAT","steam_id":76561198941203517,"connected_time":190000000000,"state":"active","ping":73},{"user_id":52,"name":"090-nsalih","steam_id":76561199467467873,"connected_time":172000000000,"state":"active","ping":220},{"user_id":53,"name":"Cool Boy Coz","steam_id":76561198016973060,"connected_time":170000000000,"state":"active","ping":72}]},{"server_id":320,"name":"Uncletopia | London | 3 | All Maps","name_short":"lon-3","host":"lon-1.uk.uncletopia.com","port":27035,"enabled":true,"region":"eu","cc":"gb","latitude":51.509865,"longitude":-0.118092,"reserved":0,"last_update":"0001-01-01T00:00:00Z","name_a2s":"Uncletopia | London | 3 | All Maps","protocol":17,"map":"koth_highpass","folder":"tf","game":"Team Fortress","app_id":440,"player_count":0,"max_players":24,"Bots":0,"server_type":"Dedicated","server_os":"Linux","password":true,"vac":true,"version":"7882260","steam_id":85568392924510192,"keywords":["cp","nocrits","nodmgspread","uncletopia"],"game_id":440,"stv_port":27036,"stv_name":"Uncletopia | London | 3 | All Maps | STV","players":null},{"server_id":321,"name":"Uncletopia | London | 4 | All Maps","name_short":"lon-4","host":"lon-1.uk.uncletopia.com","port":27045,"enabled":true,"region":"eu","cc":"gb","latitude":51.509865,"longitude":-0.118092,"reserved":0,"last_update":"0001-01-01T00:00:00Z","name_a2s":"Uncletopia | London | 4 | All Maps","protocol":17,"map":"koth_lakeside_final","folder":"tf","game":"Team Fortress","app_id":440,"player_count":2,"max_players":24,"Bots":0,"server_type":"Dedicated","server_os":"Linux","password":true,"vac":true,"version":"7882260","steam_id":85568392924510193,"keywords":["cp","nocrits","nodmgspread","uncletopia"],"game_id":440,"stv_port":27046,"stv_name":"Uncletopia | London | 4 | All Maps | STV","players":[{"user_id":23,"name":"nvmHastee","steam_id":76561199371458295,"connected_time":0,"state":"spawning","ping":26},{"user_id":22,"name":"mo√∞√∞e","steam_id":76561199006462039,"connected_time":67000000000,"state":"active","ping":69}]},{"server_id":21,"name":"Uncletopia | London | 5 | All Maps","name_short":"lon-5","host":"lon-1.uk.uncletopia.com","port":27055,"enabled":true,"region":"eu","cc":"gb","latitude":51.509865,"longitude":-0.118092,"reserved":0,"last_update":"0001-01-01T00:00:00Z","name_a2s":"Uncletopia | London | 5 | All Maps","protocol":17,"map":"koth_cascade","folder":"tf","game":"Team Fortress","app_id":440,"player_count":0,"max_players":24,"Bots":0,"server_type":"Dedicated","server_os":"Linux","password":true,"vac":true,"version":"7882260","steam_id":85568392924742829,"keywords":["cp","nocrits","nodmgspread","uncletopia"],"game_id":440,"stv_port":27056,"stv_name":"Uncletopia | London | 5 | All Maps | STV","players":null},{"server_id":22,"name":"Uncletopia | London | 6 | All Maps","name_short":"lon-6","host":"lon-1.uk.uncletopia.com","port":27065,"enabled":true,"region":"eu","cc":"gb","latitude":51.509865,"longitude":-0.118092,"reserved":0,"last_update":"0001-01-01T00:00:00Z","name_a2s":"Uncletopia | London | 6 | All Maps","protocol":17,"map":"pl_pier","folder":"tf","game":"Team Fortress","app_id":440,"player_count":24,"max_players":24,"Bots":0,"server_type":"Dedicated","server_os":"Linux","password":true,"vac":true,"version":"7882260","steam_id":85568392924742830,"keywords":["nocrits","nodmgspread","payload","uncletopia"],"game_id":440,"stv_port":27066,"stv_name":"Uncletopia | London | 6 | All Maps | STV","players":[{"user_id":211,"name":"Certified Doctor Bong Bong","steam_id":76561198171641874,"connected_time":3495000000000,"state":"active","ping":49},{"user_id":223,"name":"El_Kommadante","steam_id":76561198079551685,"connected_time":3062000000000,"state":"active","ping":59},{"user_id":210,"name":"noVa","steam_id":76561198296550363,"connected_time":3500000000000,"state":"active","ping":66},{"user_id":238,"name":"Senior","steam_id":76561198065014164,"connected_time":2324000000000,"state":"active","ping":46},{"user_id":229,"name":"Jan.","steam_id":76561197974066329,"connected_time":2814000000000,"state":"active","ping":60},{"user_id":270,"name":"spxcy","steam_id":76561198080296853,"connected_time":349000000000,"state":"active","ping":103},{"user_id":244,"name":"Bob Sacamano","steam_id":76561198085610701,"connected_time":1848000000000,"state":"active","ping":97},{"user_id":265,"name":"Lilac","steam_id":76561199483835107,"connected_time":915000000000,"state":"active","ping":90},{"user_id":277,"name":"vadr","steam_id":76561198334528186,"connected_time":63000000000,"state":"active","ping":45},{"user_id":272,"name":"Qui-Gon Jinn","steam_id":76561198853214333,"connected_time":216000000000,"state":"active","ping":60},{"user_id":242,"name":"quickfast","steam_id":76561199438900919,"connected_time":1917000000000,"state":"active","ping":43},{"user_id":267,"name":"Noid","steam_id":76561198227804500,"connected_time":813000000000,"state":"active","ping":147},{"user_id":252,"name":"tWx","steam_id":76561198123145824,"connected_time":1526000000000,"state":"active","ping":76},{"user_id":218,"name":"Sham!","steam_id":76561198050434275,"connected_time":3338000000000,"state":"active","ping":60},{"user_id":260,"name":"Old Hat","steam_id":76561197994673297,"connected_time":1252000000000,"state":"active","ping":62},{"user_id":108,"name":"Rori","steam_id":76561198052582902,"connected_time":10582000000000,"state":"active","ping":105},{"user_id":264,"name":"BlobsOfWax","steam_id":76561198041752402,"connected_time":933000000000,"state":"active","ping":45},{"user_id":254,"name":"√∏possum","steam_id":76561198056152479,"connected_time":1503000000000,"state":"active","ping":44},{"user_id":274,"name":"Tank","steam_id":76561199059174576,"connected_time":188000000000,"state":"active","ping":180},{"user_id":258,"name":"Jeerven","steam_id":76561198259189841,"connected_time":1405000000000,"state":"active","ping":74},{"user_id":246,"name":"lior.kr72","steam_id":76561199308997728,"connected_time":1769000000000,"state":"active","ping":112},{"user_id":257,"name":"gerg","steam_id":76561198041663219,"connected_time":1449000000000,"state":"active","ping":53},{"user_id":170,"name":"Yeets3er","steam_id":76561199137127757,"connected_time":6455000000000,"state":"active","ping":57},{"user_id":276,"name":"TJ1212","steam_id":76561199013575313,"connected_time":110000000000,"state":"active","ping":69}]},{"server_id":40,"name":"Uncletopia | London | 7 | No Payload","name_short":"lon-7","host":"lon-1.uk.uncletopia.com","port":27075,"enabled":true,"region":"eu","cc":"gb","latitude":51.509865,"longitude":-0.118092,"reserved":0,"last_update":"0001-01-01T00:00:00Z","name_a2s":"Uncletopia | London | 7 | No Payload","protocol":17,"map":"ctf_2fort","folder":"tf","game":"Team Fortress","app_id":440,"player_count":0,"max_players":24,"Bots":0,"server_type":"Dedicated","server_os":"Linux","password":true,"vac":true,"version":"7882260","steam_id":85568392924964314,"keywords":["ctf","nocrits","nodmgspread","uncletopia"],"game_id":440,"stv_port":27076,"stv_name":"Uncletopia | London | 7 | No Payload | STV","players":null},{"server_id":41,"name":"Uncletopia | London | 8 | Community","name_short":"lon-8","host":"lon-1.uk.uncletopia.com","port":27085,"enabled":true,"region":"eu","cc":"gb","latitude":51.509865,"longitude":-0.118092,"reserved":0,"last_update":"0001-01-01T00:00:00Z","name_a2s":"Uncletopia | London | 8 | Community","protocol":17,"map":"workshop/cp_villa_b19.ugc2113052569","folder":"tf","game":"Team Fortress","app_id":440,"player_count":0,"max_players":24,"Bots":0,"server_type":"Dedicated","server_os":"Linux","password":true,"vac":true,"version":"7882260","steam_id":85568392924964315,"keywords":["cp","nocrits","nodmgspread","uncletopia"],"game_id":440,"stv_port":27086,"stv_name":"Uncletopia | London | 8 | Community | STV","players":null},{"server_id":300,"name":"Uncletopia | Montr√©al | 1 | All Maps","name_short":"mtl-1","host":"mtl-1.ca.uncletopia.com","port":27015,"enabled":true,"region":"us-east","cc":"ca","latitude":45.50889,"longitude":-73.56167,"reserved":0,"last_update":"0001-01-01T00:00:00Z","name_a2s":"Uncletopia | Montr√©al | 1 | All Maps","protocol":17,"map":"pl_snowycoast","folder":"tf","game":"Team Fortress","app_id":440,"player_count":0,"max_players":24,"Bots":0,"server_type":"Dedicated","server_os":"Linux","password":true,"vac":true,"version":"7882260","steam_id":85568392924500087,"keywords":["nocrits","nodmgspread","payload","uncletopia"],"game_id":440,"stv_port":27016,"stv_name":"Uncletopia | Montr√©al | 1 | All Maps | STV","players":null},{"server_id":301,"name":"Uncletopia | Montr√©al | 2 | All Maps","name_short":"mtl-2","host":"mtl-1.ca.uncletopia.com","port":27025,"enabled":true,"region":"us-east","cc":"ca","latitude":45.50889,"longitude":-73.56167,"reserved":0,"last_update":"0001-01-01T00:00:00Z","name_a2s":"Uncletopia | Montr√©al | 2 | All Maps","protocol":17,"map":"cp_sunshine","folder":"tf","game":"Team Fortress","app_id":440,"player_count":0,"max_players":24,"Bots":0,"server_type":"Dedicated","server_os":"Linux","password":true,"vac":true,"version":"7882260","steam_id":85568392924500088,"keywords":["cp","nocrits","nodmgspread","uncletopia"],"game_id":440,"stv_port":27026,"stv_name":"Uncletopia | Montr√©al | 2 | All Maps | STV","players":null},{"server_id":302,"name":"Uncletopia | Montr√©al | 3 | All Maps","name_short":"mtl-3","host":"mtl-1.ca.uncletopia.com","port":27035,"enabled":true,"region":"us-east","cc":"ca","latitude":45.50889,"longitude":-73.56167,"reserved":0,"last_update":"0001-01-01T00:00:00Z","name_a2s":"Uncletopia | Montr√©al | 3 | All Maps","protocol":17,"map":"pl_borneo","folder":"tf","game":"Team Fortress","app_id":440,"player_count":0,"max_players":24,"Bots":0,"server_type":"Dedicated","server_os":"Linux","password":true,"vac":true,"version":"7882260","steam_id":85568392924500089,"keywords":["nocrits","nodmgspread","payload","uncletopia"],"game_id":440,"stv_port":27036,"stv_name":"Uncletopia | Montr√©al | 3 | All Maps | STV","players":null},{"server_id":303,"name":"Uncletopia | Montr√©al | 4 | No Payload","name_short":"mtl-4","host":"mtl-1.ca.uncletopia.com","port":27045,"enabled":true,"region":"us-east","cc":"ca","latitude":45.50889,"longitude":-73.56167,"reserved":0,"last_update":"0001-01-01T00:00:00Z","name_a2s":"Uncletopia | Montr√©al | 4 | No Payload","protocol":17,"map":"cp_altitude","folder":"tf","game":"Team Fortress","app_id":440,"player_count":0,"max_players":24,"Bots":0,"server_type":"Dedicated","server_os":"Linux","password":true,"vac":true,"version":"7882260","steam_id":85568392924500090,"keywords":["cp","nocrits","nodmgspread","uncletopia"],"game_id":440,"stv_port":27046,"stv_name":"Uncletopia | Montr√©al | 4 | No Payload | STV","players":null},{"server_id":13,"name":"Uncletopia | New York City | 1 | All Maps","name_short":"nyc-1","host":"nyc-1.us.uncletopia.com","port":27015,"enabled":true,"region":"us-east","cc":"us","latitude":40.73061,"longitude":-73.93524,"reserved":0,"last_update":"0001-01-01T00:00:00Z","name_a2s":"Uncletopia | New York City | 1 | All Maps","protocol":17,"map":"koth_highpass","folder":"tf","game":"Team Fortress","app_id":440,"player_count":0,"max_players":24,"Bots":0,"server_type":"Dedicated","server_os":"Linux","password":true,"vac":true,"version":"7882260","steam_id":85568392924469993,"keywords":["cp","nocrits","nodmgspread","uncletopia"],"game_id":440,"stv_port":27016,"stv_name":"Uncletopia | New York City | 1 | All Maps | STV","players":null},{"server_id":14,"name":"Uncletopia | New York City | 2 | All Maps","name_short":"nyc-2","host":"nyc-1.us.uncletopia.com","port":27025,"enabled":true,"region":"us-east","cc":"us","latitude":40.73061,"longitude":-73.93524,"reserved":0,"last_update":"0001-01-01T00:00:00Z","name_a2s":"Uncletopia | New York City | 2 | All Maps","protocol":17,"map":"pl_upward","folder":"tf","game":"Team Fortress","app_id":440,"player_count":0,"max_players":24,"Bots":0,"server_type":"Dedicated","server_os":"Linux","password":true,"vac":true,"version":"7882260","steam_id":85568392924469994,"keywords":["nocrits","nodmgspread","payload","uncletopia"],"game_id":440,"stv_port":27026,"stv_name":"Uncletopia | New York City | 2 | All Maps | STV","players":null},{"server_id":15,"name":"Uncletopia | New York City | 3 | Stopwatch Beta","name_short":"nyc-3","host":"nyc-1.us.uncletopia.com","port":27035,"enabled":true,"region":"us-east","cc":"us","latitude":40.73061,"longitude":-73.93524,"reserved":0,"last_update":"0001-01-01T00:00:00Z","name_a2s":"Uncletopia | New York City | 3 | Stopwatch Beta","protocol":17,"map":"koth_lakeside_final","folder":"tf","game":"Team Fortress","app_id":440,"player_count":0,"max_players":24,"Bots":0,"server_type":"Dedicated","server_os":"Linux","password":true,"vac":true,"version":"7882260","steam_id":85568392924742820,"keywords":["cp","nocrits","nodmgspread","uncletopia"],"game_id":440,"stv_port":27036,"stv_name":"Uncletopia | New York City | 3 | Stopwatch Beta | STV","players":null},{"server_id":16,"name":"Uncletopia | New York City | 4 | Community","name_short":"nyc-4","host":"nyc-1.us.uncletopia.com","port":27045,"enabled":true,"region":"us-east","cc":"us","latitude":40.73061,"longitude":-73.93524,"reserved":0,"last_update":"0001-01-01T00:00:00Z","name_a2s":"Uncletopia | New York City | 4 | Community","protocol":17,"map":"pl_badwater","folder":"tf","game":"Team Fortress","app_id":440,"player_count":0,"max_players":24,"Bots":0,"server_type":"Dedicated","server_os":"Linux","password":true,"vac":true,"version":"7882260","steam_id":85568392924742821,"keywords":["nocrits","nodmgspread","payload","uncletopia"],"game_id":440,"stv_port":27046,"stv_name":"Uncletopia | New York City | 4 | Community | STV","players":null},{"server_id":142,"name":"Uncletopia | S√£o Paulo | 1 | All Maps","name_short":"sao-1","host":"sao-1.br.uncletopia.com","port":27015,"enabled":true,"region":"sa","cc":"br","latitude":-23.533773,"longitude":-46.62529,"reserved":0,"last_update":"0001-01-01T00:00:00Z","name_a2s":"Uncletopia | S√£o Paulo | 1 | All Maps","protocol":17,"map":"koth_viaduct","folder":"tf","game":"Team Fortress","app_id":440,"player_count":0,"max_players":24,"Bots":0,"server_type":"Dedicated","server_os":"Linux","password":true,"vac":true,"version":"7882260","steam_id":85568392924469996,"keywords":["cp","nocrits","nodmgspread","uncletopia"],"game_id":440,"stv_port":27016,"stv_name":"Uncletopia | S√£o Paulo | 1 | All Maps | STV","players":null},{"server_id":143,"name":"Uncletopia | S√£o Paulo | 2 | All Maps","name_short":"sao-2","host":"sao-2.br.uncletopia.com","port":27015,"enabled":true,"region":"sa","cc":"br","latitude":-23.533773,"longitude":-46.62529,"reserved":0,"last_update":"0001-01-01T00:00:00Z","name_a2s":"Uncletopia | S√£o Paulo | 2 | All Maps","protocol":17,"map":"pl_snowycoast","folder":"tf","game":"Team Fortress","app_id":440,"player_count":0,"max_players":24,"Bots":0,"server_type":"Dedicated","server_os":"Linux","password":true,"vac":true,"version":"7882260","steam_id":85568392924485349,"keywords":["nocrits","nodmgspread","payload","uncletopia"],"game_id":440,"stv_port":27016,"stv_name":"Uncletopia | S√£o Paulo | 2 | All Maps | STV","players":null},{"server_id":7,"name":"Uncletopia | Seattle | 1 | All Maps","name_short":"sea-1","host":"sea-1.us.uncletopia.com","port":27015,"enabled":true,"region":"us-west","cc":"us","latitude":47.608013,"longitude":-122.33517,"reserved":0,"last_update":"0001-01-01T00:00:00Z","name_a2s":"Uncletopia | Seattle | 1 | All Maps","protocol":17,"map":"cp_sunshine","folder":"tf","game":"Team Fortress","app_id":440,"player_count":24,"max_players":24,"Bots":0,"server_type":"Dedicated","server_os":"Linux","password":true,"vac":true,"version":"7882260","steam_id":85568392924469997,"keywords":["cp","nocrits","nodmgspread","uncletopia"],"game_id":440,"stv_port":27016,"stv_name":"Uncletopia | Seattle | 1 | All Maps | STV","players":[{"user_id":158,"name":"„Åµ„Çè„Åµ„ÇèÊØõÂ∏É","steam_id":76561198088403016,"connected_time":2720000000000,"state":"active","ping":180},{"user_id":172,"name":"Mashi","steam_id":76561198027871223,"connected_time":1207000000000,"state":"active","ping":102},{"user_id":180,"name":"JackinatorBoss","steam_id":76561198322843851,"connected_time":475000000000,"state":"active","ping":85},{"user_id":164,"name":"Festive Donger","steam_id":76561198046925787,"connected_time":2050000000000,"state":"active","ping":98},{"user_id":160,"name":"Jolly","steam_id":76561198116357972,"connected_time":2227000000000,"state":"active","ping":64},{"user_id":89,"name":"Grassman (Cc)","steam_id":76561198026488532,"connected_time":7241000000000,"state":"active","ping":62},{"user_id":139,"name":"Whiskey","steam_id":76561198858154667,"connected_time":3758000000000,"state":"active","ping":75},{"user_id":168,"name":"DoubleX2000","steam_id":76561198164134387,"connected_time":1812000000000,"state":"active","ping":63},{"user_id":174,"name":"Ulrich Stern","steam_id":76561198101739682,"connected_time":1001000000000,"state":"active","ping":116},{"user_id":181,"name":"BrightOrangeMango","steam_id":76561198023144607,"connected_time":442000000000,"state":"active","ping":86},{"user_id":184,"name":"heritage","steam_id":76561198108685037,"connected_time":262000000000,"state":"active","ping":75},{"user_id":83,"name":"Cob","steam_id":76561198042518365,"connected_time":7843000000000,"state":"active","ping":64},{"user_id":159,"name":"sheep in da slipgate","steam_id":76561198076781979,"connected_time":2707000000000,"state":"active","ping":80},{"user_id":185,"name":"Stick Drift","steam_id":76561199019675078,"connected_time":53000000000,"state":"active","ping":101},{"user_id":143,"name":"SolarusD","steam_id":76561198029279861,"connected_time":3330000000000,"state":"active","ping":60},{"user_id":149,"name":"RileyNiko","steam_id":76561198162093639,"connected_time":3145000000000,"state":"active","ping":117},{"user_id":150,"name":"nom","steam_id":76561198105374054,"connected_time":3142000000000,"state":"active","ping":90},{"user_id":167,"name":"Walmus","steam_id":76561198111416393,"connected_time":2021000000000,"state":"active","ping":97},{"user_id":183,"name":"TTV/ChadMorningWood","steam_id":76561198139832291,"connected_time":353000000000,"state":"active","ping":79},{"user_id":128,"name":"M4 Sherman","steam_id":76561198126990820,"connected_time":4517000000000,"state":"active","ping":98},{"user_id":146,"name":"your left testicle","steam_id":76561198970014265,"connected_time":3277000000000,"state":"active","ping":84},{"user_id":156,"name":"BurningKev","steam_id":76561198057688837,"connected_time":2976000000000,"state":"active","ping":83},{"user_id":175,"name":"Lepa Radiƒá","steam_id":76561198014698593,"connected_time":993000000000,"state":"active","ping":50},{"user_id":162,"name":"Sugar Rush","steam_id":76561198094620058,"connected_time":2170000000000,"state":"active","ping":152}]},{"server_id":119,"name":"Uncletopia | Seattle | 2 | All Maps","name_short":"sea-2","host":"sea-1.us.uncletopia.com","port":27025,"enabled":true,"region":"us-west","cc":"us","latitude":47.608013,"longitude":-122.33517,"reserved":0,"last_update":"0001-01-01T00:00:00Z","name_a2s":"Uncletopia | Seattle | 2 | All Maps","protocol":17,"map":"koth_highpass","folder":"tf","game":"Team Fortress","app_id":440,"player_count":0,"max_players":24,"Bots":0,"server_type":"Dedicated","server_os":"Linux","password":true,"vac":true,"version":"7882260","steam_id":85568392924469998,"keywords":["cp","nocrits","nodmgspread","uncletopia"],"game_id":440,"stv_port":27026,"stv_name":"Uncletopia | Seattle | 2 | All Maps | STV","players":null},{"server_id":406,"name":"Uncletopia | Seattle | 3 | Stopwatch Beta","name_short":"sea-3","host":"sea-1.us.uncletopia.com","port":27035,"enabled":true,"region":"us-west","cc":"us","latitude":47.608013,"longitude":-122.33517,"reserved":0,"last_update":"0001-01-01T00:00:00Z","name_a2s":"Uncletopia | Seattle | 3 | Stopwatch Beta","protocol":17,"map":"cp_mountainlab","folder":"tf","game":"Team Fortress","app_id":440,"player_count":0,"max_players":24,"Bots":0,"server_type":"Dedicated","server_os":"Linux","password":true,"vac":true,"version":"7882260","steam_id":85568392924515217,"keywords":["cp","nocrits","nodmgspread","uncletopia"],"game_id":440,"stv_port":27036,"stv_name":"Uncletopia | Seattle | 3 | Stopwatch Beta | STV","players":null},{"server_id":17,"name":"Uncletopia | San Francisco | 1 | All Maps","name_short":"sfo-1","host":"sfo-1.us.uncletopia.com","port":27015,"enabled":true,"region":"us-west","cc":"us","latitude":37.77397,"longitude":-122.4313,"reserved":0,"last_update":"0001-01-01T00:00:00Z","name_a2s":"Uncletopia | San Francisco | 1 | All Maps","protocol":17,"map":"cp_process_final","folder":"tf","game":"Team Fortress","app_id":440,"player_count":0,"max_players":24,"Bots":0,"server_type":"Dedicated","server_os":"Linux","password":true,"vac":true,"version":"7757534","steam_id":85568392924469999,"keywords":["cp","nocrits","nodmgspread","uncletopia"],"game_id":440,"stv_port":27016,"stv_name":"Uncletopia | San Francisco | 1 | All Maps | STV","players":null},{"server_id":18,"name":"Uncletopia | San Francisco | 2 | All Maps","name_short":"sfo-2","host":"sfo-1.us.uncletopia.com","port":27025,"enabled":true,"region":"us-west","cc":"us","latitude":37.77397,"longitude":-122.4313,"reserved":0,"last_update":"0001-01-01T00:00:00Z","name_a2s":"Uncletopia | San Francisco | 2 | All Maps","protocol":17,"map":"koth_highpass","folder":"tf","game":"Team Fortress","app_id":440,"player_count":0,"max_players":24,"Bots":0,"server_type":"Dedicated","server_os":"Linux","password":true,"vac":true,"version":"7757534","steam_id":85568392924470000,"keywords":["cp","nocrits","nodmgspread","uncletopia"],"game_id":440,"stv_port":27026,"stv_name":"Uncletopia | San Francisco | 2 | All Maps | STV","players":null},{"server_id":19,"name":"Uncletopia | San Francisco | 3 | Stopwatch Beta","name_short":"sfo-3","host":"sfo-1.us.uncletopia.com","port":27035,"enabled":true,"region":"us-west","cc":"us","latitude":37.77397,"longitude":-122.4313,"reserved":0,"last_update":"0001-01-01T00:00:00Z","name_a2s":"Uncletopia | San Francisco | 3 | Stopwatch Beta","protocol":17,"map":"koth_lakeside_final","folder":"tf","game":"Team Fortress","app_id":440,"player_count":0,"max_players":24,"Bots":0,"server_type":"Dedicated","server_os":"Linux","password":true,"vac":true,"version":"7757534","steam_id":85568392924742824,"keywords":["cp","nocrits","nodmgspread","uncletopia"],"game_id":440,"stv_port":27036,"stv_name":"Uncletopia | San Francisco | 3 | Stopwatch Beta | STV","players":null},{"server_id":20,"name":"Uncletopia | San Francisco | 4 | Community","name_short":"sfo-4","host":"sfo-1.us.uncletopia.com","port":27045,"enabled":true,"region":"us-west","cc":"us","latitude":37.77397,"longitude":-122.4313,"reserved":0,"last_update":"0001-01-01T00:00:00Z","name_a2s":"Uncletopia | San Francisco | 4 | Community","protocol":17,"map":"cp_altitude","folder":"tf","game":"Team Fortress","app_id":440,"player_count":0,"max_players":24,"Bots":0,"server_type":"Dedicated","server_os":"Linux","password":true,"vac":true,"version":"7757534","steam_id":85568392924742826,"keywords":["cp","nocrits","nodmgspread","uncletopia"],"game_id":440,"stv_port":27046,"stv_name":"Uncletopia | San Francisco | 4 | Community | STV","players":null},{"server_id":141,"name":"Uncletopia | Sydney | 1 | All Maps","name_short":"syd-1","host":"syd-1.au.uncletopia.com","port":27015,"enabled":true,"region":"au","cc":"au","latitude":-33.865143,"longitude":151.2099,"reserved":0,"last_update":"0001-01-01T00:00:00Z","name_a2s":"Uncletopia | Sydney | 1 | All Maps","protocol":17,"map":"koth_lakeside_final","folder":"tf","game":"Team Fortress","app_id":440,"player_count":0,"max_players":24,"Bots":0,"server_type":"Dedicated","server_os":"Linux","password":true,"vac":true,"version":"7882260","steam_id":85568392924470001,"keywords":["cp","nocrits","nodmgspread","uncletopia"],"game_id":440,"stv_port":27016,"stv_name":"Uncletopia | Sydney | 1 | All Maps | STV","players":null},{"server_id":123,"name":"Uncletopia | Sydney | 2 | All Maps","name_short":"syd-2","host":"syd-1.au.uncletopia.com","port":27025,"enabled":true,"region":"au","cc":"au","latitude":-33.865143,"longitude":151.2099,"reserved":0,"last_update":"0001-01-01T00:00:00Z","name_a2s":"Uncletopia | Sydney | 2 | All Maps","protocol":17,"map":"pl_swiftwater_final1","folder":"tf","game":"Team Fortress","app_id":440,"player_count":0,"max_players":24,"Bots":0,"server_type":"Dedicated","server_os":"Linux","password":true,"vac":true,"version":"7882260","steam_id":85568392924470002,"keywords":["nocrits","nodmgspread","payload","uncletopia"],"game_id":440,"stv_port":27026,"stv_name":"Uncletopia | Sydney | 2 | All Maps | STV","players":null},{"server_id":395,"name":"Uncletopia | Sydney | 3 | All Maps","name_short":"syd-3","host":"syd-1.au.uncletopia.com","port":27035,"enabled":true,"region":"au","cc":"au","latitude":-33.865143,"longitude":151.2099,"reserved":0,"last_update":"0001-01-01T00:00:00Z","name_a2s":"Uncletopia | Sydney | 3 | All Maps","protocol":17,"map":"koth_cascade","folder":"tf","game":"Team Fortress","app_id":440,"player_count":0,"max_players":24,"Bots":0,"server_type":"Dedicated","server_os":"Linux","password":true,"vac":true,"version":"7882260","steam_id":85568392925194467,"keywords":["cp","nocrits","nodmgspread","uncletopia"],"game_id":440,"stv_port":27036,"stv_name":"Uncletopia | Sydney | 3 | All Maps | STV","players":null},{"server_id":396,"name":"Uncletopia | Sydney | 4 | All Maps","name_short":"syd-4","host":"syd-1.au.uncletopia.com","port":27045,"enabled":true,"region":"au","cc":"au","latitude":-33.865143,"longitude":151.2099,"reserved":0,"last_update":"0001-01-01T00:00:00Z","name_a2s":"Uncletopia | Sydney | 4 | All Maps","protocol":17,"map":"koth_cascade","folder":"tf","game":"Team Fortress","app_id":440,"player_count":0,"max_players":24,"Bots":0,"server_type":"Dedicated","server_os":"Linux","password":true,"vac":true,"version":"7882260","steam_id":85568392925397958,"keywords":["cp","nocrits","nodmgspread","uncletopia"],"game_id":440,"stv_port":27046,"stv_name":"Uncletopia | Sydney | 4 | All Maps | STV","players":null},{"server_id":58,"name":"Uncletopia | Sydney | 5 | Stopwatch Beta","name_short":"syd-5","host":"syd-1.au.uncletopia.com","port":27055,"enabled":true,"region":"au","cc":"au","latitude":-33.865143,"longitude":151.2099,"reserved":0,"last_update":"0001-01-01T00:00:00Z","name_a2s":"Uncletopia | Sydney | 5 | Stopwatch Beta","protocol":17,"map":"pl_swiftwater_final1","folder":"tf","game":"Team Fortress","app_id":440,"player_count":0,"max_players":24,"Bots":0,"server_type":"Dedicated","server_os":"Linux","password":true,"vac":true,"version":"7882260","steam_id":85568392925397959,"keywords":["nocrits","nodmgspread","payload","uncletopia"],"game_id":440,"stv_port":27056,"stv_name":"Uncletopia | Sydney | 5 | Stopwatch Beta | STV","players":null},{"server_id":59,"name":"Uncletopia | Sydney | 6 | Community","name_short":"syd-6","host":"syd-1.au.uncletopia.com","port":27065,"enabled":true,"region":"au","cc":"au","latitude":-33.865143,"longitude":151.2099,"reserved":0,"last_update":"0001-01-01T00:00:00Z","name_a2s":"Uncletopia | Sydney | 6 | Community","protocol":17,"map":"pl_snowycoast","folder":"tf","game":"Team Fortress","app_id":440,"player_count":0,"max_players":24,"Bots":0,"server_type":"Dedicated","server_os":"Linux","password":true,"vac":true,"version":"7882260","steam_id":85568392925397960,"keywords":["nocrits","nodmgspread","payload","uncletopia"],"game_id":440,"stv_port":27066,"stv_name":"Uncletopia | Sydney | 6 | Community | STV","players":null},{"server_id":49,"name":"Uncletopia | Warsaw | 1 | All Maps","name_short":"waw-1","host":"waw-1.pl.uncletopia.com","port":27015,"enabled":true,"region":"eu","cc":"pl","latitude":52.2297,"longitude":21.017532,"reserved":0,"last_update":"0001-01-01T00:00:00Z","name_a2s":"","protocol":0,"map":"","folder":"","game":"","app_id":0,"player_count":0,"max_players":0,"Bots":0,"server_type":"","server_os":"","password":false,"vac":false,"version":"","steam_id":0,"keywords":null,"game_id":0,"stv_port":0,"stv_name":"","players":null},{"server_id":50,"name":"Uncletopia | Warsaw | 2 | All Maps","name_short":"waw-2","host":"waw-1.pl.uncletopia.com","port":27025,"enabled":true,"region":"eu","cc":"pl","latitude":52.2297,"longitude":21.017532,"reserved":0,"last_update":"0001-01-01T00:00:00Z","name_a2s":"Uncletopia | Warsaw | 2 | All Maps","protocol":17,"map":"pl_swiftwater_final1","folder":"tf","game":"Team Fortress","app_id":440,"player_count":0,"max_players":24,"Bots":0,"server_type":"Dedicated","server_os":"Linux","password":true,"vac":true,"version":"7882260","steam_id":85568392925397851,"keywords":["nocrits","nodmgspread","payload","uncletopia"],"game_id":440,"stv_port":27026,"stv_name":"Uncletopia | Warsaw | 2 | All Maps | STV","players":null},{"server_id":51,"name":"Uncletopia | Warsaw | 3 | All Maps","name_short":"waw-3","host":"waw-1.pl.uncletopia.com","port":27035,"enabled":true,"region":"eu","cc":"pl","latitude":52.2297,"longitude":21.017532,"reserved":0,"last_update":"0001-01-01T00:00:00Z","name_a2s":"Uncletopia | Warsaw | 3 | All Maps","protocol":17,"map":"pl_borneo","folder":"tf","game":"Team Fortress","app_id":440,"player_count":24,"max_players":24,"Bots":0,"server_type":"Dedicated","server_os":"Linux","password":true,"vac":true,"version":"7882260","steam_id":85568392925397852,"keywords":["nocrits","nodmgspread","payload","uncletopia"],"game_id":440,"stv_port":27036,"stv_name":"Uncletopia | Warsaw | 3 | All Maps | STV","players":[{"user_id":42,"name":"eXer","steam_id":76561198838634181,"connected_time":2558000000000,"state":"active","ping":73},{"user_id":43,"name":"Mario.k","steam_id":76561198978669175,"connected_time":2558000000000,"state":"active","ping":95},{"user_id":100,"name":"PashaVerti","steam_id":76561199013963024,"connected_time":252000000000,"state":"active","ping":55},{"user_id":78,"name":"Finix","steam_id":76561198059608904,"connected_time":705000000000,"state":"active","ping":67},{"user_id":30,"name":"...","steam_id":76561198969234594,"connected_time":3524000000000,"state":"active","ping":68},{"user_id":56,"name":"Storm's Foreshadow","steam_id":76561198098462526,"connected_time":1700000000000,"state":"active","ping":42},{"user_id":66,"name":"miloiloloo","steam_id":76561198010807374,"connected_time":1506000000000,"state":"active","ping":130},{"user_id":84,"name":"Mackisaurus","steam_id":76561198370648400,"connected_time":599000000000,"state":"active","ping":106},{"user_id":36,"name":"ROB","steam_id":76561198982164150,"connected_time":3014000000000,"state":"active","ping":51},{"user_id":61,"name":"przksk","steam_id":76561198450284221,"connected_time":1675000000000,"state":"active","ping":51},{"user_id":80,"name":"JanChr98","steam_id":76561198256239784,"connected_time":693000000000,"state":"active","ping":120},{"user_id":102,"name":"Claw","steam_id":76561198060985181,"connected_time":81000000000,"state":"active","ping":140},{"user_id":86,"name":"Kjat","steam_id":76561198839433592,"connected_time":569000000000,"state":"active","ping":73},{"user_id":82,"name":"thussu","steam_id":76561198890409949,"connected_time":665000000000,"state":"active","ping":95},{"user_id":88,"name":"√ñzmet stinkovic","steam_id":76561198964945717,"connected_time":509000000000,"state":"active","ping":99},{"user_id":85,"name":"Potato","steam_id":76561198184310425,"connected_time":593000000000,"state":"active","ping":142},{"user_id":89,"name":"Paavo","steam_id":76561198038707190,"connected_time":502000000000,"state":"active","ping":84},{"user_id":67,"name":"Just1s","steam_id":76561198026597437,"connected_time":1485000000000,"state":"active","ping":57},{"user_id":68,"name":"reformed i swear","steam_id":76561198152392309,"connected_time":1479000000000,"state":"active","ping":62},{"user_id":69,"name":"FilipeLuk","steam_id":76561198150675438,"connected_time":1336000000000,"state":"active","ping":89},{"user_id":73,"name":"Dragon's Fury \u003e You","steam_id":76561198799097492,"connected_time":1045000000000,"state":"active","ping":62},{"user_id":74,"name":"svantezch","steam_id":76561198373831657,"connected_time":1023000000000,"state":"active","ping":77},{"user_id":90,"name":"Wattseyy","steam_id":76561198248567360,"connected_time":499000000000,"state":"active","ping":74},{"user_id":105,"name":"Josh","steam_id":76561198274546904,"connected_time":41000000000,"state":"active","ping":159}]},{"server_id":52,"name":"Uncletopia | Warsaw | 4 | All Maps","name_short":"waw-4","host":"waw-1.pl.uncletopia.com","port":27045,"enabled":true,"region":"eu","cc":"pl","latitude":52.2297,"longitude":21.017532,"reserved":0,"last_update":"0001-01-01T00:00:00Z","name_a2s":"Uncletopia | Warsaw | 4 | All Maps","protocol":17,"map":"koth_highpass","folder":"tf","game":"Team Fortress","app_id":440,"player_count":0,"max_players":24,"Bots":0,"server_type":"Dedicated","server_os":"Linux","password":true,"vac":true,"version":"7882260","steam_id":85568392925397853,"keywords":["cp","nocrits","nodmgspread","uncletopia"],"game_id":440,"stv_port":27046,"stv_name":"Uncletopia | Warsaw | 4 | All Maps | STV","players":null},{"server_id":53,"name":"Uncletopia | Warsaw | 5 | Stopwatch Beta","name_short":"waw-5","host":"waw-1.pl.uncletopia.com","port":27055,"enabled":true,"region":"eu","cc":"pl","latitude":52.2297,"longitude":21.017532,"reserved":0,"last_update":"0001-01-01T00:00:00Z","name_a2s":"Uncletopia | Warsaw | 5 | Stopwatch Beta","protocol":17,"map":"cp_mountainlab","folder":"tf","game":"Team Fortress","app_id":440,"player_count":0,"max_players":24,"Bots":0,"server_type":"Dedicated","server_os":"Linux","password":true,"vac":true,"version":"7882260","steam_id":85568392925397854,"keywords":["cp","nocrits","nodmgspread","uncletopia"],"game_id":440,"stv_port":27056,"stv_name":"Uncletopia | Warsaw | 5 | Stopwatch Beta | STV","players":null},{"server_id":54,"name":"Uncletopia | Warsaw | 6 | Community","name_short":"waw-6","host":"waw-1.pl.uncletopia.com","port":27065,"enabled":true,"region":"eu","cc":"pl","latitude":52.2297,"longitude":21.017532,"reserved":0,"last_update":"0001-01-01T00:00:00Z","name_a2s":"Uncletopia | Warsaw | 6 | Community","protocol":17,"map":"workshop/cp_mannbase_rc2a.ugc1900737467","folder":"tf","game":"Team Fortress","app_id":440,"player_count":0,"max_players":24,"Bots":0,"server_type":"Dedicated","server_os":"Linux","password":true,"vac":true,"version":"7882260","steam_id":85568392925397856,"keywords":["cp","nocrits","nodmgspread","uncletopia"],"game_id":440,"stv_port":27066,"stv_name":"Uncletopia | Warsaw | 6 | Community | STV","players":null}]}