{"status":true,"message":"","result":[{"server_id":9,"name":"Uncletopia | Atlanta | 1 | All Maps","name_short":"atl-1","host":"atl-1.us.uncletopia.com","port":27015,"enabled":true,"region":"us-east","cc":"us","latitude":33.753746,"longitude":-84.38633,"reserved":0,"last_update":"0001-01-01T00:00:00Z","name_a2s":"Uncletopia | Atlanta | 1 | All Maps","protocol":17,"map":"pl_badwater","folder":"tf","game":"Team Fortress","app_id":440,"player_count":23,"max_players":24,"Bots":0,"server_type":"Dedicated","server_os":"Linux","password":true,"vac":true,"version":"7961495","steam_id":85568392924469982,"keywords":["nocrits","nodmgspread","payload","uncletopia"],"game_id":440,"stv_port":27016,"stv_name":"Uncletopia | Atlanta | 1 | All Maps | STV","players":[{"user_id":9,"name":"MinimanC","steam_id":76561198071475084,"connected_time":4374000000000,"state":"active","ping":60},{"user_id":17,"name":"bread","steam_id":76561198291298731,"connected_time":3052000000000,"state":"active","ping":36},{"user_id":52,"name":"fudo myoo","steam_id":76561198456258164,"connected_time":1060000000000,"state":"active","ping":56},{"user_id":56,"name":"An Engineer","steam_id":76561198110381643,"connected_time":879000000000,"state":"active","ping":45},{"user_id":15,"name":"TheGingerOne","steam_id":76561198354203847,"connected_time":3271000000000,"state":"active","ping":67},{"user_id":65,"name":"owlbortch","steam_id":76561198042849350,"connected_time":548000000000,"state":"active","ping":60},{"user_id":16,"name":"bingus cheese","steam_id":76561198069010944,"connected_time":3271000000000,"state":"active","ping":74},{"user_id":59,"name":"sloth (i have gay)","steam_id":76561198047098172,"connected_time":728000000000,"state":"active","ping":84},{"user_id":40,"name":"Jrock","steam_id":76561198045715996,"connected_time":2208000000000,"state":"active","ping":65},{"user_id":36,"name":"Firedust19","steam_id":76561198153238631,"connected_time":2505000000000,"state":"active","ping":92},{"user_id":50,"name":"Ophelia-chan","steam_id":76561198874186629,"connected_time":1226000000000,"state":"active","ping":75},{"user_id":45,"name":"Always Here for You","steam_id":76561198219252313,"connected_time":1590000000000,"state":"active","ping":76},{"user_id":23,"name":"Waffle Wannabe, MD (!!!)","steam_id":76561198064510650,"connected_time":2882000000000,"state":"active","ping":67},{"user_id":42,"name":"financial regret","steam_id":76561198448523433,"connected_time":2114000000000,"state":"active","ping":130},{"user_id":25,"name":"kashroomski","steam_id":76561198057076267,"connected_time":2801000000000,"state":"active","ping":80},{"user_id":66,"name":"shaderoses","steam_id":76561198070800500,"connected_time":257000000000,"state":"active","ping":66},{"user_id":60,"name":"Venom_Yankee","steam_id":76561198078146145,"connected_time":720000000000,"state":"active","ping":56},{"user_id":70,"name":"Gotta Move That Gear Up","steam_id":76561197993467034,"connected_time":19000000000,"state":"spawning","ping":90},{"user_id":48,"name":"Sergeant Joker","steam_id":76561198854616604,"connected_time":1385000000000,"state":"active","ping":75},{"user_id":67,"name":"Maestro","steam_id":76561198157325020,"connected_time":179000000000,"state":"active","ping":60},{"user_id":51,"name":"Fercho Mo","steam_id":76561198168935077,"connected_time":1219000000000,"state":"active","ping":78},{"user_id":34,"name":"Guloveos","steam_id":76561199138358380,"connected_time":2640000000000,"state":"active","ping":101},{"user_id":35,"name":"BANGARANG","steam_id":76561198816597453,"connected_time":2639000000000,"state":"active","ping":65}]},{"server_id":104,"name":"Uncletopia | Atlanta | 2 | All Maps","name_short":"atl-2","host":"atl-1.us.uncletopia.com","port":27025,"enabled":true,"region":"us-east","cc":"us","latitude":33.753746,"longitude":-84.38633,"reserved":0,"last_update":"0001-01-01T00:00:00Z","name_a2s":"Uncletopia | Atlanta | 2 | All Maps","protocol":17,"map":"cp_mountainlab","folder":"tf","game":"Team Fortress","app_id":440,"player_count":0,"max_players":24,"Bots":0,"server_type":"Dedicated","server_os":"Linux","password":true,"vac":true,"version":"7961495","steam_id":85568392924469983,"keywords":["cp","nocrits","nodmgspread","uncletopia"],"game_id":440,"stv_port":27026,"stv_name":"Uncletopia | Atlanta | 2 | All Maps | STV","players":null},{"server_id":400,"name":"Uncletopia | Atlanta | 3 | Stopwatch","name_short":"atl-3","host":"atl-1.us.uncletopia.com","port":27035,"enabled":true,"region":"us-east","cc":"us","latitude":33.753746,"longitude":-84.38633,"reserved":0,"last_update":"0001-01-01T00:00:00Z","name_a2s":"Uncletopia | Atlanta | 3 | Stopwatch","protocol":17,"map":"pl_upward","folder":"tf","game":"Team Fortress","app_id":440,"player_count":0,"max_players":24,"Bots":0,"server_type":"Dedicated","server_os":"Linux","password":true,"vac":true,"version":"7961495","steam_id":85568392924515187,"keywords":["nocrits","nodmgspread","payload","uncletopia"],"game_id":440,"stv_port":27036,"stv_name":"Uncletopia | Atlanta | 3 | Stopwatch | STV","players":null},{"server_id":401,"name":"Uncletopia | Atlanta | 4 | Community","name_short":"atl-4","host":"atl-1.us.uncletopia.com","port":27045,"enabled":true,"region":"us-east","cc":"us","latitude":33.753746,"longitude":-84.38633,"reserved":0,"last_update":"0001-01-01T00:00:00Z","name_a2s":"Uncletopia | Atlanta | 4 | Community","protocol":17,"map":"workshop/pl_vigil_rc10.ugc1266210012","folder":"tf","game":"Team Fortress","app_id":440,"player_count":0,"max_players":24,"Bots":0,"server_type":"Dedicated","server_os":"Linux","password":true,"vac":true,"version":"7961495","steam_id":85568392924515188,"keywords":["nocrits","nodmgspread","payload","uncletopia"],"game_id":440,"stv_port":27046,"stv_name":"Uncletopia | Atlanta | 4 | Community | STV","players":null},{"server_id":2,"name":"Uncletopia | Chicago | 1 | All Maps","name_short":"chi-1","host":"chi-1.us.uncletopia.com","port":27015,"enabled":true,"region":"us-central","cc":"us","latitude":41.881832,"longitude":-87.62318,"reserved":0,"last_update":"0001-01-01T00:00:00Z","name_a2s":"Uncletopia | Chicago | 1 | All Maps","protocol":17,"map":"koth_viaduct","folder":"tf","game":"Team Fortress","app_id":440,"player_count":0,"max_players":24,"Bots":0,"server_type":"Dedicated","server_os":"Linux","password":true,"vac":true,"version":"7961495","steam_id":85568392924469984,"keywords":["cp","nocrits","nodmgspread","uncletopia"],"game_id":440,"stv_port":27016,"stv_name":"Uncletopia | Chicago | 1 | All Maps | STV","players":null},{"server_id":106,"name":"Uncletopia | Chicago | 2 | All Maps","name_short":"chi-2","host":"chi-1.us.uncletopia.com","port":27025,"enabled":true,"region":"us-central","cc":"us","latitude":41.881832,"longitude":-87.62318,"reserved":0,"last_update":"0001-01-01T00:00:00Z","name_a2s":"Uncletopia | Chicago | 2 | All Maps","protocol":17,"map":"cp_altitude","folder":"tf","game":"Team Fortress","app_id":440,"player_count":24,"max_players":24,"Bots":0,"server_type":"Dedicated","server_os":"Linux","password":true,"vac":true,"version":"7961495","steam_id":85568392924469985,"keywords":["cp","nocrits","nodmgspread","uncletopia"],"game_id":440,"stv_port":27026,"stv_name":"Uncletopia | Chicago | 2 | All Maps | STV","players":[{"user_id":153,"name":"Majestic-A","steam_id":76561198988062101,"connected_time":261000000000,"state":"active","ping":91},{"user_id":108,"name":"ArchmageF","steam_id":76561197992246851,"connected_time":3025000000000,"state":"active","ping":99},{"user_id":104,"name":"IGOR","steam_id":76561199128786637,"connected_time":3519000000000,"state":"active","ping":96},{"user_id":138,"name":"bird enthusiast","steam_id":76561198087661713,"connected_time":1014000000000,"state":"active","ping":65},{"user_id":129,"name":"Lovedaddy","steam_id":76561198006569710,"connected_time":1465000000000,"state":"active","ping":73},{"user_id":144,"name":"bhop","steam_id":76561198064885639,"connected_time":422000000000,"state":"active","ping":67},{"user_id":11,"name":"JohnFMX","steam_id":76561198175608097,"connected_time":11454000000000,"state":"active","ping":71},{"user_id":128,"name":"Flyinglab","steam_id":76561198042161408,"connected_time":1692000000000,"state":"active","ping":67},{"user_id":71,"name":"daemon","steam_id":76561198001541433,"connected_time":7159000000000,"state":"active","ping":50},{"user_id":137,"name":"Mr. Noodle","steam_id":76561198037803087,"connected_time":1079000000000,"state":"active","ping":75},{"user_id":133,"name":"Bon gripper","steam_id":76561198090074621,"connected_time":1301000000000,"state":"active","ping":45},{"user_id":127,"name":"Kdwag","steam_id":76561198030761042,"connected_time":1870000000000,"state":"active","ping":84},{"user_id":155,"name":"local tetanus dealer","steam_id":76561198159585474,"connected_time":182000000000,"state":"active","ping":79},{"user_id":154,"name":"Legit_Jaxer","steam_id":76561198172234053,"connected_time":249000000000,"state":"active","ping":130},{"user_id":141,"name":"HanakoToast","steam_id":76561198045233131,"connected_time":851000000000,"state":"active","ping":97},{"user_id":140,"name":"Trapilicious","steam_id":76561198061430457,"connected_time":978000000000,"state":"active","ping":79},{"user_id":97,"name":"ginosaurusx","steam_id":76561198410640142,"connected_time":4096000000000,"state":"active","ping":71},{"user_id":68,"name":"Duncan Slamwell, B-Ball Attorne","steam_id":76561197994924793,"connected_time":8097000000000,"state":"active","ping":59},{"user_id":142,"name":"Goober","steam_id":76561198988863807,"connected_time":845000000000,"state":"active","ping":72},{"user_id":102,"name":"JOOOOOOOOOOOOO!!!!!!","steam_id":76561199101638460,"connected_time":3617000000000,"state":"active","ping":88},{"user_id":136,"name":"Spiral Mountain","steam_id":76561198058683715,"connected_time":1144000000000,"state":"active","ping":87},{"user_id":139,"name":"Voodo133","steam_id":76561198042670351,"connected_time":1009000000000,"state":"active","ping":80},{"user_id":115,"name":"nettles","steam_id":76561199238923581,"connected_time":2847000000000,"state":"active","ping":121},{"user_id":151,"name":"Lmnop","steam_id":76561198038458838,"connected_time":362000000000,"state":"active","ping":59}]},{"server_id":402,"name":"Uncletopia | Chicago | 3 | All Maps","name_short":"chi-3","host":"chi-1.us.uncletopia.com","port":27035,"enabled":true,"region":"us-central","cc":"us","latitude":41.881832,"longitude":-87.62318,"reserved":0,"last_update":"0001-01-01T00:00:00Z","name_a2s":"Uncletopia | Chicago | 3 | All Maps","protocol":17,"map":"plr_pipeline","folder":"tf","game":"Team Fortress","app_id":440,"player_count":0,"max_players":24,"Bots":0,"server_type":"Dedicated","server_os":"Linux","password":true,"vac":true,"version":"7961495","steam_id":85568392924515191,"keywords":["nocrits","nodmgspread","payload","uncletopia"],"game_id":440,"stv_port":27036,"stv_name":"Uncletopia | Chicago | 3 | All Maps | STV","players":null},{"server_id":403,"name":"Uncletopia | Chicago | 4 | All Maps","name_short":"chi-4","host":"chi-1.us.uncletopia.com","port":27045,"enabled":true,"region":"us-central","cc":"us","latitude":41.881832,"longitude":-87.62318,"reserved":0,"last_update":"0001-01-01T00:00:00Z","name_a2s":"Uncletopia | Chicago | 4 | All Maps","protocol":17,"map":"pl_rumford_event","folder":"tf","game":"Team Fortress","app_id":440,"player_count":0,"max_players":24,"Bots":0,"server_type":"Dedicated","server_os":"Linux","password":true,"vac":true,"version":"7961495","steam_id":85568392924515193,"keywords":["nocrits","nodmgspread","payload","uncletopia"],"game_id":440,"stv_port":27046,"stv_name":"Uncletopia | Chicago | 4 | All Maps | STV","players":null},{"server_id":36,"name":"Uncletopia | Chicago | 5 | All Maps","name_short":"chi-5","host":"chi-2.us.uncletopia.com","port":27015,"enabled":true,"region":"us-central","cc":"us","latitude":41.881832,"longitude":-87.62318,"reserved":0,"last_update":"0001-01-01T00:00:00Z","name_a2s":"Uncletopia | Chicago | 5 | All Maps","protocol":17,"map":"pl_frontier_final","folder":"tf","game":"Team Fortress","app_id":440,"player_count":24,"max_players":24,"Bots":0,"server_type":"Dedicated","server_os":"Linux","password":true,"vac":true,"version":"7961495","steam_id":85568392924866362,"keywords":["nocrits","nodmgspread","payload","uncletopia"],"game_id":440,"stv_port":27016,"stv_name":"Uncletopia | Chicago | 5 | All Maps | STV","players":[{"user_id":103,"name":"Greskrendtregk","steam_id":76561197969553142,"connected_time":788000000000,"state":"active","ping":92},{"user_id":112,"name":"Asparagus and cheese","steam_id":76561198968058652,"connected_time":358000000000,"state":"active","ping":100},{"user_id":74,"name":"Kawaiiestboi","steam_id":76561198182178703,"connected_time":3691000000000,"state":"active","ping":97},{"user_id":96,"name":"Acid","steam_id":76561198042538896,"connected_time":2073000000000,"state":"active","ping":120},{"user_id":8,"name":"Transgender Guy Fieri","steam_id":76561198801467075,"connected_time":8375000000000,"state":"active","ping":71},{"user_id":101,"name":"raisedbybirds","steam_id":76561198131531646,"connected_time":1140000000000,"state":"active","ping":74},{"user_id":92,"name":"UwU","steam_id":76561198971629959,"connected_time":2286000000000,"state":"active","ping":149},{"user_id":82,"name":"Kaypo","steam_id":76561198262420097,"connected_time":3164000000000,"state":"active","ping":53},{"user_id":114,"name":"Thunderguy ^_^","steam_id":76561199013548761,"connected_time":103000000000,"state":"active","ping":91},{"user_id":107,"name":"Cosmic Torgue","steam_id":76561198828724945,"connected_time":592000000000,"state":"active","ping":70},{"user_id":97,"name":"murphy","steam_id":76561198327703300,"connected_time":2068000000000,"state":"active","ping":47},{"user_id":95,"name":"Crunchy","steam_id":76561198060342804,"connected_time":2257000000000,"state":"active","ping":70},{"user_id":98,"name":"THUG SHAKER","steam_id":76561198119265998,"connected_time":2016000000000,"state":"active","ping":58},{"user_id":26,"name":"(\u003e人\u003c;)","steam_id":76561198043684960,"connected_time":7757000000000,"state":"active","ping":73},{"user_id":113,"name":"lorient","steam_id":76561198150831438,"connected_time":125000000000,"state":"active","ping":88},{"user_id":102,"name":"dr peppah chug!","steam_id":76561198068835693,"connected_time":831000000000,"state":"active","ping":93},{"user_id":99,"name":"totoro","steam_id":76561198210420871,"connected_time":1706000000000,"state":"active","ping":50},{"user_id":109,"name":"Luci★Fer","steam_id":76561199030343810,"connected_time":574000000000,"state":"active","ping":68},{"user_id":64,"name":"jras","steam_id":76561198159797901,"connected_time":4952000000000,"state":"active","ping":73},{"user_id":50,"name":"Child Incinerator","steam_id":76561198115707039,"connected_time":6136000000000,"state":"active","ping":47},{"user_id":71,"name":"milk","steam_id":76561198053410877,"connected_time":4196000000000,"state":"active","ping":106},{"user_id":90,"name":"Prsm","steam_id":76561198053344995,"connected_time":2473000000000,"state":"active","ping":59},{"user_id":91,"name":"slippyyλ","steam_id":76561198143018098,"connected_time":2303000000000,"state":"active","ping":71},{"user_id":110,"name":"motherfucker 2.0","steam_id":76561198141189209,"connected_time":557000000000,"state":"active","ping":72}]},{"server_id":37,"name":"Uncletopia | Chicago | 6 | All Maps","name_short":"chi-6","host":"chi-2.us.uncletopia.com","port":27025,"enabled":true,"region":"us-central","cc":"us","latitude":41.881832,"longitude":-87.62318,"reserved":0,"last_update":"0001-01-01T00:00:00Z","name_a2s":"Uncletopia | Chicago | 6 | All Maps","protocol":17,"map":"pl_frontier_final","folder":"tf","game":"Team Fortress","app_id":440,"player_count":0,"max_players":24,"Bots":0,"server_type":"Dedicated","server_os":"Linux","password":true,"vac":true,"version":"7961495","steam_id":85568392924866363,"keywords":["nocrits","nodmgspread","payload","uncletopia"],"game_id":440,"stv_port":27026,"stv_name":"Uncletopia | Chicago | 6 | All Maps | STV","players":null},{"server_id":38,"name":"Uncletopia | Chicago | 7 | Stopwatch","name_short":"chi-7","host":"chi-2.us.uncletopia.com","port":27035,"enabled":true,"region":"us-central","cc":"us","latitude":41.881832,"longitude":-87.62318,"reserved":0,"last_update":"0001-01-01T00:00:00Z","name_a2s":"Uncletopia | Chicago | 7 | Stopwatch","protocol":17,"map":"cp_granary","folder":"tf","game":"Team Fortress","app_id":440,"player_count":0,"max_players":24,"Bots":0,"server_type":"Dedicated","server_os":"Linux","password":true,"vac":true,"version":"7961495","steam_id":85568392924866364,"keywords":["cp","nocrits","nodmgspread","uncletopia"],"game_id":440,"stv_port":27036,"stv_name":"Uncletopia | Chicago | 7 | Stopwatch | STV","players":null},{"server_id":39,"name":"Uncletopia | Chicago | 8 | Community","name_short":"chi-8","host":"chi-2.us.uncletopia.com","port":27045,"enabled":true,"region":"us-central","cc":"us","latitude":41.881832,"longitude":-87.62318,"reserved":0,"last_update":"0001-01-01T00:00:00Z","name_a2s":"Uncletopia | Chicago | 8 | Community","protocol":17,"map":"workshop/koth_slaughter_rc1.ugc1712845210","folder":"tf","game":"Team Fortress","app_id":440,"player_count":0,"max_players":24,"Bots":0,"server_type":"Dedicated","server_os":"Linux","password":true,"vac":true,"version":"7961495","steam_id":85568392924866365,"keywords":["cp","nocrits","nodmgspread","uncletopia"],"game_id":440,"stv_port":27046,"stv_name":"Uncletopia | Chicago | 8 | Community | STV","players":null},{"server_id":8,"name":"Uncletopia | Dallas | 1 | All Maps","name_short":"dal-1","host":"dal-1.us.uncletopia.com","port":27015,"enabled":true,"region":"us-central","cc":"us","latitude":32.779167,"longitude":-96.80889,"reserved":0,"last_update":"0001-01-01T00:00:00Z","name_a2s":"Uncletopia | Dallas | 1 | All Maps","protocol":17,"map":"pl_upward","folder":"tf","game":"Team Fortress","app_id":440,"player_count":24,"max_players":24,"Bots":0,"server_type":"Dedicated","server_os":"Linux","password":true,"vac":true,"version":"7961495","steam_id":85568392924469986,"keywords":["nocrits","nodmgspread","payload","uncletopia"],"game_id":440,"stv_port":27016,"stv_name":"Uncletopia | Dallas | 1 | All Maps | STV","players":[{"user_id":100,"name":"WhoWee!","steam_id":76561198269471732,"connected_time":884000000000,"state":"active","ping":58},{"user_id":92,"name":"Psychosis","steam_id":76561198078659070,"connected_time":1668000000000,"state":"active","ping":72},{"user_id":112,"name":"Ulrich Stern","steam_id":76561198101739682,"connected_time":33000000000,"state":"active","ping":88},{"user_id":99,"name":"VOLCANIC BIRD ENEMY","steam_id":76561198366299848,"connected_time":902000000000,"state":"active","ping":84},{"user_id":77,"name":"Tuvok Shakur","steam_id":76561198018875334,"connected_time":2476000000000,"state":"active","ping":57},{"user_id":81,"name":"Tavish Finnegan DeGroot","steam_id":76561198405168492,"connected_time":2238000000000,"state":"active","ping":101},{"user_id":80,"name":"Hughi3","steam_id":76561199063537558,"connected_time":2276000000000,"state":"active","ping":74},{"user_id":62,"name":"rad killl raccoon","steam_id":76561198980975595,"connected_time":3331000000000,"state":"active","ping":101},{"user_id":93,"name":"Slasher69","steam_id":76561198027679752,"connected_time":1631000000000,"state":"active","ping":90},{"user_id":34,"name":"splot","steam_id":76561199133681385,"connected_time":5592000000000,"state":"active","ping":108},{"user_id":108,"name":"Zetta","steam_id":76561198045710113,"connected_time":573000000000,"state":"active","ping":75},{"user_id":102,"name":"X0X2","steam_id":76561198418503762,"connected_time":881000000000,"state":"active","ping":115},{"user_id":105,"name":"kermitcreeper(ZAZA)","steam_id":76561199222829972,"connected_time":654000000000,"state":"active","ping":59},{"user_id":82,"name":"RainboomCrash","steam_id":76561198065612273,"connected_time":2225000000000,"state":"active","ping":105},{"user_id":83,"name":"heheheheheh","steam_id":76561198884486994,"connected_time":2213000000000,"state":"active","ping":80},{"user_id":109,"name":"nubcaik","steam_id":76561197986442939,"connected_time":513000000000,"state":"active","ping":55},{"user_id":85,"name":"everything is a lie (wake up)","steam_id":76561198144436132,"connected_time":2177000000000,"state":"active","ping":77},{"user_id":86,"name":"Tom Dude","steam_id":76561198093913484,"connected_time":2171000000000,"state":"active","ping":86},{"user_id":111,"name":"Mikke","steam_id":76561198170234003,"connected_time":74000000000,"state":"active","ping":92},{"user_id":87,"name":"☣ cat fock ☣","steam_id":76561198264641620,"connected_time":2037000000000,"state":"active","ping":78},{"user_id":95,"name":"Mr. Fluffy Penguins","steam_id":76561198172538149,"connected_time":1537000000000,"state":"active","ping":87},{"user_id":91,"name":"Colonel Knacker","steam_id":76561198151578423,"connected_time":1785000000000,"state":"active","ping":58},{"user_id":97,"name":"elcarlos1010","steam_id":76561198201986832,"connected_time":972000000000,"state":"active","ping":50},{"user_id":61,"name":"wendigo","steam_id":76561197994528974,"connected_time":3344000000000,"state":"active","ping":110}]},{"server_id":108,"name":"Uncletopia | Dallas | 2 | All Maps","name_short":"dal-2","host":"dal-1.us.uncletopia.com","port":27025,"enabled":true,"region":"us-central","cc":"us","latitude":32.779167,"longitude":-96.80889,"reserved":0,"last_update":"0001-01-01T00:00:00Z","name_a2s":"Uncletopia | Dallas | 2 | All Maps","protocol":17,"map":"koth_lakeside_final","folder":"tf","game":"Team Fortress","app_id":440,"player_count":0,"max_players":24,"Bots":0,"server_type":"Dedicated","server_os":"Linux","password":true,"vac":true,"version":"7961495","steam_id":85568392924469988,"keywords":["cp","nocrits","nodmgspread","uncletopia"],"game_id":440,"stv_port":27026,"stv_name":"Uncletopia | Dallas | 2 | All Maps | STV","players":null},{"server_id":404,"name":"Uncletopia | Dallas | 3 | All Maps","name_short":"dal-3","host":"dal-1.us.uncletopia.com","port":27035,"enabled":true,"region":"us-central","cc":"us","latitude":32.779167,"longitude":-96.80889,"reserved":0,"last_update":"0001-01-01T00:00:00Z","name_a2s":"Uncletopia | Dallas | 3 | All Maps","protocol":17,"map":"pl_pier","folder":"tf","game":"Team Fortress","app_id":440,"player_count":0,"max_players":24,"Bots":0,"server_type":"Dedicated","server_os":"Linux","password":true,"vac":true,"version":"7961495","steam_id":85568392924515219,"keywords":["nocrits","nodmgspread","payload","uncletopia"],"game_id":440,"stv_port":27036,"stv_name":"Uncletopia | Dallas | 3 | All Maps | STV","players":null},{"server_id":405,"name":"Uncletopia | Dallas | 4 | Community","name_short":"dal-4","host":"dal-1.us.uncletopia.com","port":27045,"enabled":true,"region":"us-central","cc":"us","latitude":32.779167,"longitude":-96.80889,"reserved":0,"last_update":"0001-01-01T00:00:00Z","name_a2s":"Uncletopia | Dallas | 4 | Community","protocol":17,"map":"workshop/koth_synthetic_rc6a.ugc1549817316","folder":"tf","game":"Team Fortress","app_id":440,"player_count":0,"max_players":24,"Bots":0,"server_type":"Dedicated","server_os":"Linux","password":true,"vac":true,"version":"7961495","steam_id":85568392924515220,"keywords":["cp","nocrits","nodmgspread","uncletopia"],"game_id":440,"stv_port":27046,"stv_name":"Uncletopia | Dallas | 4 | Community | STV","players":null},{"server_id":5,"name":"Uncletopia | Frankfurt | 1 | All Maps","name_short":"frk-1","host":"frk-1.de.uncletopia.com","port":27015,"enabled":true,"region":"eu","cc":"de","latitude":50.110924,"longitude":8.682127,"reserved":0,"last_update":"0001-01-01T00:00:00Z","name_a2s":"Uncletopia | Frankfurt | 1 | All Maps","protocol":17,"map":"pl_upward","folder":"tf","game":"Team Fortress","app_id":440,"player_count":24,"max_players":24,"Bots":0,"server_type":"Dedicated","server_os":"Linux","password":true,"vac":true,"version":"7961495","steam_id":85568392924469989,"keywords":["nocrits","nodmgspread","payload","uncletopia"],"game_id":440,"stv_port":27016,"stv_name":"Uncletopia | Frankfurt | 1 | All Maps | STV","players":[{"user_id":151,"name":"Pvt Talbot","steam_id":76561198261001389,"connected_time":4742000000000,"state":"active","ping":60},{"user_id":189,"name":"GGlut","steam_id":76561198034281473,"connected_time":1617000000000,"state":"active","ping":38},{"user_id":170,"name":"Razef","steam_id":76561198030309484,"connected_time":3345000000000,"state":"active","ping":49},{"user_id":128,"name":"Carl","steam_id":76561198045638738,"connected_time":6009000000000,"state":"active","ping":60},{"user_id":210,"name":"Grillem Dafoe","steam_id":76561198306874574,"connected_time":272000000000,"state":"active","ping":67},{"user_id":191,"name":"please do not the cat","steam_id":76561198089003514,"connected_time":1445000000000,"state":"active","ping":43},{"user_id":187,"name":"♣Генсек Поноса","steam_id":76561198796404149,"connected_time":1688000000000,"state":"active","ping":88},{"user_id":200,"name":"Average Enjoyer","steam_id":76561198007410080,"connected_time":1089000000000,"state":"active","ping":75},{"user_id":211,"name":"Storm's Foreshadow","steam_id":76561198098462526,"connected_time":241000000000,"state":"active","ping":63},{"user_id":205,"name":"why rum gone","steam_id":76561198158484784,"connected_time":519000000000,"state":"active","ping":60},{"user_id":178,"name":"Veirū Viseris","steam_id":76561197989857176,"connected_time":2560000000000,"state":"active","ping":76},{"user_id":202,"name":"Kävin","steam_id":76561198145843785,"connected_time":903000000000,"state":"active","ping":50},{"user_id":179,"name":"_Alonso","steam_id":76561198041893314,"connected_time":2508000000000,"state":"active","ping":52},{"user_id":172,"name":"Lord of the Ping","steam_id":76561198019648669,"connected_time":3318000000000,"state":"active","ping":59},{"user_id":130,"name":"onixed","steam_id":76561198995478547,"connected_time":5799000000000,"state":"active","ping":44},{"user_id":118,"name":"President013","steam_id":76561198107233527,"connected_time":7147000000000,"state":"active","ping":74},{"user_id":149,"name":"galaxy","steam_id":76561198164819022,"connected_time":5024000000000,"state":"active","ping":55},{"user_id":209,"name":"Xeno","steam_id":76561198975556646,"connected_time":327000000000,"state":"active","ping":48},{"user_id":198,"name":"cheriberry","steam_id":76561198093577036,"connected_time":1271000000000,"state":"active","ping":49},{"user_id":212,"name":"Conan the Librarian","steam_id":76561198007224654,"connected_time":229000000000,"state":"active","ping":60},{"user_id":207,"name":"yusef","steam_id":76561198108481078,"connected_time":394000000000,"state":"active","ping":113},{"user_id":203,"name":"---","steam_id":76561198092283741,"connected_time":822000000000,"state":"active","ping":61},{"user_id":201,"name":"pumpkin spice","steam_id":76561198449957490,"connected_time":1028000000000,"state":"active","ping":73},{"user_id":116,"name":"Gurgula","steam_id":76561198021253678,"connected_time":7292000000000,"state":"active","ping":54}]},{"server_id":110,"name":"Uncletopia | Frankfurt | 2 | All Maps","name_short":"frk-2","host":"frk-1.de.uncletopia.com","port":27025,"enabled":true,"region":"eu","cc":"de","latitude":50.110924,"longitude":8.682127,"reserved":0,"last_update":"0001-01-01T00:00:00Z","name_a2s":"Uncletopia | Frankfurt | 2 | All Maps","protocol":17,"map":"cp_sunshine","folder":"tf","game":"Team Fortress","app_id":440,"player_count":23,"max_players":24,"Bots":0,"server_type":"Dedicated","server_os":"Linux","password":true,"vac":true,"version":"7961495","steam_id":85568392924469990,"keywords":["cp","nocrits","nodmgspread","uncletopia"],"game_id":440,"stv_port":27026,"stv_name":"Uncletopia | Frankfurt | 2 | All Maps | STV","players":[{"user_id":280,"name":"Unsfangable","steam_id":76561198035928111,"connected_time":2798000000000,"state":"active","ping":61},{"user_id":322,"name":"GooseberryGarry27","steam_id":76561198089478290,"connected_time":112000000000,"state":"active","ping":53},{"user_id":200,"name":"Fat Pigeon","steam_id":76561198817940142,"connected_time":8261000000000,"state":"active","ping":51},{"user_id":308,"name":"Pilaarius","steam_id":76561198120273212,"connected_time":1100000000000,"state":"active","ping":97},{"user_id":316,"name":"WarBoyAnthem","steam_id":76561198207589235,"connected_time":690000000000,"state":"active","ping":159},{"user_id":319,"name":"Vershal Smershal","steam_id":76561198116223995,"connected_time":497000000000,"state":"active","ping":59},{"user_id":307,"name":"Vince","steam_id":76561199103000131,"connected_time":1111000000000,"state":"active","ping":45},{"user_id":276,"name":"Bajas","steam_id":76561198179339326,"connected_time":2997000000000,"state":"active","ping":76},{"user_id":282,"name":"Beauf de France","steam_id":76561198799097492,"connected_time":2764000000000,"state":"active","ping":47},{"user_id":321,"name":"Snowy","steam_id":76561198169992461,"connected_time":223000000000,"state":"active","ping":52},{"user_id":323,"name":"Pikdy","steam_id":76561199492395972,"connected_time":98000000000,"state":"active","ping":53},{"user_id":305,"name":"Fran","steam_id":76561199070516960,"connected_time":1119000000000,"state":"active","ping":61},{"user_id":312,"name":"cirrem","steam_id":76561198265192382,"connected_time":983000000000,"state":"active","ping":58},{"user_id":318,"name":"Rin-Nakaret","steam_id":76561197971051188,"connected_time":651000000000,"state":"active","ping":59},{"user_id":313,"name":"Cloudberry","steam_id":76561198035612538,"connected_time":872000000000,"state":"active","ping":71},{"user_id":257,"name":"quickfast","steam_id":76561199438900919,"connected_time":4120000000000,"state":"active","ping":59},{"user_id":324,"name":"P3rsErkki","steam_id":76561198063093495,"connected_time":74000000000,"state":"active","ping":62},{"user_id":285,"name":"Alyx","steam_id":76561198064654326,"connected_time":2720000000000,"state":"active","ping":49},{"user_id":264,"name":"Udinese Dion","steam_id":76561198067931573,"connected_time":3551000000000,"state":"active","ping":54},{"user_id":161,"name":"Nittugai","steam_id":76561198067366462,"connected_time":11324000000000,"state":"active","ping":60},{"user_id":325,"name":"GMAN","steam_id":76561199499959515,"connected_time":70000000000,"state":"active","ping":91},{"user_id":287,"name":"Donki Wonki","steam_id":76561198327761273,"connected_time":2291000000000,"state":"active","ping":73},{"user_id":291,"name":"Dude","steam_id":76561198967670725,"connected_time":1476000000000,"state":"active","ping":83}]},{"server_id":308,"name":"Uncletopia | Frankfurt | 3 | All Maps","name_short":"frk-3","host":"frk-1.de.uncletopia.com","port":27035,"enabled":true,"region":"eu","cc":"de","latitude":50.110924,"longitude":8.682127,"reserved":0,"last_update":"0001-01-01T00:00:00Z","name_a2s":"Uncletopia | Frankfurt | 3 | All Maps","protocol":17,"map":"pl_upward","folder":"tf","game":"Team Fortress","app_id":440,"player_count":18,"max_players":24,"Bots":0,"server_type":"Dedicated","server_os":"Linux","password":true,"vac":true,"version":"7961495","steam_id":85568392924504274,"keywords":["nocrits","nodmgspread","payload","uncletopia"],"game_id":440,"stv_port":27036,"stv_name":"Uncletopia | Frankfurt | 3 | All Maps | STV","players":[{"user_id":612,"name":"MR BUBBLES","steam_id":76561198019005259,"connected_time":3774000000000,"state":"active","ping":90},{"user_id":658,"name":"Mong","steam_id":76561198891218910,"connected_time":851000000000,"state":"active","ping":57},{"user_id":614,"name":"sniper's kangaroo wife","steam_id":76561198334042273,"connected_time":3704000000000,"state":"active","ping":45},{"user_id":627,"name":"Nylo","steam_id":76561198828562687,"connected_time":2515000000000,"state":"active","ping":166},{"user_id":572,"name":"Shapeshifterer","steam_id":76561198052898368,"connected_time":7372000000000,"state":"active","ping":71},{"user_id":649,"name":"Dr. Sus","steam_id":76561198344435644,"connected_time":1265000000000,"state":"active","ping":62},{"user_id":647,"name":"ZeusR33kid","steam_id":76561198947039734,"connected_time":1298000000000,"state":"active","ping":66},{"user_id":659,"name":"goz","steam_id":76561198155229347,"connected_time":756000000000,"state":"active","ping":45},{"user_id":654,"name":"CONAH","steam_id":76561198227685876,"connected_time":907000000000,"state":"active","ping":60},{"user_id":661,"name":"CausticsMeth","steam_id":76561198780744160,"connected_time":94000000000,"state":"active","ping":58},{"user_id":538,"name":"KrAk3rs","steam_id":76561198298179344,"connected_time":9319000000000,"state":"active","ping":60},{"user_id":626,"name":"Yuval","steam_id":76561198241802390,"connected_time":2535000000000,"state":"active","ping":93},{"user_id":613,"name":"spy","steam_id":76561199402711007,"connected_time":3716000000000,"state":"active","ping":112},{"user_id":641,"name":"WinterBucket","steam_id":76561198381313801,"connected_time":1802000000000,"state":"active","ping":59},{"user_id":660,"name":"Syd","steam_id":76561198020515027,"connected_time":431000000000,"state":"active","ping":64},{"user_id":620,"name":"Kestrel","steam_id":76561198144033005,"connected_time":3639000000000,"state":"active","ping":54},{"user_id":590,"name":"Cockvin","steam_id":76561199166839164,"connected_time":6517000000000,"state":"active","ping":41},{"user_id":644,"name":"Anna","steam_id":76561199133544921,"connected_time":1539000000000,"state":"spawning","ping":43}]},{"server_id":309,"name":"Uncletopia | Frankfurt | 4 | All Maps","name_short":"frk-4","host":"frk-1.de.uncletopia.com","port":27045,"enabled":true,"region":"eu","cc":"de","latitude":50.110924,"longitude":8.682127,"reserved":0,"last_update":"0001-01-01T00:00:00Z","name_a2s":"Uncletopia | Frankfurt | 4 | All Maps","protocol":17,"map":"pl_thundermountain","folder":"tf","game":"Team Fortress","app_id":440,"player_count":15,"max_players":24,"Bots":0,"server_type":"Dedicated","server_os":"Linux","password":true,"vac":true,"version":"7961495","steam_id":85568392924504275,"keywords":["nocrits","nodmgspread","payload","uncletopia"],"game_id":440,"stv_port":27046,"stv_name":"Uncletopia | Frankfurt | 4 | All Maps | STV","players":[{"user_id":415,"name":"Dirk.van.den.broek.2008","steam_id":76561198124226614,"connected_time":743000000000,"state":"active","ping":48},{"user_id":422,"name":"Arizona Ranger","steam_id":76561198859118707,"connected_time":580000000000,"state":"active","ping":55},{"user_id":418,"name":"Tioncalai","steam_id":76561198871546599,"connected_time":643000000000,"state":"active","ping":45},{"user_id":374,"name":"Jeffrey Harpen","steam_id":76561199073314677,"connected_time":3504000000000,"state":"active","ping":53},{"user_id":421,"name":"Von Leining","steam_id":76561198859983504,"connected_time":598000000000,"state":"active","ping":31},{"user_id":393,"name":"Enjoyer","steam_id":76561198147399855,"connected_time":1664000000000,"state":"active","ping":117},{"user_id":417,"name":"Froenzi","steam_id":76561198168841723,"connected_time":661000000000,"state":"active","ping":56},{"user_id":429,"name":"Funky","steam_id":76561198029154605,"connected_time":94000000000,"state":"active","ping":57},{"user_id":428,"name":"G_raff","steam_id":76561199048512726,"connected_time":238000000000,"state":"active","ping":87},{"user_id":424,"name":"Bombilla","steam_id":76561198084281798,"connected_time":433000000000,"state":"active","ping":75},{"user_id":419,"name":"Arc","steam_id":76561198805049375,"connected_time":643000000000,"state":"active","ping":53},{"user_id":420,"name":"Average Chinese Man","steam_id":76561199076883472,"connected_time":638000000000,"state":"active","ping":72},{"user_id":425,"name":"Piquesque","steam_id":76561198286763046,"connected_time":432000000000,"state":"active","ping":85},{"user_id":427,"name":"Crit-A-Cola enjoyer","steam_id":76561199100884248,"connected_time":296000000000,"state":"active","ping":208},{"user_id":388,"name":"Fliits","steam_id":76561198129780632,"connected_time":2212000000000,"state":"active","ping":78}]},{"server_id":310,"name":"Uncletopia | Frankfurt | 5 | All Maps","name_short":"frk-5","host":"frk-1.de.uncletopia.com","port":27055,"enabled":true,"region":"eu","cc":"de","latitude":50.110924,"longitude":8.682127,"reserved":0,"last_update":"0001-01-01T00:00:00Z","name_a2s":"Uncletopia | Frankfurt | 5 | All Maps","protocol":17,"map":"pl_badwater","folder":"tf","game":"Team Fortress","app_id":440,"player_count":24,"max_players":24,"Bots":0,"server_type":"Dedicated","server_os":"Linux","password":true,"vac":true,"version":"7961495","steam_id":85568392924504277,"keywords":["nocrits","nodmgspread","payload","uncletopia"],"game_id":440,"stv_port":27056,"stv_name":"Uncletopia | Frankfurt | 5 | All Maps | STV","players":[{"user_id":106,"name":"Virgil","steam_id":76561198248786778,"connected_time":2045000000000,"state":"active","ping":118},{"user_id":124,"name":"The Cool Ice Guy","steam_id":76561198146194820,"connected_time":143000000000,"state":"active","ping":60},{"user_id":112,"name":"Ciaoknives","steam_id":76561197998795153,"connected_time":974000000000,"state":"active","ping":75},{"user_id":61,"name":"Scruga","steam_id":76561197993476998,"connected_time":5114000000000,"state":"active","ping":34},{"user_id":110,"name":"sokige","steam_id":76561198167112371,"connected_time":1695000000000,"state":"active","ping":91},{"user_id":90,"name":"✪ᴍöʀᴋö✪","steam_id":76561198114429501,"connected_time":3165000000000,"state":"active","ping":75},{"user_id":115,"name":"thog","steam_id":76561198219901556,"connected_time":883000000000,"state":"active","ping":104},{"user_id":82,"name":"Ale","steam_id":76561198908841078,"connected_time":3773000000000,"state":"active","ping":84},{"user_id":125,"name":"Largo","steam_id":76561198844368927,"connected_time":58000000000,"state":"active","ping":75},{"user_id":87,"name":"BuddhaBrot","steam_id":76561198181885110,"connected_time":3235000000000,"state":"active","ping":45},{"user_id":44,"name":"Tre3","steam_id":76561198054795379,"connected_time":6075000000000,"state":"active","ping":58},{"user_id":91,"name":"[UM-monster","steam_id":76561198085098243,"connected_time":3160000000000,"state":"active","ping":90},{"user_id":113,"name":"Blad3","steam_id":76561198000912307,"connected_time":935000000000,"state":"active","ping":72},{"user_id":93,"name":"The_Jaystone","steam_id":76561198126280691,"connected_time":3122000000000,"state":"active","ping":45},{"user_id":71,"name":"Bob Sacamano","steam_id":76561198085610701,"connected_time":4894000000000,"state":"active","ping":72},{"user_id":83,"name":"low on caffeine","steam_id":76561198257158275,"connected_time":3474000000000,"state":"active","ping":141},{"user_id":80,"name":"simeswipe","steam_id":76561198188471097,"connected_time":4035000000000,"state":"active","ping":66},{"user_id":117,"name":"Dzieciol","steam_id":76561198160237556,"connected_time":771000000000,"state":"active","ping":69},{"user_id":118,"name":"R!not","steam_id":76561197986328786,"connected_time":729000000000,"state":"active","ping":45},{"user_id":57,"name":"neJ","steam_id":76561198003397488,"connected_time":5408000000000,"state":"active","ping":75},{"user_id":102,"name":"TotallyRealRunarTvålfager™","steam_id":76561198018228013,"connected_time":2413000000000,"state":"active","ping":58},{"user_id":79,"name":"Roby","steam_id":76561198358015863,"connected_time":4358000000000,"state":"active","ping":68},{"user_id":109,"name":"Carry Krypl","steam_id":76561198136938121,"connected_time":1852000000000,"state":"active","ping":45},{"user_id":119,"name":"Dolcelatte","steam_id":76561198038501770,"connected_time":642000000000,"state":"active","ping":57}]},{"server_id":311,"name":"Uncletopia | Frankfurt | 6 | All Maps","name_short":"frk-6","host":"frk-1.de.uncletopia.com","port":27065,"enabled":true,"region":"eu","cc":"de","latitude":50.110924,"longitude":8.682127,"reserved":0,"last_update":"0001-01-01T00:00:00Z","name_a2s":"Uncletopia | Frankfurt | 6 | All Maps","protocol":17,"map":"koth_viaduct","folder":"tf","game":"Team Fortress","app_id":440,"player_count":24,"max_players":24,"Bots":0,"server_type":"Dedicated","server_os":"Linux","password":true,"vac":true,"version":"7961495","steam_id":85568392924504278,"keywords":["cp","nocrits","nodmgspread","uncletopia"],"game_id":440,"stv_port":27066,"stv_name":"Uncletopia | Frankfurt | 6 | All Maps | STV","players":[{"user_id":218,"name":"peyniz","steam_id":76561198044189114,"connected_time":3209000000000,"state":"active","ping":54},{"user_id":241,"name":"0x01A4","steam_id":76561199038801888,"connected_time":1471000000000,"state":"active","ping":63},{"user_id":217,"name":"Woman (Real)","steam_id":76561199151823932,"connected_time":3277000000000,"state":"active","ping":60},{"user_id":249,"name":"1hour1life","steam_id":76561198949828663,"connected_time":769000000000,"state":"active","ping":78},{"user_id":137,"name":"lillunya ♡","steam_id":76561198330418866,"connected_time":9842000000000,"state":"active","ping":47},{"user_id":248,"name":"Bread","steam_id":76561198040142466,"connected_time":909000000000,"state":"active","ping":80},{"user_id":234,"name":"Meat Dragon","steam_id":76561198120319256,"connected_time":2078000000000,"state":"active","ping":146},{"user_id":239,"name":"imagine being able to talk","steam_id":76561198420349969,"connected_time":1492000000000,"state":"active","ping":103},{"user_id":207,"name":"XPullaHiiri","steam_id":76561198031652375,"connected_time":4774000000000,"state":"active","ping":87},{"user_id":223,"name":"God's Goofiest Goober","steam_id":76561198103175187,"connected_time":3002000000000,"state":"active","ping":53},{"user_id":127,"name":"gamerkiddo","steam_id":76561198047380360,"connected_time":10505000000000,"state":"active","ping":60},{"user_id":235,"name":"KnugenIV","steam_id":76561198127091993,"connected_time":2065000000000,"state":"active","ping":75},{"user_id":251,"name":"Amandus","steam_id":76561198036281079,"connected_time":581000000000,"state":"active","ping":59},{"user_id":232,"name":"xavier","steam_id":76561198076494034,"connected_time":2522000000000,"state":"active","ping":55},{"user_id":236,"name":"Vinnidict","steam_id":76561198037087000,"connected_time":2029000000000,"state":"active","ping":65},{"user_id":79,"name":"Coac","steam_id":76561198085265740,"connected_time":14754000000000,"state":"active","ping":74},{"user_id":252,"name":"Mario Judah","steam_id":76561197971514714,"connected_time":211000000000,"state":"active","ping":66},{"user_id":246,"name":"Raskas mies","steam_id":76561198082177314,"connected_time":962000000000,"state":"active","ping":75},{"user_id":243,"name":"dog?","steam_id":76561199232839385,"connected_time":1458000000000,"state":"active","ping":89},{"user_id":224,"name":"jmp","steam_id":76561198168283286,"connected_time":2995000000000,"state":"active","ping":66},{"user_id":237,"name":"walluu","steam_id":76561198121830870,"connected_time":1924000000000,"state":"active","ping":67},{"user_id":244,"name":"BLÅHAJ","steam_id":76561199353672293,"connected_time":1454000000000,"state":"active","ping":72},{"user_id":227,"name":"LuckyHappyGuy","steam_id":76561198353023996,"connected_time":2960000000000,"state":"active","ping":74},{"user_id":250,"name":"myffdii","steam_id":76561198067677196,"connected_time":603000000000,"state":"active","ping":56}]},{"server_id":23,"name":"Uncletopia | Frankfurt | 7 | Stopwatch","name_short":"frk-7","host":"frk-1.de.uncletopia.com","port":27075,"enabled":true,"region":"eu","cc":"de","latitude":50.110924,"longitude":8.682127,"reserved":0,"last_update":"0001-01-01T00:00:00Z","name_a2s":"Uncletopia | Frankfurt | 7 | Stopwatch","protocol":17,"map":"koth_lakeside_final","folder":"tf","game":"Team Fortress","app_id":440,"player_count":0,"max_players":24,"Bots":0,"server_type":"Dedicated","server_os":"Linux","password":true,"vac":true,"version":"7961495","steam_id":85568392924742827,"keywords":["cp","nocrits","nodmgspread","uncletopia"],"game_id":440,"stv_port":27076,"stv_name":"Uncletopia | Frankfurt | 7 | Stopwatch | STV","players":null},{"server_id":24,"name":"Uncletopia | Frankfurt | 8 | Community","name_short":"frk-8","host":"frk-1.de.uncletopia.com","port":27085,"enabled":true,"region":"eu","cc":"de","latitude":50.110924,"longitude":8.682127,"reserved":0,"last_update":"0001-01-01T00:00:00Z","name_a2s":"Uncletopia | Frankfurt | 8 | Community","protocol":17,"map":"workshop/koth_jamram_rc1a.ugc2964065613","folder":"tf","game":"Team Fortress","app_id":440,"player_count":0,"max_players":24,"Bots":0,"server_type":"Dedicated","server_os":"Linux","password":true,"vac":true,"version":"7961495","steam_id":85568392924742828,"keywords":["cp","nocrits","nodmgspread","uncletopia"],"game_id":440,"stv_port":27086,"stv_name":"Uncletopia | Frankfurt | 8 | Community | STV","players":null},{"server_id":202,"name":"Uncletopia | Hong Kong | 1 | All Maps","name_short":"hgk-1","host":"hgk-1.hk.uncletopia.com","port":27015,"enabled":true,"region":"asia","cc":"hk","latitude":22.302711,"longitude":114.177216,"reserved":0,"last_update":"0001-01-01T00:00:00Z","name_a2s":"Uncletopia | Hong Kong | 1 | All Maps","protocol":17,"map":"pl_upward","folder":"tf","game":"Team Fortress","app_id":440,"player_count":24,"max_players":24,"Bots":0,"server_type":"Dedicated","server_os":"Linux","password":true,"vac":true,"version":"7961495","steam_id":85568392924494504,"keywords":["nocrits","nodmgspread","payload","uncletopia"],"game_id":440,"stv_port":27016,"stv_name":"Uncletopia | Hong Kong | 1 | All Maps | STV","players":[{"user_id":566,"name":"Chinese Student","steam_id":76561199116434714,"connected_time":796000000000,"state":"active","ping":63},{"user_id":456,"name":"Grifter","steam_id":76561198092369812,"connected_time":5371000000000,"state":"active","ping":132},{"user_id":553,"name":"Briktsi","steam_id":76561198239125304,"connected_time":2334000000000,"state":"active","ping":88},{"user_id":552,"name":"toad♡","steam_id":76561198082199290,"connected_time":2373000000000,"state":"active","ping":42},{"user_id":543,"name":"StewBツ","steam_id":76561198131423270,"connected_time":3640000000000,"state":"active","ping":66},{"user_id":572,"name":"Not Stir-fried Aliens SselmaN","steam_id":76561198075479294,"connected_time":27000000000,"state":"active","ping":103},{"user_id":559,"name":"Soldier","steam_id":76561198369915670,"connected_time":2041000000000,"state":"active","ping":65},{"user_id":569,"name":"17","steam_id":76561198241530712,"connected_time":469000000000,"state":"active","ping":59},{"user_id":380,"name":"Pillboi","steam_id":76561198011172886,"connected_time":12937000000000,"state":"active","ping":44},{"user_id":471,"name":"Ivy 2.0","steam_id":76561199020222424,"connected_time":4921000000000,"state":"active","ping":60},{"user_id":571,"name":"Samoyed","steam_id":76561198299150410,"connected_time":41000000000,"state":"active","ping":77},{"user_id":421,"name":"Avered","steam_id":76561199480939609,"connected_time":8650000000000,"state":"active","ping":75},{"user_id":397,"name":"쿠키","steam_id":76561197997220367,"connected_time":11293000000000,"state":"active","ping":44},{"user_id":468,"name":"Impetus","steam_id":76561198213031155,"connected_time":4952000000000,"state":"active","ping":99},{"user_id":526,"name":"killman47","steam_id":76561198348487408,"connected_time":4315000000000,"state":"active","ping":41},{"user_id":549,"name":"average 2fort enjoyer","steam_id":76561198062112214,"connected_time":3351000000000,"state":"active","ping":117},{"user_id":564,"name":"Sir.Apple","steam_id":76561198065612995,"connected_time":1341000000000,"state":"active","ping":80},{"user_id":544,"name":"母の肉団子@hao123.com","steam_id":76561198069561896,"connected_time":3637000000000,"state":"active","ping":44},{"user_id":560,"name":"LeafLet","steam_id":76561198387504663,"connected_time":2003000000000,"state":"active","ping":118},{"user_id":556,"name":"Waltuh (Real)","steam_id":76561199257300024,"connected_time":2176000000000,"state":"active","ping":66},{"user_id":570,"name":"jamonmamon","steam_id":76561198150937090,"connected_time":373000000000,"state":"active","ping":78},{"user_id":563,"name":"prime minister","steam_id":76561199189735185,"connected_time":1820000000000,"state":"active","ping":70},{"user_id":565,"name":"ryder","steam_id":76561198797699056,"connected_time":847000000000,"state":"active","ping":104},{"user_id":568,"name":"김광만","steam_id":76561198295279503,"connected_time":723000000000,"state":"active","ping":107}]},{"server_id":1,"name":"Uncletopia | Los Angeles | 1 | All Maps","name_short":"lax-1","host":"lax-1.us.uncletopia.com","port":27015,"enabled":true,"region":"us-west","cc":"us","latitude":33.94279,"longitude":-118.41004,"reserved":0,"last_update":"0001-01-01T00:00:00Z","name_a2s":"Uncletopia | Los Angeles | 1 | All Maps","protocol":17,"map":"koth_highpass","folder":"tf","game":"Team Fortress","app_id":440,"player_count":0,"max_players":24,"Bots":0,"server_type":"Dedicated","server_os":"Linux","password":true,"vac":true,"version":"7961495","steam_id":85568392924469991,"keywords":["cp","nocrits","nodmgspread","uncletopia"],"game_id":440,"stv_port":27016,"stv_name":"Uncletopia | Los Angeles | 1 | All Maps | STV","players":null},{"server_id":112,"name":"Uncletopia | Los Angeles | 2 | All Maps","name_short":"lax-2","host":"lax-1.us.uncletopia.com","port":27025,"enabled":true,"region":"us-west","cc":"us","latitude":33.94279,"longitude":-118.41004,"reserved":0,"last_update":"0001-01-01T00:00:00Z","name_a2s":"Uncletopia | Los Angeles | 2 | All Maps","protocol":17,"map":"koth_cascade","folder":"tf","game":"Team Fortress","app_id":440,"player_count":0,"max_players":24,"Bots":0,"server_type":"Dedicated","server_os":"Linux","password":true,"vac":true,"version":"7961495","steam_id":85568392924469992,"keywords":["cp","nocrits","nodmgspread","uncletopia"],"game_id":440,"stv_port":27026,"stv_name":"Uncletopia | Los Angeles | 2 | All Maps | STV","players":null},{"server_id":324,"name":"Uncletopia | Los Angeles | 3 | All Maps","name_short":"lax-3","host":"lax-1.us.uncletopia.com","port":27035,"enabled":true,"region":"us-west","cc":"us","latitude":33.94279,"longitude":-118.41004,"reserved":0,"last_update":"0001-01-01T00:00:00Z","name_a2s":"Uncletopia | Los Angeles | 3 | All Maps","protocol":17,"map":"pl_pier","folder":"tf","game":"Team Fortress","app_id":440,"player_count":0,"max_players":24,"Bots":0,"server_type":"Dedicated","server_os":"Linux","password":true,"vac":true,"version":"7961495","steam_id":85568392924510198,"keywords":["nocrits","nodmgspread","payload","uncletopia"],"game_id":440,"stv_port":27036,"stv_name":"Uncletopia | Los Angeles | 3 | All Maps | STV","players":null},{"server_id":25,"name":"Uncletopia | Los Angeles | 4 | Stopwatch","name_short":"lax-4","host":"lax-1.us.uncletopia.com","port":27045,"enabled":true,"region":"us-west","cc":"us","latitude":33.94279,"longitude":-118.41004,"reserved":0,"last_update":"0001-01-01T00:00:00Z","name_a2s":"Uncletopia | Los Angeles | 4 | Stopwatch","protocol":17,"map":"pl_upward","folder":"tf","game":"Team Fortress","app_id":440,"player_count":0,"max_players":24,"Bots":0,"server_type":"Dedicated","server_os":"Linux","password":true,"vac":true,"version":"7961495","steam_id":85568392924510199,"keywords":["nocrits","nodmgspread","payload","uncletopia"],"game_id":440,"stv_port":27046,"stv_name":"Uncletopia | Los Angeles | 4 | Stopwatch | STV","players":null},{"server_id":11,"name":"Uncletopia | London | 1 | All Maps","name_short":"lon-1","host":"lon-1.uk.uncletopia.com","port":27015,"enabled":true,"region":"eu","cc":"gb","latitude":51.509865,"longitude":-0.118092,"reserved":0,"last_update":"0001-01-01T00:00:00Z","name_a2s":"Uncletopia | London | 1 | All Maps","protocol":17,"map":"pl_badwater","folder":"tf","game":"Team Fortress","app_id":440,"player_count":24,"max_players":24,"Bots":0,"server_type":"Dedicated","server_os":"Linux","password":true,"vac":true,"version":"7961495","steam_id":85568392924367362,"keywords":["nocrits","nodmgspread","payload","uncletopia"],"game_id":440,"stv_port":27016,"stv_name":"Uncletopia | London | 1 | All Maps | STV","players":[{"user_id":431,"name":"Zenhard","steam_id":76561198099744014,"connected_time":809000000000,"state":"active","ping":79},{"user_id":434,"name":"BLÅHAJ","steam_id":76561197996473698,"connected_time":690000000000,"state":"active","ping":91},{"user_id":435,"name":"GMAN_L@ver_6978 [GMF][Priest]","steam_id":76561199461851882,"connected_time":687000000000,"state":"active","ping":45},{"user_id":424,"name":"Piney💙","steam_id":76561198050910939,"connected_time":1529000000000,"state":"active","ping":56},{"user_id":415,"name":"Ark-e","steam_id":76561198261870909,"connected_time":1853000000000,"state":"active","ping":33},{"user_id":451,"name":"kelpie","steam_id":76561198128327529,"connected_time":36000000000,"state":"active","ping":47},{"user_id":436,"name":"Mr. Potato the 11th","steam_id":76561198163246758,"connected_time":687000000000,"state":"active","ping":60},{"user_id":429,"name":"unconditional love","steam_id":76561199026097466,"connected_time":999000000000,"state":"active","ping":70},{"user_id":387,"name":"john fortress","steam_id":76561198013237629,"connected_time":3421000000000,"state":"active","ping":90},{"user_id":442,"name":"The Heavy","steam_id":76561199065025012,"connected_time":637000000000,"state":"active","ping":70},{"user_id":326,"name":"bolsonaro","steam_id":76561198074917015,"connected_time":6433000000000,"state":"active","ping":77},{"user_id":445,"name":"Skooot","steam_id":76561198800357246,"connected_time":212000000000,"state":"active","ping":126},{"user_id":446,"name":"Endi","steam_id":76561198914938199,"connected_time":210000000000,"state":"active","ping":90},{"user_id":452,"name":"shooer!","steam_id":76561198110531281,"connected_time":27000000000,"state":"spawning","ping":61},{"user_id":449,"name":"Luminous","steam_id":76561198130423479,"connected_time":166000000000,"state":"active","ping":67},{"user_id":430,"name":"Slifer the Egyptian God Furry","steam_id":76561198062255803,"connected_time":850000000000,"state":"active","ping":87},{"user_id":437,"name":"RiX","steam_id":76561197969053733,"connected_time":687000000000,"state":"active","ping":45},{"user_id":425,"name":"Talentless","steam_id":76561198163890959,"connected_time":1441000000000,"state":"active","ping":31},{"user_id":438,"name":"DocTwoEight","steam_id":76561198153488940,"connected_time":683000000000,"state":"active","ping":80},{"user_id":384,"name":"Th3Celestial","steam_id":76561198353312252,"connected_time":3563000000000,"state":"active","ping":39},{"user_id":440,"name":":)","steam_id":76561198039964082,"connected_time":663000000000,"state":"active","ping":62},{"user_id":366,"name":"spencer pooties","steam_id":76561198123044544,"connected_time":4979000000000,"state":"active","ping":65},{"user_id":444,"name":"Veden","steam_id":76561198122680490,"connected_time":331000000000,"state":"active","ping":64},{"user_id":335,"name":"hiiiii haiiii hello","steam_id":76561198106049954,"connected_time":5843000000000,"state":"active","ping":86}]},{"server_id":114,"name":"Uncletopia | London | 2 | All Maps","name_short":"lon-2","host":"lon-1.uk.uncletopia.com","port":27025,"enabled":true,"region":"eu","cc":"gb","latitude":51.509865,"longitude":-0.118092,"reserved":0,"last_update":"0001-01-01T00:00:00Z","name_a2s":"Uncletopia | London | 2 | All Maps","protocol":17,"map":"koth_viaduct","folder":"tf","game":"Team Fortress","app_id":440,"player_count":18,"max_players":24,"Bots":0,"server_type":"Dedicated","server_os":"Linux","password":true,"vac":true,"version":"7961495","steam_id":85568392924470941,"keywords":["cp","nocrits","nodmgspread","uncletopia"],"game_id":440,"stv_port":27026,"stv_name":"Uncletopia | London | 2 | All Maps | STV","players":[{"user_id":113,"name":"Spinya","steam_id":76561198086653667,"connected_time":8109000000000,"state":"active","ping":51},{"user_id":217,"name":"koji","steam_id":76561198051636999,"connected_time":25000000000,"state":"active","ping":58},{"user_id":203,"name":"Hey!","steam_id":76561198204837289,"connected_time":1122000000000,"state":"active","ping":38},{"user_id":216,"name":"ilwes","steam_id":76561198438137570,"connected_time":117000000000,"state":"active","ping":75},{"user_id":215,"name":"Dr. Livesey","steam_id":76561198071049943,"connected_time":130000000000,"state":"active","ping":49},{"user_id":193,"name":"joosssh","steam_id":76561198072130805,"connected_time":2196000000000,"state":"active","ping":55},{"user_id":125,"name":"zayd","steam_id":76561198895235231,"connected_time":7292000000000,"state":"active","ping":53},{"user_id":124,"name":"Ephix","steam_id":76561197977164055,"connected_time":7388000000000,"state":"active","ping":49},{"user_id":195,"name":":3","steam_id":76561198169471853,"connected_time":2047000000000,"state":"active","ping":38},{"user_id":194,"name":"andeddk","steam_id":76561198261869475,"connected_time":2083000000000,"state":"active","ping":181},{"user_id":81,"name":"clunk","steam_id":76561198836460767,"connected_time":10616000000000,"state":"active","ping":77},{"user_id":209,"name":"Chuggachar","steam_id":76561198070390057,"connected_time":311000000000,"state":"active","ping":55},{"user_id":171,"name":"ShaggyTax8930","steam_id":76561198880156558,"connected_time":3414000000000,"state":"active","ping":142},{"user_id":208,"name":"mossad sponsored intel backdoor","steam_id":76561198071882999,"connected_time":477000000000,"state":"active","ping":59},{"user_id":213,"name":"SausageRoll","steam_id":76561197994072622,"connected_time":217000000000,"state":"active","ping":39},{"user_id":186,"name":"ILoveKey2","steam_id":76561198814559564,"connected_time":2614000000000,"state":"active","ping":75},{"user_id":176,"name":"co","steam_id":76561198188225497,"connected_time":3175000000000,"state":"active","ping":45},{"user_id":210,"name":"the quotient rule","steam_id":76561198188642265,"connected_time":305000000000,"state":"active","ping":38}]},{"server_id":320,"name":"Uncletopia | London | 3 | All Maps","name_short":"lon-3","host":"lon-1.uk.uncletopia.com","port":27035,"enabled":true,"region":"eu","cc":"gb","latitude":51.509865,"longitude":-0.118092,"reserved":0,"last_update":"0001-01-01T00:00:00Z","name_a2s":"Uncletopia | London | 3 | All Maps","protocol":17,"map":"koth_cascade","folder":"tf","game":"Team Fortress","app_id":440,"player_count":1,"max_players":24,"Bots":0,"server_type":"Dedicated","server_os":"Linux","password":true,"vac":true,"version":"7961495","steam_id":85568392924510192,"keywords":["cp","nocrits","nodmgspread","uncletopia"],"game_id":440,"stv_port":27036,"stv_name":"Uncletopia | London | 3 | All Maps | STV","players":[{"user_id":26,"name":"Tx_madmash","steam_id":76561198924656512,"connected_time":619000000000,"state":"active","ping":69}]},{"server_id":321,"name":"Uncletopia | London | 4 | All Maps","name_short":"lon-4","host":"lon-1.uk.uncletopia.com","port":27045,"enabled":true,"region":"eu","cc":"gb","latitude":51.509865,"longitude":-0.118092,"reserved":0,"last_update":"0001-01-01T00:00:00Z","name_a2s":"Uncletopia | London | 4 | All Maps","protocol":17,"map":"pl_frontier_final","folder":"tf","game":"Team Fortress","app_id":440,"player_count":24,"max_players":24,"Bots":0,"server_type":"Dedicated","server_os":"Linux","password":true,"vac":true,"version":"7961495","steam_id":85568392924510193,"keywords":["nocrits","nodmgspread","payload","uncletopia"],"game_id":440,"stv_port":27046,"stv_name":"Uncletopia | London | 4 | All Maps | STV","players":[{"user_id":13,"name":"lexa","steam_id":76561199002520104,"connected_time":1521000000000,"state":"active","ping":79},{"user_id":14,"name":"red7","steam_id":76561199385706147,"connected_time":1463000000000,"state":"active","ping":99},{"user_id":27,"name":"https://www.twitch.tv/zek_q","steam_id":76561198862763731,"connected_time":625000000000,"state":"active","ping":62},{"user_id":44,"name":"Cencut","steam_id":76561198989449047,"connected_time":138000000000,"state":"active","ping":160},{"user_id":17,"name":"Spongelica Slobblecoque","steam_id":76561198009072273,"connected_time":1184000000000,"state":"active","ping":46},{"user_id":18,"name":"Aunty Fungal Creme","steam_id":76561198046591088,"connected_time":1179000000000,"state":"active","ping":54},{"user_id":28,"name":"Outlaw Sniff Gluer","steam_id":76561198263263692,"connected_time":622000000000,"state":"active","ping":72},{"user_id":21,"name":"Sheriff Graham","steam_id":76561198062668942,"connected_time":1059000000000,"state":"active","ping":47},{"user_id":29,"name":"silicon based life form","steam_id":76561199127121346,"connected_time":541000000000,"state":"active","ping":60},{"user_id":23,"name":"PoisionFox","steam_id":76561198864161505,"connected_time":921000000000,"state":"active","ping":47},{"user_id":24,"name":"Android Device Connected","steam_id":76561199244250562,"connected_time":910000000000,"state":"active","ping":92},{"user_id":43,"name":"Pottery Knight","steam_id":76561198094455814,"connected_time":147000000000,"state":"active","ping":95},{"user_id":26,"name":"Mozzaza","steam_id":76561198156316111,"connected_time":776000000000,"state":"active","ping":145},{"user_id":31,"name":"SebDev","steam_id":76561199175679235,"connected_time":532000000000,"state":"active","ping":53},{"user_id":32,"name":"yuno appreciator","steam_id":76561198083286511,"connected_time":460000000000,"state":"active","ping":43},{"user_id":33,"name":"Minimi","steam_id":76561198873850443,"connected_time":411000000000,"state":"active","ping":45},{"user_id":45,"name":"nordstream bomber","steam_id":76561199401283123,"connected_time":134000000000,"state":"active","ping":38},{"user_id":35,"name":"Optimist 50","steam_id":76561198039631442,"connected_time":389000000000,"state":"active","ping":90},{"user_id":36,"name":"Mike","steam_id":76561198228455736,"connected_time":378000000000,"state":"active","ping":50},{"user_id":39,"name":"yohan","steam_id":76561198002218330,"connected_time":186000000000,"state":"active","ping":45},{"user_id":38,"name":"Suspicious Viktor","steam_id":76561198136496249,"connected_time":311000000000,"state":"active","ping":70},{"user_id":40,"name":"haakonrg","steam_id":76561198067151891,"connected_time":176000000000,"state":"active","ping":58},{"user_id":41,"name":"triple","steam_id":76561198119449463,"connected_time":161000000000,"state":"active","ping":55},{"user_id":46,"name":"sharkybro_nl","steam_id":76561198316862224,"connected_time":2000000000,"state":"spawning","ping":39}]},{"server_id":21,"name":"Uncletopia | London | 5 | All Maps","name_short":"lon-5","host":"lon-1.uk.uncletopia.com","port":27055,"enabled":true,"region":"eu","cc":"gb","latitude":51.509865,"longitude":-0.118092,"reserved":0,"last_update":"0001-01-01T00:00:00Z","name_a2s":"Uncletopia | London | 5 | All Maps","protocol":17,"map":"koth_cascade","folder":"tf","game":"Team Fortress","app_id":440,"player_count":0,"max_players":24,"Bots":0,"server_type":"Dedicated","server_os":"Linux","password":true,"vac":true,"version":"7961495","steam_id":85568392924742829,"keywords":["cp","nocrits","nodmgspread","uncletopia"],"game_id":440,"stv_port":27056,"stv_name":"Uncletopia | London | 5 | All Maps | STV","players":null},{"server_id":22,"name":"Uncletopia | London | 6 | All Maps","name_short":"lon-6","host":"lon-1.uk.uncletopia.com","port":27065,"enabled":true,"region":"eu","cc":"gb","latitude":51.509865,"longitude":-0.118092,"reserved":0,"last_update":"0001-01-01T00:00:00Z","name_a2s":"Uncletopia | London | 6 | All Maps","protocol":17,"map":"pl_upward","folder":"tf","game":"Team Fortress","app_id":440,"player_count":2,"max_players":24,"Bots":0,"server_type":"Dedicated","server_os":"Linux","password":true,"vac":true,"version":"7961495","steam_id":85568392924742830,"keywords":["nocrits","nodmgspread","payload","uncletopia"],"game_id":440,"stv_port":27066,"stv_name":"Uncletopia | London | 6 | All Maps | STV","players":[{"user_id":14,"name":"jonh","steam_id":76561198261853441,"connected_time":74000000000,"state":"spawning","ping":93},{"user_id":12,"name":"didi_gaga","steam_id":76561198797688627,"connected_time":566000000000,"state":"spawning","ping":81}]},{"server_id":40,"name":"Uncletopia | London | 7 | Stopwatch","name_short":"lon-7","host":"lon-1.uk.uncletopia.com","port":27075,"enabled":true,"region":"eu","cc":"gb","latitude":51.509865,"longitude":-0.118092,"reserved":0,"last_update":"0001-01-01T00:00:00Z","name_a2s":"Uncletopia | London | 7 | Stopwatch","protocol":17,"map":"workshop/koth_jamram_rc1a.ugc2964065613","folder":"tf","game":"Team Fortress","app_id":440,"player_count":0,"max_players":24,"Bots":0,"server_type":"Dedicated","server_os":"Linux","password":true,"vac":true,"version":"7961495","steam_id":85568392924964314,"keywords":["cp","nocrits","nodmgspread","uncletopia"],"game_id":440,"stv_port":27076,"stv_name":"Uncletopia | London | 7 | Stopwatch | STV","players":null},{"server_id":41,"name":"Uncletopia | London | 8 | Community","name_short":"lon-8","host":"lon-1.uk.uncletopia.com","port":27085,"enabled":true,"region":"eu","cc":"gb","latitude":51.509865,"longitude":-0.118092,"reserved":0,"last_update":"0001-01-01T00:00:00Z","name_a2s":"Uncletopia | London | 8 | Community","protocol":17,"map":"workshop/cp_fulgur_rc2a.ugc2068252300","folder":"tf","game":"Team Fortress","app_id":440,"player_count":0,"max_players":24,"Bots":0,"server_type":"Dedicated","server_os":"Linux","password":true,"vac":true,"version":"7961495","steam_id":85568392924964315,"keywords":["cp","nocrits","nodmgspread","uncletopia"],"game_id":440,"stv_port":27086,"stv_name":"Uncletopia | London | 8 | Community | STV","players":null},{"server_id":300,"name":"Uncletopia | Montréal | 1 | One Thousand Uncles","name_short":"mtl-1","host":"mtl-1.ca.uncletopia.com","port":27015,"enabled":true,"region":"us-east","cc":"ca","latitude":45.50889,"longitude":-73.56167,"reserved":0,"last_update":"0001-01-01T00:00:00Z","name_a2s":"Uncletopia | Montréal | 1 | One Thousand Uncles","protocol":17,"map":"pl_chilly","folder":"tf","game":"Team Fortress","app_id":440,"player_count":0,"max_players":32,"Bots":0,"server_type":"Dedicated","server_os":"Linux","password":true,"vac":true,"version":"7961495","steam_id":85568392924500087,"keywords":["alltalk","danepve","increased_maxplayers","norespawntime","payload","uncletopia"],"game_id":440,"stv_port":0,"stv_name":"","players":null},{"server_id":301,"name":"Uncletopia | Montréal | 2 | One Thousand Uncles","name_short":"mtl-2","host":"mtl-1.ca.uncletopia.com","port":27025,"enabled":true,"region":"us-east","cc":"ca","latitude":45.50889,"longitude":-73.56167,"reserved":0,"last_update":"0001-01-01T00:00:00Z","name_a2s":"Uncletopia | Montréal | 2 | One Thousand Uncles","protocol":17,"map":"pl_chilly","folder":"tf","game":"Team Fortress","app_id":440,"player_count":0,"max_players":32,"Bots":0,"server_type":"Dedicated","server_os":"Linux","password":true,"vac":true,"version":"7961495","steam_id":85568392924500088,"keywords":["alltalk","danepve","increased_maxplayers","norespawntime","payload","uncletopia"],"game_id":440,"stv_port":0,"stv_name":"","players":null},{"server_id":302,"name":"Uncletopia | Montréal | 3 | One Thousand Uncles","name_short":"mtl-3","host":"mtl-1.ca.uncletopia.com","port":27035,"enabled":true,"region":"us-east","cc":"ca","latitude":45.50889,"longitude":-73.56167,"reserved":0,"last_update":"0001-01-01T00:00:00Z","name_a2s":"Uncletopia | Montréal | 3 | One Thousand Uncles","protocol":17,"map":"pl_goldrush","folder":"tf","game":"Team Fortress","app_id":440,"player_count":0,"max_players":32,"Bots":0,"server_type":"Dedicated","server_os":"Linux","password":true,"vac":true,"version":"7961495","steam_id":85568392924500089,"keywords":["alltalk","danepve","increased_maxplayers","norespawntime","payload","uncletopia"],"game_id":440,"stv_port":0,"stv_name":"","players":null},{"server_id":13,"name":"Uncletopia | New York City | 1 | All Maps","name_short":"nyc-1","host":"nyc-1.us.uncletopia.com","port":27015,"enabled":true,"region":"us-east","cc":"us","latitude":40.73061,"longitude":-73.93524,"reserved":0,"last_update":"0001-01-01T00:00:00Z","name_a2s":"Uncletopia | New York City | 1 | All Maps","protocol":17,"map":"koth_brazil","folder":"tf","game":"Team Fortress","app_id":440,"player_count":0,"max_players":24,"Bots":0,"server_type":"Dedicated","server_os":"Linux","password":true,"vac":true,"version":"7961495","steam_id":85568392924469993,"keywords":["cp","nocrits","nodmgspread","uncletopia"],"game_id":440,"stv_port":27016,"stv_name":"Uncletopia | New York City | 1 | All Maps | STV","players":null},{"server_id":14,"name":"Uncletopia | New York City | 2 | All Maps","name_short":"nyc-2","host":"nyc-1.us.uncletopia.com","port":27025,"enabled":true,"region":"us-east","cc":"us","latitude":40.73061,"longitude":-73.93524,"reserved":0,"last_update":"0001-01-01T00:00:00Z","name_a2s":"Uncletopia | New York City | 2 | All Maps","protocol":17,"map":"pl_upward","folder":"tf","game":"Team Fortress","app_id":440,"player_count":2,"max_players":24,"Bots":0,"server_type":"Dedicated","server_os":"Linux","password":true,"vac":true,"version":"7961495","steam_id":85568392924469994,"keywords":["nocrits","nodmgspread","payload","uncletopia"],"game_id":440,"stv_port":27026,"stv_name":"Uncletopia | New York City | 2 | All Maps | STV","players":[{"user_id":6,"name":"Ryus_arts","steam_id":76561198805135862,"connected_time":1366000000000,"state":"active","ping":131},{"user_id":10,"name":"Keymaster","steam_id":76561198881514228,"connected_time":826000000000,"state":"active","ping":46}]},{"server_id":15,"name":"Uncletopia | New York City | 3 | Stopwatch","name_short":"nyc-3","host":"nyc-1.us.uncletopia.com","port":27035,"enabled":true,"region":"us-east","cc":"us","latitude":40.73061,"longitude":-73.93524,"reserved":0,"last_update":"0001-01-01T00:00:00Z","name_a2s":"Uncletopia | New York City | 3 | Stopwatch","protocol":17,"map":"workshop/koth_product_final.ugc454272353","folder":"tf","game":"Team Fortress","app_id":440,"player_count":0,"max_players":24,"Bots":0,"server_type":"Dedicated","server_os":"Linux","password":true,"vac":true,"version":"7961495","steam_id":85568392924742820,"keywords":["cp","nocrits","nodmgspread","uncletopia"],"game_id":440,"stv_port":27036,"stv_name":"Uncletopia | New York City | 3 | Stopwatch | STV","players":null},{"server_id":16,"name":"Uncletopia | New York City | 4 | Community","name_short":"nyc-4","host":"nyc-1.us.uncletopia.com","port":27045,"enabled":true,"region":"us-east","cc":"us","latitude":40.73061,"longitude":-73.93524,"reserved":0,"last_update":"0001-01-01T00:00:00Z","name_a2s":"Uncletopia | New York City | 4 | Community","protocol":17,"map":"workshop/cp_indulge.ugc528106646","folder":"tf","game":"Team Fortress","app_id":440,"player_count":0,"max_players":24,"Bots":0,"server_type":"Dedicated","server_os":"Linux","password":true,"vac":true,"version":"7961495","steam_id":85568392924742821,"keywords":["cp","nocrits","nodmgspread","uncletopia"],"game_id":440,"stv_port":27046,"stv_name":"Uncletopia | New York City | 4 | Community | STV","players":null},{"server_id":142,"name":"Uncletopia | São Paulo | 1 | All Maps","name_short":"sao-1","host":"sao-1.br.uncletopia.com","port":27015,"enabled":true,"region":"sa","cc":"br","latitude":-23.533773,"longitude":-46.62529,"reserved":0,"last_update":"0001-01-01T00:00:00Z","name_a2s":"Uncletopia | São Paulo | 1 | All Maps","protocol":17,"map":"cp_granary","folder":"tf","game":"Team Fortress","app_id":440,"player_count":0,"max_players":24,"Bots":0,"server_type":"Dedicated","server_os":"Linux","password":true,"vac":true,"version":"7961495","steam_id":85568392924469996,"keywords":["cp","nocrits","nodmgspread","uncletopia"],"game_id":440,"stv_port":27016,"stv_name":"Uncletopia | São Paulo | 1 | All Maps | STV","players":null},{"server_id":143,"name":"Uncletopia | São Paulo | 2 | Community","name_short":"sao-2","host":"sao-2.br.uncletopia.com","port":27015,"enabled":true,"region":"sa","cc":"br","latitude":-23.533773,"longitude":-46.62529,"reserved":0,"last_update":"0001-01-01T00:00:00Z","name_a2s":"Uncletopia | São Paulo | 2 | Community","protocol":17,"map":"workshop/cp_logjam_rc12.ugc454812035","folder":"tf","game":"Team Fortress","app_id":440,"player_count":0,"max_players":24,"Bots":0,"server_type":"Dedicated","server_os":"Linux","password":true,"vac":true,"version":"7961495","steam_id":85568392924485349,"keywords":["cp","nocrits","nodmgspread","uncletopia"],"game_id":440,"stv_port":27016,"stv_name":"Uncletopia | São Paulo | 2 | Community | STV","players":null},{"server_id":7,"name":"Uncletopia | Seattle | 1 | All Maps","name_short":"sea-1","host":"sea-1.us.uncletopia.com","port":27015,"enabled":true,"region":"us-west","cc":"us","latitude":47.608013,"longitude":-122.33517,"reserved":0,"last_update":"0001-01-01T00:00:00Z","name_a2s":"Uncletopia | Seattle | 1 | All Maps","protocol":17,"map":"koth_suijin","folder":"tf","game":"Team Fortress","app_id":440,"player_count":0,"max_players":24,"Bots":0,"server_type":"Dedicated","server_os":"Linux","password":true,"vac":true,"version":"7961495","steam_id":85568392924469997,"keywords":["cp","nocrits","nodmgspread","uncletopia"],"game_id":440,"stv_port":27016,"stv_name":"Uncletopia | Seattle | 1 | All Maps | STV","players":null},{"server_id":119,"name":"Uncletopia | Seattle | 2 | All Maps","name_short":"sea-2","host":"sea-1.us.uncletopia.com","port":27025,"enabled":true,"region":"us-west","cc":"us","latitude":47.608013,"longitude":-122.33517,"reserved":0,"last_update":"0001-01-01T00:00:00Z","name_a2s":"Uncletopia | Seattle | 2 | All Maps","protocol":17,"map":"koth_lakeside_final","folder":"tf","game":"Team Fortress","app_id":440,"player_count":0,"max_players":24,"Bots":0,"server_type":"Dedicated","server_os":"Linux","password":true,"vac":true,"version":"7961495","steam_id":85568392924469998,"keywords":["cp","nocrits","nodmgspread","uncletopia"],"game_id":440,"stv_port":27026,"stv_name":"Uncletopia | Seattle | 2 | All Maps | STV","players":null},{"server_id":406,"name":"Uncletopia | Seattle | 3 | Stopwatch","name_short":"sea-3","host":"sea-1.us.uncletopia.com","port":27035,"enabled":true,"region":"us-west","cc":"us","latitude":47.608013,"longitude":-122.33517,"reserved":0,"last_update":"0001-01-01T00:00:00Z","name_a2s":"Uncletopia | Seattle | 3 | Stopwatch","protocol":17,"map":"cp_gullywash_final1","folder":"tf","game":"Team Fortress","app_id":440,"player_count":0,"max_players":24,"Bots":0,"server_type":"Dedicated","server_os":"Linux","password":true,"vac":true,"version":"7961495","steam_id":85568392924515217,"keywords":["cp","nocrits","nodmgspread","uncletopia"],"game_id":440,"stv_port":27036,"stv_name":"Uncletopia | Seattle | 3 | Stopwatch | STV","players":null},{"server_id":17,"name":"Uncletopia | San Francisco | 1 | All Maps","name_short":"sfo-1","host":"sfo-1.us.uncletopia.com","port":27015,"enabled":true,"region":"us-west","cc":"us","latitude":37.77397,"longitude":-122.4313,"reserved":0,"last_update":"0001-01-01T00:00:00Z","name_a2s":"Uncletopia | San Francisco | 1 | All Maps","protocol":17,"map":"koth_highpass","folder":"tf","game":"Team Fortress","app_id":440,"player_count":0,"max_players":24,"Bots":0,"server_type":"Dedicated","server_os":"Linux","password":true,"vac":true,"version":"7961495","steam_id":85568392924469999,"keywords":["cp","nocrits","nodmgspread","uncletopia"],"game_id":440,"stv_port":27016,"stv_name":"Uncletopia | San Francisco | 1 | All Maps | STV","players":null},{"server_id":18,"name":"Uncletopia | San Francisco | 2 | All Maps","name_short":"sfo-2","host":"sfo-1.us.uncletopia.com","port":27025,"enabled":true,"region":"us-west","cc":"us","latitude":37.77397,"longitude":-122.4313,"reserved":0,"last_update":"0001-01-01T00:00:00Z","name_a2s":"Uncletopia | San Francisco | 2 | All Maps","protocol":17,"map":"cp_freight_final1","folder":"tf","game":"Team Fortress","app_id":440,"player_count":0,"max_players":24,"Bots":0,"server_type":"Dedicated","server_os":"Linux","password":true,"vac":true,"version":"7961495","steam_id":85568392924470000,"keywords":["cp","nocrits","nodmgspread","uncletopia"],"game_id":440,"stv_port":27026,"stv_name":"Uncletopia | San Francisco | 2 | All Maps | STV","players":null},{"server_id":19,"name":"Uncletopia | San Francisco | 3 | Stopwatch","name_short":"sfo-3","host":"sfo-1.us.uncletopia.com","port":27035,"enabled":true,"region":"us-west","cc":"us","latitude":37.77397,"longitude":-122.4313,"reserved":0,"last_update":"0001-01-01T00:00:00Z","name_a2s":"Uncletopia | San Francisco | 3 | Stopwatch","protocol":17,"map":"workshop/koth_product_final.ugc454272353","folder":"tf","game":"Team Fortress","app_id":440,"player_count":0,"max_players":24,"Bots":0,"server_type":"Dedicated","server_os":"Linux","password":true,"vac":true,"version":"7961495","steam_id":85568392924742824,"keywords":["cp","nocrits","nodmgspread","uncletopia"],"game_id":440,"stv_port":27036,"stv_name":"Uncletopia | San Francisco | 3 | Stopwatch | STV","players":null},{"server_id":20,"name":"Uncletopia | San Francisco | 4 | Community","name_short":"sfo-4","host":"sfo-1.us.uncletopia.com","port":27045,"enabled":true,"region":"us-west","cc":"us","latitude":37.77397,"longitude":-122.4313,"reserved":0,"last_update":"0001-01-01T00:00:00Z","name_a2s":"Uncletopia | San Francisco | 4 | Community","protocol":17,"map":"workshop/pl_cactuscanyon_redux_final2.ugc2579644293","folder":"tf","game":"Team Fortress","app_id":440,"player_count":0,"max_players":24,"Bots":0,"server_type":"Dedicated","server_os":"Linux","password":true,"vac":true,"version":"7961495","steam_id":85568392924742826,"keywords":["nocrits","nodmgspread","payload","uncletopia"],"game_id":440,"stv_port":27046,"stv_name":"Uncletopia | San Francisco | 4 | Community | STV","players":null},{"server_id":141,"name":"Uncletopia | Sydney | 1 | All Maps","name_short":"syd-1","host":"syd-1.au.uncletopia.com","port":27015,"enabled":true,"region":"au","cc":"au","latitude":-33.865143,"longitude":151.2099,"reserved":0,"last_update":"0001-01-01T00:00:00Z","name_a2s":"Uncletopia | Sydney | 1 | All Maps","protocol":17,"map":"koth_viaduct","folder":"tf","game":"Team Fortress","app_id":440,"player_count":0,"max_players":24,"Bots":0,"server_type":"Dedicated","server_os":"Linux","password":true,"vac":true,"version":"7961495","steam_id":85568392924470001,"keywords":["cp","nocrits","nodmgspread","uncletopia"],"game_id":440,"stv_port":27016,"stv_name":"Uncletopia | Sydney | 1 | All Maps | STV","players":null},{"server_id":123,"name":"Uncletopia | Sydney | 2 | All Maps","name_short":"syd-2","host":"syd-1.au.uncletopia.com","port":27025,"enabled":true,"region":"au","cc":"au","latitude":-33.865143,"longitude":151.2099,"reserved":0,"last_update":"0001-01-01T00:00:00Z","name_a2s":"Uncletopia | Sydney | 2 | All Maps","protocol":17,"map":"pl_barnblitz","folder":"tf","game":"Team Fortress","app_id":440,"player_count":0,"max_players":24,"Bots":0,"server_type":"Dedicated","server_os":"Linux","password":true,"vac":true,"version":"7961495","steam_id":85568392924470002,"keywords":["nocrits","nodmgspread","payload","uncletopia"],"game_id":440,"stv_port":27026,"stv_name":"Uncletopia | Sydney | 2 | All Maps | STV","players":null},{"server_id":395,"name":"Uncletopia | Sydney | 3 | All Maps","name_short":"syd-3","host":"syd-1.au.uncletopia.com","port":27035,"enabled":true,"region":"au","cc":"au","latitude":-33.865143,"longitude":151.2099,"reserved":0,"last_update":"0001-01-01T00:00:00Z","name_a2s":"Uncletopia | Sydney | 3 | All Maps","protocol":17,"map":"koth_lakeside_final","folder":"tf","game":"Team Fortress","app_id":440,"player_count":0,"max_players":24,"Bots":0,"server_type":"Dedicated","server_os":"Linux","password":true,"vac":true,"version":"7961495","steam_id":85568392925194467,"keywords":["cp","nocrits","nodmgspread","uncletopia"],"game_id":440,"stv_port":27036,"stv_name":"Uncletopia | Sydney | 3 | All Maps | STV","players":null},{"server_id":396,"name":"Uncletopia | Sydney | 4 | All Maps","name_short":"syd-4","host":"syd-1.au.uncletopia.com","port":27045,"enabled":true,"region":"au","cc":"au","latitude":-33.865143,"longitude":151.2099,"reserved":0,"last_update":"0001-01-01T00:00:00Z","name_a2s":"Uncletopia | Sydney | 4 | All Maps","protocol":17,"map":"pl_snowycoast","folder":"tf","game":"Team Fortress","app_id":440,"player_count":0,"max_players":24,"Bots":0,"server_type":"Dedicated","server_os":"Linux","password":true,"vac":true,"version":"7961495","steam_id":85568392925397958,"keywords":["nocrits","nodmgspread","payload","uncletopia"],"game_id":440,"stv_port":27046,"stv_name":"Uncletopia | Sydney | 4 | All Maps | STV","players":null},{"server_id":58,"name":"Uncletopia | Sydney | 5 | Stopwatch","name_short":"syd-5","host":"syd-1.au.uncletopia.com","port":27055,"enabled":true,"region":"au","cc":"au","latitude":-33.865143,"longitude":151.2099,"reserved":0,"last_update":"0001-01-01T00:00:00Z","name_a2s":"Uncletopia | Sydney | 5 | Stopwatch","protocol":17,"map":"koth_highpass","folder":"tf","game":"Team Fortress","app_id":440,"player_count":0,"max_players":24,"Bots":0,"server_type":"Dedicated","server_os":"Linux","password":true,"vac":true,"version":"7961495","steam_id":85568392925397959,"keywords":["cp","nocrits","nodmgspread","uncletopia"],"game_id":440,"stv_port":27056,"stv_name":"Uncletopia | Sydney | 5 | Stopwatch | STV","players":null},{"server_id":59,"name":"Uncletopia | Sydney | 6 | Community","name_short":"syd-6","host":"syd-1.au.uncletopia.com","port":27065,"enabled":true,"region":"au","cc":"au","latitude":-33.865143,"longitude":151.2099,"reserved":0,"last_update":"0001-01-01T00:00:00Z","name_a2s":"Uncletopia | Sydney | 6 | Community","protocol":17,"map":"workshop/koth_trenchfoot_ab1.ugc731436616","folder":"tf","game":"Team Fortress","app_id":440,"player_count":0,"max_players":24,"Bots":0,"server_type":"Dedicated","server_os":"Linux","password":true,"vac":true,"version":"7961495","steam_id":85568392925397960,"keywords":["cp","nocrits","nodmgspread","uncletopia"],"game_id":440,"stv_port":27066,"stv_name":"Uncletopia | Sydney | 6 | Community | STV","players":null},{"server_id":49,"name":"Uncletopia | Warsaw | 1 | One Thousand Uncles","name_short":"waw-1","host":"waw-1.pl.uncletopia.com","port":27015,"enabled":true,"region":"eu","cc":"pl","latitude":52.2297,"longitude":21.017532,"reserved":0,"last_update":"0001-01-01T00:00:00Z","name_a2s":"Uncletopia | Warsaw | 1 | One Thousand Uncles","protocol":17,"map":"cp_mercenarypark","folder":"tf","game":"Team Fortress","app_id":440,"player_count":28,"max_players":32,"Bots":16,"server_type":"Dedicated","server_os":"Linux","password":true,"vac":true,"version":"7961495","steam_id":85568392925397850,"keywords":["alltalk","bots","cp","danepve","increased_maxplayers","norespawntime","uncletopia"],"game_id":440,"stv_port":0,"stv_name":"","players":[{"user_id":517,"name":"Benzo Fury","steam_id":76561198025259336,"connected_time":2500000000000,"state":"active","ping":73},{"user_id":556,"name":"S0rdini","steam_id":76561198986246118,"connected_time":1099000000000,"state":"active","ping":82},{"user_id":557,"name":"PuPuruPuruPumPu","steam_id":76561198391950490,"connected_time":955000000000,"state":"active","ping":96},{"user_id":481,"name":"UkrХлєб","steam_id":76561198388896707,"connected_time":6965000000000,"state":"active","ping":75},{"user_id":564,"name":"Ricey","steam_id":76561198832961307,"connected_time":52000000000,"state":"active","ping":75},{"user_id":562,"name":"BlackMore","steam_id":76561199494221644,"connected_time":253000000000,"state":"active","ping":54},{"user_id":559,"name":"Shelly1052","steam_id":76561199043551053,"connected_time":498000000000,"state":"active","ping":61},{"user_id":536,"name":"robo_xeque","steam_id":76561199467536524,"connected_time":1516000000000,"state":"active","ping":231},{"user_id":355,"name":"the baddest boy in btd5","steam_id":76561199487914508,"connected_time":16069000000000,"state":"active","ping":42},{"user_id":563,"name":"v0mask0","steam_id":76561199187281791,"connected_time":246000000000,"state":"active","ping":61},{"user_id":561,"name":"xanderomeister","steam_id":76561198882550389,"connected_time":447000000000,"state":"active","ping":58},{"user_id":531,"name":"Dabfaceprothanos111","steam_id":76561199349224220,"connected_time":1833000000000,"state":"active","ping":252}]},{"server_id":50,"name":"Uncletopia | Warsaw | 2 | One Thousand Uncles","name_short":"waw-2","host":"waw-1.pl.uncletopia.com","port":27025,"enabled":true,"region":"eu","cc":"pl","latitude":52.2297,"longitude":21.017532,"reserved":0,"last_update":"0001-01-01T00:00:00Z","name_a2s":"Uncletopia | Warsaw | 2 | One Thousand Uncles","protocol":17,"map":"cp_dustbowl","folder":"tf","game":"Team Fortress","app_id":440,"player_count":30,"max_players":32,"Bots":16,"server_type":"Dedicated","server_os":"Linux","password":true,"vac":true,"version":"7961495","steam_id":85568392925397851,"keywords":["alltalk","bots","cp","danepve","increased_maxplayers","norespawntime","uncletopia"],"game_id":440,"stv_port":0,"stv_name":"","players":[{"user_id":208,"name":"207Coolio","steam_id":76561198059275069,"connected_time":3508000000000,"state":"active","ping":184},{"user_id":231,"name":"Zodaick","steam_id":76561198083662129,"connected_time":2713000000000,"state":"active","ping":60},{"user_id":251,"name":"Baba","steam_id":76561198214034403,"connected_time":1743000000000,"state":"active","ping":78},{"user_id":256,"name":"Griffith","steam_id":76561198976048234,"connected_time":1232000000000,"state":"active","ping":56},{"user_id":254,"name":"popez","steam_id":76561198051880474,"connected_time":1411000000000,"state":"active","ping":81},{"user_id":255,"name":"Splarvis","steam_id":76561198007792525,"connected_time":1273000000000,"state":"active","ping":75},{"user_id":262,"name":"ZXTN","steam_id":76561198859655729,"connected_time":704000000000,"state":"active","ping":51},{"user_id":263,"name":"Palamaris plokamias","steam_id":76561198844867460,"connected_time":392000000000,"state":"active","ping":80},{"user_id":234,"name":"Fatmagic Mukbang ASMR","steam_id":76561198063492110,"connected_time":2230000000000,"state":"active","ping":89},{"user_id":259,"name":"loup le solitaire","steam_id":76561198884393063,"connected_time":1120000000000,"state":"active","ping":141},{"user_id":260,"name":"C.E.O. of stab industry","steam_id":76561198242840202,"connected_time":1109000000000,"state":"active","ping":76},{"user_id":261,"name":"lukamory4","steam_id":76561199498260371,"connected_time":1095000000000,"state":"active","ping":75},{"user_id":264,"name":"0scr_","steam_id":76561198042631352,"connected_time":329000000000,"state":"active","ping":80},{"user_id":268,"name":"Probably Arlekin0","steam_id":76561198050456779,"connected_time":128000000000,"state":"active","ping":189}]},{"server_id":51,"name":"Uncletopia | Warsaw | 3 | All Maps","name_short":"waw-3","host":"waw-1.pl.uncletopia.com","port":27035,"enabled":true,"region":"eu","cc":"pl","latitude":52.2297,"longitude":21.017532,"reserved":0,"last_update":"0001-01-01T00:00:00Z","name_a2s":"Uncletopia | Warsaw | 3 | All Maps","protocol":17,"map":"cp_mountainlab","folder":"tf","game":"Team Fortress","app_id":440,"player_count":0,"max_players":24,"Bots":0,"server_type":"Dedicated","server_os":"Linux","password":true,"vac":true,"version":"7961495","steam_id":85568392925397852,"keywords":["cp","nocrits","nodmgspread","uncletopia"],"game_id":440,"stv_port":27036,"stv_name":"Uncletopia | Warsaw | 3 | All Maps | STV","players":null},{"server_id":52,"name":"Uncletopia | Warsaw | 4 | All Maps","name_short":"waw-4","host":"waw-1.pl.uncletopia.com","port":27045,"enabled":true,"region":"eu","cc":"pl","latitude":52.2297,"longitude":21.017532,"reserved":0,"last_update":"0001-01-01T00:00:00Z","name_a2s":"Uncletopia | Warsaw | 4 | All Maps","protocol":17,"map":"pl_snowycoast","folder":"tf","game":"Team Fortress","app_id":440,"player_count":0,"max_players":24,"Bots":0,"server_type":"Dedicated","server_os":"Linux","password":true,"vac":true,"version":"7961495","steam_id":85568392925397853,"keywords":["nocrits","nodmgspread","payload","uncletopia"],"game_id":440,"stv_port":27046,"stv_name":"Uncletopia | Warsaw | 4 | All Maps | STV","players":null},{"server_id":53,"name":"Uncletopia | Warsaw | 5 | Stopwatch","name_short":"waw-5","host":"waw-1.pl.uncletopia.com","port":27055,"enabled":true,"region":"eu","cc":"pl","latitude":52.2297,"longitude":21.017532,"reserved":0,"last_update":"0001-01-01T00:00:00Z","name_a2s":"Uncletopia | Warsaw | 5 | Stopwatch","protocol":17,"map":"koth_lakeside_final","folder":"tf","game":"Team Fortress","app_id":440,"player_count":0,"max_players":24,"Bots":0,"server_type":"Dedicated","server_os":"Linux","password":true,"vac":true,"version":"7961495","steam_id":85568392925397854,"keywords":["cp","nocrits","nodmgspread","uncletopia"],"game_id":440,"stv_port":27056,"stv_name":"Uncletopia | Warsaw | 5 | Stopwatch | STV","players":null},{"server_id":54,"name":"Uncletopia | Warsaw | 6 | Community","name_short":"waw-6","host":"waw-1.pl.uncletopia.com","port":27065,"enabled":true,"region":"eu","cc":"pl","latitude":52.2297,"longitude":21.017532,"reserved":0,"last_update":"0001-01-01T00:00:00Z","name_a2s":"Uncletopia | Warsaw | 6 | Community","protocol":17,"map":"workshop/koth_trenchfoot_ab1.ugc731436616","folder":"tf","game":"Team Fortress","app_id":440,"player_count":0,"max_players":24,"Bots":0,"server_type":"Dedicated","server_os":"Linux","password":true,"vac":true,"version":"7961495","steam_id":85568392925397856,"keywords":["cp","nocrits","nodmgspread","uncletopia"],"game_id":440,"stv_port":27066,"stv_name":"Uncletopia | Warsaw | 6 | Community | STV","players":null}]}