{"status":true,"message":"","result":[{"server_id":9,"name":"Uncletopia | Atlanta | 1 | All Maps","name_short":"atl-1","host":"atl-1.us.uncletopia.com","port":27015,"enabled":true,"region":"us-east","cc":"us","latitude":33.753746,"longitude":-84.38633,"reserved":0,"last_update":"0001-01-01T00:00:00Z","name_a2s":"Uncletopia | Atlanta | 1 | All Maps","protocol":17,"map":"pl_swiftwater_final1","folder":"tf","game":"Team Fortress","app_id":440,"player_count":23,"max_players":24,"Bots":0,"server_type":"Dedicated","server_os":"Linux","password":true,"vac":true,"version":"7961495","steam_id":85568392924469982,"keywords":["nocrits","nodmgspread","payload","uncletopia"],"game_id":440,"stv_port":27016,"stv_name":"Uncletopia | Atlanta | 1 | All Maps | STV","players":[{"user_id":673,"name":"Yukon Cornelius","steam_id":76561198261512781,"connected_time":419000000000,"state":"active","ping":44},{"user_id":670,"name":"Alphowlet98","steam_id":76561199093985532,"connected_time":1027000000000,"state":"active","ping":131},{"user_id":654,"name":"cupcup","steam_id":76561198116227192,"connected_time":1969000000000,"state":"active","ping":104},{"user_id":618,"name":"Dr.Zarann","steam_id":76561198163952958,"connected_time":6357000000000,"state":"active","ping":61},{"user_id":677,"name":"crunchy obama (horny)","steam_id":76561198044485217,"connected_time":99000000000,"state":"active","ping":103},{"user_id":678,"name":"MADMAXX50K","steam_id":76561198017539604,"connected_time":84000000000,"state":"active","ping":59},{"user_id":666,"name":"TacoMan4Life","steam_id":76561198832562728,"connected_time":1391000000000,"state":"active","ping":114},{"user_id":679,"name":"void","steam_id":76561198107501413,"connected_time":82000000000,"state":"active","ping":68},{"user_id":681,"name":"zoinks","steam_id":76561198127238003,"connected_time":61000000000,"state":"active","ping":99},{"user_id":538,"name":"CoffeeZombi","steam_id":76561198172708053,"connected_time":12320000000000,"state":"active","ping":56},{"user_id":651,"name":"Jankyo","steam_id":76561198083339492,"connected_time":2022000000000,"state":"active","ping":49},{"user_id":647,"name":"Dumgum","steam_id":76561198044960992,"connected_time":2069000000000,"state":"active","ping":63},{"user_id":682,"name":"stepho","steam_id":76561199132035586,"connected_time":54000000000,"state":"active","ping":67},{"user_id":650,"name":"Bones0010","steam_id":76561198096186958,"connected_time":2024000000000,"state":"active","ping":60},{"user_id":652,"name":"Sir.TopHats","steam_id":76561198267326839,"connected_time":2020000000000,"state":"active","ping":79},{"user_id":669,"name":"Sweater-Fan","steam_id":76561199389567214,"connected_time":1179000000000,"state":"active","ping":75},{"user_id":683,"name":"Smooth, Refreshing Bleach™","steam_id":76561197981060504,"connected_time":47000000000,"state":"active","ping":60},{"user_id":642,"name":"Whisk #GOOD GAMER","steam_id":76561198272318229,"connected_time":2574000000000,"state":"active","ping":87},{"user_id":675,"name":"YourLocalMedic","steam_id":76561198004148003,"connected_time":127000000000,"state":"active","ping":89},{"user_id":660,"name":"sonic1394","steam_id":76561198054636788,"connected_time":1685000000000,"state":"active","ping":75},{"user_id":661,"name":"Krel","steam_id":76561198287045069,"connected_time":1681000000000,"state":"active","ping":77},{"user_id":639,"name":"Bag","steam_id":76561198012395490,"connected_time":2598000000000,"state":"active","ping":59},{"user_id":672,"name":"frog from pond","steam_id":76561198184900753,"connected_time":568000000000,"state":"active","ping":73}]},{"server_id":104,"name":"Uncletopia | Atlanta | 2 | All Maps","name_short":"atl-2","host":"atl-1.us.uncletopia.com","port":27025,"enabled":true,"region":"us-east","cc":"us","latitude":33.753746,"longitude":-84.38633,"reserved":0,"last_update":"0001-01-01T00:00:00Z","name_a2s":"Uncletopia | Atlanta | 2 | All Maps","protocol":17,"map":"koth_lakeside_final","folder":"tf","game":"Team Fortress","app_id":440,"player_count":24,"max_players":24,"Bots":0,"server_type":"Dedicated","server_os":"Linux","password":true,"vac":true,"version":"7961495","steam_id":85568392924469983,"keywords":["cp","nocrits","nodmgspread","uncletopia"],"game_id":440,"stv_port":27026,"stv_name":"Uncletopia | Atlanta | 2 | All Maps | STV","players":[{"user_id":581,"name":"Koishi","steam_id":76561198054541054,"connected_time":7921000000000,"state":"active","ping":60},{"user_id":654,"name":"killeroverscore123","steam_id":76561199168131321,"connected_time":1792000000000,"state":"active","ping":72},{"user_id":636,"name":"Career","steam_id":76561198028542212,"connected_time":3056000000000,"state":"active","ping":53},{"user_id":688,"name":"Prism Jinn","steam_id":76561198799002893,"connected_time":255000000000,"state":"active","ping":59},{"user_id":689,"name":"Season Leaf","steam_id":76561198133121805,"connected_time":229000000000,"state":"active","ping":45},{"user_id":614,"name":"No, this is Patrick","steam_id":76561198058776774,"connected_time":5358000000000,"state":"active","ping":63},{"user_id":666,"name":"Sentry Gun Main Man","steam_id":76561198327938247,"connected_time":1047000000000,"state":"active","ping":60},{"user_id":675,"name":"tunaa","steam_id":76561198362763159,"connected_time":745000000000,"state":"active","ping":98},{"user_id":684,"name":"Mr. Squirt","steam_id":76561198174755679,"connected_time":283000000000,"state":"active","ping":47},{"user_id":660,"name":"sithreis","steam_id":76561198000564263,"connected_time":1153000000000,"state":"active","ping":60},{"user_id":690,"name":"on that zaza?","steam_id":76561198038713198,"connected_time":219000000000,"state":"active","ping":76},{"user_id":652,"name":"broomstick","steam_id":76561198302171600,"connected_time":2119000000000,"state":"active","ping":60},{"user_id":630,"name":"Punished Shitster","steam_id":76561198150452857,"connected_time":4127000000000,"state":"active","ping":73},{"user_id":692,"name":"TheBrocklobster","steam_id":76561198039682984,"connected_time":30000000000,"state":"active","ping":98},{"user_id":661,"name":"AlecTheNefarious","steam_id":76561198035291230,"connected_time":1149000000000,"state":"active","ping":75},{"user_id":662,"name":"lanoc","steam_id":76561198055415367,"connected_time":1145000000000,"state":"active","ping":45},{"user_id":651,"name":"InsulinDealer","steam_id":76561197994220909,"connected_time":2298000000000,"state":"active","ping":109},{"user_id":679,"name":"dysesthesia","steam_id":76561198027159018,"connected_time":502000000000,"state":"active","ping":62},{"user_id":593,"name":"E4Estrogen","steam_id":76561198085813708,"connected_time":7415000000000,"state":"active","ping":46},{"user_id":676,"name":"suck her dick sunday","steam_id":76561199328635967,"connected_time":637000000000,"state":"active","ping":59},{"user_id":691,"name":"Karl_Marx_Onlyfans","steam_id":76561198212389613,"connected_time":181000000000,"state":"active","ping":71},{"user_id":672,"name":"SD","steam_id":76561198217410988,"connected_time":836000000000,"state":"active","ping":105},{"user_id":686,"name":"Skudge Sister","steam_id":76561198041766766,"connected_time":272000000000,"state":"active","ping":81},{"user_id":682,"name":"Pan Pan","steam_id":76561199074670515,"connected_time":297000000000,"state":"active","ping":191}]},{"server_id":400,"name":"Uncletopia | Atlanta | 3 | Stopwatch","name_short":"atl-3","host":"atl-1.us.uncletopia.com","port":27035,"enabled":true,"region":"us-east","cc":"us","latitude":33.753746,"longitude":-84.38633,"reserved":0,"last_update":"0001-01-01T00:00:00Z","name_a2s":"Uncletopia | Atlanta | 3 | Stopwatch","protocol":17,"map":"workshop/cp_reckoner_rc6.ugc674719999","folder":"tf","game":"Team Fortress","app_id":440,"player_count":0,"max_players":24,"Bots":0,"server_type":"Dedicated","server_os":"Linux","password":true,"vac":true,"version":"7961495","steam_id":85568392924515187,"keywords":["cp","nocrits","nodmgspread","uncletopia"],"game_id":440,"stv_port":27036,"stv_name":"Uncletopia | Atlanta | 3 | Stopwatch | STV","players":null},{"server_id":401,"name":"Uncletopia | Atlanta | 4 | Community","name_short":"atl-4","host":"atl-1.us.uncletopia.com","port":27045,"enabled":true,"region":"us-east","cc":"us","latitude":33.753746,"longitude":-84.38633,"reserved":0,"last_update":"0001-01-01T00:00:00Z","name_a2s":"Uncletopia | Atlanta | 4 | Community","protocol":17,"map":"workshop/koth_product_final.ugc454272353","folder":"tf","game":"Team Fortress","app_id":440,"player_count":0,"max_players":24,"Bots":0,"server_type":"Dedicated","server_os":"Linux","password":true,"vac":true,"version":"7961495","steam_id":85568392924515188,"keywords":["cp","nocrits","nodmgspread","uncletopia"],"game_id":440,"stv_port":27046,"stv_name":"Uncletopia | Atlanta | 4 | Community | STV","players":null},{"server_id":2,"name":"Uncletopia | Chicago | 1 | All Maps","name_short":"chi-1","host":"chi-1.us.uncletopia.com","port":27015,"enabled":true,"region":"us-central","cc":"us","latitude":41.881832,"longitude":-87.62318,"reserved":0,"last_update":"0001-01-01T00:00:00Z","name_a2s":"Uncletopia | Chicago | 1 | All Maps","protocol":17,"map":"cp_mercenarypark","folder":"tf","game":"Team Fortress","app_id":440,"player_count":23,"max_players":24,"Bots":0,"server_type":"Dedicated","server_os":"Linux","password":true,"vac":true,"version":"7961495","steam_id":85568392924469984,"keywords":["cp","nocrits","nodmgspread","uncletopia"],"game_id":440,"stv_port":27016,"stv_name":"Uncletopia | Chicago | 1 | All Maps | STV","players":[{"user_id":853,"name":"The_Skull_boy","steam_id":76561198227692664,"connected_time":1682000000000,"state":"active","ping":94},{"user_id":841,"name":"Blargh","steam_id":76561198044095816,"connected_time":2065000000000,"state":"active","ping":53},{"user_id":834,"name":"cy","steam_id":76561198885893295,"connected_time":2865000000000,"state":"active","ping":46},{"user_id":816,"name":"M","steam_id":76561198174958927,"connected_time":4113000000000,"state":"active","ping":62},{"user_id":817,"name":"Dottie [She/They]","steam_id":76561198282046179,"connected_time":4110000000000,"state":"active","ping":65},{"user_id":842,"name":"winning","steam_id":76561198003206947,"connected_time":2021000000000,"state":"active","ping":59},{"user_id":872,"name":"Six Piece Chicken McNobody","steam_id":76561198129848222,"connected_time":53000000000,"state":"active","ping":54},{"user_id":871,"name":"Joebobio","steam_id":76561198024442760,"connected_time":162000000000,"state":"active","ping":55},{"user_id":860,"name":"Siz","steam_id":76561198072962154,"connected_time":855000000000,"state":"active","ping":65},{"user_id":864,"name":"Keith Cozart","steam_id":76561198146090015,"connected_time":530000000000,"state":"active","ping":43},{"user_id":857,"name":"non_ai","steam_id":76561198270951938,"connected_time":1136000000000,"state":"active","ping":61},{"user_id":865,"name":"Therapy Goth","steam_id":76561198048448497,"connected_time":527000000000,"state":"active","ping":60},{"user_id":870,"name":"doombot","steam_id":76561198035778187,"connected_time":425000000000,"state":"active","ping":71},{"user_id":845,"name":"Chanter","steam_id":76561198246701796,"connected_time":1940000000000,"state":"active","ping":76},{"user_id":836,"name":"SandHanitizer","steam_id":76561198234676500,"connected_time":2725000000000,"state":"active","ping":58},{"user_id":846,"name":"frank","steam_id":76561198137777483,"connected_time":1929000000000,"state":"active","ping":67},{"user_id":839,"name":"Dama","steam_id":76561198023139465,"connected_time":2155000000000,"state":"active","ping":42},{"user_id":837,"name":"collacot","steam_id":76561198243248798,"connected_time":2625000000000,"state":"active","ping":77},{"user_id":856,"name":"Townze","steam_id":76561198081827165,"connected_time":1270000000000,"state":"active","ping":47},{"user_id":866,"name":"rum nitty","steam_id":76561198174788846,"connected_time":524000000000,"state":"active","ping":45},{"user_id":867,"name":"kiwi","steam_id":76561198052177917,"connected_time":522000000000,"state":"active","ping":96},{"user_id":808,"name":"Kuato","steam_id":76561198070591328,"connected_time":5488000000000,"state":"active","ping":45},{"user_id":868,"name":"gayforgod","steam_id":76561198364882421,"connected_time":503000000000,"state":"active","ping":92}]},{"server_id":106,"name":"Uncletopia | Chicago | 2 | All Maps","name_short":"chi-2","host":"chi-1.us.uncletopia.com","port":27025,"enabled":true,"region":"us-central","cc":"us","latitude":41.881832,"longitude":-87.62318,"reserved":0,"last_update":"0001-01-01T00:00:00Z","name_a2s":"Uncletopia | Chicago | 2 | All Maps","protocol":17,"map":"cp_dustbowl","folder":"tf","game":"Team Fortress","app_id":440,"player_count":24,"max_players":24,"Bots":0,"server_type":"Dedicated","server_os":"Linux","password":true,"vac":true,"version":"7961495","steam_id":85568392924469985,"keywords":["cp","nocrits","nodmgspread","uncletopia"],"game_id":440,"stv_port":27026,"stv_name":"Uncletopia | Chicago | 2 | All Maps | STV","players":[{"user_id":740,"name":"Sprinx","steam_id":76561198112614381,"connected_time":7252000000000,"state":"active","ping":62},{"user_id":813,"name":"WatchWill","steam_id":76561198157237945,"connected_time":3263000000000,"state":"active","ping":62},{"user_id":797,"name":"Piyono","steam_id":76561197962188504,"connected_time":5326000000000,"state":"active","ping":58},{"user_id":823,"name":"Le Meilleur","steam_id":76561198054581325,"connected_time":2090000000000,"state":"active","ping":49},{"user_id":819,"name":"creature","steam_id":76561198216695681,"connected_time":2341000000000,"state":"active","ping":48},{"user_id":825,"name":"jneubauer1620","steam_id":76561199228634006,"connected_time":1489000000000,"state":"active","ping":48},{"user_id":714,"name":"Elias","steam_id":76561198106431732,"connected_time":10482000000000,"state":"active","ping":48},{"user_id":702,"name":"MedRed™ #IATAH","steam_id":76561198002962970,"connected_time":10843000000000,"state":"active","ping":102},{"user_id":676,"name":"hej","steam_id":76561197996366940,"connected_time":12737000000000,"state":"active","ping":60},{"user_id":830,"name":"Kick Down Door 6:00AM TUCK☃RO","steam_id":76561197976146738,"connected_time":795000000000,"state":"active","ping":80},{"user_id":817,"name":"only a spoonful","steam_id":76561198113180616,"connected_time":2752000000000,"state":"active","ping":59},{"user_id":419,"name":"runescape legend","steam_id":76561198077791373,"connected_time":23203000000000,"state":"active","ping":51},{"user_id":815,"name":"Zoramine Fae","steam_id":76561198346753422,"connected_time":2893000000000,"state":"active","ping":34},{"user_id":836,"name":"TickTock|Mink","steam_id":76561198069809794,"connected_time":183000000000,"state":"active","ping":58},{"user_id":816,"name":"Daksuki","steam_id":76561198084127751,"connected_time":2799000000000,"state":"active","ping":75},{"user_id":700,"name":"Lia_Rein","steam_id":76561198151569597,"connected_time":11498000000000,"state":"active","ping":151},{"user_id":803,"name":"Remix.SMG","steam_id":76561198052895933,"connected_time":4695000000000,"state":"active","ping":81},{"user_id":835,"name":"plutonium","steam_id":76561198319442494,"connected_time":323000000000,"state":"active","ping":114},{"user_id":753,"name":"russames","steam_id":76561198007535911,"connected_time":6675000000000,"state":"active","ping":57},{"user_id":821,"name":"Trader Yohan","steam_id":76561198048956010,"connected_time":2162000000000,"state":"active","ping":112},{"user_id":826,"name":"Zedifo","steam_id":76561198044032070,"connected_time":1238000000000,"state":"active","ping":133},{"user_id":800,"name":"HalfDead","steam_id":76561198049700226,"connected_time":5293000000000,"state":"active","ping":78},{"user_id":833,"name":"GoldtoothFour","steam_id":76561198055529332,"connected_time":410000000000,"state":"active","ping":45},{"user_id":834,"name":"Nestor","steam_id":76561198070782619,"connected_time":362000000000,"state":"active","ping":52}]},{"server_id":402,"name":"Uncletopia | Chicago | 3 | All Maps","name_short":"chi-3","host":"chi-1.us.uncletopia.com","port":27035,"enabled":true,"region":"us-central","cc":"us","latitude":41.881832,"longitude":-87.62318,"reserved":0,"last_update":"0001-01-01T00:00:00Z","name_a2s":"Uncletopia | Chicago | 3 | All Maps","protocol":17,"map":"pl_barnblitz","folder":"tf","game":"Team Fortress","app_id":440,"player_count":22,"max_players":24,"Bots":0,"server_type":"Dedicated","server_os":"Linux","password":true,"vac":true,"version":"7961495","steam_id":85568392924515191,"keywords":["nocrits","nodmgspread","payload","uncletopia"],"game_id":440,"stv_port":27036,"stv_name":"Uncletopia | Chicago | 3 | All Maps | STV","players":[{"user_id":465,"name":"ninety9dragonfly","steam_id":76561198363406983,"connected_time":1598000000000,"state":"connecting","ping":126},{"user_id":480,"name":"CRABMAN","steam_id":76561198016139425,"connected_time":31000000000,"state":"connecting","ping":89},{"user_id":469,"name":"him/her","steam_id":76561198122238340,"connected_time":1493000000000,"state":"connecting","ping":91},{"user_id":471,"name":"Lead Licker","steam_id":76561198162668339,"connected_time":1409000000000,"state":"connecting","ping":74},{"user_id":458,"name":"Drapph","steam_id":76561199384213314,"connected_time":2727000000000,"state":"connecting","ping":61},{"user_id":394,"name":"Robyn Goodfellowe","steam_id":76561198074719241,"connected_time":7661000000000,"state":"connecting","ping":192},{"user_id":446,"name":"SofaKing","steam_id":76561198176691859,"connected_time":3436000000000,"state":"connecting","ping":113},{"user_id":411,"name":"`o2","steam_id":76561197992030936,"connected_time":6659000000000,"state":"connecting","ping":75},{"user_id":463,"name":"Im Groot","steam_id":76561198294943420,"connected_time":1692000000000,"state":"connecting","ping":92},{"user_id":448,"name":"H0wlr","steam_id":76561198012332824,"connected_time":3371000000000,"state":"connecting","ping":54},{"user_id":455,"name":"dirty30","steam_id":76561198021226566,"connected_time":2993000000000,"state":"connecting","ping":114},{"user_id":472,"name":"Lae","steam_id":76561198185527278,"connected_time":1383000000000,"state":"connecting","ping":84},{"user_id":461,"name":"Chicago Shoplifter","steam_id":76561197986530028,"connected_time":2283000000000,"state":"connecting","ping":110},{"user_id":375,"name":"Mufalito","steam_id":76561198951889482,"connected_time":9431000000000,"state":"connecting","ping":160},{"user_id":479,"name":"ifuruna","steam_id":76561199506882366,"connected_time":126000000000,"state":"connecting","ping":145},{"user_id":428,"name":"astrobob911","steam_id":76561199099110654,"connected_time":5534000000000,"state":"connecting","ping":70},{"user_id":452,"name":"vareh","steam_id":76561197993190926,"connected_time":3267000000000,"state":"connecting","ping":129},{"user_id":359,"name":"zpalmtree","steam_id":76561198134307620,"connected_time":10409000000000,"state":"connecting","ping":62},{"user_id":477,"name":"Weary","steam_id":76561198145767546,"connected_time":298000000000,"state":"connecting","ping":80}]},{"server_id":403,"name":"Uncletopia | Chicago | 4 | All Maps","name_short":"chi-4","host":"chi-1.us.uncletopia.com","port":27045,"enabled":true,"region":"us-central","cc":"us","latitude":41.881832,"longitude":-87.62318,"reserved":0,"last_update":"0001-01-01T00:00:00Z","name_a2s":"Uncletopia | Chicago | 4 | All Maps","protocol":17,"map":"pl_hoodoo_final","folder":"tf","game":"Team Fortress","app_id":440,"player_count":24,"max_players":24,"Bots":0,"server_type":"Dedicated","server_os":"Linux","password":true,"vac":true,"version":"7961495","steam_id":85568392924515193,"keywords":["nocrits","nodmgspread","payload","uncletopia"],"game_id":440,"stv_port":27046,"stv_name":"Uncletopia | Chicago | 4 | All Maps | STV","players":[{"user_id":630,"name":"Uluyo","steam_id":76561198065857148,"connected_time":5019000000000,"state":"active","ping":46},{"user_id":688,"name":"Wikked","steam_id":76561198196149207,"connected_time":343000000000,"state":"active","ping":171},{"user_id":654,"name":"Greenmax9","steam_id":76561198056050329,"connected_time":2741000000000,"state":"active","ping":75},{"user_id":647,"name":"Fever Dreams","steam_id":76561198116614620,"connected_time":3731000000000,"state":"active","ping":62},{"user_id":676,"name":"Ghoulenoir","steam_id":76561198074314573,"connected_time":1632000000000,"state":"active","ping":49},{"user_id":674,"name":"Pyrovision Distributor","steam_id":76561198242118240,"connected_time":1720000000000,"state":"active","ping":61},{"user_id":657,"name":"Black cook from restaurant","steam_id":76561198225578600,"connected_time":2610000000000,"state":"active","ping":38},{"user_id":691,"name":"WillieMakit","steam_id":76561197985391684,"connected_time":77000000000,"state":"active","ping":108},{"user_id":683,"name":"Dukino","steam_id":76561198008455368,"connected_time":857000000000,"state":"active","ping":58},{"user_id":672,"name":"Diokat","steam_id":76561198203775996,"connected_time":1860000000000,"state":"active","ping":57},{"user_id":629,"name":"mr ploobmeister","steam_id":76561198128908529,"connected_time":5261000000000,"state":"active","ping":77},{"user_id":661,"name":"DanDaMan","steam_id":76561199010054857,"connected_time":2451000000000,"state":"active","ping":48},{"user_id":662,"name":"ThatMailDude","steam_id":76561198074239121,"connected_time":2437000000000,"state":"active","ping":75},{"user_id":663,"name":"Rich Tigress Fina","steam_id":76561198034166729,"connected_time":2410000000000,"state":"active","ping":75},{"user_id":632,"name":"Ket","steam_id":76561198241951244,"connected_time":5000000000000,"state":"active","ping":71},{"user_id":692,"name":"Stick","steam_id":76561198001509374,"connected_time":71000000000,"state":"active","ping":74},{"user_id":686,"name":"Rukks","steam_id":76561197993918954,"connected_time":574000000000,"state":"active","ping":90},{"user_id":633,"name":"Fatpoob","steam_id":76561198056730096,"connected_time":4849000000000,"state":"active","ping":56},{"user_id":680,"name":"benignWing","steam_id":76561198110353148,"connected_time":1489000000000,"state":"active","ping":81},{"user_id":598,"name":"ਹੁੱਡ ਕਾਉਬੌਏ","steam_id":76561198021308963,"connected_time":6061000000000,"state":"active","ping":70},{"user_id":679,"name":"Cactus","steam_id":76561198149762619,"connected_time":1533000000000,"state":"active","ping":110},{"user_id":650,"name":"Local 7/11","steam_id":76561198273494867,"connected_time":3469000000000,"state":"active","ping":61},{"user_id":681,"name":"Rusty","steam_id":76561198178868626,"connected_time":1466000000000,"state":"active","ping":99},{"user_id":690,"name":"DethSQRL","steam_id":76561199149628610,"connected_time":110000000000,"state":"active","ping":88}]},{"server_id":36,"name":"Uncletopia | Chicago | 5 | All Maps","name_short":"chi-5","host":"chi-2.us.uncletopia.com","port":27015,"enabled":true,"region":"us-central","cc":"us","latitude":41.881832,"longitude":-87.62318,"reserved":0,"last_update":"0001-01-01T00:00:00Z","name_a2s":"Uncletopia | Chicago | 5 | All Maps","protocol":17,"map":"cp_dustbowl","folder":"tf","game":"Team Fortress","app_id":440,"player_count":18,"max_players":24,"Bots":0,"server_type":"Dedicated","server_os":"Linux","password":true,"vac":true,"version":"7961495","steam_id":85568392924866362,"keywords":["cp","nocrits","nodmgspread","uncletopia"],"game_id":440,"stv_port":27016,"stv_name":"Uncletopia | Chicago | 5 | All Maps | STV","players":[{"user_id":625,"name":"snezhnaya","steam_id":76561198076395081,"connected_time":9000000000,"state":"spawning","ping":105},{"user_id":603,"name":"ERR://23¤Y/","steam_id":76561197991015780,"connected_time":914000000000,"state":"active","ping":71},{"user_id":622,"name":"toastii","steam_id":76561198064658477,"connected_time":55000000000,"state":"active","ping":57},{"user_id":604,"name":"RetroDiskette","steam_id":76561198162749022,"connected_time":640000000000,"state":"active","ping":75},{"user_id":608,"name":"b1nary","steam_id":76561199018160186,"connected_time":457000000000,"state":"active","ping":57},{"user_id":601,"name":"Sjsparrow","steam_id":76561197995352435,"connected_time":1045000000000,"state":"active","ping":34},{"user_id":586,"name":"DNA Polymerase","steam_id":76561198143738136,"connected_time":2594000000000,"state":"active","ping":109},{"user_id":609,"name":"Dullahan","steam_id":76561198119668908,"connected_time":441000000000,"state":"active","ping":91},{"user_id":615,"name":"Soap Man","steam_id":76561198000490235,"connected_time":207000000000,"state":"active","ping":107},{"user_id":610,"name":"GreenApples","steam_id":76561198120559543,"connected_time":437000000000,"state":"active","ping":102},{"user_id":598,"name":"deity main","steam_id":76561199251639888,"connected_time":1414000000000,"state":"active","ping":58},{"user_id":612,"name":"Ducky","steam_id":76561198158624190,"connected_time":286000000000,"state":"active","ping":44},{"user_id":613,"name":"Shystie","steam_id":76561198025371440,"connected_time":282000000000,"state":"active","ping":62},{"user_id":611,"name":"short bus enthusiast","steam_id":76561198069380992,"connected_time":434000000000,"state":"active","ping":76},{"user_id":623,"name":"Delta","steam_id":76561198158985472,"connected_time":37000000000,"state":"spawning","ping":153},{"user_id":616,"name":"Inspecteur Spie","steam_id":76561198082825407,"connected_time":200000000000,"state":"active","ping":110},{"user_id":617,"name":"bkiller","steam_id":76561198029265697,"connected_time":164000000000,"state":"spawning","ping":80},{"user_id":624,"name":"dax","steam_id":76561198045335319,"connected_time":36000000000,"state":"active","ping":75}]},{"server_id":37,"name":"Uncletopia | Chicago | 6 | All Maps","name_short":"chi-6","host":"chi-2.us.uncletopia.com","port":27025,"enabled":true,"region":"us-central","cc":"us","latitude":41.881832,"longitude":-87.62318,"reserved":0,"last_update":"0001-01-01T00:00:00Z","name_a2s":"Uncletopia | Chicago | 6 | All Maps","protocol":17,"map":"pl_pier","folder":"tf","game":"Team Fortress","app_id":440,"player_count":24,"max_players":24,"Bots":0,"server_type":"Dedicated","server_os":"Linux","password":true,"vac":true,"version":"7961495","steam_id":85568392924866363,"keywords":["nocrits","nodmgspread","payload","uncletopia"],"game_id":440,"stv_port":27026,"stv_name":"Uncletopia | Chicago | 6 | All Maps | STV","players":[{"user_id":495,"name":"baby trump vs baby joe biden","steam_id":76561198051310816,"connected_time":508000000000,"state":"active","ping":71},{"user_id":484,"name":"Kzjytsugn","steam_id":76561198130241974,"connected_time":951000000000,"state":"active","ping":90},{"user_id":479,"name":"Kiervce","steam_id":76561199175427371,"connected_time":1348000000000,"state":"active","ping":53},{"user_id":487,"name":"opossum","steam_id":76561198148905570,"connected_time":749000000000,"state":"active","ping":68},{"user_id":496,"name":"baunter","steam_id":76561198024311871,"connected_time":377000000000,"state":"active","ping":96},{"user_id":399,"name":"SiltyStar85","steam_id":76561198309175923,"connected_time":8667000000000,"state":"active","ping":82},{"user_id":488,"name":"Black_chestnut","steam_id":76561198155524915,"connected_time":721000000000,"state":"active","ping":75},{"user_id":483,"name":"SharpieMan","steam_id":76561198396527475,"connected_time":1016000000000,"state":"active","ping":49},{"user_id":489,"name":"girlpilled unamerican","steam_id":76561198337705174,"connected_time":656000000000,"state":"active","ping":74},{"user_id":465,"name":"kaputon","steam_id":76561198146299782,"connected_time":2698000000000,"state":"active","ping":69},{"user_id":475,"name":"Nickson1","steam_id":76561198175839309,"connected_time":1695000000000,"state":"active","ping":75},{"user_id":497,"name":"lobster","steam_id":76561198147417707,"connected_time":365000000000,"state":"active","ping":85},{"user_id":474,"name":"chill stoner guy w cool stories","steam_id":76561198120973162,"connected_time":1758000000000,"state":"active","ping":82},{"user_id":481,"name":"rf","steam_id":76561198195359229,"connected_time":1100000000000,"state":"active","ping":90},{"user_id":468,"name":"D(b) Hell","steam_id":76561198067869016,"connected_time":2642000000000,"state":"active","ping":45},{"user_id":429,"name":"RusticCarp42989","steam_id":76561198361151865,"connected_time":5949000000000,"state":"active","ping":115},{"user_id":491,"name":"Resistance","steam_id":76561198146782074,"connected_time":644000000000,"state":"active","ping":64},{"user_id":469,"name":"DooDoo","steam_id":76561199253260081,"connected_time":2549000000000,"state":"active","ping":74},{"user_id":471,"name":"₪ insomniac","steam_id":76561198049548952,"connected_time":2396000000000,"state":"active","ping":84},{"user_id":499,"name":"Jay","steam_id":76561198084129048,"connected_time":156000000000,"state":"active","ping":76},{"user_id":439,"name":"Schizoid Despot","steam_id":76561198141902905,"connected_time":4761000000000,"state":"active","ping":49},{"user_id":493,"name":"Steak-Pocketer","steam_id":76561198277651410,"connected_time":643000000000,"state":"active","ping":66},{"user_id":402,"name":"Amoxicilina","steam_id":76561198168486429,"connected_time":8439000000000,"state":"active","ping":119},{"user_id":494,"name":"zzzz","steam_id":76561198310495200,"connected_time":625000000000,"state":"active","ping":56}]},{"server_id":38,"name":"Uncletopia | Chicago | 7 | Stopwatch","name_short":"chi-7","host":"chi-2.us.uncletopia.com","port":27035,"enabled":true,"region":"us-central","cc":"us","latitude":41.881832,"longitude":-87.62318,"reserved":0,"last_update":"0001-01-01T00:00:00Z","name_a2s":"Uncletopia | Chicago | 7 | Stopwatch","protocol":17,"map":"koth_lakeside_final","folder":"tf","game":"Team Fortress","app_id":440,"player_count":12,"max_players":24,"Bots":0,"server_type":"Dedicated","server_os":"Linux","password":true,"vac":true,"version":"7961495","steam_id":85568392924866364,"keywords":["cp","nocrits","nodmgspread","uncletopia"],"game_id":440,"stv_port":27036,"stv_name":"Uncletopia | Chicago | 7 | Stopwatch | STV","players":[{"user_id":529,"name":"SleepyTrout (Charging My PsP)","steam_id":76561198118082897,"connected_time":165000000000,"state":"active","ping":90},{"user_id":528,"name":"Celestial_Hat","steam_id":76561198390436653,"connected_time":321000000000,"state":"active","ping":101},{"user_id":496,"name":"thezranger","steam_id":76561198454086460,"connected_time":3621000000000,"state":"active","ping":104},{"user_id":530,"name":"AstralLucario","steam_id":76561198075427665,"connected_time":161000000000,"state":"active","ping":49},{"user_id":527,"name":"Dan","steam_id":76561199236719411,"connected_time":345000000000,"state":"active","ping":65},{"user_id":531,"name":"Mystery Man TF2EASY.COM","steam_id":76561198138073785,"connected_time":102000000000,"state":"active","ping":60},{"user_id":532,"name":"ShellBug","steam_id":76561198144187527,"connected_time":78000000000,"state":"active","ping":59},{"user_id":522,"name":"Gunkzilla","steam_id":76561198068228415,"connected_time":1143000000000,"state":"active","ping":54},{"user_id":524,"name":"Anomet","steam_id":76561198060246255,"connected_time":1069000000000,"state":"active","ping":60},{"user_id":517,"name":"generic internet enjoyer","steam_id":76561199089567808,"connected_time":2094000000000,"state":"active","ping":73},{"user_id":483,"name":"cinamin.kake","steam_id":76561199003171233,"connected_time":4656000000000,"state":"active","ping":53},{"user_id":525,"name":"A Bucket","steam_id":76561198142437700,"connected_time":1002000000000,"state":"active","ping":63}]},{"server_id":39,"name":"Uncletopia | Chicago | 8 | Community","name_short":"chi-8","host":"chi-2.us.uncletopia.com","port":27045,"enabled":true,"region":"us-central","cc":"us","latitude":41.881832,"longitude":-87.62318,"reserved":0,"last_update":"0001-01-01T00:00:00Z","name_a2s":"Uncletopia | Chicago | 8 | Community","protocol":17,"map":"workshop/pl_cactuscanyon_redux_final2.ugc2579644293","folder":"tf","game":"Team Fortress","app_id":440,"player_count":24,"max_players":24,"Bots":0,"server_type":"Dedicated","server_os":"Linux","password":true,"vac":true,"version":"7961495","steam_id":85568392924866365,"keywords":["nocrits","nodmgspread","payload","uncletopia"],"game_id":440,"stv_port":27046,"stv_name":"Uncletopia | Chicago | 8 | Community | STV","players":[{"user_id":201,"name":"Xquo","steam_id":76561198129005384,"connected_time":2722000000000,"state":"active","ping":59},{"user_id":202,"name":"Jurls","steam_id":76561198138077990,"connected_time":2712000000000,"state":"active","ping":82},{"user_id":224,"name":"RaptorJesus","steam_id":76561198451096442,"connected_time":1233000000000,"state":"active","ping":57},{"user_id":222,"name":"TheMightyGod","steam_id":76561198220055968,"connected_time":1307000000000,"state":"active","ping":85},{"user_id":212,"name":"CabezaGrande","steam_id":76561197972555502,"connected_time":2079000000000,"state":"active","ping":60},{"user_id":223,"name":"IBA Chandler","steam_id":76561198403649648,"connected_time":1274000000000,"state":"active","ping":52},{"user_id":226,"name":"Taskrabbits","steam_id":76561198366682546,"connected_time":1182000000000,"state":"active","ping":82},{"user_id":236,"name":"Bucky Garage","steam_id":76561197995185343,"connected_time":192000000000,"state":"active","ping":75},{"user_id":237,"name":"Awsometod","steam_id":76561198014623297,"connected_time":175000000000,"state":"active","ping":53},{"user_id":175,"name":"Lulee","steam_id":76561198044410549,"connected_time":4333000000000,"state":"active","ping":88},{"user_id":205,"name":"The All-Seeing Tim","steam_id":76561198075510786,"connected_time":2524000000000,"state":"active","ping":70},{"user_id":219,"name":"Tcmano","steam_id":76561198057233847,"connected_time":1525000000000,"state":"active","ping":105},{"user_id":239,"name":"Mr. Hungry","steam_id":76561198039195863,"connected_time":125000000000,"state":"active","ping":89},{"user_id":233,"name":"HiddenEgg","steam_id":76561199045105518,"connected_time":312000000000,"state":"active","ping":107},{"user_id":215,"name":"SuperEnderGuy","steam_id":76561198352732164,"connected_time":1790000000000,"state":"active","ping":101},{"user_id":208,"name":"GoGo is a Drunk Slut","steam_id":76561198023080645,"connected_time":2261000000000,"state":"active","ping":76},{"user_id":234,"name":"brian eno","steam_id":76561198109901138,"connected_time":266000000000,"state":"active","ping":78},{"user_id":232,"name":"Zyjem","steam_id":76561198071588380,"connected_time":334000000000,"state":"active","ping":89},{"user_id":230,"name":"No'el","steam_id":76561198063959574,"connected_time":537000000000,"state":"active","ping":84},{"user_id":231,"name":"TruthHut","steam_id":76561198093452436,"connected_time":343000000000,"state":"active","ping":83},{"user_id":229,"name":"nufyivuyda","steam_id":76561199499476489,"connected_time":799000000000,"state":"active","ping":101},{"user_id":95,"name":"liquid bread","steam_id":76561198012441419,"connected_time":11921000000000,"state":"active","ping":48},{"user_id":217,"name":"GlitchNoodles","steam_id":76561199009135766,"connected_time":1737000000000,"state":"active","ping":55},{"user_id":238,"name":"evdoke","steam_id":76561198044555219,"connected_time":172000000000,"state":"active","ping":69}]},{"server_id":8,"name":"Uncletopia | Dallas | 1 | All Maps","name_short":"dal-1","host":"dal-1.us.uncletopia.com","port":27015,"enabled":true,"region":"us-central","cc":"us","latitude":32.779167,"longitude":-96.80889,"reserved":0,"last_update":"0001-01-01T00:00:00Z","name_a2s":"Uncletopia | Dallas | 1 | All Maps","protocol":17,"map":"pl_barnblitz","folder":"tf","game":"Team Fortress","app_id":440,"player_count":24,"max_players":24,"Bots":0,"server_type":"Dedicated","server_os":"Linux","password":true,"vac":true,"version":"7961495","steam_id":85568392924469986,"keywords":["nocrits","nodmgspread","payload","uncletopia"],"game_id":440,"stv_port":27016,"stv_name":"Uncletopia | Dallas | 1 | All Maps | STV","players":[{"user_id":282,"name":"Captain Malarkey","steam_id":76561198869924281,"connected_time":97000000000,"state":"active","ping":45},{"user_id":243,"name":"Lezabel","steam_id":76561198970753261,"connected_time":3596000000000,"state":"active","ping":72},{"user_id":256,"name":"kittytitty","steam_id":76561198122443568,"connected_time":3053000000000,"state":"active","ping":88},{"user_id":274,"name":"Rin \"Hindwing\" Redtail","steam_id":76561199074865638,"connected_time":883000000000,"state":"active","ping":48},{"user_id":249,"name":"Albert Whiskers","steam_id":76561198124081839,"connected_time":3502000000000,"state":"active","ping":40},{"user_id":232,"name":"CeLeb144","steam_id":76561199089907740,"connected_time":5613000000000,"state":"active","ping":110},{"user_id":277,"name":"Batso","steam_id":76561198106589452,"connected_time":717000000000,"state":"active","ping":91},{"user_id":281,"name":"RollingCow","steam_id":76561198067114237,"connected_time":427000000000,"state":"active","ping":80},{"user_id":219,"name":"PapaSmurf","steam_id":76561199201107408,"connected_time":6668000000000,"state":"active","ping":71},{"user_id":275,"name":"Gary Budussy","steam_id":76561197969793969,"connected_time":853000000000,"state":"active","ping":52},{"user_id":246,"name":"OuterEos","steam_id":76561198151557939,"connected_time":3545000000000,"state":"active","ping":68},{"user_id":213,"name":"Metbol","steam_id":76561198001362410,"connected_time":7439000000000,"state":"active","ping":62},{"user_id":252,"name":"Engineer2650","steam_id":76561198121410799,"connected_time":3237000000000,"state":"active","ping":45},{"user_id":271,"name":"Team Fartpiss Poo","steam_id":76561199163591880,"connected_time":1924000000000,"state":"active","ping":82},{"user_id":269,"name":"guts' theme (Cut \u0026 Looped)","steam_id":76561198012829728,"connected_time":2181000000000,"state":"active","ping":56},{"user_id":276,"name":"Microps","steam_id":76561198999013668,"connected_time":757000000000,"state":"active","ping":74},{"user_id":263,"name":"wistful autumn","steam_id":76561198045810207,"connected_time":2340000000000,"state":"active","ping":88},{"user_id":248,"name":"Glühbirne","steam_id":76561198189278869,"connected_time":3527000000000,"state":"active","ping":133},{"user_id":228,"name":"Lickity Split","steam_id":76561198132051047,"connected_time":5771000000000,"state":"active","ping":128},{"user_id":278,"name":"Baked af","steam_id":76561198058312481,"connected_time":685000000000,"state":"active","ping":96},{"user_id":250,"name":"PTR","steam_id":76561198237253772,"connected_time":3443000000000,"state":"active","ping":49},{"user_id":254,"name":"Gator Mcklusky","steam_id":76561198095744170,"connected_time":3182000000000,"state":"active","ping":109},{"user_id":280,"name":"jordaniel","steam_id":76561198123264754,"connected_time":493000000000,"state":"active","ping":80},{"user_id":273,"name":"PiolaCat","steam_id":76561199100535345,"connected_time":1709000000000,"state":"active","ping":95}]},{"server_id":108,"name":"Uncletopia | Dallas | 2 | All Maps","name_short":"dal-2","host":"dal-1.us.uncletopia.com","port":27025,"enabled":true,"region":"us-central","cc":"us","latitude":32.779167,"longitude":-96.80889,"reserved":0,"last_update":"0001-01-01T00:00:00Z","name_a2s":"Uncletopia | Dallas | 2 | All Maps","protocol":17,"map":"pl_snowycoast","folder":"tf","game":"Team Fortress","app_id":440,"player_count":24,"max_players":24,"Bots":0,"server_type":"Dedicated","server_os":"Linux","password":true,"vac":true,"version":"7961495","steam_id":85568392924469988,"keywords":["nocrits","nodmgspread","payload","uncletopia"],"game_id":440,"stv_port":27026,"stv_name":"Uncletopia | Dallas | 2 | All Maps | STV","players":[{"user_id":494,"name":"SnareString","steam_id":76561199082119457,"connected_time":4462000000000,"state":"active","ping":100},{"user_id":493,"name":"Pile of Spinach","steam_id":76561198043068841,"connected_time":4473000000000,"state":"active","ping":86},{"user_id":495,"name":"Brody Yukin","steam_id":76561198084712019,"connected_time":4453000000000,"state":"active","ping":86},{"user_id":533,"name":"Certified Hood Classic","steam_id":76561199086159354,"connected_time":2071000000000,"state":"active","ping":45},{"user_id":555,"name":"Ulrich Stern","steam_id":76561198101739682,"connected_time":421000000000,"state":"active","ping":67},{"user_id":548,"name":"Joe Nathan","steam_id":76561198041030399,"connected_time":683000000000,"state":"active","ping":68},{"user_id":522,"name":"Not Vladikr1","steam_id":76561198401495362,"connected_time":3557000000000,"state":"active","ping":76},{"user_id":563,"name":"Thingy","steam_id":76561198140161202,"connected_time":193000000000,"state":"active","ping":78},{"user_id":553,"name":"Kanye Irving","steam_id":76561198197046549,"connected_time":590000000000,"state":"active","ping":42},{"user_id":565,"name":"Mittens \u003c3 (BWC)","steam_id":76561198127840982,"connected_time":146000000000,"state":"active","ping":86},{"user_id":564,"name":"37 septillion tapeworms","steam_id":76561198186128723,"connected_time":170000000000,"state":"active","ping":48},{"user_id":562,"name":"Tea Leaf","steam_id":76561198123549027,"connected_time":266000000000,"state":"active","ping":60},{"user_id":544,"name":"MD","steam_id":76561197976300679,"connected_time":1087000000000,"state":"active","ping":58},{"user_id":527,"name":"potato_games","steam_id":76561199120708182,"connected_time":3087000000000,"state":"active","ping":97},{"user_id":557,"name":"Oopsie Daisy ❋","steam_id":76561198042144492,"connected_time":403000000000,"state":"active","ping":68},{"user_id":542,"name":"Chekkaa","steam_id":76561198035140767,"connected_time":1137000000000,"state":"active","ping":92},{"user_id":545,"name":"Juice","steam_id":76561198075111427,"connected_time":1066000000000,"state":"active","ping":84},{"user_id":534,"name":"why","steam_id":76561199059732212,"connected_time":1985000000000,"state":"active","ping":73},{"user_id":546,"name":"Five","steam_id":76561198026640473,"connected_time":1037000000000,"state":"active","ping":72},{"user_id":535,"name":"HOG RIDER","steam_id":76561198298589502,"connected_time":1953000000000,"state":"active","ping":80},{"user_id":560,"name":"Thinking Thing","steam_id":76561198037223253,"connected_time":373000000000,"state":"active","ping":50},{"user_id":519,"name":"ATLS1 | Strange Festive","steam_id":76561198050385093,"connected_time":3587000000000,"state":"active","ping":95},{"user_id":539,"name":"9/11 Airlines","steam_id":76561198096306325,"connected_time":1258000000000,"state":"active","ping":88},{"user_id":521,"name":"C Papi","steam_id":76561198027779564,"connected_time":3585000000000,"state":"active","ping":63}]},{"server_id":404,"name":"Uncletopia | Dallas | 3 | All Maps","name_short":"dal-3","host":"dal-1.us.uncletopia.com","port":27035,"enabled":true,"region":"us-central","cc":"us","latitude":32.779167,"longitude":-96.80889,"reserved":0,"last_update":"0001-01-01T00:00:00Z","name_a2s":"Uncletopia | Dallas | 3 | All Maps","protocol":17,"map":"cp_steel","folder":"tf","game":"Team Fortress","app_id":440,"player_count":14,"max_players":24,"Bots":0,"server_type":"Dedicated","server_os":"Linux","password":true,"vac":true,"version":"7961495","steam_id":85568392924515219,"keywords":["cp","nocrits","nodmgspread","uncletopia"],"game_id":440,"stv_port":27036,"stv_name":"Uncletopia | Dallas | 3 | All Maps | STV","players":[{"user_id":349,"name":"Cheese","steam_id":76561199435683727,"connected_time":43000000000,"state":"active","ping":133},{"user_id":331,"name":"riSygneD","steam_id":76561198331618687,"connected_time":1970000000000,"state":"active","ping":67},{"user_id":341,"name":"Aeon","steam_id":76561198079117315,"connected_time":564000000000,"state":"active","ping":76},{"user_id":321,"name":"LOVEDRAGON","steam_id":76561198089908485,"connected_time":2222000000000,"state":"active","ping":102},{"user_id":320,"name":"shellaa","steam_id":76561198044124102,"connected_time":2223000000000,"state":"active","ping":37},{"user_id":344,"name":"Erin","steam_id":76561198040333168,"connected_time":417000000000,"state":"active","ping":103},{"user_id":345,"name":"Padak","steam_id":76561198120852008,"connected_time":410000000000,"state":"active","ping":75},{"user_id":319,"name":"Antifa Supersoldier","steam_id":76561198141816516,"connected_time":2229000000000,"state":"active","ping":45},{"user_id":322,"name":"tingle shitmouth","steam_id":76561198055109192,"connected_time":2219000000000,"state":"active","ping":69},{"user_id":346,"name":"Spare(8)Ball","steam_id":76561197982432995,"connected_time":394000000000,"state":"active","ping":93},{"user_id":340,"name":"Nibelsnarf (She/They)","steam_id":76561198137642054,"connected_time":953000000000,"state":"active","ping":54},{"user_id":347,"name":"Trouttopia","steam_id":76561198094623670,"connected_time":379000000000,"state":"active","ping":80},{"user_id":293,"name":"Marzbee115","steam_id":76561198095821025,"connected_time":4728000000000,"state":"active","ping":59},{"user_id":317,"name":"Baconator","steam_id":76561198941700660,"connected_time":2695000000000,"state":"active","ping":105}]},{"server_id":405,"name":"Uncletopia | Dallas | 4 | Community","name_short":"dal-4","host":"dal-1.us.uncletopia.com","port":27045,"enabled":true,"region":"us-central","cc":"us","latitude":32.779167,"longitude":-96.80889,"reserved":0,"last_update":"0001-01-01T00:00:00Z","name_a2s":"Uncletopia | Dallas | 4 | Community","protocol":17,"map":"workshop/koth_product_final.ugc454272353","folder":"tf","game":"Team Fortress","app_id":440,"player_count":0,"max_players":24,"Bots":0,"server_type":"Dedicated","server_os":"Linux","password":true,"vac":true,"version":"7961495","steam_id":85568392924515220,"keywords":["cp","nocrits","nodmgspread","uncletopia"],"game_id":440,"stv_port":27046,"stv_name":"Uncletopia | Dallas | 4 | Community | STV","players":null},{"server_id":5,"name":"Uncletopia | Frankfurt | 1 | All Maps","name_short":"frk-1","host":"frk-1.de.uncletopia.com","port":27015,"enabled":true,"region":"eu","cc":"de","latitude":50.110924,"longitude":8.682127,"reserved":0,"last_update":"0001-01-01T00:00:00Z","name_a2s":"Uncletopia | Frankfurt | 1 | All Maps","protocol":17,"map":"cp_badlands","folder":"tf","game":"Team Fortress","app_id":440,"player_count":0,"max_players":24,"Bots":0,"server_type":"Dedicated","server_os":"Linux","password":true,"vac":true,"version":"7961495","steam_id":85568392924469989,"keywords":["cp","nocrits","nodmgspread","uncletopia"],"game_id":440,"stv_port":27016,"stv_name":"Uncletopia | Frankfurt | 1 | All Maps | STV","players":null},{"server_id":110,"name":"Uncletopia | Frankfurt | 2 | All Maps","name_short":"frk-2","host":"frk-1.de.uncletopia.com","port":27025,"enabled":true,"region":"eu","cc":"de","latitude":50.110924,"longitude":8.682127,"reserved":0,"last_update":"0001-01-01T00:00:00Z","name_a2s":"Uncletopia | Frankfurt | 2 | All Maps","protocol":17,"map":"plr_hightower","folder":"tf","game":"Team Fortress","app_id":440,"player_count":0,"max_players":24,"Bots":0,"server_type":"Dedicated","server_os":"Linux","password":true,"vac":true,"version":"7961495","steam_id":85568392924469990,"keywords":["nocrits","nodmgspread","payload","uncletopia"],"game_id":440,"stv_port":27026,"stv_name":"Uncletopia | Frankfurt | 2 | All Maps | STV","players":null},{"server_id":308,"name":"Uncletopia | Frankfurt | 3 | All Maps","name_short":"frk-3","host":"frk-1.de.uncletopia.com","port":27035,"enabled":true,"region":"eu","cc":"de","latitude":50.110924,"longitude":8.682127,"reserved":0,"last_update":"0001-01-01T00:00:00Z","name_a2s":"Uncletopia | Frankfurt | 3 | All Maps","protocol":17,"map":"cp_metalworks","folder":"tf","game":"Team Fortress","app_id":440,"player_count":0,"max_players":24,"Bots":0,"server_type":"Dedicated","server_os":"Linux","password":true,"vac":true,"version":"7961495","steam_id":85568392924504274,"keywords":["cp","nocrits","nodmgspread","uncletopia"],"game_id":440,"stv_port":27036,"stv_name":"Uncletopia | Frankfurt | 3 | All Maps | STV","players":null},{"server_id":309,"name":"Uncletopia | Frankfurt | 4 | All Maps","name_short":"frk-4","host":"frk-1.de.uncletopia.com","port":27045,"enabled":true,"region":"eu","cc":"de","latitude":50.110924,"longitude":8.682127,"reserved":0,"last_update":"0001-01-01T00:00:00Z","name_a2s":"Uncletopia | Frankfurt | 4 | All Maps","protocol":17,"map":"cp_gorge","folder":"tf","game":"Team Fortress","app_id":440,"player_count":0,"max_players":24,"Bots":0,"server_type":"Dedicated","server_os":"Linux","password":true,"vac":true,"version":"7961495","steam_id":85568392924504275,"keywords":["cp","nocrits","nodmgspread","uncletopia"],"game_id":440,"stv_port":27046,"stv_name":"Uncletopia | Frankfurt | 4 | All Maps | STV","players":null},{"server_id":310,"name":"Uncletopia | Frankfurt | 5 | All Maps","name_short":"frk-5","host":"frk-1.de.uncletopia.com","port":27055,"enabled":true,"region":"eu","cc":"de","latitude":50.110924,"longitude":8.682127,"reserved":0,"last_update":"0001-01-01T00:00:00Z","name_a2s":"Uncletopia | Frankfurt | 5 | All Maps","protocol":17,"map":"cp_mountainlab","folder":"tf","game":"Team Fortress","app_id":440,"player_count":0,"max_players":24,"Bots":0,"server_type":"Dedicated","server_os":"Linux","password":true,"vac":true,"version":"7961495","steam_id":85568392924504277,"keywords":["cp","nocrits","nodmgspread","uncletopia"],"game_id":440,"stv_port":27056,"stv_name":"Uncletopia | Frankfurt | 5 | All Maps | STV","players":null},{"server_id":311,"name":"Uncletopia | Frankfurt | 6 | All Maps","name_short":"frk-6","host":"frk-1.de.uncletopia.com","port":27065,"enabled":true,"region":"eu","cc":"de","latitude":50.110924,"longitude":8.682127,"reserved":0,"last_update":"0001-01-01T00:00:00Z","name_a2s":"Uncletopia | Frankfurt | 6 | All Maps","protocol":17,"map":"cp_coldfront","folder":"tf","game":"Team Fortress","app_id":440,"player_count":0,"max_players":24,"Bots":0,"server_type":"Dedicated","server_os":"Linux","password":true,"vac":true,"version":"7961495","steam_id":85568392924504278,"keywords":["cp","nocrits","nodmgspread","uncletopia"],"game_id":440,"stv_port":27066,"stv_name":"Uncletopia | Frankfurt | 6 | All Maps | STV","players":null},{"server_id":23,"name":"Uncletopia | Frankfurt | 7 | Stopwatch","name_short":"frk-7","host":"frk-1.de.uncletopia.com","port":27075,"enabled":true,"region":"eu","cc":"de","latitude":50.110924,"longitude":8.682127,"reserved":0,"last_update":"0001-01-01T00:00:00Z","name_a2s":"Uncletopia | Frankfurt | 7 | Stopwatch","protocol":17,"map":"cp_sunshine","folder":"tf","game":"Team Fortress","app_id":440,"player_count":0,"max_players":24,"Bots":0,"server_type":"Dedicated","server_os":"Linux","password":true,"vac":true,"version":"7961495","steam_id":85568392924742827,"keywords":["cp","nocrits","nodmgspread","uncletopia"],"game_id":440,"stv_port":27076,"stv_name":"Uncletopia | Frankfurt | 7 | Stopwatch | STV","players":null},{"server_id":24,"name":"Uncletopia | Frankfurt | 8 | Community","name_short":"frk-8","host":"frk-1.de.uncletopia.com","port":27085,"enabled":true,"region":"eu","cc":"de","latitude":50.110924,"longitude":8.682127,"reserved":0,"last_update":"0001-01-01T00:00:00Z","name_a2s":"Uncletopia | Frankfurt | 8 | Community","protocol":17,"map":"workshop/pl_boundary_final1.ugc456799153","folder":"tf","game":"Team Fortress","app_id":440,"player_count":0,"max_players":24,"Bots":0,"server_type":"Dedicated","server_os":"Linux","password":true,"vac":true,"version":"7961495","steam_id":85568392924742828,"keywords":["nocrits","nodmgspread","payload","uncletopia"],"game_id":440,"stv_port":27086,"stv_name":"Uncletopia | Frankfurt | 8 | Community | STV","players":null},{"server_id":202,"name":"Uncletopia | Hong Kong | 1 | All Maps","name_short":"hgk-1","host":"hgk-1.hk.uncletopia.com","port":27015,"enabled":true,"region":"asia","cc":"hk","latitude":22.302711,"longitude":114.177216,"reserved":0,"last_update":"0001-01-01T00:00:00Z","name_a2s":"Uncletopia | Hong Kong | 1 | All Maps","protocol":17,"map":"cp_process_final","folder":"tf","game":"Team Fortress","app_id":440,"player_count":0,"max_players":24,"Bots":0,"server_type":"Dedicated","server_os":"Linux","password":true,"vac":true,"version":"7961495","steam_id":85568392924494504,"keywords":["cp","nocrits","nodmgspread","uncletopia"],"game_id":440,"stv_port":27016,"stv_name":"Uncletopia | Hong Kong | 1 | All Maps | STV","players":null},{"server_id":1,"name":"Uncletopia | Los Angeles | 1 | All Maps","name_short":"lax-1","host":"lax-1.us.uncletopia.com","port":27015,"enabled":true,"region":"us-west","cc":"us","latitude":33.94279,"longitude":-118.41004,"reserved":0,"last_update":"0001-01-01T00:00:00Z","name_a2s":"Uncletopia | Los Angeles | 1 | All Maps","protocol":17,"map":"pl_upward","folder":"tf","game":"Team Fortress","app_id":440,"player_count":0,"max_players":24,"Bots":0,"server_type":"Dedicated","server_os":"Linux","password":true,"vac":true,"version":"7961495","steam_id":85568392924469991,"keywords":["nocrits","nodmgspread","payload","uncletopia"],"game_id":440,"stv_port":27016,"stv_name":"Uncletopia | Los Angeles | 1 | All Maps | STV","players":null},{"server_id":112,"name":"Uncletopia | Los Angeles | 2 | All Maps","name_short":"lax-2","host":"lax-1.us.uncletopia.com","port":27025,"enabled":true,"region":"us-west","cc":"us","latitude":33.94279,"longitude":-118.41004,"reserved":0,"last_update":"0001-01-01T00:00:00Z","name_a2s":"Uncletopia | Los Angeles | 2 | All Maps","protocol":17,"map":"koth_cascade","folder":"tf","game":"Team Fortress","app_id":440,"player_count":0,"max_players":24,"Bots":0,"server_type":"Dedicated","server_os":"Linux","password":true,"vac":true,"version":"7961495","steam_id":85568392924469992,"keywords":["cp","nocrits","nodmgspread","uncletopia"],"game_id":440,"stv_port":27026,"stv_name":"Uncletopia | Los Angeles | 2 | All Maps | STV","players":null},{"server_id":324,"name":"Uncletopia | Los Angeles | 3 | All Maps","name_short":"lax-3","host":"lax-1.us.uncletopia.com","port":27035,"enabled":true,"region":"us-west","cc":"us","latitude":33.94279,"longitude":-118.41004,"reserved":0,"last_update":"0001-01-01T00:00:00Z","name_a2s":"Uncletopia | Los Angeles | 3 | All Maps","protocol":17,"map":"koth_highpass","folder":"tf","game":"Team Fortress","app_id":440,"player_count":24,"max_players":24,"Bots":0,"server_type":"Dedicated","server_os":"Linux","password":true,"vac":true,"version":"7961495","steam_id":85568392924510198,"keywords":["cp","nocrits","nodmgspread","uncletopia"],"game_id":440,"stv_port":27036,"stv_name":"Uncletopia | Los Angeles | 3 | All Maps | STV","players":[{"user_id":334,"name":"monsterkill4567","steam_id":76561198272986367,"connected_time":778000000000,"state":"active","ping":45},{"user_id":339,"name":"will (vqinet)","steam_id":76561199055929199,"connected_time":395000000000,"state":"active","ping":71},{"user_id":231,"name":"Reyloko","steam_id":76561198172480913,"connected_time":8098000000000,"state":"active","ping":99},{"user_id":327,"name":"Windows Vista Home Premium","steam_id":76561198043764863,"connected_time":1045000000000,"state":"active","ping":37},{"user_id":288,"name":"ShadowZiki","steam_id":76561198145930013,"connected_time":3410000000000,"state":"active","ping":47},{"user_id":323,"name":"Bacon","steam_id":76561197961223922,"connected_time":1320000000000,"state":"active","ping":65},{"user_id":312,"name":"no vc no c","steam_id":76561197989503095,"connected_time":1848000000000,"state":"active","ping":158},{"user_id":328,"name":"MayKay","steam_id":76561199016092265,"connected_time":1026000000000,"state":"active","ping":50},{"user_id":329,"name":"Hydroxianchaos","steam_id":76561198043786828,"connected_time":1025000000000,"state":"active","ping":108},{"user_id":302,"name":"usedhalfcart","steam_id":76561198072621852,"connected_time":2753000000000,"state":"active","ping":62},{"user_id":325,"name":"miguelrodriguez2013","steam_id":76561198269253587,"connected_time":1123000000000,"state":"active","ping":50},{"user_id":261,"name":"Jimmy","steam_id":76561198857959855,"connected_time":6743000000000,"state":"active","ping":52},{"user_id":314,"name":"DeathSushi","steam_id":76561199156131540,"connected_time":1736000000000,"state":"active","ping":78},{"user_id":333,"name":"FROYO b4nny","steam_id":76561197970669109,"connected_time":876000000000,"state":"active","ping":52},{"user_id":279,"name":"Ice cream sandwich","steam_id":76561198172748357,"connected_time":4708000000000,"state":"active","ping":56},{"user_id":336,"name":"john.","steam_id":76561198982939658,"connected_time":659000000000,"state":"active","ping":51},{"user_id":316,"name":"Mr. Noodle","steam_id":76561198025280658,"connected_time":1714000000000,"state":"active","ping":58},{"user_id":317,"name":"ChoccyMiltank","steam_id":76561198981474284,"connected_time":1713000000000,"state":"active","ping":38},{"user_id":322,"name":"chimplicity","steam_id":76561198012097062,"connected_time":1519000000000,"state":"active","ping":52},{"user_id":310,"name":"Drake from State Farm","steam_id":76561199069029812,"connected_time":2004000000000,"state":"active","ping":63},{"user_id":330,"name":"Korn Dawg graduated!","steam_id":76561198026941076,"connected_time":1002000000000,"state":"active","ping":61},{"user_id":332,"name":"femboy medic player","steam_id":76561198425078444,"connected_time":926000000000,"state":"active","ping":112},{"user_id":331,"name":"Daazed","steam_id":76561199174930132,"connected_time":970000000000,"state":"active","ping":56},{"user_id":335,"name":"Evil Sayori","steam_id":76561198957479336,"connected_time":695000000000,"state":"active","ping":99}]},{"server_id":25,"name":"Uncletopia | Los Angeles | 4 | Stopwatch","name_short":"lax-4","host":"lax-1.us.uncletopia.com","port":27045,"enabled":true,"region":"us-west","cc":"us","latitude":33.94279,"longitude":-118.41004,"reserved":0,"last_update":"0001-01-01T00:00:00Z","name_a2s":"Uncletopia | Los Angeles | 4 | Stopwatch","protocol":17,"map":"koth_highpass","folder":"tf","game":"Team Fortress","app_id":440,"player_count":0,"max_players":24,"Bots":0,"server_type":"Dedicated","server_os":"Linux","password":true,"vac":true,"version":"7961495","steam_id":85568392924510199,"keywords":["cp","nocrits","nodmgspread","uncletopia"],"game_id":440,"stv_port":27046,"stv_name":"Uncletopia | Los Angeles | 4 | Stopwatch | STV","players":null},{"server_id":11,"name":"Uncletopia | London | 1 | All Maps","name_short":"lon-1","host":"lon-1.uk.uncletopia.com","port":27015,"enabled":true,"region":"eu","cc":"gb","latitude":51.509865,"longitude":-0.118092,"reserved":0,"last_update":"0001-01-01T00:00:00Z","name_a2s":"Uncletopia | London | 1 | All Maps","protocol":17,"map":"koth_cascade","folder":"tf","game":"Team Fortress","app_id":440,"player_count":1,"max_players":24,"Bots":0,"server_type":"Dedicated","server_os":"Linux","password":true,"vac":true,"version":"7961495","steam_id":85568392924367362,"keywords":["cp","nocrits","nodmgspread","uncletopia"],"game_id":440,"stv_port":27016,"stv_name":"Uncletopia | London | 1 | All Maps | STV","players":[{"user_id":1313,"name":"One of the Pyro of the time.","steam_id":76561199254846600,"connected_time":5000000000,"state":"spawning","ping":48}]},{"server_id":114,"name":"Uncletopia | London | 2 | All Maps","name_short":"lon-2","host":"lon-1.uk.uncletopia.com","port":27025,"enabled":true,"region":"eu","cc":"gb","latitude":51.509865,"longitude":-0.118092,"reserved":0,"last_update":"0001-01-01T00:00:00Z","name_a2s":"Uncletopia | London | 2 | All Maps","protocol":17,"map":"koth_harvest_final","folder":"tf","game":"Team Fortress","app_id":440,"player_count":0,"max_players":24,"Bots":0,"server_type":"Dedicated","server_os":"Linux","password":true,"vac":true,"version":"7961495","steam_id":85568392924470941,"keywords":["cp","nocrits","nodmgspread","uncletopia"],"game_id":440,"stv_port":27026,"stv_name":"Uncletopia | London | 2 | All Maps | STV","players":null},{"server_id":320,"name":"Uncletopia | London | 3 | All Maps","name_short":"lon-3","host":"lon-1.uk.uncletopia.com","port":27035,"enabled":true,"region":"eu","cc":"gb","latitude":51.509865,"longitude":-0.118092,"reserved":0,"last_update":"0001-01-01T00:00:00Z","name_a2s":"Uncletopia | London | 3 | All Maps","protocol":17,"map":"koth_lakeside_final","folder":"tf","game":"Team Fortress","app_id":440,"player_count":0,"max_players":24,"Bots":0,"server_type":"Dedicated","server_os":"Linux","password":true,"vac":true,"version":"7961495","steam_id":85568392924510192,"keywords":["cp","nocrits","nodmgspread","uncletopia"],"game_id":440,"stv_port":27036,"stv_name":"Uncletopia | London | 3 | All Maps | STV","players":null},{"server_id":321,"name":"Uncletopia | London | 4 | All Maps","name_short":"lon-4","host":"lon-1.uk.uncletopia.com","port":27045,"enabled":true,"region":"eu","cc":"gb","latitude":51.509865,"longitude":-0.118092,"reserved":0,"last_update":"0001-01-01T00:00:00Z","name_a2s":"Uncletopia | London | 4 | All Maps","protocol":17,"map":"koth_king","folder":"tf","game":"Team Fortress","app_id":440,"player_count":0,"max_players":24,"Bots":0,"server_type":"Dedicated","server_os":"Linux","password":true,"vac":true,"version":"7961495","steam_id":85568392924510193,"keywords":["cp","nocrits","nodmgspread","uncletopia"],"game_id":440,"stv_port":27046,"stv_name":"Uncletopia | London | 4 | All Maps | STV","players":null},{"server_id":21,"name":"Uncletopia | London | 5 | All Maps","name_short":"lon-5","host":"lon-1.uk.uncletopia.com","port":27055,"enabled":true,"region":"eu","cc":"gb","latitude":51.509865,"longitude":-0.118092,"reserved":0,"last_update":"0001-01-01T00:00:00Z","name_a2s":"Uncletopia | London | 5 | All Maps","protocol":17,"map":"pl_barnblitz","folder":"tf","game":"Team Fortress","app_id":440,"player_count":0,"max_players":24,"Bots":0,"server_type":"Dedicated","server_os":"Linux","password":true,"vac":true,"version":"7961495","steam_id":85568392924742829,"keywords":["nocrits","nodmgspread","payload","uncletopia"],"game_id":440,"stv_port":27056,"stv_name":"Uncletopia | London | 5 | All Maps | STV","players":null},{"server_id":22,"name":"Uncletopia | London | 6 | All Maps","name_short":"lon-6","host":"lon-1.uk.uncletopia.com","port":27065,"enabled":true,"region":"eu","cc":"gb","latitude":51.509865,"longitude":-0.118092,"reserved":0,"last_update":"0001-01-01T00:00:00Z","name_a2s":"Uncletopia | London | 6 | All Maps","protocol":17,"map":"koth_highpass","folder":"tf","game":"Team Fortress","app_id":440,"player_count":0,"max_players":24,"Bots":0,"server_type":"Dedicated","server_os":"Linux","password":true,"vac":true,"version":"7961495","steam_id":85568392924742830,"keywords":["cp","nocrits","nodmgspread","uncletopia"],"game_id":440,"stv_port":27066,"stv_name":"Uncletopia | London | 6 | All Maps | STV","players":null},{"server_id":40,"name":"Uncletopia | London | 7 | Stopwatch","name_short":"lon-7","host":"lon-1.uk.uncletopia.com","port":27075,"enabled":true,"region":"eu","cc":"gb","latitude":51.509865,"longitude":-0.118092,"reserved":0,"last_update":"0001-01-01T00:00:00Z","name_a2s":"Uncletopia | London | 7 | Stopwatch","protocol":17,"map":"workshop/koth_clearcut_b15.ugc2107050255","folder":"tf","game":"Team Fortress","app_id":440,"player_count":0,"max_players":24,"Bots":0,"server_type":"Dedicated","server_os":"Linux","password":true,"vac":true,"version":"7961495","steam_id":85568392924964314,"keywords":["cp","nocrits","nodmgspread","uncletopia"],"game_id":440,"stv_port":27076,"stv_name":"Uncletopia | London | 7 | Stopwatch | STV","players":null},{"server_id":41,"name":"Uncletopia | London | 8 | Community","name_short":"lon-8","host":"lon-1.uk.uncletopia.com","port":27085,"enabled":true,"region":"eu","cc":"gb","latitude":51.509865,"longitude":-0.118092,"reserved":0,"last_update":"0001-01-01T00:00:00Z","name_a2s":"Uncletopia | London | 8 | Community","protocol":17,"map":"workshop/pl_boundary_final1.ugc456799153","folder":"tf","game":"Team Fortress","app_id":440,"player_count":0,"max_players":24,"Bots":0,"server_type":"Dedicated","server_os":"Linux","password":true,"vac":true,"version":"7961495","steam_id":85568392924964315,"keywords":["nocrits","nodmgspread","payload","uncletopia"],"game_id":440,"stv_port":27086,"stv_name":"Uncletopia | London | 8 | Community | STV","players":null},{"server_id":300,"name":"Uncletopia | Montréal | 1 | One Thousand Uncles","name_short":"mtl-1","host":"mtl-1.ca.uncletopia.com","port":27015,"enabled":true,"region":"us-east","cc":"ca","latitude":45.50889,"longitude":-73.56167,"reserved":0,"last_update":"0001-01-01T00:00:00Z","name_a2s":"Uncletopia | Montréal | 1 | One Thousand Uncles","protocol":17,"map":"pl_badwater","folder":"tf","game":"Team Fortress","app_id":440,"player_count":0,"max_players":32,"Bots":0,"server_type":"Dedicated","server_os":"Linux","password":true,"vac":true,"version":"7961495","steam_id":85568392924500087,"keywords":["alltalk","danepve","increased_maxplayers","norespawntime","payload","uncletopia"],"game_id":440,"stv_port":0,"stv_name":"","players":null},{"server_id":301,"name":"Uncletopia | Montréal | 2 | One Thousand Uncles","name_short":"mtl-2","host":"mtl-1.ca.uncletopia.com","port":27025,"enabled":true,"region":"us-east","cc":"ca","latitude":45.50889,"longitude":-73.56167,"reserved":0,"last_update":"0001-01-01T00:00:00Z","name_a2s":"Uncletopia | Montréal | 2 | One Thousand Uncles","protocol":17,"map":"pl_chilly","folder":"tf","game":"Team Fortress","app_id":440,"player_count":0,"max_players":32,"Bots":0,"server_type":"Dedicated","server_os":"Linux","password":true,"vac":true,"version":"7961495","steam_id":85568392924500088,"keywords":["alltalk","danepve","increased_maxplayers","norespawntime","payload","uncletopia"],"game_id":440,"stv_port":0,"stv_name":"","players":null},{"server_id":302,"name":"Uncletopia | Montréal | 3 | One Thousand Uncles","name_short":"mtl-3","host":"mtl-1.ca.uncletopia.com","port":27035,"enabled":true,"region":"us-east","cc":"ca","latitude":45.50889,"longitude":-73.56167,"reserved":0,"last_update":"0001-01-01T00:00:00Z","name_a2s":"Uncletopia | Montréal | 3 | One Thousand Uncles","protocol":17,"map":"cp_mossrock","folder":"tf","game":"Team Fortress","app_id":440,"player_count":0,"max_players":32,"Bots":0,"server_type":"Dedicated","server_os":"Linux","password":true,"vac":true,"version":"7961495","steam_id":85568392924500089,"keywords":["alltalk","cp","danepve","increased_maxplayers","norespawntime","uncletopia"],"game_id":440,"stv_port":0,"stv_name":"","players":null},{"server_id":13,"name":"Uncletopia | New York City | 1 | All Maps","name_short":"nyc-1","host":"nyc-1.us.uncletopia.com","port":27015,"enabled":true,"region":"us-east","cc":"us","latitude":40.73061,"longitude":-73.93524,"reserved":0,"last_update":"0001-01-01T00:00:00Z","name_a2s":"Uncletopia | New York City | 1 | All Maps","protocol":17,"map":"cp_steel","folder":"tf","game":"Team Fortress","app_id":440,"player_count":24,"max_players":24,"Bots":0,"server_type":"Dedicated","server_os":"Linux","password":true,"vac":true,"version":"7961495","steam_id":85568392924469993,"keywords":["cp","nocrits","nodmgspread","uncletopia"],"game_id":440,"stv_port":27016,"stv_name":"Uncletopia | New York City | 1 | All Maps | STV","players":[{"user_id":246,"name":"gskinnr","steam_id":76561199506973596,"connected_time":896000000000,"state":"active","ping":80},{"user_id":225,"name":"True Love Makin' \u003c3","steam_id":76561198131796104,"connected_time":2321000000000,"state":"active","ping":71},{"user_id":231,"name":"RichSix","steam_id":76561198010325218,"connected_time":1670000000000,"state":"active","ping":30},{"user_id":214,"name":"Tokyo_Timeshift_","steam_id":76561198048677523,"connected_time":3280000000000,"state":"active","ping":71},{"user_id":128,"name":"Coop","steam_id":76561198042839356,"connected_time":11655000000000,"state":"active","ping":93},{"user_id":205,"name":"GuyGoom","steam_id":76561198254522178,"connected_time":3933000000000,"state":"active","ping":86},{"user_id":206,"name":"the.land.of.avalon","steam_id":76561198245431668,"connected_time":3921000000000,"state":"active","ping":92},{"user_id":233,"name":"Menachem","steam_id":76561198041226420,"connected_time":1382000000000,"state":"active","ping":68},{"user_id":239,"name":"Banana connoisseur","steam_id":76561199156630225,"connected_time":1151000000000,"state":"active","ping":59},{"user_id":248,"name":"Reisen","steam_id":76561197968832019,"connected_time":682000000000,"state":"active","ping":46},{"user_id":235,"name":"kikikikoboy","steam_id":76561198073380271,"connected_time":1344000000000,"state":"active","ping":58},{"user_id":252,"name":"space creep","steam_id":76561198025668545,"connected_time":327000000000,"state":"active","ping":51},{"user_id":253,"name":"bomba","steam_id":76561198301585642,"connected_time":249000000000,"state":"active","ping":48},{"user_id":237,"name":"Grimprr","steam_id":76561198275816797,"connected_time":1304000000000,"state":"active","ping":111},{"user_id":92,"name":"googa","steam_id":76561198133130452,"connected_time":13996000000000,"state":"active","ping":49},{"user_id":240,"name":"Casey Jones","steam_id":76561198132321084,"connected_time":1096000000000,"state":"active","ping":41},{"user_id":241,"name":"james_bondage","steam_id":76561199476062624,"connected_time":1077000000000,"state":"active","ping":59},{"user_id":216,"name":"Gram Tokers Count Doinkula","steam_id":76561198112811565,"connected_time":3228000000000,"state":"active","ping":53},{"user_id":242,"name":"lcy13vv","steam_id":76561197995997446,"connected_time":1038000000000,"state":"active","ping":62},{"user_id":249,"name":"Hautboi","steam_id":76561199012329221,"connected_time":626000000000,"state":"active","ping":54},{"user_id":245,"name":"emotional suppport e-cigarette","steam_id":76561198172120615,"connected_time":947000000000,"state":"active","ping":37},{"user_id":186,"name":"Pootis ENGAGE","steam_id":76561198192752793,"connected_time":5682000000000,"state":"active","ping":54},{"user_id":166,"name":"Two-Teste Tommy","steam_id":76561198064308936,"connected_time":6406000000000,"state":"active","ping":59},{"user_id":244,"name":"Verily","steam_id":76561198200558318,"connected_time":1023000000000,"state":"active","ping":64}]},{"server_id":14,"name":"Uncletopia | New York City | 2 | All Maps","name_short":"nyc-2","host":"nyc-1.us.uncletopia.com","port":27025,"enabled":true,"region":"us-east","cc":"us","latitude":40.73061,"longitude":-73.93524,"reserved":0,"last_update":"0001-01-01T00:00:00Z","name_a2s":"Uncletopia | New York City | 2 | All Maps","protocol":17,"map":"koth_cascade","folder":"tf","game":"Team Fortress","app_id":440,"player_count":15,"max_players":24,"Bots":0,"server_type":"Dedicated","server_os":"Linux","password":true,"vac":true,"version":"7961495","steam_id":85568392924469994,"keywords":["cp","nocrits","nodmgspread","uncletopia"],"game_id":440,"stv_port":27026,"stv_name":"Uncletopia | New York City | 2 | All Maps | STV","players":[{"user_id":361,"name":"Big Yoshi","steam_id":76561199160576376,"connected_time":2073000000000,"state":"active","ping":126},{"user_id":393,"name":"Buck","steam_id":76561198064244796,"connected_time":102000000000,"state":"active","ping":56},{"user_id":392,"name":"jr933368","steam_id":76561199507931052,"connected_time":156000000000,"state":"active","ping":123},{"user_id":319,"name":"Fish Fisherman","steam_id":76561198018656022,"connected_time":3912000000000,"state":"active","ping":46},{"user_id":386,"name":"Teddiemercury","steam_id":76561197987034023,"connected_time":469000000000,"state":"active","ping":59},{"user_id":352,"name":"Borat","steam_id":76561198122226417,"connected_time":2172000000000,"state":"active","ping":105},{"user_id":384,"name":"Kia_the_car","steam_id":76561198882171095,"connected_time":591000000000,"state":"active","ping":118},{"user_id":387,"name":"thatdamncat","steam_id":76561198366911191,"connected_time":330000000000,"state":"active","ping":63},{"user_id":342,"name":"Bacchus","steam_id":76561198113244990,"connected_time":2645000000000,"state":"active","ping":73},{"user_id":374,"name":"Shrebbie","steam_id":76561198875230824,"connected_time":1322000000000,"state":"active","ping":40},{"user_id":377,"name":"fear","steam_id":76561198063170079,"connected_time":1284000000000,"state":"active","ping":58},{"user_id":344,"name":"Edsuedi","steam_id":76561198074722832,"connected_time":2619000000000,"state":"active","ping":119},{"user_id":378,"name":"Deadinfected30","steam_id":76561198107358646,"connected_time":1279000000000,"state":"active","ping":66},{"user_id":334,"name":"Meh","steam_id":76561198078187920,"connected_time":2939000000000,"state":"active","ping":74},{"user_id":379,"name":"Mythical Lag","steam_id":76561198347031281,"connected_time":1184000000000,"state":"active","ping":77}]},{"server_id":15,"name":"Uncletopia | New York City | 3 | Stopwatch","name_short":"nyc-3","host":"nyc-1.us.uncletopia.com","port":27035,"enabled":true,"region":"us-east","cc":"us","latitude":40.73061,"longitude":-73.93524,"reserved":0,"last_update":"0001-01-01T00:00:00Z","name_a2s":"Uncletopia | New York City | 3 | Stopwatch","protocol":17,"map":"cp_gullywash_final1","folder":"tf","game":"Team Fortress","app_id":440,"player_count":1,"max_players":24,"Bots":0,"server_type":"Dedicated","server_os":"Linux","password":true,"vac":true,"version":"7961495","steam_id":85568392924742820,"keywords":["cp","nocrits","nodmgspread","uncletopia"],"game_id":440,"stv_port":27036,"stv_name":"Uncletopia | New York City | 3 | Stopwatch | STV","players":[{"user_id":8,"name":"Number15 bugerking foot lettuce","steam_id":76561198069918221,"connected_time":11000000000,"state":"spawning","ping":45}]},{"server_id":16,"name":"Uncletopia | New York City | 4 | Community","name_short":"nyc-4","host":"nyc-1.us.uncletopia.com","port":27045,"enabled":true,"region":"us-east","cc":"us","latitude":40.73061,"longitude":-73.93524,"reserved":0,"last_update":"0001-01-01T00:00:00Z","name_a2s":"Uncletopia | New York City | 4 | Community","protocol":17,"map":"workshop/cp_propaganda_b18.ugc1603743849","folder":"tf","game":"Team Fortress","app_id":440,"player_count":0,"max_players":24,"Bots":0,"server_type":"Dedicated","server_os":"Linux","password":true,"vac":true,"version":"7961495","steam_id":85568392924742821,"keywords":["cp","nocrits","nodmgspread","uncletopia"],"game_id":440,"stv_port":27046,"stv_name":"Uncletopia | New York City | 4 | Community | STV","players":null},{"server_id":142,"name":"Uncletopia | São Paulo | 1 | All Maps","name_short":"sao-1","host":"sao-1.br.uncletopia.com","port":27015,"enabled":true,"region":"sa","cc":"br","latitude":-23.533773,"longitude":-46.62529,"reserved":0,"last_update":"0001-01-01T00:00:00Z","name_a2s":"Uncletopia | São Paulo | 1 | All Maps","protocol":17,"map":"koth_cascade","folder":"tf","game":"Team Fortress","app_id":440,"player_count":0,"max_players":24,"Bots":0,"server_type":"Dedicated","server_os":"Linux","password":true,"vac":true,"version":"7961495","steam_id":85568392924469996,"keywords":["cp","nocrits","nodmgspread","uncletopia"],"game_id":440,"stv_port":27016,"stv_name":"Uncletopia | São Paulo | 1 | All Maps | STV","players":null},{"server_id":143,"name":"Uncletopia | São Paulo | 2 | Community","name_short":"sao-2","host":"sao-2.br.uncletopia.com","port":27015,"enabled":true,"region":"sa","cc":"br","latitude":-23.533773,"longitude":-46.62529,"reserved":0,"last_update":"0001-01-01T00:00:00Z","name_a2s":"Uncletopia | São Paulo | 2 | Community","protocol":17,"map":"workshop/koth_product_final.ugc454272353","folder":"tf","game":"Team Fortress","app_id":440,"player_count":0,"max_players":24,"Bots":0,"server_type":"Dedicated","server_os":"Linux","password":true,"vac":true,"version":"7961495","steam_id":85568392924485349,"keywords":["cp","nocrits","nodmgspread","uncletopia"],"game_id":440,"stv_port":27016,"stv_name":"Uncletopia | São Paulo | 2 | Community | STV","players":null},{"server_id":7,"name":"Uncletopia | Seattle | 1 | All Maps","name_short":"sea-1","host":"sea-1.us.uncletopia.com","port":27015,"enabled":true,"region":"us-west","cc":"us","latitude":47.608013,"longitude":-122.33517,"reserved":0,"last_update":"0001-01-01T00:00:00Z","name_a2s":"Uncletopia | Seattle | 1 | All Maps","protocol":17,"map":"pl_badwater","folder":"tf","game":"Team Fortress","app_id":440,"player_count":24,"max_players":24,"Bots":0,"server_type":"Dedicated","server_os":"Linux","password":true,"vac":true,"version":"7961495","steam_id":85568392924469997,"keywords":["nocrits","nodmgspread","payload","uncletopia"],"game_id":440,"stv_port":27016,"stv_name":"Uncletopia | Seattle | 1 | All Maps | STV","players":[{"user_id":747,"name":"fart","steam_id":76561198046073848,"connected_time":771000000000,"state":"active","ping":46},{"user_id":690,"name":"The King of Piss World","steam_id":76561198082806956,"connected_time":6020000000000,"state":"active","ping":111},{"user_id":694,"name":"OGBobbyJohns","steam_id":76561197964339077,"connected_time":5764000000000,"state":"active","ping":52},{"user_id":740,"name":"Skabbety","steam_id":76561198168044257,"connected_time":888000000000,"state":"active","ping":41},{"user_id":735,"name":"Luca","steam_id":76561198125087140,"connected_time":1295000000000,"state":"active","ping":46},{"user_id":714,"name":"2 Point Tom","steam_id":76561198087617008,"connected_time":3136000000000,"state":"active","ping":49},{"user_id":739,"name":"squash","steam_id":76561198150281353,"connected_time":1053000000000,"state":"active","ping":57},{"user_id":721,"name":"severe fjord withdrawals","steam_id":76561198131166135,"connected_time":1890000000000,"state":"active","ping":39},{"user_id":741,"name":"Nom Skirrett","steam_id":76561198014600788,"connected_time":831000000000,"state":"active","ping":64},{"user_id":742,"name":"Brasinklepagrinkle","steam_id":76561198191431427,"connected_time":810000000000,"state":"active","ping":83},{"user_id":743,"name":"daggers","steam_id":76561197961747753,"connected_time":810000000000,"state":"active","ping":77},{"user_id":732,"name":"TROY","steam_id":76561197983852176,"connected_time":1636000000000,"state":"active","ping":75},{"user_id":700,"name":"Loading...","steam_id":76561198075555396,"connected_time":4684000000000,"state":"active","ping":44},{"user_id":719,"name":"rat gets the cheese","steam_id":76561198031234032,"connected_time":2319000000000,"state":"active","ping":98},{"user_id":680,"name":"Mignyanne :3","steam_id":76561198048754056,"connected_time":6876000000000,"state":"active","ping":69},{"user_id":749,"name":"times table","steam_id":76561198341452558,"connected_time":655000000000,"state":"active","ping":113},{"user_id":736,"name":"NEBULA","steam_id":76561198086878595,"connected_time":1179000000000,"state":"active","ping":73},{"user_id":707,"name":"gordonz88","steam_id":76561198020241395,"connected_time":4227000000000,"state":"active","ping":45},{"user_id":738,"name":"♥ alixei! ♥","steam_id":76561198014557455,"connected_time":1115000000000,"state":"active","ping":105},{"user_id":746,"name":"Daddy Topps","steam_id":76561198203594332,"connected_time":800000000000,"state":"active","ping":45},{"user_id":750,"name":"shane (Deluxe Edition)","steam_id":76561198060491451,"connected_time":269000000000,"state":"active","ping":87},{"user_id":706,"name":"HotHead","steam_id":76561198138468982,"connected_time":4391000000000,"state":"active","ping":58},{"user_id":724,"name":"Greenwood RN","steam_id":76561198088641060,"connected_time":1876000000000,"state":"active","ping":45},{"user_id":725,"name":"Dr. Karl, the AUS Science Guy","steam_id":76561198031278747,"connected_time":1871000000000,"state":"active","ping":57}]},{"server_id":119,"name":"Uncletopia | Seattle | 2 | All Maps","name_short":"sea-2","host":"sea-1.us.uncletopia.com","port":27025,"enabled":true,"region":"us-west","cc":"us","latitude":47.608013,"longitude":-122.33517,"reserved":0,"last_update":"0001-01-01T00:00:00Z","name_a2s":"Uncletopia | Seattle | 2 | All Maps","protocol":17,"map":"pl_barnblitz","folder":"tf","game":"Team Fortress","app_id":440,"player_count":24,"max_players":24,"Bots":0,"server_type":"Dedicated","server_os":"Linux","password":true,"vac":true,"version":"7961495","steam_id":85568392924469998,"keywords":["nocrits","nodmgspread","payload","uncletopia"],"game_id":440,"stv_port":27026,"stv_name":"Uncletopia | Seattle | 2 | All Maps | STV","players":[{"user_id":113,"name":"HappyLizard","steam_id":76561198014721507,"connected_time":3399000000000,"state":"active","ping":77},{"user_id":132,"name":"dereck","steam_id":76561198283886556,"connected_time":1438000000000,"state":"active","ping":166},{"user_id":121,"name":"Lily Thorn","steam_id":76561198305488625,"connected_time":2099000000000,"state":"active","ping":50},{"user_id":85,"name":"-={o.W.n.}=- Dark Murkrow 3","steam_id":76561198174432643,"connected_time":5646000000000,"state":"active","ping":82},{"user_id":135,"name":"PainInTheRuss","steam_id":76561197977960543,"connected_time":767000000000,"state":"active","ping":60},{"user_id":105,"name":"blueboy23","steam_id":76561199121889873,"connected_time":4058000000000,"state":"active","ping":46},{"user_id":114,"name":"R5-D4","steam_id":76561198025196439,"connected_time":3265000000000,"state":"active","ping":48},{"user_id":130,"name":"Frank","steam_id":76561198126681511,"connected_time":1552000000000,"state":"active","ping":130},{"user_id":131,"name":"Bolbi","steam_id":76561198051811597,"connected_time":1542000000000,"state":"active","ping":79},{"user_id":126,"name":"Capitalism","steam_id":76561198068677316,"connected_time":1645000000000,"state":"active","ping":45},{"user_id":66,"name":"Katie XXII","steam_id":76561198135534297,"connected_time":6447000000000,"state":"active","ping":48},{"user_id":127,"name":"Kangarule","steam_id":76561198147171260,"connected_time":1634000000000,"state":"active","ping":54},{"user_id":112,"name":"Deku_2667","steam_id":76561199232121911,"connected_time":3630000000000,"state":"active","ping":42},{"user_id":137,"name":"Azary56","steam_id":76561198321404617,"connected_time":724000000000,"state":"active","ping":62},{"user_id":74,"name":"Preston","steam_id":76561198255721392,"connected_time":6060000000000,"state":"active","ping":118},{"user_id":129,"name":"no.2 medic boyfriend","steam_id":76561198873478305,"connected_time":1626000000000,"state":"active","ping":49},{"user_id":103,"name":"F I S H","steam_id":76561198282522963,"connected_time":4078000000000,"state":"active","ping":86},{"user_id":79,"name":"meursault","steam_id":76561198151071386,"connected_time":5838000000000,"state":"active","ping":41},{"user_id":136,"name":"Geesemans","steam_id":76561199478892816,"connected_time":747000000000,"state":"active","ping":86},{"user_id":139,"name":"squart guy","steam_id":76561199411560141,"connected_time":75000000000,"state":"active","ping":44},{"user_id":116,"name":"\u003c blank \u003e","steam_id":76561198097188001,"connected_time":3175000000000,"state":"active","ping":46},{"user_id":128,"name":"BAll3d:HOCKEYGAMEMODE","steam_id":76561198055089667,"connected_time":1634000000000,"state":"active","ping":46},{"user_id":133,"name":"sweet babboo","steam_id":76561198016889445,"connected_time":1382000000000,"state":"active","ping":108},{"user_id":134,"name":"FiddyFoMike","steam_id":76561198057072581,"connected_time":1252000000000,"state":"active","ping":68}]},{"server_id":406,"name":"Uncletopia | Seattle | 3 | Stopwatch","name_short":"sea-3","host":"sea-1.us.uncletopia.com","port":27035,"enabled":true,"region":"us-west","cc":"us","latitude":47.608013,"longitude":-122.33517,"reserved":0,"last_update":"0001-01-01T00:00:00Z","name_a2s":"Uncletopia | Seattle | 3 | Stopwatch","protocol":17,"map":"workshop/koth_product_final.ugc454272353","folder":"tf","game":"Team Fortress","app_id":440,"player_count":0,"max_players":24,"Bots":0,"server_type":"Dedicated","server_os":"Linux","password":true,"vac":true,"version":"7961495","steam_id":85568392924515217,"keywords":["cp","nocrits","nodmgspread","uncletopia"],"game_id":440,"stv_port":27036,"stv_name":"Uncletopia | Seattle | 3 | Stopwatch | STV","players":null},{"server_id":17,"name":"Uncletopia | San Francisco | 1 | All Maps","name_short":"sfo-1","host":"sfo-1.us.uncletopia.com","port":27015,"enabled":true,"region":"us-west","cc":"us","latitude":37.77397,"longitude":-122.4313,"reserved":0,"last_update":"0001-01-01T00:00:00Z","name_a2s":"Uncletopia | San Francisco | 1 | All Maps","protocol":17,"map":"pl_pier","folder":"tf","game":"Team Fortress","app_id":440,"player_count":22,"max_players":24,"Bots":0,"server_type":"Dedicated","server_os":"Linux","password":true,"vac":true,"version":"7961495","steam_id":85568392924469999,"keywords":["nocrits","nodmgspread","payload","uncletopia"],"game_id":440,"stv_port":27016,"stv_name":"Uncletopia | San Francisco | 1 | All Maps | STV","players":[{"user_id":238,"name":"[ØWQJØ]chubacaalatake","steam_id":76561198136201697,"connected_time":2735000000000,"state":"active","ping":96},{"user_id":257,"name":"shrocket enthusiast","steam_id":76561198110661425,"connected_time":1318000000000,"state":"active","ping":64},{"user_id":252,"name":"ඞThe Bountiful Barista™®\ufffd\ufffd","steam_id":76561198971431257,"connected_time":1944000000000,"state":"active","ping":76},{"user_id":218,"name":"Yoshidube","steam_id":76561198352675680,"connected_time":4180000000000,"state":"active","ping":100},{"user_id":233,"name":"Untermensch","steam_id":76561198149634242,"connected_time":3015000000000,"state":"active","ping":75},{"user_id":248,"name":"SolarusD","steam_id":76561198029279861,"connected_time":2072000000000,"state":"active","ping":54},{"user_id":254,"name":"mentos14","steam_id":76561198097993629,"connected_time":1469000000000,"state":"active","ping":71},{"user_id":245,"name":"OHMYGEEEEEEZ22","steam_id":76561198375884178,"connected_time":2496000000000,"state":"active","ping":88},{"user_id":243,"name":"Igrium","steam_id":76561198119549811,"connected_time":2599000000000,"state":"active","ping":50},{"user_id":263,"name":"KickButtNess","steam_id":76561198093986236,"connected_time":863000000000,"state":"active","ping":59},{"user_id":134,"name":"Lambchop","steam_id":76561198043900363,"connected_time":11101000000000,"state":"active","ping":59},{"user_id":204,"name":"Alcohol Hominid","steam_id":76561198320313950,"connected_time":6910000000000,"state":"active","ping":78},{"user_id":264,"name":"SoCal Kaizer","steam_id":76561198334361081,"connected_time":857000000000,"state":"active","ping":63},{"user_id":272,"name":"nella","steam_id":76561198079349621,"connected_time":667000000000,"state":"active","ping":58},{"user_id":208,"name":"ChimpusGaming","steam_id":76561198060954715,"connected_time":6586000000000,"state":"active","ping":102},{"user_id":276,"name":"Kazoo","steam_id":76561199229748300,"connected_time":394000000000,"state":"active","ping":57},{"user_id":261,"name":"The Grungler","steam_id":76561198126561438,"connected_time":1025000000000,"state":"active","ping":60},{"user_id":266,"name":"Laventhey","steam_id":76561198977523626,"connected_time":813000000000,"state":"active","ping":67},{"user_id":280,"name":"Monky duh luppy","steam_id":76561198035410427,"connected_time":259000000000,"state":"active","ping":45},{"user_id":269,"name":"Creamy","steam_id":76561197994828098,"connected_time":710000000000,"state":"active","ping":60},{"user_id":258,"name":"Nova Academy of Salmon Action","steam_id":76561198021842526,"connected_time":1316000000000,"state":"active","ping":54},{"user_id":281,"name":"Lemonade Juice","steam_id":76561198402892608,"connected_time":240000000000,"state":"active","ping":54}]},{"server_id":18,"name":"Uncletopia | San Francisco | 2 | All Maps","name_short":"sfo-2","host":"sfo-1.us.uncletopia.com","port":27025,"enabled":true,"region":"us-west","cc":"us","latitude":37.77397,"longitude":-122.4313,"reserved":0,"last_update":"0001-01-01T00:00:00Z","name_a2s":"Uncletopia | San Francisco | 2 | All Maps","protocol":17,"map":"pl_upward","folder":"tf","game":"Team Fortress","app_id":440,"player_count":24,"max_players":24,"Bots":0,"server_type":"Dedicated","server_os":"Linux","password":true,"vac":true,"version":"7961495","steam_id":85568392924470000,"keywords":["nocrits","nodmgspread","payload","uncletopia"],"game_id":440,"stv_port":27026,"stv_name":"Uncletopia | San Francisco | 2 | All Maps | STV","players":[{"user_id":18,"name":"duddlee","steam_id":76561198030052564,"connected_time":2310000000000,"state":"active","ping":75},{"user_id":19,"name":"weebee","steam_id":76561198313610950,"connected_time":2275000000000,"state":"active","ping":71},{"user_id":20,"name":"roody","steam_id":76561198066260405,"connected_time":2243000000000,"state":"active","ping":67},{"user_id":21,"name":"JacobOneHundredPercentWholeWhea","steam_id":76561198045992418,"connected_time":2227000000000,"state":"active","ping":76},{"user_id":22,"name":"GalaxyDoug32","steam_id":76561197997126305,"connected_time":2218000000000,"state":"active","ping":75},{"user_id":43,"name":"IfOnlyBiggieCheese","steam_id":76561199207813582,"connected_time":695000000000,"state":"active","ping":74},{"user_id":55,"name":"darren","steam_id":76561199050155136,"connected_time":15000000000,"state":"active","ping":54},{"user_id":25,"name":"Ass Clown","steam_id":76561198108838905,"connected_time":1620000000000,"state":"active","ping":116},{"user_id":45,"name":"immonky","steam_id":76561198170080898,"connected_time":634000000000,"state":"active","ping":84},{"user_id":27,"name":"Big Daddy Thanos","steam_id":76561198214062896,"connected_time":1534000000000,"state":"active","ping":110},{"user_id":53,"name":"Human Resources Manager","steam_id":76561198066386411,"connected_time":222000000000,"state":"active","ping":61},{"user_id":29,"name":"DoddyBrothers16","steam_id":76561198132775819,"connected_time":1531000000000,"state":"active","ping":105},{"user_id":30,"name":"Synthena","steam_id":76561198199137138,"connected_time":1465000000000,"state":"active","ping":123},{"user_id":46,"name":"allahsdroptop (Bag/Chaser)","steam_id":76561198133195238,"connected_time":631000000000,"state":"active","ping":46},{"user_id":49,"name":"Meat Dragon","steam_id":76561198120319256,"connected_time":585000000000,"state":"active","ping":103},{"user_id":47,"name":"superspider663","steam_id":76561198126349561,"connected_time":606000000000,"state":"active","ping":113},{"user_id":34,"name":"Lorelei","steam_id":76561198095778842,"connected_time":1296000000000,"state":"active","ping":74},{"user_id":35,"name":"ronald_stackerusa55","steam_id":76561198150406851,"connected_time":1234000000000,"state":"active","ping":48},{"user_id":36,"name":"USP Victorville","steam_id":76561198117025741,"connected_time":1027000000000,"state":"active","ping":51},{"user_id":48,"name":"don","steam_id":76561198204410892,"connected_time":602000000000,"state":"active","ping":91},{"user_id":40,"name":"Ziodyne__","steam_id":76561198313689097,"connected_time":878000000000,"state":"active","ping":125},{"user_id":54,"name":"no more fucks to give","steam_id":76561199129974320,"connected_time":215000000000,"state":"active","ping":93},{"user_id":50,"name":"千尺ㄖҜ","steam_id":76561198118910141,"connected_time":543000000000,"state":"active","ping":79},{"user_id":42,"name":"Lancerland","steam_id":76561198130497320,"connected_time":798000000000,"state":"active","ping":60}]},{"server_id":19,"name":"Uncletopia | San Francisco | 3 | Stopwatch","name_short":"sfo-3","host":"sfo-1.us.uncletopia.com","port":27035,"enabled":true,"region":"us-west","cc":"us","latitude":37.77397,"longitude":-122.4313,"reserved":0,"last_update":"0001-01-01T00:00:00Z","name_a2s":"Uncletopia | San Francisco | 3 | Stopwatch","protocol":17,"map":"pl_swiftwater_final1","folder":"tf","game":"Team Fortress","app_id":440,"player_count":0,"max_players":24,"Bots":0,"server_type":"Dedicated","server_os":"Linux","password":true,"vac":true,"version":"7961495","steam_id":85568392924742824,"keywords":["nocrits","nodmgspread","payload","uncletopia"],"game_id":440,"stv_port":27036,"stv_name":"Uncletopia | San Francisco | 3 | Stopwatch | STV","players":null},{"server_id":20,"name":"Uncletopia | San Francisco | 4 | Community","name_short":"sfo-4","host":"sfo-1.us.uncletopia.com","port":27045,"enabled":true,"region":"us-west","cc":"us","latitude":37.77397,"longitude":-122.4313,"reserved":0,"last_update":"0001-01-01T00:00:00Z","name_a2s":"Uncletopia | San Francisco | 4 | Community","protocol":17,"map":"workshop/pl_shoreleave_rc2.ugc1238849347","folder":"tf","game":"Team Fortress","app_id":440,"player_count":0,"max_players":24,"Bots":0,"server_type":"Dedicated","server_os":"Linux","password":true,"vac":true,"version":"7961495","steam_id":85568392924742826,"keywords":["nocrits","nodmgspread","payload","uncletopia"],"game_id":440,"stv_port":27046,"stv_name":"Uncletopia | San Francisco | 4 | Community | STV","players":null},{"server_id":141,"name":"Uncletopia | Sydney | 1 | All Maps","name_short":"syd-1","host":"syd-1.au.uncletopia.com","port":27015,"enabled":true,"region":"au","cc":"au","latitude":-33.865143,"longitude":151.2099,"reserved":0,"last_update":"0001-01-01T00:00:00Z","name_a2s":"Uncletopia | Sydney | 1 | All Maps","protocol":17,"map":"koth_nucleus","folder":"tf","game":"Team Fortress","app_id":440,"player_count":0,"max_players":24,"Bots":0,"server_type":"Dedicated","server_os":"Linux","password":true,"vac":true,"version":"7961495","steam_id":85568392924470001,"keywords":["cp","nocrits","nodmgspread","uncletopia"],"game_id":440,"stv_port":27016,"stv_name":"Uncletopia | Sydney | 1 | All Maps | STV","players":null},{"server_id":123,"name":"Uncletopia | Sydney | 2 | All Maps","name_short":"syd-2","host":"syd-1.au.uncletopia.com","port":27025,"enabled":true,"region":"au","cc":"au","latitude":-33.865143,"longitude":151.2099,"reserved":0,"last_update":"0001-01-01T00:00:00Z","name_a2s":"Uncletopia | Sydney | 2 | All Maps","protocol":17,"map":"cp_fastlane","folder":"tf","game":"Team Fortress","app_id":440,"player_count":0,"max_players":24,"Bots":0,"server_type":"Dedicated","server_os":"Linux","password":true,"vac":true,"version":"7961495","steam_id":85568392924470002,"keywords":["cp","nocrits","nodmgspread","uncletopia"],"game_id":440,"stv_port":27026,"stv_name":"Uncletopia | Sydney | 2 | All Maps | STV","players":null},{"server_id":395,"name":"Uncletopia | Sydney | 3 | All Maps","name_short":"syd-3","host":"syd-1.au.uncletopia.com","port":27035,"enabled":true,"region":"au","cc":"au","latitude":-33.865143,"longitude":151.2099,"reserved":0,"last_update":"0001-01-01T00:00:00Z","name_a2s":"Uncletopia | Sydney | 3 | All Maps","protocol":17,"map":"cp_metalworks","folder":"tf","game":"Team Fortress","app_id":440,"player_count":0,"max_players":24,"Bots":0,"server_type":"Dedicated","server_os":"Linux","password":true,"vac":true,"version":"7961495","steam_id":85568392925194467,"keywords":["cp","nocrits","nodmgspread","uncletopia"],"game_id":440,"stv_port":27036,"stv_name":"Uncletopia | Sydney | 3 | All Maps | STV","players":null},{"server_id":396,"name":"Uncletopia | Sydney | 4 | All Maps","name_short":"syd-4","host":"syd-1.au.uncletopia.com","port":27045,"enabled":true,"region":"au","cc":"au","latitude":-33.865143,"longitude":151.2099,"reserved":0,"last_update":"0001-01-01T00:00:00Z","name_a2s":"Uncletopia | Sydney | 4 | All Maps","protocol":17,"map":"koth_cascade","folder":"tf","game":"Team Fortress","app_id":440,"player_count":0,"max_players":24,"Bots":0,"server_type":"Dedicated","server_os":"Linux","password":true,"vac":true,"version":"7961495","steam_id":85568392925397958,"keywords":["cp","nocrits","nodmgspread","uncletopia"],"game_id":440,"stv_port":27046,"stv_name":"Uncletopia | Sydney | 4 | All Maps | STV","players":null},{"server_id":58,"name":"Uncletopia | Sydney | 5 | Stopwatch","name_short":"syd-5","host":"syd-1.au.uncletopia.com","port":27055,"enabled":true,"region":"au","cc":"au","latitude":-33.865143,"longitude":151.2099,"reserved":0,"last_update":"0001-01-01T00:00:00Z","name_a2s":"Uncletopia | Sydney | 5 | Stopwatch","protocol":17,"map":"workshop/koth_product_final.ugc454272353","folder":"tf","game":"Team Fortress","app_id":440,"player_count":0,"max_players":24,"Bots":0,"server_type":"Dedicated","server_os":"Linux","password":true,"vac":true,"version":"7961495","steam_id":85568392925397959,"keywords":["cp","nocrits","nodmgspread","uncletopia"],"game_id":440,"stv_port":27056,"stv_name":"Uncletopia | Sydney | 5 | Stopwatch | STV","players":null},{"server_id":59,"name":"Uncletopia | Sydney | 6 | Community","name_short":"syd-6","host":"syd-1.au.uncletopia.com","port":27065,"enabled":true,"region":"au","cc":"au","latitude":-33.865143,"longitude":151.2099,"reserved":0,"last_update":"0001-01-01T00:00:00Z","name_a2s":"Uncletopia | Sydney | 6 | Community","protocol":17,"map":"workshop/koth_trenchfoot_ab1.ugc731436616","folder":"tf","game":"Team Fortress","app_id":440,"player_count":0,"max_players":24,"Bots":0,"server_type":"Dedicated","server_os":"Linux","password":true,"vac":true,"version":"7961495","steam_id":85568392925397960,"keywords":["cp","nocrits","nodmgspread","uncletopia"],"game_id":440,"stv_port":27066,"stv_name":"Uncletopia | Sydney | 6 | Community | STV","players":null},{"server_id":49,"name":"Uncletopia | Warsaw | 1 | One Thousand Uncles","name_short":"waw-1","host":"waw-1.pl.uncletopia.com","port":27015,"enabled":true,"region":"eu","cc":"pl","latitude":52.2297,"longitude":21.017532,"reserved":0,"last_update":"0001-01-01T00:00:00Z","name_a2s":"Uncletopia | Warsaw | 1 | One Thousand Uncles","protocol":17,"map":"cp_mercenarypark","folder":"tf","game":"Team Fortress","app_id":440,"player_count":0,"max_players":32,"Bots":0,"server_type":"Dedicated","server_os":"Linux","password":true,"vac":true,"version":"7961495","steam_id":85568392925397850,"keywords":["alltalk","cp","danepve","increased_maxplayers","norespawntime","uncletopia"],"game_id":440,"stv_port":0,"stv_name":"","players":null},{"server_id":50,"name":"Uncletopia | Warsaw | 2 | One Thousand Uncles","name_short":"waw-2","host":"waw-1.pl.uncletopia.com","port":27025,"enabled":true,"region":"eu","cc":"pl","latitude":52.2297,"longitude":21.017532,"reserved":0,"last_update":"0001-01-01T00:00:00Z","name_a2s":"Uncletopia | Warsaw | 2 | One Thousand Uncles","protocol":17,"map":"cp_egypt_final","folder":"tf","game":"Team Fortress","app_id":440,"player_count":0,"max_players":32,"Bots":0,"server_type":"Dedicated","server_os":"Linux","password":true,"vac":true,"version":"7961495","steam_id":85568392925397851,"keywords":["alltalk","cp","danepve","increased_maxplayers","norespawntime","uncletopia"],"game_id":440,"stv_port":0,"stv_name":"","players":null},{"server_id":51,"name":"Uncletopia | Warsaw | 3 | All Maps","name_short":"waw-3","host":"waw-1.pl.uncletopia.com","port":27035,"enabled":true,"region":"eu","cc":"pl","latitude":52.2297,"longitude":21.017532,"reserved":0,"last_update":"0001-01-01T00:00:00Z","name_a2s":"Uncletopia | Warsaw | 3 | All Maps","protocol":17,"map":"pl_snowycoast","folder":"tf","game":"Team Fortress","app_id":440,"player_count":0,"max_players":24,"Bots":0,"server_type":"Dedicated","server_os":"Linux","password":true,"vac":true,"version":"7961495","steam_id":85568392925397852,"keywords":["nocrits","nodmgspread","payload","uncletopia"],"game_id":440,"stv_port":27036,"stv_name":"Uncletopia | Warsaw | 3 | All Maps | STV","players":null},{"server_id":52,"name":"Uncletopia | Warsaw | 4 | All Maps","name_short":"waw-4","host":"waw-1.pl.uncletopia.com","port":27045,"enabled":true,"region":"eu","cc":"pl","latitude":52.2297,"longitude":21.017532,"reserved":0,"last_update":"0001-01-01T00:00:00Z","name_a2s":"Uncletopia | Warsaw | 4 | All Maps","protocol":17,"map":"cp_fastlane","folder":"tf","game":"Team Fortress","app_id":440,"player_count":0,"max_players":24,"Bots":0,"server_type":"Dedicated","server_os":"Linux","password":true,"vac":true,"version":"7961495","steam_id":85568392925397853,"keywords":["cp","nocrits","nodmgspread","uncletopia"],"game_id":440,"stv_port":27046,"stv_name":"Uncletopia | Warsaw | 4 | All Maps | STV","players":null},{"server_id":53,"name":"Uncletopia | Warsaw | 5 | Stopwatch","name_short":"waw-5","host":"waw-1.pl.uncletopia.com","port":27055,"enabled":true,"region":"eu","cc":"pl","latitude":52.2297,"longitude":21.017532,"reserved":0,"last_update":"0001-01-01T00:00:00Z","name_a2s":"Uncletopia | Warsaw | 5 | Stopwatch","protocol":17,"map":"cp_gullywash_final1","folder":"tf","game":"Team Fortress","app_id":440,"player_count":0,"max_players":24,"Bots":0,"server_type":"Dedicated","server_os":"Linux","password":true,"vac":true,"version":"7961495","steam_id":85568392925397854,"keywords":["cp","nocrits","nodmgspread","uncletopia"],"game_id":440,"stv_port":27056,"stv_name":"Uncletopia | Warsaw | 5 | Stopwatch | STV","players":null},{"server_id":54,"name":"Uncletopia | Warsaw | 6 | Community","name_short":"waw-6","host":"waw-1.pl.uncletopia.com","port":27065,"enabled":true,"region":"eu","cc":"pl","latitude":52.2297,"longitude":21.017532,"reserved":0,"last_update":"0001-01-01T00:00:00Z","name_a2s":"Uncletopia | Warsaw | 6 | Community","protocol":17,"map":"workshop/cp_fulgur_rc2a.ugc2068252300","folder":"tf","game":"Team Fortress","app_id":440,"player_count":0,"max_players":24,"Bots":0,"server_type":"Dedicated","server_os":"Linux","password":true,"vac":true,"version":"7961495","steam_id":85568392925397856,"keywords":["cp","nocrits","nodmgspread","uncletopia"],"game_id":440,"stv_port":27066,"stv_name":"Uncletopia | Warsaw | 6 | Community | STV","players":null}]}