{"status":true,"message":"","result":[{"server_id":9,"name":"Uncletopia | Atlanta | 1 | All Maps","name_short":"atl-1","host":"atl-1.us.uncletopia.com","port":27015,"enabled":true,"region":"us-east","cc":"us","latitude":33.753746,"longitude":-84.38633,"reserved":0,"last_update":"0001-01-01T00:00:00Z","name_a2s":"Uncletopia | Atlanta | 1 | All Maps","protocol":17,"map":"pl_badwater","folder":"tf","game":"Team Fortress","app_id":440,"player_count":23,"max_players":24,"Bots":0,"server_type":"Dedicated","server_os":"Linux","password":true,"vac":true,"version":"7932396","steam_id":85568392924469982,"keywords":["nocrits","nodmgspread","payload","uncletopia"],"game_id":440,"stv_port":27016,"stv_name":"Uncletopia | Atlanta | 1 | All Maps | STV","players":[{"user_id":288,"name":"Chip Skylark","steam_id":76561198148263717,"connected_time":154000000000,"state":"active","ping":56},{"user_id":255,"name":"automaticflight","steam_id":76561198099462784,"connected_time":793000000000,"state":"active","ping":72},{"user_id":294,"name":"Scrux","steam_id":76561198129763115,"connected_time":11000000000,"state":"spawning","ping":122},{"user_id":287,"name":"your neighbour's garden gnome","steam_id":76561199037050183,"connected_time":161000000000,"state":"active","ping":109},{"user_id":221,"name":"Xrath","steam_id":76561198220741860,"connected_time":1726000000000,"state":"active","ping":75},{"user_id":253,"name":"fruitpunch","steam_id":76561198156516161,"connected_time":856000000000,"state":"active","ping":100},{"user_id":222,"name":"mauri88000/mod","steam_id":76561198306672262,"connected_time":1720000000000,"state":"active","ping":182},{"user_id":289,"name":"Anonymous Redneck","steam_id":76561198006140954,"connected_time":50000000000,"state":"active","ping":88},{"user_id":231,"name":"Tommy Provolone","steam_id":76561198170062377,"connected_time":1239000000000,"state":"active","ping":104},{"user_id":225,"name":"GlingGlop95","steam_id":76561198386865528,"connected_time":1511000000000,"state":"active","ping":86},{"user_id":290,"name":"Delectable Garlic Knots","steam_id":76561198317007913,"connected_time":35000000000,"state":"active","ping":91},{"user_id":227,"name":"cakgamin","steam_id":76561199088909749,"connected_time":1364000000000,"state":"active","ping":100},{"user_id":291,"name":"Awenova","steam_id":76561198322928940,"connected_time":24000000000,"state":"active","ping":387},{"user_id":238,"name":"Weerk","steam_id":76561199209543551,"connected_time":1100000000000,"state":"active","ping":97},{"user_id":295,"name":"MontellWilliams","steam_id":76561198172143015,"connected_time":2000000000,"state":"spawning","ping":123},{"user_id":241,"name":"Hope","steam_id":76561199201900779,"connected_time":1046000000000,"state":"active","ping":98},{"user_id":284,"name":"AdorableMew","steam_id":76561198186706405,"connected_time":266000000000,"state":"active","ping":91},{"user_id":285,"name":"Sonku10","steam_id":76561198922842677,"connected_time":262000000000,"state":"active","ping":142},{"user_id":235,"name":"Ezakt","steam_id":76561199099132304,"connected_time":1149000000000,"state":"active","ping":77},{"user_id":243,"name":"emerge","steam_id":76561198186882891,"connected_time":1012000000000,"state":"active","ping":602},{"user_id":292,"name":"Pluto","steam_id":76561198338593690,"connected_time":23000000000,"state":"active","ping":86},{"user_id":293,"name":"tanneright","steam_id":76561198327867899,"connected_time":21000000000,"state":"active","ping":93},{"user_id":271,"name":"Neco-Arc (real)","steam_id":76561198353010811,"connected_time":499000000000,"state":"active","ping":61}]},{"server_id":104,"name":"Uncletopia | Atlanta | 2 | All Maps","name_short":"atl-2","host":"atl-1.us.uncletopia.com","port":27025,"enabled":true,"region":"us-east","cc":"us","latitude":33.753746,"longitude":-84.38633,"reserved":0,"last_update":"0001-01-01T00:00:00Z","name_a2s":"Uncletopia | Atlanta | 2 | All Maps","protocol":17,"map":"pl_badwater","folder":"tf","game":"Team Fortress","app_id":440,"player_count":5,"max_players":24,"Bots":0,"server_type":"Dedicated","server_os":"Linux","password":true,"vac":true,"version":"7932396","steam_id":85568392924469983,"keywords":["nocrits","nodmgspread","payload","uncletopia"],"game_id":440,"stv_port":27026,"stv_name":"Uncletopia | Atlanta | 2 | All Maps | STV","players":[{"user_id":428,"name":"·¥õ Ä…™·¥Ñ·¥ã è","steam_id":76561198117876631,"connected_time":264000000000,"state":"active","ping":91},{"user_id":432,"name":"2fort goblin","steam_id":76561199006361788,"connected_time":10000000000,"state":"spawning","ping":59},{"user_id":422,"name":"Propaniac Gaming ‚òë","steam_id":76561198133963270,"connected_time":769000000000,"state":"active","ping":33},{"user_id":368,"name":"ArmyGuyIan","steam_id":76561198120926552,"connected_time":2283000000000,"state":"active","ping":73},{"user_id":421,"name":"Bee_Pirate","steam_id":76561199000599111,"connected_time":850000000000,"state":"active","ping":92}]},{"server_id":400,"name":"Uncletopia | Atlanta | 3 | Community","name_short":"atl-3","host":"atl-1.us.uncletopia.com","port":27035,"enabled":true,"region":"us-east","cc":"us","latitude":33.753746,"longitude":-84.38633,"reserved":0,"last_update":"0001-01-01T00:00:00Z","name_a2s":"Uncletopia | Atlanta | 3 | Community","protocol":17,"map":"workshop/cp_logjam_rc12.ugc454812035","folder":"tf","game":"Team Fortress","app_id":440,"player_count":0,"max_players":24,"Bots":0,"server_type":"Dedicated","server_os":"Linux","password":true,"vac":true,"version":"7932396","steam_id":85568392924515187,"keywords":["cp","nocrits","nodmgspread","uncletopia"],"game_id":440,"stv_port":27036,"stv_name":"Uncletopia | Atlanta | 3 | Community | STV","players":null},{"server_id":401,"name":"Uncletopia | Atlanta | 4 | No Payload","name_short":"atl-4","host":"atl-1.us.uncletopia.com","port":27045,"enabled":true,"region":"us-east","cc":"us","latitude":33.753746,"longitude":-84.38633,"reserved":0,"last_update":"0001-01-01T00:00:00Z","name_a2s":"","protocol":0,"map":"","folder":"","game":"","app_id":0,"player_count":0,"max_players":0,"Bots":0,"server_type":"","server_os":"","password":false,"vac":false,"version":"","steam_id":0,"keywords":null,"game_id":0,"stv_port":0,"stv_name":"","players":null},{"server_id":2,"name":"Uncletopia | Chicago | 1 | All Maps","name_short":"chi-1","host":"chi-1.us.uncletopia.com","port":27015,"enabled":true,"region":"us-central","cc":"us","latitude":41.881832,"longitude":-87.62318,"reserved":0,"last_update":"0001-01-01T00:00:00Z","name_a2s":"Uncletopia | Chicago | 1 | All Maps","protocol":17,"map":"ctf_doublecross","folder":"tf","game":"Team Fortress","app_id":440,"player_count":24,"max_players":24,"Bots":0,"server_type":"Dedicated","server_os":"Linux","password":true,"vac":true,"version":"7932396","steam_id":85568392924469984,"keywords":["ctf","nocrits","nodmgspread","uncletopia"],"game_id":440,"stv_port":27016,"stv_name":"Uncletopia | Chicago | 1 | All Maps | STV","players":[{"user_id":354,"name":"C4K3","steam_id":76561197996963285,"connected_time":2309000000000,"state":"active","ping":72},{"user_id":222,"name":"jooby","steam_id":76561198131065492,"connected_time":13698000000000,"state":"active","ping":60},{"user_id":382,"name":"entityfromohio","steam_id":76561198031675881,"connected_time":1070000000000,"state":"active","ping":34},{"user_id":353,"name":"CoconutNeutral","steam_id":76561198277110108,"connected_time":2316000000000,"state":"active","ping":75},{"user_id":377,"name":"Sunfly","steam_id":76561198034307439,"connected_time":1212000000000,"state":"active","ping":42},{"user_id":372,"name":"Noodle","steam_id":76561198040872617,"connected_time":1364000000000,"state":"active","ping":104},{"user_id":385,"name":"americacoingameing","steam_id":76561199405275335,"connected_time":812000000000,"state":"active","ping":74},{"user_id":371,"name":"An Unhappy Clown","steam_id":76561198175516514,"connected_time":1593000000000,"state":"active","ping":73},{"user_id":350,"name":"Sprinklze","steam_id":76561198163562681,"connected_time":2676000000000,"state":"active","ping":63},{"user_id":376,"name":"Mcfighter2","steam_id":76561198168073956,"connected_time":1326000000000,"state":"active","ping":61},{"user_id":363,"name":"TobyTurner32","steam_id":76561198018801418,"connected_time":1998000000000,"state":"active","ping":88},{"user_id":383,"name":"‚ô•Bunny‚ô•Slut‚ô•","steam_id":76561198206376851,"connected_time":928000000000,"state":"active","ping":86},{"user_id":330,"name":"Ata","steam_id":76561198349085545,"connected_time":4469000000000,"state":"active","ping":94},{"user_id":378,"name":"TGD","steam_id":76561198197582594,"connected_time":1204000000000,"state":"active","ping":59},{"user_id":336,"name":"Doctor Emerald(real)","steam_id":76561199123003872,"connected_time":4046000000000,"state":"active","ping":95},{"user_id":392,"name":"S–°–ê–¢–¢–ïR","steam_id":76561198405168492,"connected_time":36000000000,"state":"active","ping":84},{"user_id":248,"name":"Aeonspassed","steam_id":76561198014016451,"connected_time":10701000000000,"state":"active","ping":59},{"user_id":389,"name":"Unrefined Milk","steam_id":76561197986051713,"connected_time":457000000000,"state":"active","ping":83},{"user_id":342,"name":"Gaben Gaming","steam_id":76561198330119627,"connected_time":3456000000000,"state":"active","ping":79},{"user_id":381,"name":"Owixan","steam_id":76561198074990070,"connected_time":1143000000000,"state":"active","ping":35},{"user_id":240,"name":"Help! I'm Underwater!","steam_id":76561198030291655,"connected_time":10823000000000,"state":"active","ping":44},{"user_id":390,"name":"Ras","steam_id":76561198123546775,"connected_time":452000000000,"state":"active","ping":78},{"user_id":387,"name":"Kero","steam_id":76561198343231436,"connected_time":683000000000,"state":"active","ping":59}]},{"server_id":106,"name":"Uncletopia | Chicago | 2 | All Maps","name_short":"chi-2","host":"chi-1.us.uncletopia.com","port":27025,"enabled":true,"region":"us-central","cc":"us","latitude":41.881832,"longitude":-87.62318,"reserved":0,"last_update":"0001-01-01T00:00:00Z","name_a2s":"Uncletopia | Chicago | 2 | All Maps","protocol":17,"map":"koth_cascade","folder":"tf","game":"Team Fortress","app_id":440,"player_count":24,"max_players":24,"Bots":0,"server_type":"Dedicated","server_os":"Linux","password":true,"vac":true,"version":"7932396","steam_id":85568392924469985,"keywords":["cp","nocrits","nodmgspread","uncletopia"],"game_id":440,"stv_port":27026,"stv_name":"Uncletopia | Chicago | 2 | All Maps | STV","players":[{"user_id":326,"name":"Wigl","steam_id":76561198019324464,"connected_time":3739000000000,"state":"active","ping":56},{"user_id":361,"name":"STILLZ","steam_id":76561198131892406,"connected_time":1335000000000,"state":"active","ping":86},{"user_id":332,"name":"ARGON| Soulidity","steam_id":76561198429603550,"connected_time":3313000000000,"state":"active","ping":70},{"user_id":377,"name":"fred","steam_id":76561199065834574,"connected_time":31000000000,"state":"active","ping":82},{"user_id":359,"name":"Jeong Jeong","steam_id":76561198125063586,"connected_time":1690000000000,"state":"active","ping":40},{"user_id":373,"name":"VarusTheRenegade","steam_id":76561198375232566,"connected_time":112000000000,"state":"active","ping":60},{"user_id":355,"name":"Retro","steam_id":76561198414744723,"connected_time":1938000000000,"state":"active","ping":70},{"user_id":374,"name":"youve been scrongbongled","steam_id":76561198115874625,"connected_time":89000000000,"state":"active","ping":62},{"user_id":363,"name":"4oh4","steam_id":76561198388047861,"connected_time":853000000000,"state":"active","ping":69},{"user_id":356,"name":"Fresh0c0","steam_id":76561198271933283,"connected_time":1860000000000,"state":"active","ping":56},{"user_id":375,"name":"Ranger Plague","steam_id":76561198174647666,"connected_time":82000000000,"state":"active","ping":79},{"user_id":343,"name":"JPSS","steam_id":76561199239530493,"connected_time":2637000000000,"state":"active","ping":90},{"user_id":317,"name":"Lylith!!!","steam_id":76561198386687546,"connected_time":4541000000000,"state":"active","ping":67},{"user_id":349,"name":"Daddy Topps","steam_id":76561198203594332,"connected_time":2462000000000,"state":"active","ping":90},{"user_id":376,"name":"Hob-Goblin Jim The IV","steam_id":76561199046650666,"connected_time":69000000000,"state":"active","ping":57},{"user_id":336,"name":"JelloMotion","steam_id":76561198045892038,"connected_time":3170000000000,"state":"active","ping":60},{"user_id":289,"name":"vv","steam_id":76561198134813102,"connected_time":6288000000000,"state":"active","ping":73},{"user_id":366,"name":"chaffy","steam_id":76561198021754567,"connected_time":819000000000,"state":"active","ping":59},{"user_id":367,"name":"Kirby, Eater of Gods","steam_id":76561199013548188,"connected_time":801000000000,"state":"active","ping":58},{"user_id":357,"name":"Flaxks","steam_id":76561198410260447,"connected_time":1833000000000,"state":"active","ping":93},{"user_id":322,"name":"turd ferguson","steam_id":76561198071620782,"connected_time":3953000000000,"state":"active","ping":79},{"user_id":362,"name":"Gailus","steam_id":76561198319509387,"connected_time":1259000000000,"state":"active","ping":64},{"user_id":346,"name":"HP Office InkJet Pro 6978","steam_id":76561198084003153,"connected_time":2500000000000,"state":"active","ping":48},{"user_id":372,"name":"el hopaness romtic","steam_id":76561198123287268,"connected_time":168000000000,"state":"active","ping":48}]},{"server_id":402,"name":"Uncletopia | Chicago | 3 | All Maps","name_short":"chi-3","host":"chi-1.us.uncletopia.com","port":27035,"enabled":true,"region":"us-central","cc":"us","latitude":41.881832,"longitude":-87.62318,"reserved":0,"last_update":"0001-01-01T00:00:00Z","name_a2s":"Uncletopia | Chicago | 3 | All Maps","protocol":17,"map":"cp_process_final","folder":"tf","game":"Team Fortress","app_id":440,"player_count":6,"max_players":24,"Bots":0,"server_type":"Dedicated","server_os":"Linux","password":true,"vac":true,"version":"7932396","steam_id":85568392924515191,"keywords":["cp","nocrits","nodmgspread","uncletopia"],"game_id":440,"stv_port":27036,"stv_name":"Uncletopia | Chicago | 3 | All Maps | STV","players":[{"user_id":21,"name":"Metbol","steam_id":76561198001362410,"connected_time":2295000000000,"state":"active","ping":75},{"user_id":25,"name":"Aisforlike","steam_id":76561199482110668,"connected_time":719000000000,"state":"active","ping":60},{"user_id":31,"name":"tasty","steam_id":76561198083839061,"connected_time":183000000000,"state":"active","ping":46},{"user_id":28,"name":"Xx_TheGrillMaster_xX","steam_id":76561199059257565,"connected_time":451000000000,"state":"active","ping":88},{"user_id":29,"name":"ExtremeDucks","steam_id":76561198351756464,"connected_time":381000000000,"state":"active","ping":69},{"user_id":30,"name":"NewGuy","steam_id":76561198968058652,"connected_time":357000000000,"state":"active","ping":107}]},{"server_id":403,"name":"Uncletopia | Chicago | 4 | All Maps","name_short":"chi-4","host":"chi-1.us.uncletopia.com","port":27045,"enabled":true,"region":"us-central","cc":"us","latitude":41.881832,"longitude":-87.62318,"reserved":0,"last_update":"0001-01-01T00:00:00Z","name_a2s":"Uncletopia | Chicago | 4 | All Maps","protocol":17,"map":"pl_badwater","folder":"tf","game":"Team Fortress","app_id":440,"player_count":24,"max_players":24,"Bots":0,"server_type":"Dedicated","server_os":"Linux","password":true,"vac":true,"version":"7932396","steam_id":85568392924515193,"keywords":["nocrits","nodmgspread","payload","uncletopia"],"game_id":440,"stv_port":27046,"stv_name":"Uncletopia | Chicago | 4 | All Maps | STV","players":[{"user_id":103,"name":"Bombat","steam_id":76561198083096946,"connected_time":811000000000,"state":"active","ping":109},{"user_id":86,"name":"Fluffeline","steam_id":76561198352909489,"connected_time":1888000000000,"state":"active","ping":145},{"user_id":111,"name":"Heathcliff","steam_id":76561198044288534,"connected_time":187000000000,"state":"active","ping":88},{"user_id":57,"name":"Norman","steam_id":76561198154715990,"connected_time":4032000000000,"state":"active","ping":94},{"user_id":93,"name":"Cy4nideCutie","steam_id":76561198126686695,"connected_time":1528000000000,"state":"active","ping":71},{"user_id":110,"name":"berezet","steam_id":76561198799204433,"connected_time":224000000000,"state":"active","ping":117},{"user_id":117,"name":"creeeeeee","steam_id":76561198392539722,"connected_time":118000000000,"state":"active","ping":78},{"user_id":107,"name":"Oopsie Daisy ‚ùã","steam_id":76561198042144492,"connected_time":691000000000,"state":"active","ping":73},{"user_id":95,"name":"Antwan","steam_id":76561198246200638,"connected_time":1275000000000,"state":"active","ping":61},{"user_id":112,"name":"Simply_Komeiji","steam_id":76561198354177703,"connected_time":172000000000,"state":"active","ping":86},{"user_id":120,"name":"Bean0914","steam_id":76561198261906023,"connected_time":65000000000,"state":"active","ping":86},{"user_id":113,"name":"WCF BBL","steam_id":76561198819564432,"connected_time":158000000000,"state":"active","ping":58},{"user_id":114,"name":"Goose","steam_id":76561198115719083,"connected_time":146000000000,"state":"active","ping":89},{"user_id":104,"name":"Scalie with Soup","steam_id":76561198126745958,"connected_time":782000000000,"state":"active","ping":81},{"user_id":85,"name":"5 and 23","steam_id":76561198068538473,"connected_time":2054000000000,"state":"active","ping":77},{"user_id":98,"name":"Kuddly Kay (She/Her)","steam_id":76561198353432576,"connected_time":1199000000000,"state":"active","ping":95},{"user_id":115,"name":"shneez","steam_id":76561197962209814,"connected_time":127000000000,"state":"active","ping":162},{"user_id":105,"name":"Mr.Pwng3","steam_id":76561198139469530,"connected_time":771000000000,"state":"active","ping":78},{"user_id":108,"name":"tesagi","steam_id":76561198026664629,"connected_time":493000000000,"state":"active","ping":59},{"user_id":109,"name":"SpinetinglingToast","steam_id":76561198099470670,"connected_time":362000000000,"state":"active","ping":76},{"user_id":118,"name":"Velocircopter","steam_id":76561198847582048,"connected_time":102000000000,"state":"active","ping":90},{"user_id":91,"name":"trollgenier","steam_id":76561198882404753,"connected_time":1575000000000,"state":"active","ping":80},{"user_id":119,"name":"pudl","steam_id":76561198043726592,"connected_time":81000000000,"state":"active","ping":61},{"user_id":63,"name":"helen keller","steam_id":76561197979870540,"connected_time":3895000000000,"state":"active","ping":60}]},{"server_id":36,"name":"Uncletopia | Chicago | 5 | All Maps","name_short":"chi-5","host":"chi-2.us.uncletopia.com","port":27015,"enabled":true,"region":"us-central","cc":"us","latitude":41.881832,"longitude":-87.62318,"reserved":0,"last_update":"0001-01-01T00:00:00Z","name_a2s":"Uncletopia | Chicago | 5 | All Maps","protocol":17,"map":"koth_highpass","folder":"tf","game":"Team Fortress","app_id":440,"player_count":0,"max_players":24,"Bots":0,"server_type":"Dedicated","server_os":"Linux","password":true,"vac":true,"version":"7932396","steam_id":85568392924866362,"keywords":["cp","nocrits","nodmgspread","uncletopia"],"game_id":440,"stv_port":27016,"stv_name":"Uncletopia | Chicago | 5 | All Maps | STV","players":null},{"server_id":37,"name":"Uncletopia | Chicago | 6 | All Maps","name_short":"chi-6","host":"chi-2.us.uncletopia.com","port":27025,"enabled":true,"region":"us-central","cc":"us","latitude":41.881832,"longitude":-87.62318,"reserved":0,"last_update":"0001-01-01T00:00:00Z","name_a2s":"Uncletopia | Chicago | 6 | All Maps","protocol":17,"map":"koth_viaduct","folder":"tf","game":"Team Fortress","app_id":440,"player_count":0,"max_players":24,"Bots":0,"server_type":"Dedicated","server_os":"Linux","password":true,"vac":true,"version":"7932396","steam_id":85568392924866363,"keywords":["cp","nocrits","nodmgspread","uncletopia"],"game_id":440,"stv_port":27026,"stv_name":"Uncletopia | Chicago | 6 | All Maps | STV","players":null},{"server_id":38,"name":"Uncletopia | Chicago | 7 | Stopwatch Beta","name_short":"chi-7","host":"chi-2.us.uncletopia.com","port":27035,"enabled":true,"region":"us-central","cc":"us","latitude":41.881832,"longitude":-87.62318,"reserved":0,"last_update":"0001-01-01T00:00:00Z","name_a2s":"Uncletopia | Chicago | 7 | Stopwatch Beta","protocol":17,"map":"pl_borneo","folder":"tf","game":"Team Fortress","app_id":440,"player_count":0,"max_players":24,"Bots":0,"server_type":"Dedicated","server_os":"Linux","password":true,"vac":true,"version":"7932396","steam_id":85568392924866364,"keywords":["nocrits","nodmgspread","payload","uncletopia"],"game_id":440,"stv_port":27036,"stv_name":"Uncletopia | Chicago | 7 | Stopwatch Beta | STV","players":null},{"server_id":39,"name":"Uncletopia | Chicago | 8 | Community","name_short":"chi-8","host":"chi-2.us.uncletopia.com","port":27045,"enabled":true,"region":"us-central","cc":"us","latitude":41.881832,"longitude":-87.62318,"reserved":0,"last_update":"0001-01-01T00:00:00Z","name_a2s":"Uncletopia | Chicago | 8 | Community","protocol":17,"map":"workshop/koth_product_final.ugc454272353","folder":"tf","game":"Team Fortress","app_id":440,"player_count":0,"max_players":24,"Bots":0,"server_type":"Dedicated","server_os":"Linux","password":true,"vac":true,"version":"7932396","steam_id":85568392924866365,"keywords":["cp","nocrits","nodmgspread","uncletopia"],"game_id":440,"stv_port":27046,"stv_name":"Uncletopia | Chicago | 8 | Community | STV","players":null},{"server_id":8,"name":"Uncletopia | Dallas | 1 | All Maps","name_short":"dal-1","host":"dal-1.us.uncletopia.com","port":27015,"enabled":true,"region":"us-central","cc":"us","latitude":32.779167,"longitude":-96.80889,"reserved":0,"last_update":"0001-01-01T00:00:00Z","name_a2s":"Uncletopia | Dallas | 1 | All Maps","protocol":17,"map":"pl_frontier_final","folder":"tf","game":"Team Fortress","app_id":440,"player_count":24,"max_players":24,"Bots":0,"server_type":"Dedicated","server_os":"Linux","password":true,"vac":true,"version":"7932396","steam_id":85568392924469986,"keywords":["nocrits","nodmgspread","payload","uncletopia"],"game_id":440,"stv_port":27016,"stv_name":"Uncletopia | Dallas | 1 | All Maps | STV","players":[{"user_id":296,"name":"neo :)","steam_id":76561199092954930,"connected_time":834000000000,"state":"active","ping":79},{"user_id":297,"name":"larry","steam_id":76561198128347876,"connected_time":824000000000,"state":"active","ping":101},{"user_id":301,"name":"Holp","steam_id":76561199019186848,"connected_time":364000000000,"state":"active","ping":101},{"user_id":237,"name":"tingle shitmouth","steam_id":76561198055109192,"connected_time":5900000000000,"state":"active","ping":88},{"user_id":255,"name":"Kirby.exe","steam_id":76561198242714582,"connected_time":4896000000000,"state":"active","ping":52},{"user_id":273,"name":"SaltJr","steam_id":76561198088138447,"connected_time":3073000000000,"state":"active","ping":86},{"user_id":270,"name":"incredirocks","steam_id":76561198061079993,"connected_time":3536000000000,"state":"active","ping":74},{"user_id":233,"name":"Pancho","steam_id":76561198155847264,"connected_time":6317000000000,"state":"active","ping":64},{"user_id":292,"name":"Mellou","steam_id":76561198212048740,"connected_time":1082000000000,"state":"active","ping":37},{"user_id":279,"name":"superbad","steam_id":76561198065913973,"connected_time":2294000000000,"state":"active","ping":72},{"user_id":251,"name":"Moonflower ‚ú¶","steam_id":76561198191782483,"connected_time":4963000000000,"state":"active","ping":50},{"user_id":268,"name":"A Canadian (:","steam_id":76561198426519499,"connected_time":3762000000000,"state":"active","ping":106},{"user_id":300,"name":"Rare_Igor","steam_id":76561198329611355,"connected_time":650000000000,"state":"active","ping":62},{"user_id":256,"name":"ElZeto","steam_id":76561198252322622,"connected_time":4889000000000,"state":"active","ping":95},{"user_id":250,"name":"4 life","steam_id":76561198175961598,"connected_time":5010000000000,"state":"active","ping":98},{"user_id":286,"name":"Sage","steam_id":76561198143101697,"connected_time":1962000000000,"state":"active","ping":120},{"user_id":269,"name":"ùñçùñäùñù","steam_id":76561198258279528,"connected_time":3683000000000,"state":"active","ping":79},{"user_id":288,"name":"üå∏MelWormüå∏","steam_id":76561198084145814,"connected_time":1406000000000,"state":"active","ping":67},{"user_id":243,"name":"the smiling zombie","steam_id":76561199246231090,"connected_time":5655000000000,"state":"active","ping":84},{"user_id":281,"name":"Boomer Gaming","steam_id":76561198037803087,"connected_time":2227000000000,"state":"active","ping":69},{"user_id":295,"name":"DragonHunter994","steam_id":76561199076203907,"connected_time":853000000000,"state":"active","ping":76},{"user_id":263,"name":"slude","steam_id":76561198065700596,"connected_time":4173000000000,"state":"active","ping":56},{"user_id":264,"name":"Bolbi Stroganovsky","steam_id":76561198069816955,"connected_time":3804000000000,"state":"active","ping":84},{"user_id":289,"name":"basilberry","steam_id":76561198145275937,"connected_time":1357000000000,"state":"active","ping":66}]},{"server_id":108,"name":"Uncletopia | Dallas | 2 | All Maps","name_short":"dal-2","host":"dal-1.us.uncletopia.com","port":27025,"enabled":true,"region":"us-central","cc":"us","latitude":32.779167,"longitude":-96.80889,"reserved":0,"last_update":"0001-01-01T00:00:00Z","name_a2s":"Uncletopia | Dallas | 2 | All Maps","protocol":17,"map":"cp_altitude","folder":"tf","game":"Team Fortress","app_id":440,"player_count":0,"max_players":24,"Bots":0,"server_type":"Dedicated","server_os":"Linux","password":true,"vac":true,"version":"7932396","steam_id":85568392924469988,"keywords":["cp","nocrits","nodmgspread","uncletopia"],"game_id":440,"stv_port":27026,"stv_name":"Uncletopia | Dallas | 2 | All Maps | STV","players":null},{"server_id":5,"name":"Uncletopia | Frankfurt | 1 | All Maps","name_short":"frk-1","host":"frk-1.de.uncletopia.com","port":27015,"enabled":true,"region":"eu","cc":"de","latitude":50.110924,"longitude":8.682127,"reserved":0,"last_update":"0001-01-01T00:00:00Z","name_a2s":"Uncletopia | Frankfurt | 1 | All Maps","protocol":17,"map":"cp_sunshine","folder":"tf","game":"Team Fortress","app_id":440,"player_count":24,"max_players":24,"Bots":0,"server_type":"Dedicated","server_os":"Linux","password":true,"vac":true,"version":"7932396","steam_id":85568392924469989,"keywords":["cp","nocrits","nodmgspread","uncletopia"],"game_id":440,"stv_port":27016,"stv_name":"Uncletopia | Frankfurt | 1 | All Maps | STV","players":[{"user_id":643,"name":"Carrot","steam_id":76561198119340863,"connected_time":740000000000,"state":"active","ping":56},{"user_id":644,"name":"Nikcha","steam_id":76561198253300222,"connected_time":737000000000,"state":"active","ping":67},{"user_id":590,"name":"finbar","steam_id":76561198056812396,"connected_time":4151000000000,"state":"active","ping":73},{"user_id":626,"name":"bad farter","steam_id":76561198261853441,"connected_time":1249000000000,"state":"active","ping":60},{"user_id":650,"name":"Mong","steam_id":76561198254497427,"connected_time":392000000000,"state":"active","ping":54},{"user_id":651,"name":"Lemon","steam_id":76561198093765664,"connected_time":43000000000,"state":"active","ping":74},{"user_id":530,"name":"Lartsa","steam_id":76561198275690230,"connected_time":9640000000000,"state":"active","ping":97},{"user_id":648,"name":"Tohtori gerhard (official)","steam_id":76561198835081622,"connected_time":552000000000,"state":"active","ping":110},{"user_id":646,"name":"Faust","steam_id":76561198117139836,"connected_time":596000000000,"state":"active","ping":68},{"user_id":631,"name":"Sprite790856","steam_id":76561198440389325,"connected_time":1128000000000,"state":"active","ping":166},{"user_id":642,"name":"FoxyTheFish","steam_id":76561199074190919,"connected_time":792000000000,"state":"active","ping":55},{"user_id":641,"name":"SchwanzusLongus","steam_id":76561198112599986,"connected_time":816000000000,"state":"active","ping":45},{"user_id":630,"name":"Dzan50","steam_id":76561198059758591,"connected_time":1159000000000,"state":"active","ping":105},{"user_id":632,"name":"i don't play often","steam_id":76561198105782406,"connected_time":1115000000000,"state":"active","ping":62},{"user_id":640,"name":"LEonad","steam_id":76561198264419013,"connected_time":898000000000,"state":"active","ping":88},{"user_id":634,"name":"\u003c3","steam_id":76561199143104176,"connected_time":1098000000000,"state":"active","ping":175},{"user_id":636,"name":"Seishir≈ç","steam_id":76561198299203819,"connected_time":1052000000000,"state":"active","ping":86},{"user_id":635,"name":"elijah","steam_id":76561198093936708,"connected_time":1066000000000,"state":"active","ping":63},{"user_id":645,"name":"Amandus","steam_id":76561198036281079,"connected_time":735000000000,"state":"active","ping":59},{"user_id":637,"name":"Fiskmaster","steam_id":76561198273095910,"connected_time":1047000000000,"state":"active","ping":73},{"user_id":615,"name":"Aximus","steam_id":76561198024575710,"connected_time":2292000000000,"state":"active","ping":65},{"user_id":583,"name":"Watermelon","steam_id":76561198078349914,"connected_time":5067000000000,"state":"active","ping":60},{"user_id":649,"name":"Carl","steam_id":76561198045638738,"connected_time":538000000000,"state":"active","ping":77},{"user_id":604,"name":"Hey, I¬¥m Andy!","steam_id":76561198060337777,"connected_time":3107000000000,"state":"active","ping":93}]},{"server_id":110,"name":"Uncletopia | Frankfurt | 2 | All Maps","name_short":"frk-2","host":"frk-1.de.uncletopia.com","port":27025,"enabled":true,"region":"eu","cc":"de","latitude":50.110924,"longitude":8.682127,"reserved":0,"last_update":"0001-01-01T00:00:00Z","name_a2s":"Uncletopia | Frankfurt | 2 | All Maps","protocol":17,"map":"pl_pier","folder":"tf","game":"Team Fortress","app_id":440,"player_count":24,"max_players":24,"Bots":0,"server_type":"Dedicated","server_os":"Linux","password":true,"vac":true,"version":"7932396","steam_id":85568392924469990,"keywords":["nocrits","nodmgspread","payload","uncletopia"],"game_id":440,"stv_port":27026,"stv_name":"Uncletopia | Frankfurt | 2 | All Maps | STV","players":[{"user_id":266,"name":"Pacyfista Feminista Frutarianin","steam_id":76561198435883762,"connected_time":741000000000,"state":"active","ping":72},{"user_id":293,"name":"Lilliputt","steam_id":76561198090146457,"connected_time":29000000000,"state":"active","ping":59},{"user_id":271,"name":"steakman10","steam_id":76561198152584691,"connected_time":406000000000,"state":"active","ping":88},{"user_id":267,"name":"Gimmick","steam_id":76561197979603871,"connected_time":714000000000,"state":"active","ping":60},{"user_id":268,"name":"Maksim:)","steam_id":76561198816061842,"connected_time":696000000000,"state":"active","ping":72},{"user_id":283,"name":"DicyPicky","steam_id":76561198078873335,"connected_time":203000000000,"state":"active","ping":56},{"user_id":270,"name":"Bill","steam_id":76561198293112566,"connected_time":478000000000,"state":"active","ping":83},{"user_id":276,"name":"shadow wizard money gang","steam_id":76561199244678611,"connected_time":293000000000,"state":"active","ping":83},{"user_id":274,"name":"TheH@cker","steam_id":76561198172701090,"connected_time":336000000000,"state":"active","ping":77},{"user_id":288,"name":"snowii","steam_id":76561198836246326,"connected_time":132000000000,"state":"active","ping":82},{"user_id":277,"name":"Smart Chimp","steam_id":76561198243603442,"connected_time":287000000000,"state":"active","ping":86},{"user_id":287,"name":"Dr. Trustmeonthisone","steam_id":76561198009884765,"connected_time":142000000000,"state":"active","ping":91},{"user_id":279,"name":"Max Andrew","steam_id":76561198158955194,"connected_time":250000000000,"state":"active","ping":70},{"user_id":255,"name":"Solarwolf64 #SaveTF2","steam_id":76561198023570251,"connected_time":1592000000000,"state":"active","ping":62},{"user_id":280,"name":"Dolcelatte","steam_id":76561198038501770,"connected_time":231000000000,"state":"active","ping":53},{"user_id":281,"name":"F","steam_id":76561199149462792,"connected_time":227000000000,"state":"active","ping":70},{"user_id":284,"name":"manhunter","steam_id":76561198009152277,"connected_time":198000000000,"state":"active","ping":81},{"user_id":285,"name":"Taharaki","steam_id":76561198131746120,"connected_time":194000000000,"state":"active","ping":56},{"user_id":289,"name":"Lotek","steam_id":76561198002580606,"connected_time":102000000000,"state":"active","ping":89},{"user_id":290,"name":"Ê†∏nucleone„ÉÑ","steam_id":76561198099372569,"connected_time":94000000000,"state":"active","ping":60},{"user_id":259,"name":"Mr. Master","steam_id":76561199198569317,"connected_time":1406000000000,"state":"active","ping":57},{"user_id":260,"name":"Fancy","steam_id":76561198350658462,"connected_time":1185000000000,"state":"active","ping":76},{"user_id":291,"name":"Mr.Schnittlauch","steam_id":76561198295868113,"connected_time":90000000000,"state":"active","ping":59},{"user_id":292,"name":"Ecton","steam_id":76561198025103720,"connected_time":88000000000,"state":"active","ping":64}]},{"server_id":308,"name":"Uncletopia | Frankfurt | 3 | All Maps","name_short":"frk-3","host":"frk-1.de.uncletopia.com","port":27035,"enabled":true,"region":"eu","cc":"de","latitude":50.110924,"longitude":8.682127,"reserved":0,"last_update":"0001-01-01T00:00:00Z","name_a2s":"Uncletopia | Frankfurt | 3 | All Maps","protocol":17,"map":"koth_cascade","folder":"tf","game":"Team Fortress","app_id":440,"player_count":24,"max_players":24,"Bots":0,"server_type":"Dedicated","server_os":"Linux","password":true,"vac":true,"version":"7932396","steam_id":85568392924504274,"keywords":["cp","nocrits","nodmgspread","uncletopia"],"game_id":440,"stv_port":27036,"stv_name":"Uncletopia | Frankfurt | 3 | All Maps | STV","players":[{"user_id":35,"name":"Mann Co. Store Package","steam_id":76561198128348941,"connected_time":3473000000000,"state":"active","ping":69},{"user_id":36,"name":"dopamine enjoyer","steam_id":76561198140591983,"connected_time":3465000000000,"state":"active","ping":83},{"user_id":37,"name":"leiiao","steam_id":76561199411259430,"connected_time":3442000000000,"state":"active","ping":69},{"user_id":51,"name":"Peeven'","steam_id":76561198097919254,"connected_time":3004000000000,"state":"active","ping":94},{"user_id":71,"name":"Chucko Kokos","steam_id":76561198112553005,"connected_time":1296000000000,"state":"active","ping":63},{"user_id":41,"name":"Hussain_144","steam_id":76561198346029208,"connected_time":3261000000000,"state":"active","ping":178},{"user_id":59,"name":"tallen","steam_id":76561198061708595,"connected_time":2554000000000,"state":"active","ping":88},{"user_id":43,"name":"blazeeight","steam_id":76561198159456502,"connected_time":3129000000000,"state":"active","ping":69},{"user_id":88,"name":"Mrbluuub","steam_id":76561199273847084,"connected_time":203000000000,"state":"active","ping":70},{"user_id":49,"name":"BELADIT","steam_id":76561198011911501,"connected_time":3063000000000,"state":"active","ping":71},{"user_id":47,"name":"ODanial","steam_id":76561198034854402,"connected_time":3088000000000,"state":"active","ping":86},{"user_id":89,"name":"Adam","steam_id":76561199103777436,"connected_time":178000000000,"state":"active","ping":64},{"user_id":79,"name":"TOKOZACKO","steam_id":76561198125163526,"connected_time":590000000000,"state":"active","ping":81},{"user_id":55,"name":"Mayor Wank from Wanker Town","steam_id":76561197998253588,"connected_time":2873000000000,"state":"active","ping":50},{"user_id":80,"name":"Dabadyeet","steam_id":76561198047359132,"connected_time":565000000000,"state":"active","ping":67},{"user_id":81,"name":"Dr. Sir Knight","steam_id":76561198146313878,"connected_time":542000000000,"state":"active","ping":62},{"user_id":85,"name":"K.O.wal","steam_id":76561198317737261,"connected_time":452000000000,"state":"active","ping":66},{"user_id":90,"name":"Michal jordan","steam_id":76561199106262610,"connected_time":169000000000,"state":"active","ping":57},{"user_id":62,"name":"Tame Bean","steam_id":76561199196774664,"connected_time":2383000000000,"state":"active","ping":93},{"user_id":82,"name":"zek","steam_id":76561198862763731,"connected_time":540000000000,"state":"active","ping":56},{"user_id":73,"name":"REN","steam_id":76561198000596385,"connected_time":913000000000,"state":"active","ping":64},{"user_id":74,"name":"I am bad in TF2 (not bot)","steam_id":76561199214000895,"connected_time":912000000000,"state":"active","ping":85},{"user_id":84,"name":"eevee","steam_id":76561198447072392,"connected_time":505000000000,"state":"active","ping":83},{"user_id":87,"name":"alan","steam_id":76561198306947435,"connected_time":420000000000,"state":"active","ping":76}]},{"server_id":309,"name":"Uncletopia | Frankfurt | 4 | All Maps","name_short":"frk-4","host":"frk-1.de.uncletopia.com","port":27045,"enabled":true,"region":"eu","cc":"de","latitude":50.110924,"longitude":8.682127,"reserved":0,"last_update":"0001-01-01T00:00:00Z","name_a2s":"Uncletopia | Frankfurt | 4 | All Maps","protocol":17,"map":"pl_barnblitz","folder":"tf","game":"Team Fortress","app_id":440,"player_count":24,"max_players":24,"Bots":0,"server_type":"Dedicated","server_os":"Linux","password":true,"vac":true,"version":"7932396","steam_id":85568392924504275,"keywords":["nocrits","nodmgspread","payload","uncletopia"],"game_id":440,"stv_port":27046,"stv_name":"Uncletopia | Frankfurt | 4 | All Maps | STV","players":[{"user_id":370,"name":"Finn","steam_id":76561198112456809,"connected_time":2266000000000,"state":"active","ping":59},{"user_id":371,"name":"Suetolog","steam_id":76561199053090212,"connected_time":2217000000000,"state":"active","ping":54},{"user_id":401,"name":":)","steam_id":76561198977420882,"connected_time":1018000000000,"state":"active","ping":58},{"user_id":373,"name":"Maid","steam_id":76561198104863288,"connected_time":2087000000000,"state":"active","ping":42},{"user_id":393,"name":"TylowStar","steam_id":76561198357107806,"connected_time":1443000000000,"state":"active","ping":60},{"user_id":375,"name":"PreviouslyFresh","steam_id":76561198133796254,"connected_time":2061000000000,"state":"active","ping":70},{"user_id":376,"name":"IKEA Self-Checkout Station","steam_id":76561198386873511,"connected_time":2048000000000,"state":"active","ping":66},{"user_id":325,"name":"weird gamer","steam_id":76561198047749446,"connected_time":5595000000000,"state":"active","ping":46},{"user_id":395,"name":"m√®x","steam_id":76561197975951572,"connected_time":1397000000000,"state":"active","ping":60},{"user_id":361,"name":"[P-roc] Lovely","steam_id":76561198074361075,"connected_time":2875000000000,"state":"active","ping":61},{"user_id":328,"name":"Daan77","steam_id":76561198129940468,"connected_time":5434000000000,"state":"active","ping":79},{"user_id":399,"name":"feleciad_robinson","steam_id":76561199468304020,"connected_time":1035000000000,"state":"active","ping":151},{"user_id":400,"name":"Renolox","steam_id":76561198036590182,"connected_time":1035000000000,"state":"active","ping":70},{"user_id":405,"name":"PitFall","steam_id":76561197993767719,"connected_time":601000000000,"state":"active","ping":67},{"user_id":389,"name":"Seb, Comrade","steam_id":76561198040279587,"connected_time":1729000000000,"state":"active","ping":108},{"user_id":404,"name":"executive producer larry david","steam_id":76561198057868438,"connected_time":810000000000,"state":"active","ping":71},{"user_id":409,"name":"skill based","steam_id":76561198341178432,"connected_time":288000000000,"state":"active","ping":60},{"user_id":384,"name":"olivia","steam_id":76561198288130849,"connected_time":1956000000000,"state":"active","ping":158},{"user_id":334,"name":"KNNTX","steam_id":76561198161313074,"connected_time":5140000000000,"state":"active","ping":112},{"user_id":391,"name":"aww yeah","steam_id":76561197992978878,"connected_time":1564000000000,"state":"active","ping":77},{"user_id":408,"name":"Pyro Boping head to music","steam_id":76561198362116755,"connected_time":310000000000,"state":"active","ping":219},{"user_id":350,"name":"[P-roc] Cmm Bert","steam_id":76561198016658674,"connected_time":3894000000000,"state":"active","ping":77},{"user_id":381,"name":"Swedish Vegan","steam_id":76561198042775020,"connected_time":2007000000000,"state":"active","ping":66},{"user_id":394,"name":"el gnomo","steam_id":76561198117470985,"connected_time":1440000000000,"state":"active","ping":59}]},{"server_id":310,"name":"Uncletopia | Frankfurt | 5 | All Maps","name_short":"frk-5","host":"frk-1.de.uncletopia.com","port":27055,"enabled":true,"region":"eu","cc":"de","latitude":50.110924,"longitude":8.682127,"reserved":0,"last_update":"0001-01-01T00:00:00Z","name_a2s":"Uncletopia | Frankfurt | 5 | All Maps","protocol":17,"map":"koth_viaduct","folder":"tf","game":"Team Fortress","app_id":440,"player_count":3,"max_players":24,"Bots":0,"server_type":"Dedicated","server_os":"Linux","password":true,"vac":true,"version":"7932396","steam_id":85568392924504277,"keywords":["cp","nocrits","nodmgspread","uncletopia"],"game_id":440,"stv_port":27056,"stv_name":"Uncletopia | Frankfurt | 5 | All Maps | STV","players":[{"user_id":22,"name":"Kiz","steam_id":76561198811732820,"connected_time":215000000000,"state":"active","ping":78},{"user_id":23,"name":"Teathling.ttv","steam_id":76561198061580505,"connected_time":134000000000,"state":"active","ping":55},{"user_id":24,"name":"the ferocious muncher","steam_id":76561198170410303,"connected_time":49000000000,"state":"active","ping":159}]},{"server_id":311,"name":"Uncletopia | Frankfurt | 6 | All Maps","name_short":"frk-6","host":"frk-1.de.uncletopia.com","port":27065,"enabled":true,"region":"eu","cc":"de","latitude":50.110924,"longitude":8.682127,"reserved":0,"last_update":"0001-01-01T00:00:00Z","name_a2s":"Uncletopia | Frankfurt | 6 | All Maps","protocol":17,"map":"cp_mountainlab","folder":"tf","game":"Team Fortress","app_id":440,"player_count":0,"max_players":24,"Bots":0,"server_type":"Dedicated","server_os":"Linux","password":true,"vac":true,"version":"7932396","steam_id":85568392924504278,"keywords":["cp","nocrits","nodmgspread","uncletopia"],"game_id":440,"stv_port":27066,"stv_name":"Uncletopia | Frankfurt | 6 | All Maps | STV","players":null},{"server_id":23,"name":"Uncletopia | Frankfurt | 7 | Stopwatch Beta","name_short":"frk-7","host":"frk-1.de.uncletopia.com","port":27075,"enabled":true,"region":"eu","cc":"de","latitude":50.110924,"longitude":8.682127,"reserved":0,"last_update":"0001-01-01T00:00:00Z","name_a2s":"Uncletopia | Frankfurt | 7 | Stopwatch Beta","protocol":17,"map":"pl_snowycoast","folder":"tf","game":"Team Fortress","app_id":440,"player_count":0,"max_players":24,"Bots":0,"server_type":"Dedicated","server_os":"Linux","password":true,"vac":true,"version":"7932396","steam_id":85568392924742827,"keywords":["nocrits","nodmgspread","payload","uncletopia"],"game_id":440,"stv_port":27076,"stv_name":"Uncletopia | Frankfurt | 7 | Stopwatch Beta | STV","players":null},{"server_id":24,"name":"Uncletopia | Frankfurt | 8 | Community","name_short":"frk-8","host":"frk-1.de.uncletopia.com","port":27085,"enabled":true,"region":"eu","cc":"de","latitude":50.110924,"longitude":8.682127,"reserved":0,"last_update":"0001-01-01T00:00:00Z","name_a2s":"Uncletopia | Frankfurt | 8 | Community","protocol":17,"map":"workshop/cp_mannbase_rc2a.ugc1900737467","folder":"tf","game":"Team Fortress","app_id":440,"player_count":0,"max_players":24,"Bots":0,"server_type":"Dedicated","server_os":"Linux","password":true,"vac":true,"version":"7932396","steam_id":85568392924742828,"keywords":["cp","nocrits","nodmgspread","uncletopia"],"game_id":440,"stv_port":27086,"stv_name":"Uncletopia | Frankfurt | 8 | Community | STV","players":null},{"server_id":202,"name":"Uncletopia | Hong Kong | 1 | All Maps","name_short":"hgk-1","host":"hgk-1.hk.uncletopia.com","port":27015,"enabled":true,"region":"asia","cc":"hk","latitude":22.302711,"longitude":114.177216,"reserved":0,"last_update":"0001-01-01T00:00:00Z","name_a2s":"Uncletopia | Hong Kong | 1 | All Maps","protocol":17,"map":"cp_process_final","folder":"tf","game":"Team Fortress","app_id":440,"player_count":0,"max_players":24,"Bots":0,"server_type":"Dedicated","server_os":"Linux","password":true,"vac":true,"version":"7932396","steam_id":85568392924494504,"keywords":["cp","nocrits","nodmgspread","uncletopia"],"game_id":440,"stv_port":27016,"stv_name":"Uncletopia | Hong Kong | 1 | All Maps | STV","players":null},{"server_id":1,"name":"Uncletopia | Los Angeles | 1 | All Maps","name_short":"lax-1","host":"lax-1.us.uncletopia.com","port":27015,"enabled":true,"region":"us-west","cc":"us","latitude":33.94279,"longitude":-118.41004,"reserved":0,"last_update":"0001-01-01T00:00:00Z","name_a2s":"Uncletopia | Los Angeles | 1 | All Maps","protocol":17,"map":"cp_mountainlab","folder":"tf","game":"Team Fortress","app_id":440,"player_count":0,"max_players":24,"Bots":0,"server_type":"Dedicated","server_os":"Linux","password":true,"vac":true,"version":"7932396","steam_id":85568392924469991,"keywords":["cp","nocrits","nodmgspread","uncletopia"],"game_id":440,"stv_port":27016,"stv_name":"Uncletopia | Los Angeles | 1 | All Maps | STV","players":null},{"server_id":112,"name":"Uncletopia | Los Angeles | 2 | All Maps","name_short":"lax-2","host":"lax-1.us.uncletopia.com","port":27025,"enabled":true,"region":"us-west","cc":"us","latitude":33.94279,"longitude":-118.41004,"reserved":0,"last_update":"0001-01-01T00:00:00Z","name_a2s":"Uncletopia | Los Angeles | 2 | All Maps","protocol":17,"map":"pl_frontier_final","folder":"tf","game":"Team Fortress","app_id":440,"player_count":0,"max_players":24,"Bots":0,"server_type":"Dedicated","server_os":"Linux","password":true,"vac":true,"version":"7932396","steam_id":85568392924469992,"keywords":["nocrits","nodmgspread","payload","uncletopia"],"game_id":440,"stv_port":27026,"stv_name":"Uncletopia | Los Angeles | 2 | All Maps | STV","players":null},{"server_id":324,"name":"Uncletopia | Los Angeles | 3 | All Maps","name_short":"lax-3","host":"lax-1.us.uncletopia.com","port":27035,"enabled":true,"region":"us-west","cc":"us","latitude":33.94279,"longitude":-118.41004,"reserved":0,"last_update":"0001-01-01T00:00:00Z","name_a2s":"Uncletopia | Los Angeles | 3 | All Maps","protocol":17,"map":"pl_snowycoast","folder":"tf","game":"Team Fortress","app_id":440,"player_count":24,"max_players":24,"Bots":0,"server_type":"Dedicated","server_os":"Linux","password":true,"vac":true,"version":"7932396","steam_id":85568392924510198,"keywords":["nocrits","nodmgspread","payload","uncletopia"],"game_id":440,"stv_port":27036,"stv_name":"Uncletopia | Los Angeles | 3 | All Maps | STV","players":[{"user_id":151,"name":"TTV/ChadMorningWood","steam_id":76561198139832291,"connected_time":512000000000,"state":"active","ping":50},{"user_id":143,"name":"ThatGamingKiwi","steam_id":76561199170522237,"connected_time":1311000000000,"state":"active","ping":133},{"user_id":156,"name":"Vegan Veal","steam_id":76561198123607452,"connected_time":219000000000,"state":"active","ping":78},{"user_id":110,"name":"SanitysEdge","steam_id":76561198130732813,"connected_time":3343000000000,"state":"active","ping":46},{"user_id":130,"name":"Vordt","steam_id":76561198040942866,"connected_time":2220000000000,"state":"active","ping":97},{"user_id":127,"name":"MrRobbins","steam_id":76561199171169987,"connected_time":2550000000000,"state":"active","ping":121},{"user_id":146,"name":"reknud","steam_id":76561198066114874,"connected_time":1170000000000,"state":"active","ping":90},{"user_id":105,"name":"Jawn","steam_id":76561198424248616,"connected_time":3893000000000,"state":"active","ping":108},{"user_id":154,"name":"dweaver","steam_id":76561198119610135,"connected_time":448000000000,"state":"active","ping":61},{"user_id":59,"name":"dweamy","steam_id":76561198119181880,"connected_time":6397000000000,"state":"active","ping":87},{"user_id":152,"name":"Home Depot Bucket","steam_id":76561198838759652,"connected_time":487000000000,"state":"active","ping":55},{"user_id":107,"name":"BurdBrain","steam_id":76561197962097737,"connected_time":3745000000000,"state":"active","ping":54},{"user_id":98,"name":"SadChicken Œª","steam_id":76561198082458968,"connected_time":4615000000000,"state":"active","ping":70},{"user_id":145,"name":"oil","steam_id":76561198099980149,"connected_time":1264000000000,"state":"active","ping":52},{"user_id":157,"name":"Re:Lie","steam_id":76561198125401588,"connected_time":90000000000,"state":"active","ping":63},{"user_id":147,"name":"Exo","steam_id":76561198076645019,"connected_time":1148000000000,"state":"active","ping":74},{"user_id":140,"name":"Ergs","steam_id":76561198061238227,"connected_time":1450000000000,"state":"active","ping":120},{"user_id":153,"name":"Gas Station Pump #3","steam_id":76561198108655677,"connected_time":483000000000,"state":"active","ping":75},{"user_id":134,"name":"Brigadier Brownie","steam_id":76561198040852898,"connected_time":2119000000000,"state":"active","ping":55},{"user_id":149,"name":"Nibotshooter","steam_id":76561199284825579,"connected_time":515000000000,"state":"active","ping":65},{"user_id":155,"name":"Monty","steam_id":76561197993567253,"connected_time":387000000000,"state":"active","ping":75},{"user_id":150,"name":"nea styles","steam_id":76561198149443710,"connected_time":513000000000,"state":"active","ping":47},{"user_id":141,"name":"Tibalt Nyahuma","steam_id":76561198034779431,"connected_time":1444000000000,"state":"active","ping":109},{"user_id":137,"name":"BrowniesCake","steam_id":76561198164081149,"connected_time":1877000000000,"state":"active","ping":50}]},{"server_id":25,"name":"Uncletopia | Los Angeles | 4 | Stopwatch Beta","name_short":"lax-4","host":"lax-1.us.uncletopia.com","port":27045,"enabled":true,"region":"us-west","cc":"us","latitude":33.94279,"longitude":-118.41004,"reserved":0,"last_update":"0001-01-01T00:00:00Z","name_a2s":"Uncletopia | Los Angeles | 4 | Stopwatch Beta","protocol":17,"map":"cp_altitude","folder":"tf","game":"Team Fortress","app_id":440,"player_count":0,"max_players":24,"Bots":0,"server_type":"Dedicated","server_os":"Linux","password":true,"vac":true,"version":"7932396","steam_id":85568392924510199,"keywords":["cp","nocrits","nodmgspread","uncletopia"],"game_id":440,"stv_port":27046,"stv_name":"Uncletopia | Los Angeles | 4 | Stopwatch Beta | STV","players":null},{"server_id":11,"name":"Uncletopia | London | 1 | All Maps","name_short":"lon-1","host":"lon-1.uk.uncletopia.com","port":27015,"enabled":true,"region":"eu","cc":"gb","latitude":51.509865,"longitude":-0.118092,"reserved":0,"last_update":"0001-01-01T00:00:00Z","name_a2s":"Uncletopia | London | 1 | All Maps","protocol":17,"map":"cp_snakewater_final1","folder":"tf","game":"Team Fortress","app_id":440,"player_count":24,"max_players":24,"Bots":0,"server_type":"Dedicated","server_os":"Linux","password":true,"vac":true,"version":"7932396","steam_id":85568392924367362,"keywords":["cp","nocrits","nodmgspread","uncletopia"],"game_id":440,"stv_port":27016,"stv_name":"Uncletopia | London | 1 | All Maps | STV","players":[{"user_id":695,"name":"Walter Griffin","steam_id":76561199415989636,"connected_time":535000000000,"state":"active","ping":86},{"user_id":669,"name":"OPUR","steam_id":76561197993123284,"connected_time":2570000000000,"state":"active","ping":82},{"user_id":651,"name":"Jon","steam_id":76561199380849468,"connected_time":3719000000000,"state":"active","ping":61},{"user_id":649,"name":"fecal matter","steam_id":76561198044293799,"connected_time":3731000000000,"state":"active","ping":70},{"user_id":663,"name":"LetajiciZbranCesko","steam_id":76561198037237664,"connected_time":2870000000000,"state":"active","ping":72},{"user_id":676,"name":"Grim the lemon","steam_id":76561199083433988,"connected_time":1964000000000,"state":"active","ping":50},{"user_id":665,"name":"kimchiking82","steam_id":76561198008423339,"connected_time":2745000000000,"state":"active","ping":110},{"user_id":691,"name":"i put rocks in your mattress","steam_id":76561198072892783,"connected_time":589000000000,"state":"active","ping":61},{"user_id":690,"name":"breakfast burrito","steam_id":76561198148606969,"connected_time":605000000000,"state":"active","ping":86},{"user_id":685,"name":"jimmy bob","steam_id":76561198319583692,"connected_time":1060000000000,"state":"active","ping":58},{"user_id":681,"name":"gr3821","steam_id":76561198091531010,"connected_time":1614000000000,"state":"active","ping":39},{"user_id":680,"name":"Mi Manchi","steam_id":76561198171573129,"connected_time":1624000000000,"state":"active","ping":60},{"user_id":696,"name":"thesentientdildo","steam_id":76561198000735878,"connected_time":291000000000,"state":"active","ping":57},{"user_id":697,"name":"Benzo Fury","steam_id":76561198025259336,"connected_time":26000000000,"state":"active","ping":40},{"user_id":688,"name":"YARrICk.¬´+¬ª","steam_id":76561197990126485,"connected_time":789000000000,"state":"active","ping":55},{"user_id":678,"name":"Pilaarius","steam_id":76561198120273212,"connected_time":1677000000000,"state":"active","ping":104},{"user_id":667,"name":"xavier","steam_id":76561198076494034,"connected_time":2721000000000,"state":"active","ping":50},{"user_id":643,"name":"Nephi","steam_id":76561198031525122,"connected_time":4998000000000,"state":"active","ping":147},{"user_id":654,"name":"Spurt","steam_id":76561198078523852,"connected_time":3550000000000,"state":"active","ping":49},{"user_id":672,"name":"(1)Jon","steam_id":76561197983349449,"connected_time":2423000000000,"state":"active","ping":64},{"user_id":653,"name":"Bajas","steam_id":76561198179339326,"connected_time":3713000000000,"state":"active","ping":76},{"user_id":560,"name":"Pronton","steam_id":76561198082502910,"connected_time":10326000000000,"state":"active","ping":61},{"user_id":692,"name":"[O\u0026O]YaboiDucki","steam_id":76561198195976589,"connected_time":587000000000,"state":"active","ping":86},{"user_id":686,"name":"nappo","steam_id":76561198060105180,"connected_time":961000000000,"state":"active","ping":72}]},{"server_id":114,"name":"Uncletopia | London | 2 | All Maps","name_short":"lon-2","host":"lon-1.uk.uncletopia.com","port":27025,"enabled":true,"region":"eu","cc":"gb","latitude":51.509865,"longitude":-0.118092,"reserved":0,"last_update":"0001-01-01T00:00:00Z","name_a2s":"Uncletopia | London | 2 | All Maps","protocol":17,"map":"pl_upward","folder":"tf","game":"Team Fortress","app_id":440,"player_count":24,"max_players":24,"Bots":0,"server_type":"Dedicated","server_os":"Linux","password":true,"vac":true,"version":"7932396","steam_id":85568392924470941,"keywords":["nocrits","nodmgspread","payload","uncletopia"],"game_id":440,"stv_port":27026,"stv_name":"Uncletopia | London | 2 | All Maps | STV","players":[{"user_id":511,"name":"Rocade","steam_id":76561198116634856,"connected_time":473000000000,"state":"active","ping":51},{"user_id":393,"name":"respect the sightline","steam_id":76561197980736364,"connected_time":7024000000000,"state":"active","ping":91},{"user_id":510,"name":"Grillem Dafoe","steam_id":76561198306874574,"connected_time":485000000000,"state":"active","ping":63},{"user_id":515,"name":"Dirty Joe","steam_id":76561198142418870,"connected_time":240000000000,"state":"active","ping":45},{"user_id":494,"name":"electro","steam_id":76561198024536979,"connected_time":1259000000000,"state":"active","ping":82},{"user_id":451,"name":"Heed","steam_id":76561198033605800,"connected_time":4315000000000,"state":"active","ping":89},{"user_id":521,"name":"Combat Wombat","steam_id":76561197994720068,"connected_time":206000000000,"state":"active","ping":64},{"user_id":508,"name":"Son Goku","steam_id":76561199383437138,"connected_time":612000000000,"state":"active","ping":125},{"user_id":503,"name":"Tort","steam_id":76561198329646769,"connected_time":896000000000,"state":"active","ping":60},{"user_id":519,"name":"pyromaniac","steam_id":76561198292781255,"connected_time":214000000000,"state":"active","ping":82},{"user_id":490,"name":"Cosmetic brain","steam_id":76561198055936410,"connected_time":1770000000000,"state":"active","ping":75},{"user_id":514,"name":"Jude!","steam_id":76561197983597798,"connected_time":247000000000,"state":"active","ping":42},{"user_id":487,"name":"Magician","steam_id":76561198073278326,"connected_time":2214000000000,"state":"active","ping":87},{"user_id":520,"name":"Cookies and Bakies","steam_id":76561198017442928,"connected_time":213000000000,"state":"active","ping":71},{"user_id":512,"name":"socaramel","steam_id":76561197984480336,"connected_time":470000000000,"state":"active","ping":77},{"user_id":525,"name":"Gregger","steam_id":76561198179654605,"connected_time":9000000000,"state":"active","ping":55},{"user_id":481,"name":"yv.wallapop","steam_id":76561199228993903,"connected_time":2485000000000,"state":"active","ping":93},{"user_id":445,"name":"IceDreamer","steam_id":76561197997569989,"connected_time":4554000000000,"state":"active","ping":45},{"user_id":523,"name":"vurtun","steam_id":76561198857395274,"connected_time":185000000000,"state":"active","ping":61},{"user_id":486,"name":"Mr.O #deletesniper","steam_id":76561198039567498,"connected_time":2304000000000,"state":"active","ping":56},{"user_id":495,"name":"SolidSalt","steam_id":76561198334789026,"connected_time":1252000000000,"state":"active","ping":42},{"user_id":489,"name":"0","steam_id":76561199084809092,"connected_time":1844000000000,"state":"active","ping":112},{"user_id":513,"name":"Full d2","steam_id":76561198066635066,"connected_time":303000000000,"state":"active","ping":65},{"user_id":517,"name":"Syd","steam_id":76561198020515027,"connected_time":239000000000,"state":"active","ping":95}]},{"server_id":320,"name":"Uncletopia | London | 3 | All Maps","name_short":"lon-3","host":"lon-1.uk.uncletopia.com","port":27035,"enabled":true,"region":"eu","cc":"gb","latitude":51.509865,"longitude":-0.118092,"reserved":0,"last_update":"0001-01-01T00:00:00Z","name_a2s":"Uncletopia | London | 3 | All Maps","protocol":17,"map":"cp_gullywash_final1","folder":"tf","game":"Team Fortress","app_id":440,"player_count":24,"max_players":24,"Bots":0,"server_type":"Dedicated","server_os":"Linux","password":true,"vac":true,"version":"7932396","steam_id":85568392924510192,"keywords":["cp","nocrits","nodmgspread","uncletopia"],"game_id":440,"stv_port":27036,"stv_name":"Uncletopia | London | 3 | All Maps | STV","players":[{"user_id":490,"name":"percocet.puppy.2007","steam_id":76561198148074472,"connected_time":445000000000,"state":"active","ping":45},{"user_id":345,"name":"transgender e-girl","steam_id":76561198168589809,"connected_time":4600000000000,"state":"active","ping":71},{"user_id":458,"name":"Piquesque","steam_id":76561198286763046,"connected_time":1310000000000,"state":"active","ping":105},{"user_id":495,"name":"Envy","steam_id":76561198132723219,"connected_time":158000000000,"state":"active","ping":105},{"user_id":500,"name":"≈†tƒõp√°n","steam_id":76561198275742101,"connected_time":98000000000,"state":"active","ping":69},{"user_id":494,"name":"Pogmanson","steam_id":76561198919953445,"connected_time":183000000000,"state":"active","ping":40},{"user_id":488,"name":"Hrrr","steam_id":76561198106920678,"connected_time":494000000000,"state":"active","ping":42},{"user_id":466,"name":"Lux","steam_id":76561198060417740,"connected_time":1137000000000,"state":"active","ping":47},{"user_id":416,"name":"Rock..","steam_id":76561198004641963,"connected_time":2741000000000,"state":"active","ping":81},{"user_id":496,"name":"flr","steam_id":76561198249327786,"connected_time":156000000000,"state":"active","ping":76},{"user_id":489,"name":"weed.kitten.2009","steam_id":76561198147277460,"connected_time":485000000000,"state":"active","ping":75},{"user_id":497,"name":"ROX","steam_id":76561198272289320,"connected_time":155000000000,"state":"active","ping":59},{"user_id":400,"name":"Buddy","steam_id":76561198050185582,"connected_time":3069000000000,"state":"active","ping":59},{"user_id":343,"name":"LegoBoy","steam_id":76561197983095579,"connected_time":4624000000000,"state":"active","ping":85},{"user_id":462,"name":"‚ô• Emma ‚ô•","steam_id":76561198046796406,"connected_time":1210000000000,"state":"active","ping":51},{"user_id":498,"name":"lior.kr72","steam_id":76561199308997728,"connected_time":125000000000,"state":"active","ping":93},{"user_id":409,"name":"heavy","steam_id":76561198163042681,"connected_time":2974000000000,"state":"active","ping":54},{"user_id":116,"name":"Hexagon","steam_id":76561198151205758,"connected_time":13048000000000,"state":"active","ping":60},{"user_id":417,"name":"Petight","steam_id":76561197999438798,"connected_time":2718000000000,"state":"active","ping":30},{"user_id":464,"name":"Astolfo","steam_id":76561198354584982,"connected_time":1198000000000,"state":"active","ping":72},{"user_id":499,"name":"etc","steam_id":76561197998394797,"connected_time":106000000000,"state":"active","ping":51},{"user_id":162,"name":"1914","steam_id":76561198257383813,"connected_time":10567000000000,"state":"active","ping":54},{"user_id":354,"name":"are those cosmetics? ew","steam_id":76561199136308055,"connected_time":4304000000000,"state":"active","ping":63},{"user_id":501,"name":"Egtu","steam_id":76561198013757235,"connected_time":23000000000,"state":"spawning","ping":60}]},{"server_id":321,"name":"Uncletopia | London | 4 | All Maps","name_short":"lon-4","host":"lon-1.uk.uncletopia.com","port":27045,"enabled":true,"region":"eu","cc":"gb","latitude":51.509865,"longitude":-0.118092,"reserved":0,"last_update":"0001-01-01T00:00:00Z","name_a2s":"Uncletopia | London | 4 | All Maps","protocol":17,"map":"koth_highpass","folder":"tf","game":"Team Fortress","app_id":440,"player_count":24,"max_players":24,"Bots":0,"server_type":"Dedicated","server_os":"Linux","password":true,"vac":true,"version":"7932396","steam_id":85568392924510193,"keywords":["cp","nocrits","nodmgspread","uncletopia"],"game_id":440,"stv_port":27046,"stv_name":"Uncletopia | London | 4 | All Maps | STV","players":[{"user_id":293,"name":"IONYCH","steam_id":76561198378350040,"connected_time":596000000000,"state":"active","ping":92},{"user_id":294,"name":"DelaNo","steam_id":76561199125086655,"connected_time":595000000000,"state":"active","ping":30},{"user_id":236,"name":"joachym","steam_id":76561198428579761,"connected_time":4521000000000,"state":"active","ping":75},{"user_id":284,"name":"Kes","steam_id":76561198095288832,"connected_time":1292000000000,"state":"active","ping":55},{"user_id":260,"name":"I want to kms","steam_id":76561199441131396,"connected_time":2987000000000,"state":"active","ping":128},{"user_id":280,"name":"GoblinGaming","steam_id":76561198360395476,"connected_time":1443000000000,"state":"active","ping":43},{"user_id":271,"name":"Wujek Cacek","steam_id":76561198010267943,"connected_time":1906000000000,"state":"active","ping":75},{"user_id":276,"name":"sAmasam","steam_id":76561198114953928,"connected_time":1808000000000,"state":"active","ping":60},{"user_id":283,"name":"Wide \u0026 Irish","steam_id":76561198023640858,"connected_time":1311000000000,"state":"active","ping":32},{"user_id":288,"name":"Kowakum","steam_id":76561197998125950,"connected_time":833000000000,"state":"active","ping":125},{"user_id":176,"name":"ev1lboyo","steam_id":76561199199499453,"connected_time":9062000000000,"state":"active","ping":81},{"user_id":263,"name":"‚úß Ghosty ‚úß","steam_id":76561198312022168,"connected_time":2968000000000,"state":"active","ping":47},{"user_id":281,"name":"Faraday's Law","steam_id":76561198105385977,"connected_time":1352000000000,"state":"active","ping":76},{"user_id":289,"name":"Dr.Cranium","steam_id":76561197992726926,"connected_time":828000000000,"state":"active","ping":118},{"user_id":292,"name":"Zerfesh","steam_id":76561198117534358,"connected_time":740000000000,"state":"active","ping":107},{"user_id":282,"name":"walt!","steam_id":76561198195423938,"connected_time":1344000000000,"state":"active","ping":62},{"user_id":297,"name":"Acbh","steam_id":76561198158271672,"connected_time":101000000000,"state":"active","ping":70},{"user_id":296,"name":"Sixie","steam_id":76561198251675360,"connected_time":180000000000,"state":"active","ping":49},{"user_id":285,"name":"8 Ball","steam_id":76561197960988736,"connected_time":988000000000,"state":"active","ping":47},{"user_id":295,"name":"pAftAq","steam_id":76561198359966356,"connected_time":451000000000,"state":"active","ping":110},{"user_id":291,"name":"Flying skyhigh","steam_id":76561198372971096,"connected_time":809000000000,"state":"active","ping":88},{"user_id":274,"name":"\u003c blank \u003e","steam_id":76561198059375315,"connected_time":1881000000000,"state":"active","ping":78},{"user_id":245,"name":"„Åô LightFlight „Åó","steam_id":76561198079007530,"connected_time":4293000000000,"state":"active","ping":56},{"user_id":278,"name":"Majima gaming tf2","steam_id":76561198325645019,"connected_time":1714000000000,"state":"active","ping":73}]},{"server_id":21,"name":"Uncletopia | London | 5 | All Maps","name_short":"lon-5","host":"lon-1.uk.uncletopia.com","port":27055,"enabled":true,"region":"eu","cc":"gb","latitude":51.509865,"longitude":-0.118092,"reserved":0,"last_update":"0001-01-01T00:00:00Z","name_a2s":"Uncletopia | London | 5 | All Maps","protocol":17,"map":"plr_pipeline","folder":"tf","game":"Team Fortress","app_id":440,"player_count":23,"max_players":24,"Bots":0,"server_type":"Dedicated","server_os":"Linux","password":true,"vac":true,"version":"7932396","steam_id":85568392924742829,"keywords":["nocrits","nodmgspread","payload","uncletopia"],"game_id":440,"stv_port":27056,"stv_name":"Uncletopia | London | 5 | All Maps | STV","players":[{"user_id":335,"name":"Lukas","steam_id":76561198009118452,"connected_time":15000000000,"state":"active","ping":64},{"user_id":230,"name":"MpJens","steam_id":76561198000347669,"connected_time":5370000000000,"state":"active","ping":45},{"user_id":286,"name":"‚ôÇ Animan ‚ôÇ Studios ‚ôÇ","steam_id":76561198308302932,"connected_time":2315000000000,"state":"active","ping":106},{"user_id":327,"name":"Rrako","steam_id":76561198078708823,"connected_time":75000000000,"state":"active","ping":45},{"user_id":319,"name":"SpilledMilk","steam_id":76561198174123971,"connected_time":536000000000,"state":"active","ping":57},{"user_id":321,"name":"Siegmeyer","steam_id":76561198328543549,"connected_time":465000000000,"state":"active","ping":91},{"user_id":298,"name":"Artoric","steam_id":76561198978834722,"connected_time":1598000000000,"state":"active","ping":67},{"user_id":313,"name":"ThatSiegeKid","steam_id":76561198368037656,"connected_time":885000000000,"state":"active","ping":30},{"user_id":226,"name":"SpaceCees","steam_id":76561198128756659,"connected_time":5572000000000,"state":"active","ping":47},{"user_id":325,"name":"Plep","steam_id":76561198840259819,"connected_time":128000000000,"state":"active","ping":55},{"user_id":257,"name":" usual cosmic jazz","steam_id":76561198124253959,"connected_time":3915000000000,"state":"active","ping":89},{"user_id":318,"name":"Zoppox","steam_id":76561198033930332,"connected_time":559000000000,"state":"active","ping":84},{"user_id":314,"name":"nvs","steam_id":76561198120668070,"connected_time":852000000000,"state":"active","ping":66},{"user_id":322,"name":"DraGOs512","steam_id":76561198438519964,"connected_time":438000000000,"state":"active","ping":78},{"user_id":227,"name":"LeonIsMooi","steam_id":76561198041524085,"connected_time":5561000000000,"state":"active","ping":60},{"user_id":328,"name":"Cognitionis","steam_id":76561198236287734,"connected_time":61000000000,"state":"active","ping":108},{"user_id":311,"name":"BOT T√∏fler","steam_id":76561198070606923,"connected_time":973000000000,"state":"active","ping":75},{"user_id":294,"name":"Thing","steam_id":76561197997904403,"connected_time":1784000000000,"state":"active","ping":101},{"user_id":334,"name":"Vitphire","steam_id":76561198842686821,"connected_time":45000000000,"state":"active","ping":72},{"user_id":332,"name":"Senior","steam_id":76561198065014164,"connected_time":51000000000,"state":"active","ping":47},{"user_id":329,"name":"MrGazdag","steam_id":76561198238900054,"connected_time":61000000000,"state":"spawning","ping":51},{"user_id":333,"name":"Tommy","steam_id":76561198116227477,"connected_time":49000000000,"state":"active","ping":53},{"user_id":283,"name":"333res","steam_id":76561198148106704,"connected_time":2413000000000,"state":"active","ping":82}]},{"server_id":22,"name":"Uncletopia | London | 6 | All Maps","name_short":"lon-6","host":"lon-1.uk.uncletopia.com","port":27065,"enabled":true,"region":"eu","cc":"gb","latitude":51.509865,"longitude":-0.118092,"reserved":0,"last_update":"0001-01-01T00:00:00Z","name_a2s":"Uncletopia | London | 6 | All Maps","protocol":17,"map":"pl_upward","folder":"tf","game":"Team Fortress","app_id":440,"player_count":24,"max_players":24,"Bots":0,"server_type":"Dedicated","server_os":"Linux","password":true,"vac":true,"version":"7932396","steam_id":85568392924742830,"keywords":["nocrits","nodmgspread","payload","uncletopia"],"game_id":440,"stv_port":27066,"stv_name":"Uncletopia | London | 6 | All Maps | STV","players":[{"user_id":102,"name":"God","steam_id":76561199049925843,"connected_time":3162000000000,"state":"active","ping":107},{"user_id":139,"name":"Konfy","steam_id":76561197985074663,"connected_time":460000000000,"state":"active","ping":59},{"user_id":127,"name":"Milk","steam_id":76561198125876588,"connected_time":1626000000000,"state":"active","ping":45},{"user_id":119,"name":"Ecin","steam_id":76561198816655769,"connected_time":1927000000000,"state":"active","ping":60},{"user_id":120,"name":"Kaishakunin","steam_id":76561198028123874,"connected_time":1923000000000,"state":"active","ping":97},{"user_id":98,"name":"Salih","steam_id":76561198287934839,"connected_time":3268000000000,"state":"active","ping":71},{"user_id":121,"name":"mook","steam_id":76561198175543442,"connected_time":1917000000000,"state":"active","ping":73},{"user_id":95,"name":"Edgar","steam_id":76561198065255259,"connected_time":3333000000000,"state":"active","ping":57},{"user_id":109,"name":"Max Power","steam_id":76561198019269089,"connected_time":2917000000000,"state":"active","ping":59},{"user_id":108,"name":"I jazzed myself","steam_id":76561198203016603,"connected_time":2927000000000,"state":"active","ping":66},{"user_id":81,"name":"Threon","steam_id":76561198826783545,"connected_time":4755000000000,"state":"active","ping":98},{"user_id":132,"name":"skullhead289","steam_id":76561199086481600,"connected_time":953000000000,"state":"active","ping":45},{"user_id":82,"name":"esheen","steam_id":76561198139376665,"connected_time":4751000000000,"state":"active","ping":64},{"user_id":130,"name":"Frylock","steam_id":76561198050292560,"connected_time":972000000000,"state":"active","ping":45},{"user_id":83,"name":"Inkplasm enjoyer","steam_id":76561199111829712,"connected_time":4719000000000,"state":"active","ping":89},{"user_id":110,"name":"Twerno","steam_id":76561198026985365,"connected_time":2848000000000,"state":"active","ping":59},{"user_id":111,"name":"buttered bread enthusiast","steam_id":76561198059397568,"connected_time":2845000000000,"state":"active","ping":50},{"user_id":134,"name":"After8","steam_id":76561198090750865,"connected_time":924000000000,"state":"active","ping":76},{"user_id":106,"name":"Halal Goku","steam_id":76561198161822358,"connected_time":3021000000000,"state":"active","ping":71},{"user_id":112,"name":"Dr Sex","steam_id":76561198029044617,"connected_time":2839000000000,"state":"active","ping":54},{"user_id":136,"name":"Carrotcracker","steam_id":76561198034862396,"connected_time":845000000000,"state":"active","ping":78},{"user_id":140,"name":"degroot farmer","steam_id":76561199042470246,"connected_time":229000000000,"state":"active","ping":70},{"user_id":60,"name":"Wattsy","steam_id":76561199143306500,"connected_time":6286000000000,"state":"active","ping":78},{"user_id":126,"name":"BlueBlueFox","steam_id":76561198053817230,"connected_time":1863000000000,"state":"active","ping":78}]},{"server_id":40,"name":"Uncletopia | London | 7 | No Payload","name_short":"lon-7","host":"lon-1.uk.uncletopia.com","port":27075,"enabled":true,"region":"eu","cc":"gb","latitude":51.509865,"longitude":-0.118092,"reserved":0,"last_update":"0001-01-01T00:00:00Z","name_a2s":"Uncletopia | London | 7 | No Payload","protocol":17,"map":"cp_badlands","folder":"tf","game":"Team Fortress","app_id":440,"player_count":24,"max_players":24,"Bots":0,"server_type":"Dedicated","server_os":"Linux","password":true,"vac":true,"version":"7932396","steam_id":85568392924964314,"keywords":["cp","nocrits","nodmgspread","uncletopia"],"game_id":440,"stv_port":27076,"stv_name":"Uncletopia | London | 7 | No Payload | STV","players":[{"user_id":102,"name":"toomas2018 (real)","steam_id":76561199105796083,"connected_time":1233000000000,"state":"active","ping":81},{"user_id":111,"name":"Lyell","steam_id":76561198350329389,"connected_time":619000000000,"state":"active","ping":71},{"user_id":115,"name":"I want to be happy","steam_id":76561198142707378,"connected_time":374000000000,"state":"active","ping":105},{"user_id":93,"name":"X-tis","steam_id":76561198043837480,"connected_time":1676000000000,"state":"active","ping":62},{"user_id":97,"name":"Fat Pigeon","steam_id":76561198817940142,"connected_time":1383000000000,"state":"active","ping":46},{"user_id":95,"name":"ender45","steam_id":76561198840955715,"connected_time":1441000000000,"state":"active","ping":43},{"user_id":113,"name":"Eme","steam_id":76561198171619442,"connected_time":461000000000,"state":"active","ping":86},{"user_id":52,"name":":P","steam_id":76561198106399430,"connected_time":5169000000000,"state":"active","ping":45},{"user_id":116,"name":"foul beast","steam_id":76561198055389492,"connected_time":239000000000,"state":"active","ping":40},{"user_id":104,"name":"Lone Pheasant","steam_id":76561199053124005,"connected_time":1176000000000,"state":"active","ping":51},{"user_id":114,"name":"LazySan","steam_id":76561198085914304,"connected_time":455000000000,"state":"active","ping":80},{"user_id":77,"name":"C.H.E.R.E.P.","steam_id":76561198026938595,"connected_time":3608000000000,"state":"active","ping":90},{"user_id":59,"name":"Vibing Wave","steam_id":76561198866358613,"connected_time":4374000000000,"state":"active","ping":149},{"user_id":119,"name":"Vexu","steam_id":76561198113145846,"connected_time":47000000000,"state":"active","ping":93},{"user_id":61,"name":"Beta Probopass","steam_id":76561198140806694,"connected_time":4253000000000,"state":"active","ping":78},{"user_id":62,"name":"Ivar Aasen Gaming","steam_id":76561198244379114,"connected_time":4244000000000,"state":"active","ping":61},{"user_id":96,"name":"Stoic","steam_id":76561199088506542,"connected_time":1419000000000,"state":"active","ping":59},{"user_id":118,"name":"CubiCub","steam_id":76561198063875960,"connected_time":196000000000,"state":"active","ping":111},{"user_id":105,"name":"Diamhair","steam_id":76561198109020178,"connected_time":1164000000000,"state":"active","ping":62},{"user_id":67,"name":"AwterSix","steam_id":76561198042561678,"connected_time":3861000000000,"state":"active","ping":62},{"user_id":101,"name":"Tea","steam_id":76561198799243030,"connected_time":1319000000000,"state":"active","ping":92},{"user_id":92,"name":"butter hunt","steam_id":76561198192343263,"connected_time":1958000000000,"state":"active","ping":37},{"user_id":90,"name":"„É†GeRmAn |√óUA√ó„É†","steam_id":76561199044754898,"connected_time":2024000000000,"state":"active","ping":75},{"user_id":84,"name":"FoOzTV","steam_id":76561197998636728,"connected_time":3285000000000,"state":"active","ping":71}]},{"server_id":41,"name":"Uncletopia | London | 8 | Community","name_short":"lon-8","host":"lon-1.uk.uncletopia.com","port":27085,"enabled":true,"region":"eu","cc":"gb","latitude":51.509865,"longitude":-0.118092,"reserved":0,"last_update":"0001-01-01T00:00:00Z","name_a2s":"Uncletopia | London | 8 | Community","protocol":17,"map":"workshop/cp_glassworks_rc6a.ugc454118349","folder":"tf","game":"Team Fortress","app_id":440,"player_count":0,"max_players":24,"Bots":0,"server_type":"Dedicated","server_os":"Linux","password":true,"vac":true,"version":"7932396","steam_id":85568392924964315,"keywords":["cp","nocrits","nodmgspread","uncletopia"],"game_id":440,"stv_port":27086,"stv_name":"Uncletopia | London | 8 | Community | STV","players":null},{"server_id":300,"name":"Uncletopia | Montr√©al | 1 | All Maps","name_short":"mtl-1","host":"mtl-1.ca.uncletopia.com","port":27015,"enabled":true,"region":"us-east","cc":"ca","latitude":45.50889,"longitude":-73.56167,"reserved":0,"last_update":"0001-01-01T00:00:00Z","name_a2s":"Uncletopia | Montr√©al | 1 | All Maps","protocol":17,"map":"cp_altitude","folder":"tf","game":"Team Fortress","app_id":440,"player_count":0,"max_players":24,"Bots":0,"server_type":"Dedicated","server_os":"Linux","password":true,"vac":true,"version":"7932396","steam_id":85568392924500087,"keywords":["cp","nocrits","nodmgspread","uncletopia"],"game_id":440,"stv_port":27016,"stv_name":"Uncletopia | Montr√©al | 1 | All Maps | STV","players":null},{"server_id":301,"name":"Uncletopia | Montr√©al | 2 | All Maps","name_short":"mtl-2","host":"mtl-1.ca.uncletopia.com","port":27025,"enabled":true,"region":"us-east","cc":"ca","latitude":45.50889,"longitude":-73.56167,"reserved":0,"last_update":"0001-01-01T00:00:00Z","name_a2s":"Uncletopia | Montr√©al | 2 | All Maps","protocol":17,"map":"koth_lakeside_final","folder":"tf","game":"Team Fortress","app_id":440,"player_count":0,"max_players":24,"Bots":0,"server_type":"Dedicated","server_os":"Linux","password":true,"vac":true,"version":"7932396","steam_id":85568392924500088,"keywords":["cp","nocrits","nodmgspread","uncletopia"],"game_id":440,"stv_port":27026,"stv_name":"Uncletopia | Montr√©al | 2 | All Maps | STV","players":null},{"server_id":302,"name":"Uncletopia | Montr√©al | 3 | All Maps","name_short":"mtl-3","host":"mtl-1.ca.uncletopia.com","port":27035,"enabled":true,"region":"us-east","cc":"ca","latitude":45.50889,"longitude":-73.56167,"reserved":0,"last_update":"0001-01-01T00:00:00Z","name_a2s":"Uncletopia | Montr√©al | 3 | All Maps","protocol":17,"map":"cp_process_final","folder":"tf","game":"Team Fortress","app_id":440,"player_count":0,"max_players":24,"Bots":0,"server_type":"Dedicated","server_os":"Linux","password":true,"vac":true,"version":"7932396","steam_id":85568392924500089,"keywords":["cp","nocrits","nodmgspread","uncletopia"],"game_id":440,"stv_port":27036,"stv_name":"Uncletopia | Montr√©al | 3 | All Maps | STV","players":null},{"server_id":303,"name":"Uncletopia | Montr√©al | 4 | No Payload","name_short":"mtl-4","host":"mtl-1.ca.uncletopia.com","port":27045,"enabled":true,"region":"us-east","cc":"ca","latitude":45.50889,"longitude":-73.56167,"reserved":0,"last_update":"0001-01-01T00:00:00Z","name_a2s":"Uncletopia | Montr√©al | 4 | No Payload","protocol":17,"map":"cp_snakewater_final1","folder":"tf","game":"Team Fortress","app_id":440,"player_count":0,"max_players":24,"Bots":0,"server_type":"Dedicated","server_os":"Linux","password":true,"vac":true,"version":"7932396","steam_id":85568392924500090,"keywords":["cp","nocrits","nodmgspread","uncletopia"],"game_id":440,"stv_port":27046,"stv_name":"Uncletopia | Montr√©al | 4 | No Payload | STV","players":null},{"server_id":13,"name":"Uncletopia | New York City | 1 | All Maps","name_short":"nyc-1","host":"nyc-1.us.uncletopia.com","port":27015,"enabled":true,"region":"us-east","cc":"us","latitude":40.73061,"longitude":-73.93524,"reserved":0,"last_update":"0001-01-01T00:00:00Z","name_a2s":"Uncletopia | New York City | 1 | All Maps","protocol":17,"map":"koth_cascade","folder":"tf","game":"Team Fortress","app_id":440,"player_count":0,"max_players":24,"Bots":0,"server_type":"Dedicated","server_os":"Linux","password":true,"vac":true,"version":"7932396","steam_id":85568392924469993,"keywords":["cp","nocrits","nodmgspread","uncletopia"],"game_id":440,"stv_port":27016,"stv_name":"Uncletopia | New York City | 1 | All Maps | STV","players":null},{"server_id":14,"name":"Uncletopia | New York City | 2 | All Maps","name_short":"nyc-2","host":"nyc-1.us.uncletopia.com","port":27025,"enabled":true,"region":"us-east","cc":"us","latitude":40.73061,"longitude":-73.93524,"reserved":0,"last_update":"0001-01-01T00:00:00Z","name_a2s":"Uncletopia | New York City | 2 | All Maps","protocol":17,"map":"pl_barnblitz","folder":"tf","game":"Team Fortress","app_id":440,"player_count":24,"max_players":24,"Bots":0,"server_type":"Dedicated","server_os":"Linux","password":true,"vac":true,"version":"7932396","steam_id":85568392924469994,"keywords":["nocrits","nodmgspread","payload","uncletopia"],"game_id":440,"stv_port":27026,"stv_name":"Uncletopia | New York City | 2 | All Maps | STV","players":[{"user_id":112,"name":"FizzleWizard","steam_id":76561198045990868,"connected_time":6839000000000,"state":"active","ping":85},{"user_id":169,"name":"Ursus Ludius","steam_id":76561198025470722,"connected_time":1977000000000,"state":"active","ping":68},{"user_id":176,"name":"aisu","steam_id":76561198043768507,"connected_time":1331000000000,"state":"active","ping":90},{"user_id":177,"name":"Karrot","steam_id":76561198058970903,"connected_time":1239000000000,"state":"active","ping":84},{"user_id":127,"name":"Braamklauw","steam_id":76561198283287697,"connected_time":5663000000000,"state":"active","ping":140},{"user_id":116,"name":"SLEEPY-Class NHP","steam_id":76561198064583865,"connected_time":6746000000000,"state":"active","ping":76},{"user_id":150,"name":"generic name","steam_id":76561198123127665,"connected_time":3894000000000,"state":"active","ping":78},{"user_id":126,"name":"Sir Quacksalot","steam_id":76561198048942777,"connected_time":6128000000000,"state":"active","ping":98},{"user_id":180,"name":"PenguinJack","steam_id":76561198120680312,"connected_time":823000000000,"state":"active","ping":74},{"user_id":172,"name":"log","steam_id":76561198386992717,"connected_time":1683000000000,"state":"active","ping":59},{"user_id":186,"name":"Axities","steam_id":76561198278008225,"connected_time":305000000000,"state":"active","ping":75},{"user_id":187,"name":"[chef] iron","steam_id":76561197970888616,"connected_time":241000000000,"state":"active","ping":60},{"user_id":185,"name":"Primal","steam_id":76561197983118203,"connected_time":333000000000,"state":"active","ping":81},{"user_id":188,"name":"juanjoesc","steam_id":76561198186368430,"connected_time":219000000000,"state":"active","ping":131},{"user_id":164,"name":"PileofPolygons","steam_id":76561199321343460,"connected_time":2053000000000,"state":"active","ping":79},{"user_id":181,"name":"Ian","steam_id":76561199078852180,"connected_time":773000000000,"state":"active","ping":71},{"user_id":182,"name":"Swifgz","steam_id":76561198162875756,"connected_time":752000000000,"state":"active","ping":44},{"user_id":189,"name":"keep it down will ya?","steam_id":76561198056733774,"connected_time":180000000000,"state":"active","ping":38},{"user_id":190,"name":"Saphy","steam_id":76561198061914564,"connected_time":169000000000,"state":"active","ping":91},{"user_id":157,"name":"Artive","steam_id":76561198059900578,"connected_time":3346000000000,"state":"active","ping":117},{"user_id":166,"name":"J-Booty Rasengan","steam_id":76561198088854411,"connected_time":2051000000000,"state":"active","ping":59},{"user_id":167,"name":"Piss Scoundrel","steam_id":76561197995562098,"connected_time":2031000000000,"state":"active","ping":69},{"user_id":148,"name":"Xx_gam3rberg_xX","steam_id":76561199035781025,"connected_time":3957000000000,"state":"active","ping":82},{"user_id":183,"name":"The Juicer","steam_id":76561198027247542,"connected_time":715000000000,"state":"active","ping":62}]},{"server_id":15,"name":"Uncletopia | New York City | 3 | Stopwatch Beta","name_short":"nyc-3","host":"nyc-1.us.uncletopia.com","port":27035,"enabled":true,"region":"us-east","cc":"us","latitude":40.73061,"longitude":-73.93524,"reserved":0,"last_update":"0001-01-01T00:00:00Z","name_a2s":"Uncletopia | New York City | 3 | Stopwatch Beta","protocol":17,"map":"cp_sunshine","folder":"tf","game":"Team Fortress","app_id":440,"player_count":0,"max_players":24,"Bots":0,"server_type":"Dedicated","server_os":"Linux","password":true,"vac":true,"version":"7932396","steam_id":85568392924742820,"keywords":["cp","nocrits","nodmgspread","uncletopia"],"game_id":440,"stv_port":27036,"stv_name":"Uncletopia | New York City | 3 | Stopwatch Beta | STV","players":null},{"server_id":16,"name":"Uncletopia | New York City | 4 | Community","name_short":"nyc-4","host":"nyc-1.us.uncletopia.com","port":27045,"enabled":true,"region":"us-east","cc":"us","latitude":40.73061,"longitude":-73.93524,"reserved":0,"last_update":"0001-01-01T00:00:00Z","name_a2s":"Uncletopia | New York City | 4 | Community","protocol":17,"map":"workshop/koth_bagel_rc6.ugc2514036946","folder":"tf","game":"Team Fortress","app_id":440,"player_count":0,"max_players":24,"Bots":0,"server_type":"Dedicated","server_os":"Linux","password":true,"vac":true,"version":"7932396","steam_id":85568392924742821,"keywords":["cp","nocrits","nodmgspread","uncletopia"],"game_id":440,"stv_port":27046,"stv_name":"Uncletopia | New York City | 4 | Community | STV","players":null},{"server_id":142,"name":"Uncletopia | S√£o Paulo | 1 | All Maps","name_short":"sao-1","host":"sao-1.br.uncletopia.com","port":27015,"enabled":true,"region":"sa","cc":"br","latitude":-23.533773,"longitude":-46.62529,"reserved":0,"last_update":"0001-01-01T00:00:00Z","name_a2s":"Uncletopia | S√£o Paulo | 1 | All Maps","protocol":17,"map":"pl_snowycoast","folder":"tf","game":"Team Fortress","app_id":440,"player_count":0,"max_players":24,"Bots":0,"server_type":"Dedicated","server_os":"Linux","password":true,"vac":true,"version":"7932396","steam_id":85568392924469996,"keywords":["nocrits","nodmgspread","payload","uncletopia"],"game_id":440,"stv_port":27016,"stv_name":"Uncletopia | S√£o Paulo | 1 | All Maps | STV","players":null},{"server_id":143,"name":"Uncletopia | S√£o Paulo | 2 | All Maps","name_short":"sao-2","host":"sao-2.br.uncletopia.com","port":27015,"enabled":true,"region":"sa","cc":"br","latitude":-23.533773,"longitude":-46.62529,"reserved":0,"last_update":"0001-01-01T00:00:00Z","name_a2s":"Uncletopia | S√£o Paulo | 2 | All Maps","protocol":17,"map":"pl_barnblitz","folder":"tf","game":"Team Fortress","app_id":440,"player_count":1,"max_players":24,"Bots":0,"server_type":"Dedicated","server_os":"Linux","password":true,"vac":true,"version":"7932396","steam_id":85568392924485349,"keywords":["nocrits","nodmgspread","payload","uncletopia"],"game_id":440,"stv_port":27016,"stv_name":"Uncletopia | S√£o Paulo | 2 | All Maps | STV","players":[{"user_id":9,"name":"Soulvender ‚òÑ","steam_id":76561198305477134,"connected_time":159000000000,"state":"active","ping":48}]},{"server_id":7,"name":"Uncletopia | Seattle | 1 | All Maps","name_short":"sea-1","host":"sea-1.us.uncletopia.com","port":27015,"enabled":true,"region":"us-west","cc":"us","latitude":47.608013,"longitude":-122.33517,"reserved":0,"last_update":"0001-01-01T00:00:00Z","name_a2s":"Uncletopia | Seattle | 1 | All Maps","protocol":17,"map":"cp_5gorge","folder":"tf","game":"Team Fortress","app_id":440,"player_count":18,"max_players":24,"Bots":0,"server_type":"Dedicated","server_os":"Linux","password":true,"vac":true,"version":"7932396","steam_id":85568392924469997,"keywords":["cp","nocrits","nodmgspread","uncletopia"],"game_id":440,"stv_port":27016,"stv_name":"Uncletopia | Seattle | 1 | All Maps | STV","players":[{"user_id":310,"name":"lox","steam_id":76561198288531493,"connected_time":2646000000000,"state":"active","ping":54},{"user_id":335,"name":"lili","steam_id":76561199391478575,"connected_time":1329000000000,"state":"active","ping":54},{"user_id":357,"name":".james","steam_id":76561198869749611,"connected_time":218000000000,"state":"active","ping":90},{"user_id":359,"name":"ToxicWaste","steam_id":76561198827196688,"connected_time":162000000000,"state":"active","ping":54},{"user_id":347,"name":"Yoshimelon","steam_id":76561198253054325,"connected_time":838000000000,"state":"active","ping":89},{"user_id":339,"name":"Ghworg","steam_id":76561198324891401,"connected_time":972000000000,"state":"active","ping":90},{"user_id":360,"name":"MonotoneMerc","steam_id":76561198022309851,"connected_time":102000000000,"state":"active","ping":64},{"user_id":356,"name":"dillpickle","steam_id":76561198156957191,"connected_time":233000000000,"state":"active","ping":83},{"user_id":337,"name":"Themasterman75","steam_id":76561199385573293,"connected_time":1133000000000,"state":"active","ping":63},{"user_id":346,"name":"akim69420","steam_id":76561199468101674,"connected_time":883000000000,"state":"active","ping":62},{"user_id":358,"name":"Chiki","steam_id":76561198063590320,"connected_time":208000000000,"state":"active","ping":107},{"user_id":336,"name":"jayeskae","steam_id":76561198144220801,"connected_time":1152000000000,"state":"active","ping":40},{"user_id":361,"name":"whopper man","steam_id":76561199076952295,"connected_time":84000000000,"state":"active","ping":82},{"user_id":353,"name":"BlazedBunny","steam_id":76561198243610560,"connected_time":579000000000,"state":"active","ping":73},{"user_id":352,"name":"Sudsen","steam_id":76561198370603787,"connected_time":621000000000,"state":"active","ping":83},{"user_id":349,"name":"tiredfisherman69","steam_id":76561199228963816,"connected_time":725000000000,"state":"active","ping":84},{"user_id":362,"name":"space employee","steam_id":76561198139257660,"connected_time":77000000000,"state":"active","ping":44},{"user_id":348,"name":"byte_sized","steam_id":76561198155560837,"connected_time":838000000000,"state":"active","ping":90}]},{"server_id":119,"name":"Uncletopia | Seattle | 2 | All Maps","name_short":"sea-2","host":"sea-1.us.uncletopia.com","port":27025,"enabled":true,"region":"us-west","cc":"us","latitude":47.608013,"longitude":-122.33517,"reserved":0,"last_update":"0001-01-01T00:00:00Z","name_a2s":"Uncletopia | Seattle | 2 | All Maps","protocol":17,"map":"pl_pier","folder":"tf","game":"Team Fortress","app_id":440,"player_count":2,"max_players":24,"Bots":0,"server_type":"Dedicated","server_os":"Linux","password":true,"vac":true,"version":"7932396","steam_id":85568392924469998,"keywords":["nocrits","nodmgspread","payload","uncletopia"],"game_id":440,"stv_port":27026,"stv_name":"Uncletopia | Seattle | 2 | All Maps | STV","players":[{"user_id":12,"name":"nfseskimo","steam_id":76561198078745666,"connected_time":253000000000,"state":"active","ping":41},{"user_id":11,"name":"Banzai","steam_id":76561198196503877,"connected_time":414000000000,"state":"active","ping":41}]},{"server_id":406,"name":"Uncletopia | Seattle | 3 | Stopwatch Beta","name_short":"sea-3","host":"sea-1.us.uncletopia.com","port":27035,"enabled":true,"region":"us-west","cc":"us","latitude":47.608013,"longitude":-122.33517,"reserved":0,"last_update":"0001-01-01T00:00:00Z","name_a2s":"Uncletopia | Seattle | 3 | Stopwatch Beta","protocol":17,"map":"workshop/koth_product_final.ugc454272353","folder":"tf","game":"Team Fortress","app_id":440,"player_count":0,"max_players":24,"Bots":0,"server_type":"Dedicated","server_os":"Linux","password":true,"vac":true,"version":"7932396","steam_id":85568392924515217,"keywords":["cp","nocrits","nodmgspread","uncletopia"],"game_id":440,"stv_port":27036,"stv_name":"Uncletopia | Seattle | 3 | Stopwatch Beta | STV","players":null},{"server_id":17,"name":"Uncletopia | San Francisco | 1 | All Maps","name_short":"sfo-1","host":"sfo-1.us.uncletopia.com","port":27015,"enabled":true,"region":"us-west","cc":"us","latitude":37.77397,"longitude":-122.4313,"reserved":0,"last_update":"0001-01-01T00:00:00Z","name_a2s":"Uncletopia | San Francisco | 1 | All Maps","protocol":17,"map":"pl_frontier_final","folder":"tf","game":"Team Fortress","app_id":440,"player_count":19,"max_players":24,"Bots":0,"server_type":"Dedicated","server_os":"Linux","password":true,"vac":true,"version":"7932396","steam_id":85568392924469999,"keywords":["nocrits","nodmgspread","payload","uncletopia"],"game_id":440,"stv_port":27016,"stv_name":"Uncletopia | San Francisco | 1 | All Maps | STV","players":[{"user_id":427,"name":"FI LO","steam_id":76561198976530881,"connected_time":65000000000,"state":"active","ping":35},{"user_id":361,"name":"imby","steam_id":76561198103642134,"connected_time":4378000000000,"state":"active","ping":68},{"user_id":422,"name":"Beanie The Thrower","steam_id":76561198101311599,"connected_time":240000000000,"state":"active","ping":62},{"user_id":404,"name":"Buswolley","steam_id":76561197995205571,"connected_time":1098000000000,"state":"active","ping":54},{"user_id":416,"name":"El hombre","steam_id":76561199144196748,"connected_time":568000000000,"state":"active","ping":76},{"user_id":414,"name":"demoknight tf2 moment","steam_id":76561198995564430,"connected_time":591000000000,"state":"active","ping":117},{"user_id":413,"name":"Pyro gaming","steam_id":76561199394592150,"connected_time":679000000000,"state":"active","ping":162},{"user_id":428,"name":"Zinc","steam_id":76561198025303928,"connected_time":44000000000,"state":"active","ping":132},{"user_id":421,"name":"The_Machine","steam_id":76561198120939109,"connected_time":306000000000,"state":"active","ping":96},{"user_id":426,"name":"Dabidio","steam_id":76561198347107425,"connected_time":120000000000,"state":"active","ping":62},{"user_id":409,"name":"Ratchet55","steam_id":76561198208655521,"connected_time":938000000000,"state":"active","ping":99},{"user_id":423,"name":"Lactose ‡πëÔ≠•","steam_id":76561198208256987,"connected_time":218000000000,"state":"active","ping":48},{"user_id":429,"name":"ikee_1","steam_id":76561198989215115,"connected_time":8000000000,"state":"spawning","ping":91},{"user_id":417,"name":"Odd Life","steam_id":76561198244979998,"connected_time":517000000000,"state":"active","ping":53},{"user_id":424,"name":"cool beans","steam_id":76561198045758072,"connected_time":211000000000,"state":"active","ping":45},{"user_id":372,"name":"echelon","steam_id":76561198139172979,"connected_time":3819000000000,"state":"active","ping":45},{"user_id":373,"name":"Haunted Fridge","steam_id":76561198836732810,"connected_time":3805000000000,"state":"active","ping":90},{"user_id":425,"name":"PixelboioYT","steam_id":76561199090703819,"connected_time":153000000000,"state":"active","ping":121},{"user_id":430,"name":"Analogous","steam_id":76561198242842394,"connected_time":7000000000,"state":"active","ping":130}]},{"server_id":18,"name":"Uncletopia | San Francisco | 2 | All Maps","name_short":"sfo-2","host":"sfo-1.us.uncletopia.com","port":27025,"enabled":true,"region":"us-west","cc":"us","latitude":37.77397,"longitude":-122.4313,"reserved":0,"last_update":"0001-01-01T00:00:00Z","name_a2s":"Uncletopia | San Francisco | 2 | All Maps","protocol":17,"map":"pl_upward","folder":"tf","game":"Team Fortress","app_id":440,"player_count":13,"max_players":24,"Bots":0,"server_type":"Dedicated","server_os":"Linux","password":true,"vac":true,"version":"7932396","steam_id":85568392924470000,"keywords":["nocrits","nodmgspread","payload","uncletopia"],"game_id":440,"stv_port":27026,"stv_name":"Uncletopia | San Francisco | 2 | All Maps | STV","players":[{"user_id":10,"name":"the engineer","steam_id":76561198798516824,"connected_time":1487000000000,"state":"active","ping":205},{"user_id":11,"name":"Compress Dong","steam_id":76561198018950826,"connected_time":1422000000000,"state":"active","ping":38},{"user_id":9,"name":"BlueWelder","steam_id":76561198102378081,"connected_time":1601000000000,"state":"active","ping":76},{"user_id":12,"name":"Petrivus","steam_id":76561198202152453,"connected_time":1412000000000,"state":"active","ping":68},{"user_id":13,"name":"‚ô• thedittofemboy ‚ô•","steam_id":76561199013129784,"connected_time":1402000000000,"state":"active","ping":88},{"user_id":15,"name":"Charbotk","steam_id":76561198206684625,"connected_time":995000000000,"state":"active","ping":175},{"user_id":18,"name":"dyyd7706","steam_id":76561199230461523,"connected_time":374000000000,"state":"active","ping":85},{"user_id":19,"name":"qwfg","steam_id":76561198316382030,"connected_time":338000000000,"state":"active","ping":78},{"user_id":20,"name":"Muscle Man","steam_id":76561198800595077,"connected_time":277000000000,"state":"active","ping":126},{"user_id":21,"name":"AweDude","steam_id":76561198015118963,"connected_time":275000000000,"state":"active","ping":105},{"user_id":22,"name":"uncle red","steam_id":76561199134504087,"connected_time":266000000000,"state":"active","ping":115},{"user_id":24,"name":"FakeAssassin","steam_id":76561198867874128,"connected_time":62000000000,"state":"active","ping":119},{"user_id":25,"name":"MayKaye","steam_id":76561199016092265,"connected_time":47000000000,"state":"active","ping":67}]},{"server_id":19,"name":"Uncletopia | San Francisco | 3 | Stopwatch Beta","name_short":"sfo-3","host":"sfo-1.us.uncletopia.com","port":27035,"enabled":true,"region":"us-west","cc":"us","latitude":37.77397,"longitude":-122.4313,"reserved":0,"last_update":"0001-01-01T00:00:00Z","name_a2s":"Uncletopia | San Francisco | 3 | Stopwatch Beta","protocol":17,"map":"koth_lakeside_final","folder":"tf","game":"Team Fortress","app_id":440,"player_count":0,"max_players":24,"Bots":0,"server_type":"Dedicated","server_os":"Linux","password":true,"vac":true,"version":"7932396","steam_id":85568392924742824,"keywords":["cp","nocrits","nodmgspread","uncletopia"],"game_id":440,"stv_port":27036,"stv_name":"Uncletopia | San Francisco | 3 | Stopwatch Beta | STV","players":null},{"server_id":20,"name":"Uncletopia | San Francisco | 4 | Community","name_short":"sfo-4","host":"sfo-1.us.uncletopia.com","port":27045,"enabled":true,"region":"us-west","cc":"us","latitude":37.77397,"longitude":-122.4313,"reserved":0,"last_update":"0001-01-01T00:00:00Z","name_a2s":"Uncletopia | San Francisco | 4 | Community","protocol":17,"map":"pl_borneo","folder":"tf","game":"Team Fortress","app_id":440,"player_count":0,"max_players":24,"Bots":0,"server_type":"Dedicated","server_os":"Linux","password":true,"vac":true,"version":"7932396","steam_id":85568392924742826,"keywords":["nocrits","nodmgspread","payload","uncletopia"],"game_id":440,"stv_port":27046,"stv_name":"Uncletopia | San Francisco | 4 | Community | STV","players":null},{"server_id":141,"name":"Uncletopia | Sydney | 1 | All Maps","name_short":"syd-1","host":"syd-1.au.uncletopia.com","port":27015,"enabled":true,"region":"au","cc":"au","latitude":-33.865143,"longitude":151.2099,"reserved":0,"last_update":"0001-01-01T00:00:00Z","name_a2s":"Uncletopia | Sydney | 1 | All Maps","protocol":17,"map":"pl_pier","folder":"tf","game":"Team Fortress","app_id":440,"player_count":0,"max_players":24,"Bots":0,"server_type":"Dedicated","server_os":"Linux","password":true,"vac":true,"version":"7932396","steam_id":85568392924470001,"keywords":["nocrits","nodmgspread","payload","uncletopia"],"game_id":440,"stv_port":27016,"stv_name":"Uncletopia | Sydney | 1 | All Maps | STV","players":null},{"server_id":123,"name":"Uncletopia | Sydney | 2 | All Maps","name_short":"syd-2","host":"syd-1.au.uncletopia.com","port":27025,"enabled":true,"region":"au","cc":"au","latitude":-33.865143,"longitude":151.2099,"reserved":0,"last_update":"0001-01-01T00:00:00Z","name_a2s":"Uncletopia | Sydney | 2 | All Maps","protocol":17,"map":"pl_snowycoast","folder":"tf","game":"Team Fortress","app_id":440,"player_count":0,"max_players":24,"Bots":0,"server_type":"Dedicated","server_os":"Linux","password":true,"vac":true,"version":"7932396","steam_id":85568392924470002,"keywords":["nocrits","nodmgspread","payload","uncletopia"],"game_id":440,"stv_port":27026,"stv_name":"Uncletopia | Sydney | 2 | All Maps | STV","players":null},{"server_id":395,"name":"Uncletopia | Sydney | 3 | All Maps","name_short":"syd-3","host":"syd-1.au.uncletopia.com","port":27035,"enabled":true,"region":"au","cc":"au","latitude":-33.865143,"longitude":151.2099,"reserved":0,"last_update":"0001-01-01T00:00:00Z","name_a2s":"Uncletopia | Sydney | 3 | All Maps","protocol":17,"map":"pl_barnblitz","folder":"tf","game":"Team Fortress","app_id":440,"player_count":0,"max_players":24,"Bots":0,"server_type":"Dedicated","server_os":"Linux","password":true,"vac":true,"version":"7932396","steam_id":85568392925194467,"keywords":["nocrits","nodmgspread","payload","uncletopia"],"game_id":440,"stv_port":27036,"stv_name":"Uncletopia | Sydney | 3 | All Maps | STV","players":null},{"server_id":396,"name":"Uncletopia | Sydney | 4 | All Maps","name_short":"syd-4","host":"syd-1.au.uncletopia.com","port":27045,"enabled":true,"region":"au","cc":"au","latitude":-33.865143,"longitude":151.2099,"reserved":0,"last_update":"0001-01-01T00:00:00Z","name_a2s":"Uncletopia | Sydney | 4 | All Maps","protocol":17,"map":"pl_pier","folder":"tf","game":"Team Fortress","app_id":440,"player_count":0,"max_players":24,"Bots":0,"server_type":"Dedicated","server_os":"Linux","password":true,"vac":true,"version":"7932396","steam_id":85568392925397958,"keywords":["nocrits","nodmgspread","payload","uncletopia"],"game_id":440,"stv_port":27046,"stv_name":"Uncletopia | Sydney | 4 | All Maps | STV","players":null},{"server_id":58,"name":"Uncletopia | Sydney | 5 | Stopwatch Beta","name_short":"syd-5","host":"syd-1.au.uncletopia.com","port":27055,"enabled":true,"region":"au","cc":"au","latitude":-33.865143,"longitude":151.2099,"reserved":0,"last_update":"0001-01-01T00:00:00Z","name_a2s":"Uncletopia | Sydney | 5 | Stopwatch Beta","protocol":17,"map":"pl_borneo","folder":"tf","game":"Team Fortress","app_id":440,"player_count":0,"max_players":24,"Bots":0,"server_type":"Dedicated","server_os":"Linux","password":true,"vac":true,"version":"7932396","steam_id":85568392925397959,"keywords":["nocrits","nodmgspread","payload","uncletopia"],"game_id":440,"stv_port":27056,"stv_name":"Uncletopia | Sydney | 5 | Stopwatch Beta | STV","players":null},{"server_id":59,"name":"Uncletopia | Sydney | 6 | Community","name_short":"syd-6","host":"syd-1.au.uncletopia.com","port":27065,"enabled":true,"region":"au","cc":"au","latitude":-33.865143,"longitude":151.2099,"reserved":0,"last_update":"0001-01-01T00:00:00Z","name_a2s":"Uncletopia | Sydney | 6 | Community","protocol":17,"map":"pl_badwater","folder":"tf","game":"Team Fortress","app_id":440,"player_count":0,"max_players":24,"Bots":0,"server_type":"Dedicated","server_os":"Linux","password":true,"vac":true,"version":"7932396","steam_id":85568392925397960,"keywords":["nocrits","nodmgspread","payload","uncletopia"],"game_id":440,"stv_port":27066,"stv_name":"Uncletopia | Sydney | 6 | Community | STV","players":null},{"server_id":49,"name":"Uncletopia | Warsaw | 1 | All Maps","name_short":"waw-1","host":"waw-1.pl.uncletopia.com","port":27015,"enabled":true,"region":"eu","cc":"pl","latitude":52.2297,"longitude":21.017532,"reserved":0,"last_update":"0001-01-01T00:00:00Z","name_a2s":"","protocol":0,"map":"","folder":"","game":"","app_id":0,"player_count":0,"max_players":0,"Bots":0,"server_type":"","server_os":"","password":false,"vac":false,"version":"","steam_id":0,"keywords":null,"game_id":0,"stv_port":0,"stv_name":"","players":null},{"server_id":50,"name":"Uncletopia | Warsaw | 2 | All Maps","name_short":"waw-2","host":"waw-1.pl.uncletopia.com","port":27025,"enabled":true,"region":"eu","cc":"pl","latitude":52.2297,"longitude":21.017532,"reserved":0,"last_update":"0001-01-01T00:00:00Z","name_a2s":"Uncletopia | Warsaw | 2 | All Maps","protocol":17,"map":"pl_borneo","folder":"tf","game":"Team Fortress","app_id":440,"player_count":0,"max_players":24,"Bots":0,"server_type":"Dedicated","server_os":"Linux","password":true,"vac":true,"version":"7932396","steam_id":85568392925397851,"keywords":["nocrits","nodmgspread","payload","uncletopia"],"game_id":440,"stv_port":27026,"stv_name":"Uncletopia | Warsaw | 2 | All Maps | STV","players":null},{"server_id":51,"name":"Uncletopia | Warsaw | 3 | All Maps","name_short":"waw-3","host":"waw-1.pl.uncletopia.com","port":27035,"enabled":true,"region":"eu","cc":"pl","latitude":52.2297,"longitude":21.017532,"reserved":0,"last_update":"0001-01-01T00:00:00Z","name_a2s":"Uncletopia | Warsaw | 3 | All Maps","protocol":17,"map":"koth_lakeside_final","folder":"tf","game":"Team Fortress","app_id":440,"player_count":0,"max_players":24,"Bots":0,"server_type":"Dedicated","server_os":"Linux","password":true,"vac":true,"version":"7932396","steam_id":85568392925397852,"keywords":["cp","nocrits","nodmgspread","uncletopia"],"game_id":440,"stv_port":27036,"stv_name":"Uncletopia | Warsaw | 3 | All Maps | STV","players":null},{"server_id":52,"name":"Uncletopia | Warsaw | 4 | All Maps","name_short":"waw-4","host":"waw-1.pl.uncletopia.com","port":27045,"enabled":true,"region":"eu","cc":"pl","latitude":52.2297,"longitude":21.017532,"reserved":0,"last_update":"0001-01-01T00:00:00Z","name_a2s":"Uncletopia | Warsaw | 4 | All Maps","protocol":17,"map":"koth_lakeside_final","folder":"tf","game":"Team Fortress","app_id":440,"player_count":0,"max_players":24,"Bots":0,"server_type":"Dedicated","server_os":"Linux","password":true,"vac":true,"version":"7932396","steam_id":85568392925397853,"keywords":["cp","nocrits","nodmgspread","uncletopia"],"game_id":440,"stv_port":27046,"stv_name":"Uncletopia | Warsaw | 4 | All Maps | STV","players":null},{"server_id":53,"name":"Uncletopia | Warsaw | 5 | Stopwatch Beta","name_short":"waw-5","host":"waw-1.pl.uncletopia.com","port":27055,"enabled":true,"region":"eu","cc":"pl","latitude":52.2297,"longitude":21.017532,"reserved":0,"last_update":"0001-01-01T00:00:00Z","name_a2s":"Uncletopia | Warsaw | 5 | Stopwatch Beta","protocol":17,"map":"koth_highpass","folder":"tf","game":"Team Fortress","app_id":440,"player_count":0,"max_players":24,"Bots":0,"server_type":"Dedicated","server_os":"Linux","password":true,"vac":true,"version":"7932396","steam_id":85568392925397854,"keywords":["cp","nocrits","nodmgspread","uncletopia"],"game_id":440,"stv_port":27056,"stv_name":"Uncletopia | Warsaw | 5 | Stopwatch Beta | STV","players":null},{"server_id":54,"name":"Uncletopia | Warsaw | 6 | Community","name_short":"waw-6","host":"waw-1.pl.uncletopia.com","port":27065,"enabled":true,"region":"eu","cc":"pl","latitude":52.2297,"longitude":21.017532,"reserved":0,"last_update":"0001-01-01T00:00:00Z","name_a2s":"Uncletopia | Warsaw | 6 | Community","protocol":17,"map":"workshop/koth_trenchfoot_b1a.ugc731436616","folder":"tf","game":"Team Fortress","app_id":440,"player_count":0,"max_players":24,"Bots":0,"server_type":"Dedicated","server_os":"Linux","password":true,"vac":true,"version":"7932396","steam_id":85568392925397856,"keywords":["cp","nocrits","nodmgspread","uncletopia"],"game_id":440,"stv_port":27066,"stv_name":"Uncletopia | Warsaw | 6 | Community | STV","players":null}]}