{"status":true,"message":"","result":[{"server_id":9,"name":"Uncletopia | Atlanta | 1 | All Maps","name_short":"atl-1","host":"atl-1.us.uncletopia.com","port":27015,"enabled":true,"region":"us-east","cc":"us","latitude":33.753746,"longitude":-84.38633,"reserved":0,"last_update":"0001-01-01T00:00:00Z","name_a2s":"Uncletopia | Atlanta | 1 | All Maps","protocol":17,"map":"cp_altitude","folder":"tf","game":"Team Fortress","app_id":440,"player_count":0,"max_players":24,"Bots":0,"server_type":"Dedicated","server_os":"Linux","password":true,"vac":true,"version":"7757534","steam_id":85568392924469982,"keywords":["cp","nocrits","nodmgspread","uncletopia"],"game_id":440,"stv_port":27016,"stv_name":"Uncletopia | Atlanta | 1 | All Maps | STV","players":null},{"server_id":400,"name":"Uncletopia | Atlanta | 3 | Community","name_short":"atl-3","host":"atl-1.us.uncletopia.com","port":27035,"enabled":true,"region":"us-east","cc":"us","latitude":33.753746,"longitude":-84.38633,"reserved":0,"last_update":"0001-01-01T00:00:00Z","name_a2s":"Uncletopia | Atlanta | 3 | Community","protocol":17,"map":"pl_swiftwater_final1","folder":"tf","game":"Team Fortress","app_id":440,"player_count":0,"max_players":32,"Bots":0,"server_type":"Dedicated","server_os":"Linux","password":true,"vac":true,"version":"7757534","steam_id":85568392924515187,"keywords":["increased_maxplayers","nocrits","nodmgspread","payload","uncletopia"],"game_id":440,"stv_port":27036,"stv_name":"Uncletopia | Atlanta | 3 | Community | STV","players":null},{"server_id":401,"name":"Uncletopia | Atlanta | 4 | No Payload","name_short":"atl-4","host":"atl-1.us.uncletopia.com","port":27045,"enabled":true,"region":"us-east","cc":"us","latitude":33.753746,"longitude":-84.38633,"reserved":0,"last_update":"0001-01-01T00:00:00Z","name_a2s":"","protocol":0,"map":"","folder":"","game":"","app_id":0,"player_count":0,"max_players":0,"Bots":0,"server_type":"","server_os":"","password":false,"vac":false,"version":"","steam_id":0,"keywords":null,"game_id":0,"stv_port":0,"stv_name":"","players":null},{"server_id":2,"name":"Uncletopia | Chicago | 1 | All Maps","name_short":"chi-1","host":"chi-1.us.uncletopia.com","port":27015,"enabled":true,"region":"us-central","cc":"us","latitude":41.881832,"longitude":-87.62318,"reserved":0,"last_update":"0001-01-01T00:00:00Z","name_a2s":"Uncletopia | Chicago | 1 | All Maps","protocol":17,"map":"koth_viaduct","folder":"tf","game":"Team Fortress","app_id":440,"player_count":0,"max_players":24,"Bots":0,"server_type":"Dedicated","server_os":"Linux","password":true,"vac":true,"version":"7757534","steam_id":85568392924469984,"keywords":["cp","nocrits","nodmgspread","uncletopia"],"game_id":440,"stv_port":27016,"stv_name":"Uncletopia | Chicago | 1 | All Maps | STV","players":null},{"server_id":106,"name":"Uncletopia | Chicago | 2 | All Maps","name_short":"chi-2","host":"chi-1.us.uncletopia.com","port":27025,"enabled":true,"region":"us-central","cc":"us","latitude":41.881832,"longitude":-87.62318,"reserved":0,"last_update":"0001-01-01T00:00:00Z","name_a2s":"Uncletopia | Chicago | 2 | All Maps","protocol":17,"map":"pl_badwater","folder":"tf","game":"Team Fortress","app_id":440,"player_count":24,"max_players":24,"Bots":0,"server_type":"Dedicated","server_os":"Linux","password":true,"vac":true,"version":"7757534","steam_id":85568392924469985,"keywords":["nocrits","nodmgspread","payload","uncletopia"],"game_id":440,"stv_port":27026,"stv_name":"Uncletopia | Chicago | 2 | All Maps | STV","players":[{"user_id":906,"name":"Bluesage","steam_id":76561198196675462,"connected_time":907000000000,"state":"active","ping":84},{"user_id":915,"name":"Avg. Santa Believer (Nice list)","steam_id":76561198040444697,"connected_time":112000000000,"state":"active","ping":70},{"user_id":873,"name":"Skrungly","steam_id":76561198072550443,"connected_time":3861000000000,"state":"active","ping":81},{"user_id":856,"name":"TheGreatDong","steam_id":76561198000634178,"connected_time":5258000000000,"state":"active","ping":100},{"user_id":860,"name":"Lennu","steam_id":76561198060730154,"connected_time":4700000000000,"state":"active","ping":69},{"user_id":808,"name":"years","steam_id":76561197994098627,"connected_time":8889000000000,"state":"active","ping":118},{"user_id":887,"name":"ignore catgirls, obtain currenc","steam_id":76561198107784011,"connected_time":2798000000000,"state":"active","ping":30},{"user_id":912,"name":"Chemo","steam_id":76561197961308370,"connected_time":348000000000,"state":"active","ping":70},{"user_id":864,"name":"broos","steam_id":76561198061648271,"connected_time":4433000000000,"state":"active","ping":102},{"user_id":894,"name":"Hindmost","steam_id":76561199081837220,"connected_time":2356000000000,"state":"active","ping":81},{"user_id":795,"name":"Big Dirty Uncle","steam_id":76561198077098268,"connected_time":10035000000000,"state":"active","ping":74},{"user_id":891,"name":"Tyrone","steam_id":76561198189429665,"connected_time":2535000000000,"state":"active","ping":68},{"user_id":907,"name":"BLU1 l Epifiny","steam_id":76561198027958086,"connected_time":387000000000,"state":"active","ping":67},{"user_id":899,"name":"PASTA OPRESSOR","steam_id":76561198281612642,"connected_time":1906000000000,"state":"active","ping":99},{"user_id":911,"name":"BIG HOG","steam_id":76561198079923652,"connected_time":360000000000,"state":"active","ping":75},{"user_id":881,"name":"4:55 in Free Bird","steam_id":76561198038171608,"connected_time":3039000000000,"state":"active","ping":81},{"user_id":875,"name":"paisano","steam_id":76561198065575472,"connected_time":3811000000000,"state":"active","ping":58},{"user_id":913,"name":"mommy","steam_id":76561198129195009,"connected_time":204000000000,"state":"active","ping":73},{"user_id":872,"name":"The Professor","steam_id":76561198113760863,"connected_time":3950000000000,"state":"active","ping":60},{"user_id":900,"name":"TaBunnie","steam_id":76561198197894178,"connected_time":1898000000000,"state":"active","ping":68},{"user_id":902,"name":"Slippery","steam_id":76561199469441947,"connected_time":1646000000000,"state":"active","ping":52},{"user_id":889,"name":"DededeMain | trade.tf","steam_id":76561198310951632,"connected_time":2685000000000,"state":"active","ping":73},{"user_id":905,"name":"High Medic","steam_id":76561198082405984,"connected_time":1223000000000,"state":"active","ping":60},{"user_id":910,"name":"yomommasabitch","steam_id":76561198323217150,"connected_time":374000000000,"state":"active","ping":60}]},{"server_id":402,"name":"Uncletopia | Chicago | 3 | All Maps","name_short":"chi-3","host":"chi-1.us.uncletopia.com","port":27035,"enabled":true,"region":"us-central","cc":"us","latitude":41.881832,"longitude":-87.62318,"reserved":0,"last_update":"0001-01-01T00:00:00Z","name_a2s":"Uncletopia | Chicago | 3 | All Maps","protocol":17,"map":"pl_upward","folder":"tf","game":"Team Fortress","app_id":440,"player_count":0,"max_players":24,"Bots":0,"server_type":"Dedicated","server_os":"Linux","password":true,"vac":true,"version":"7757534","steam_id":85568392924515191,"keywords":["nocrits","nodmgspread","payload","uncletopia"],"game_id":440,"stv_port":27036,"stv_name":"Uncletopia | Chicago | 3 | All Maps | STV","players":null},{"server_id":403,"name":"Uncletopia | Chicago | 4 | All Maps","name_short":"chi-4","host":"chi-1.us.uncletopia.com","port":27045,"enabled":true,"region":"us-central","cc":"us","latitude":41.881832,"longitude":-87.62318,"reserved":0,"last_update":"0001-01-01T00:00:00Z","name_a2s":"Uncletopia | Chicago | 4 | All Maps","protocol":17,"map":"koth_viaduct","folder":"tf","game":"Team Fortress","app_id":440,"player_count":0,"max_players":24,"Bots":0,"server_type":"Dedicated","server_os":"Linux","password":true,"vac":true,"version":"7757534","steam_id":85568392924515193,"keywords":["cp","nocrits","nodmgspread","uncletopia"],"game_id":440,"stv_port":27046,"stv_name":"Uncletopia | Chicago | 4 | All Maps | STV","players":null},{"server_id":36,"name":"Uncletopia | Chicago | 5 | All Maps","name_short":"chi-5","host":"chi-2.us.uncletopia.com","port":27015,"enabled":true,"region":"us-central","cc":"us","latitude":41.881832,"longitude":-87.62318,"reserved":0,"last_update":"0001-01-01T00:00:00Z","name_a2s":"Uncletopia | Chicago | 5 | All Maps","protocol":17,"map":"cp_mountainlab","folder":"tf","game":"Team Fortress","app_id":440,"player_count":0,"max_players":24,"Bots":0,"server_type":"Dedicated","server_os":"Linux","password":true,"vac":true,"version":"7757534","steam_id":85568392924866362,"keywords":["cp","nocrits","nodmgspread","uncletopia"],"game_id":440,"stv_port":27016,"stv_name":"Uncletopia | Chicago | 5 | All Maps | STV","players":null},{"server_id":37,"name":"Uncletopia | Chicago | 6 | All Maps","name_short":"chi-6","host":"chi-2.us.uncletopia.com","port":27025,"enabled":true,"region":"us-central","cc":"us","latitude":41.881832,"longitude":-87.62318,"reserved":0,"last_update":"0001-01-01T00:00:00Z","name_a2s":"Uncletopia | Chicago | 6 | All Maps","protocol":17,"map":"cp_altitude","folder":"tf","game":"Team Fortress","app_id":440,"player_count":0,"max_players":24,"Bots":0,"server_type":"Dedicated","server_os":"Linux","password":true,"vac":true,"version":"7757534","steam_id":85568392924866363,"keywords":["cp","nocrits","nodmgspread","uncletopia"],"game_id":440,"stv_port":27026,"stv_name":"Uncletopia | Chicago | 6 | All Maps | STV","players":null},{"server_id":38,"name":"Uncletopia | Chicago | 7 | Stopwatch Beta","name_short":"chi-7","host":"chi-2.us.uncletopia.com","port":27035,"enabled":true,"region":"us-central","cc":"us","latitude":41.881832,"longitude":-87.62318,"reserved":0,"last_update":"0001-01-01T00:00:00Z","name_a2s":"Uncletopia | Chicago | 7 | Stopwatch Beta","protocol":17,"map":"pl_upward","folder":"tf","game":"Team Fortress","app_id":440,"player_count":0,"max_players":24,"Bots":0,"server_type":"Dedicated","server_os":"Linux","password":true,"vac":true,"version":"7757534","steam_id":85568392924866364,"keywords":["nocrits","nodmgspread","payload","uncletopia"],"game_id":440,"stv_port":27036,"stv_name":"Uncletopia | Chicago | 7 | Stopwatch Beta | STV","players":null},{"server_id":39,"name":"Uncletopia | Chicago | 8 | Community","name_short":"chi-8","host":"chi-2.us.uncletopia.com","port":27045,"enabled":true,"region":"us-central","cc":"us","latitude":41.881832,"longitude":-87.62318,"reserved":0,"last_update":"0001-01-01T00:00:00Z","name_a2s":"Uncletopia | Chicago | 8 | Community","protocol":17,"map":"workshop/cp_snowbase_b18.ugc2081770490","folder":"tf","game":"Team Fortress","app_id":440,"player_count":0,"max_players":24,"Bots":0,"server_type":"Dedicated","server_os":"Linux","password":true,"vac":true,"version":"7757534","steam_id":85568392924866365,"keywords":["cp","nocrits","nodmgspread","uncletopia"],"game_id":440,"stv_port":27046,"stv_name":"Uncletopia | Chicago | 8 | Community | STV","players":null},{"server_id":8,"name":"Uncletopia | Dallas | 1 | All Maps","name_short":"dal-1","host":"dal-1.us.uncletopia.com","port":27015,"enabled":true,"region":"us-central","cc":"us","latitude":32.779167,"longitude":-96.80889,"reserved":0,"last_update":"0001-01-01T00:00:00Z","name_a2s":"Uncletopia | Dallas | 1 | All Maps","protocol":17,"map":"cp_steel","folder":"tf","game":"Team Fortress","app_id":440,"player_count":0,"max_players":24,"Bots":0,"server_type":"Dedicated","server_os":"Linux","password":true,"vac":true,"version":"7757534","steam_id":85568392924469986,"keywords":["cp","nocrits","nodmgspread","uncletopia"],"game_id":440,"stv_port":27016,"stv_name":"Uncletopia | Dallas | 1 | All Maps | STV","players":null},{"server_id":108,"name":"Uncletopia | Dallas | 2 | All Maps","name_short":"dal-2","host":"dal-1.us.uncletopia.com","port":27025,"enabled":true,"region":"us-central","cc":"us","latitude":32.779167,"longitude":-96.80889,"reserved":0,"last_update":"0001-01-01T00:00:00Z","name_a2s":"Uncletopia | Dallas | 2 | All Maps","protocol":17,"map":"koth_cascade","folder":"tf","game":"Team Fortress","app_id":440,"player_count":0,"max_players":24,"Bots":0,"server_type":"Dedicated","server_os":"Linux","password":true,"vac":true,"version":"7757534","steam_id":85568392924469988,"keywords":["cp","nocrits","nodmgspread","uncletopia"],"game_id":440,"stv_port":27026,"stv_name":"Uncletopia | Dallas | 2 | All Maps | STV","players":null},{"server_id":5,"name":"Uncletopia | Frankfurt | 1 | All Maps","name_short":"frk-1","host":"frk-1.de.uncletopia.com","port":27015,"enabled":true,"region":"eu","cc":"de","latitude":50.110924,"longitude":8.682127,"reserved":0,"last_update":"0001-01-01T00:00:00Z","name_a2s":"Uncletopia | Frankfurt | 1 | All Maps","protocol":17,"map":"pl_pier","folder":"tf","game":"Team Fortress","app_id":440,"player_count":22,"max_players":24,"Bots":0,"server_type":"Dedicated","server_os":"Linux","password":true,"vac":true,"version":"7757534","steam_id":85568392924469989,"keywords":["nocrits","nodmgspread","payload","uncletopia"],"game_id":440,"stv_port":27016,"stv_name":"Uncletopia | Frankfurt | 1 | All Maps | STV","players":[{"user_id":164,"name":"BΣNZOIC","steam_id":76561198875665995,"connected_time":1079000000000,"state":"active","ping":76},{"user_id":74,"name":"Bundle of Sticks","steam_id":76561198133782205,"connected_time":6980000000000,"state":"active","ping":129},{"user_id":165,"name":"r06u3","steam_id":76561198254099253,"connected_time":1069000000000,"state":"active","ping":174},{"user_id":116,"name":"on1on (pickled)","steam_id":76561197995304137,"connected_time":4916000000000,"state":"active","ping":59},{"user_id":172,"name":"ayo...","steam_id":76561199086033296,"connected_time":37000000000,"state":"spawning","ping":101},{"user_id":157,"name":"Acanda","steam_id":76561198123246537,"connected_time":1135000000000,"state":"active","ping":55},{"user_id":155,"name":"Catmole","steam_id":76561198360283060,"connected_time":1151000000000,"state":"active","ping":84},{"user_id":159,"name":"Stormy 2pointO","steam_id":76561198127638432,"connected_time":1100000000000,"state":"active","ping":48},{"user_id":137,"name":"Tekky","steam_id":76561197990987315,"connected_time":3087000000000,"state":"active","ping":60},{"user_id":156,"name":"Atse","steam_id":76561199019974513,"connected_time":1144000000000,"state":"active","ping":108},{"user_id":171,"name":"o_o","steam_id":76561198076494034,"connected_time":82000000000,"state":"active","ping":58},{"user_id":138,"name":"Noodle","steam_id":76561198306486695,"connected_time":3079000000000,"state":"active","ping":60},{"user_id":173,"name":"big cungus","steam_id":76561198163362186,"connected_time":11000000000,"state":"spawning","ping":177},{"user_id":174,"name":"Dragon","steam_id":76561198163255365,"connected_time":0,"state":"spawning","ping":26},{"user_id":152,"name":"Pestilence","steam_id":76561198140938904,"connected_time":1955000000000,"state":"active","ping":80},{"user_id":120,"name":"Dzan50","steam_id":76561198059758591,"connected_time":4184000000000,"state":"active","ping":81},{"user_id":132,"name":"Pico","steam_id":76561198063552545,"connected_time":3457000000000,"state":"active","ping":100},{"user_id":158,"name":"Truegr","steam_id":76561198811912339,"connected_time":1122000000000,"state":"active","ping":65},{"user_id":170,"name":"jmp","steam_id":76561198168283286,"connected_time":610000000000,"state":"active","ping":66},{"user_id":168,"name":"Roro Cyr","steam_id":76561198091380517,"connected_time":780000000000,"state":"active","ping":63},{"user_id":161,"name":"Tabaka1773","steam_id":76561198869218126,"connected_time":1097000000000,"state":"active","ping":80},{"user_id":131,"name":"fnaf 2","steam_id":76561199149307190,"connected_time":3512000000000,"state":"active","ping":79}]},{"server_id":110,"name":"Uncletopia | Frankfurt | 2 | All Maps","name_short":"frk-2","host":"frk-1.de.uncletopia.com","port":27025,"enabled":true,"region":"eu","cc":"de","latitude":50.110924,"longitude":8.682127,"reserved":0,"last_update":"0001-01-01T00:00:00Z","name_a2s":"Uncletopia | Frankfurt | 2 | All Maps","protocol":17,"map":"cp_process_final","folder":"tf","game":"Team Fortress","app_id":440,"player_count":24,"max_players":24,"Bots":0,"server_type":"Dedicated","server_os":"Linux","password":true,"vac":true,"version":"7757534","steam_id":85568392924469990,"keywords":["cp","nocrits","nodmgspread","uncletopia"],"game_id":440,"stv_port":27026,"stv_name":"Uncletopia | Frankfurt | 2 | All Maps | STV","players":[{"user_id":145,"name":"SHIMMY GETS GRABED","steam_id":76561198106049954,"connected_time":1423000000000,"state":"active","ping":79},{"user_id":132,"name":"Lateguy","steam_id":76561198069446079,"connected_time":1948000000000,"state":"active","ping":85},{"user_id":151,"name":"gagalak","steam_id":76561198089979108,"connected_time":1072000000000,"state":"active","ping":90},{"user_id":137,"name":"Nerfan20 #SaveTF2","steam_id":76561198227391788,"connected_time":1609000000000,"state":"active","ping":108},{"user_id":133,"name":"Aztek","steam_id":76561197980496357,"connected_time":1721000000000,"state":"active","ping":47},{"user_id":113,"name":"PrivatePengu","steam_id":76561198100112667,"connected_time":3160000000000,"state":"active","ping":48},{"user_id":138,"name":"Mefuu","steam_id":76561198287729818,"connected_time":1592000000000,"state":"active","ping":95},{"user_id":107,"name":"Mr.Weis","steam_id":76561198115443579,"connected_time":3348000000000,"state":"active","ping":62},{"user_id":134,"name":"tekt","steam_id":76561198044554387,"connected_time":1657000000000,"state":"active","ping":94},{"user_id":147,"name":"Coca162","steam_id":76561198230656540,"connected_time":1307000000000,"state":"active","ping":61},{"user_id":117,"name":"Farmercy","steam_id":76561198000038039,"connected_time":3036000000000,"state":"active","ping":59},{"user_id":154,"name":"Vasandr","steam_id":76561198050775428,"connected_time":787000000000,"state":"active","ping":140},{"user_id":135,"name":"Bucket","steam_id":76561198814907468,"connected_time":1656000000000,"state":"active","ping":62},{"user_id":139,"name":"Lordware","steam_id":76561198022011299,"connected_time":1570000000000,"state":"active","ping":78},{"user_id":104,"name":"heartburn","steam_id":76561198875472890,"connected_time":3686000000000,"state":"active","ping":75},{"user_id":153,"name":"Grey","steam_id":76561198073954578,"connected_time":944000000000,"state":"active","ping":88},{"user_id":119,"name":"Cosmetic brain","steam_id":76561198055936410,"connected_time":3018000000000,"state":"active","ping":80},{"user_id":140,"name":"_zipfile","steam_id":76561198066133808,"connected_time":1540000000000,"state":"active","ping":72},{"user_id":148,"name":"yyny","steam_id":76561198066287297,"connected_time":1301000000000,"state":"active","ping":51},{"user_id":123,"name":"AYE","steam_id":76561198181368101,"connected_time":2820000000000,"state":"active","ping":47},{"user_id":127,"name":"Zombie LeChuck","steam_id":76561198263049079,"connected_time":2417000000000,"state":"active","ping":52},{"user_id":38,"name":"John Fortress","steam_id":76561198043743881,"connected_time":10217000000000,"state":"active","ping":51},{"user_id":122,"name":"『Dorarhim』","steam_id":76561198220232352,"connected_time":2942000000000,"state":"active","ping":58},{"user_id":150,"name":"ALARM","steam_id":76561198120686521,"connected_time":1133000000000,"state":"active","ping":57}]},{"server_id":308,"name":"Uncletopia | Frankfurt | 3 | All Maps","name_short":"frk-3","host":"frk-1.de.uncletopia.com","port":27035,"enabled":true,"region":"eu","cc":"de","latitude":50.110924,"longitude":8.682127,"reserved":0,"last_update":"0001-01-01T00:00:00Z","name_a2s":"Uncletopia | Frankfurt | 3 | All Maps","protocol":17,"map":"pl_barnblitz","folder":"tf","game":"Team Fortress","app_id":440,"player_count":6,"max_players":24,"Bots":0,"server_type":"Dedicated","server_os":"Linux","password":true,"vac":true,"version":"7757534","steam_id":85568392924504274,"keywords":["nocrits","nodmgspread","payload","uncletopia"],"game_id":440,"stv_port":27036,"stv_name":"Uncletopia | Frankfurt | 3 | All Maps | STV","players":[{"user_id":5,"name":"silenk","steam_id":76561198367689055,"connected_time":892000000000,"state":"active","ping":66},{"user_id":6,"name":"fried","steam_id":76561198307522022,"connected_time":776000000000,"state":"active","ping":48},{"user_id":11,"name":"Daud","steam_id":76561199177668753,"connected_time":321000000000,"state":"active","ping":56},{"user_id":9,"name":"Chambersite","steam_id":76561198197022399,"connected_time":721000000000,"state":"active","ping":60},{"user_id":13,"name":"My meme now","steam_id":76561199244327387,"connected_time":241000000000,"state":"active","ping":64},{"user_id":14,"name":"Digio","steam_id":76561199065101964,"connected_time":155000000000,"state":"active","ping":81}]},{"server_id":309,"name":"Uncletopia | Frankfurt | 4 | All Maps","name_short":"frk-4","host":"frk-1.de.uncletopia.com","port":27045,"enabled":true,"region":"eu","cc":"de","latitude":50.110924,"longitude":8.682127,"reserved":0,"last_update":"0001-01-01T00:00:00Z","name_a2s":"Uncletopia | Frankfurt | 4 | All Maps","protocol":17,"map":"cp_altitude","folder":"tf","game":"Team Fortress","app_id":440,"player_count":0,"max_players":24,"Bots":0,"server_type":"Dedicated","server_os":"Linux","password":true,"vac":true,"version":"7757534","steam_id":85568392924504275,"keywords":["cp","nocrits","nodmgspread","uncletopia"],"game_id":440,"stv_port":27046,"stv_name":"Uncletopia | Frankfurt | 4 | All Maps | STV","players":null},{"server_id":310,"name":"Uncletopia | Frankfurt | 5 | All Maps","name_short":"frk-5","host":"frk-1.de.uncletopia.com","port":27055,"enabled":true,"region":"eu","cc":"de","latitude":50.110924,"longitude":8.682127,"reserved":0,"last_update":"0001-01-01T00:00:00Z","name_a2s":"Uncletopia | Frankfurt | 5 | All Maps","protocol":17,"map":"pl_borneo","folder":"tf","game":"Team Fortress","app_id":440,"player_count":24,"max_players":24,"Bots":0,"server_type":"Dedicated","server_os":"Linux","password":true,"vac":true,"version":"7757534","steam_id":85568392924504277,"keywords":["nocrits","nodmgspread","payload","uncletopia"],"game_id":440,"stv_port":27056,"stv_name":"Uncletopia | Frankfurt | 5 | All Maps | STV","players":[{"user_id":76,"name":"aura","steam_id":76561197991687793,"connected_time":1366000000000,"state":"active","ping":72},{"user_id":88,"name":"swueuws","steam_id":76561198020716743,"connected_time":164000000000,"state":"active","ping":48},{"user_id":89,"name":"MaKo","steam_id":76561199013535305,"connected_time":151000000000,"state":"active","ping":74},{"user_id":86,"name":"[CC]Nyafka","steam_id":76561198289878090,"connected_time":216000000000,"state":"active","ping":120},{"user_id":24,"name":"Mike Rizzowski","steam_id":76561198798657045,"connected_time":5211000000000,"state":"active","ping":85},{"user_id":62,"name":"Reiyo","steam_id":76561198155092485,"connected_time":2291000000000,"state":"active","ping":46},{"user_id":93,"name":"Yessirskiii","steam_id":76561198179324075,"connected_time":93000000000,"state":"active","ping":75},{"user_id":72,"name":"Techm32","steam_id":76561198317134994,"connected_time":1925000000000,"state":"active","ping":62},{"user_id":91,"name":"Silva_mlon","steam_id":76561199310242047,"connected_time":129000000000,"state":"active","ping":70},{"user_id":87,"name":"(wm) Das Fleisch","steam_id":76561198001250715,"connected_time":211000000000,"state":"active","ping":56},{"user_id":83,"name":"VaildShlumpy","steam_id":76561199093863982,"connected_time":487000000000,"state":"active","ping":74},{"user_id":77,"name":"CaptainMac","steam_id":76561198273156139,"connected_time":1245000000000,"state":"active","ping":44},{"user_id":90,"name":"JunketsGM","steam_id":76561199122728626,"connected_time":149000000000,"state":"active","ping":71},{"user_id":65,"name":"Sch","steam_id":76561198071341689,"connected_time":2248000000000,"state":"active","ping":59},{"user_id":51,"name":"Ratman","steam_id":76561198962458505,"connected_time":2402000000000,"state":"active","ping":60},{"user_id":92,"name":"M1rkus","steam_id":76561198171215447,"connected_time":104000000000,"state":"active","ping":70},{"user_id":81,"name":"raime","steam_id":76561198024903775,"connected_time":886000000000,"state":"active","ping":89},{"user_id":82,"name":"AsuX","steam_id":76561197990333289,"connected_time":768000000000,"state":"active","ping":71},{"user_id":57,"name":"General Kiel","steam_id":76561198021317816,"connected_time":2392000000000,"state":"active","ping":71},{"user_id":73,"name":"yush","steam_id":76561198121688934,"connected_time":1865000000000,"state":"active","ping":75},{"user_id":94,"name":"🌼 HugeE","steam_id":76561198245495152,"connected_time":55000000000,"state":"active","ping":64},{"user_id":95,"name":"26789","steam_id":76561198118412910,"connected_time":53000000000,"state":"active","ping":100},{"user_id":58,"name":"Pahlberg","steam_id":76561198208547929,"connected_time":2392000000000,"state":"active","ping":90},{"user_id":69,"name":"Snortman","steam_id":76561199012566222,"connected_time":2153000000000,"state":"active","ping":58}]},{"server_id":311,"name":"Uncletopia | Frankfurt | 6 | All Maps","name_short":"frk-6","host":"frk-1.de.uncletopia.com","port":27065,"enabled":true,"region":"eu","cc":"de","latitude":50.110924,"longitude":8.682127,"reserved":0,"last_update":"0001-01-01T00:00:00Z","name_a2s":"Uncletopia | Frankfurt | 6 | All Maps","protocol":17,"map":"cp_dustbowl","folder":"tf","game":"Team Fortress","app_id":440,"player_count":0,"max_players":24,"Bots":0,"server_type":"Dedicated","server_os":"Linux","password":true,"vac":true,"version":"7757534","steam_id":85568392924504278,"keywords":["cp","nocrits","nodmgspread","uncletopia"],"game_id":440,"stv_port":27066,"stv_name":"Uncletopia | Frankfurt | 6 | All Maps | STV","players":null},{"server_id":23,"name":"Uncletopia | Frankfurt | 7 | Stopwatch Beta","name_short":"frk-7","host":"frk-1.de.uncletopia.com","port":27075,"enabled":true,"region":"eu","cc":"de","latitude":50.110924,"longitude":8.682127,"reserved":0,"last_update":"0001-01-01T00:00:00Z","name_a2s":"Uncletopia | Frankfurt | 7 | Stopwatch Beta","protocol":17,"map":"pl_frontier_final","folder":"tf","game":"Team Fortress","app_id":440,"player_count":0,"max_players":24,"Bots":0,"server_type":"Dedicated","server_os":"Linux","password":true,"vac":true,"version":"7757534","steam_id":85568392924742827,"keywords":["nocrits","nodmgspread","payload","uncletopia"],"game_id":440,"stv_port":27076,"stv_name":"Uncletopia | Frankfurt | 7 | Stopwatch Beta | STV","players":null},{"server_id":24,"name":"Uncletopia | Frankfurt | 8 | Community","name_short":"frk-8","host":"frk-1.de.uncletopia.com","port":27085,"enabled":true,"region":"eu","cc":"de","latitude":50.110924,"longitude":8.682127,"reserved":0,"last_update":"0001-01-01T00:00:00Z","name_a2s":"Uncletopia | Frankfurt | 8 | Community","protocol":17,"map":"workshop/koth_bagel_rc5.ugc2514036946","folder":"tf","game":"Team Fortress","app_id":440,"player_count":0,"max_players":24,"Bots":0,"server_type":"Dedicated","server_os":"Linux","password":true,"vac":true,"version":"7757534","steam_id":85568392924742828,"keywords":["cp","nocrits","nodmgspread","uncletopia"],"game_id":440,"stv_port":27086,"stv_name":"Uncletopia | Frankfurt | 8 | Community | STV","players":null},{"server_id":202,"name":"Uncletopia | Hong Kong | 1 | All Maps","name_short":"hgk-1","host":"hgk-1.hk.uncletopia.com","port":27015,"enabled":true,"region":"asia","cc":"hk","latitude":22.302711,"longitude":114.177216,"reserved":0,"last_update":"0001-01-01T00:00:00Z","name_a2s":"Uncletopia | Hong Kong | 1 | All Maps","protocol":17,"map":"koth_viaduct","folder":"tf","game":"Team Fortress","app_id":440,"player_count":25,"max_players":24,"Bots":0,"server_type":"Dedicated","server_os":"Linux","password":true,"vac":true,"version":"7757534","steam_id":85568392924494504,"keywords":["cp","nocrits","nodmgspread","uncletopia"],"game_id":440,"stv_port":27016,"stv_name":"Uncletopia | Hong Kong | 1 | All Maps | STV","players":[{"user_id":440,"name":"SIGMA MARTINEZ","steam_id":76561198232475076,"connected_time":177000000000,"state":"active","ping":96},{"user_id":303,"name":"silverhouse7","steam_id":76561198349634906,"connected_time":8764000000000,"state":"active","ping":67},{"user_id":437,"name":"brizzard","steam_id":76561198048438653,"connected_time":336000000000,"state":"active","ping":51},{"user_id":395,"name":"gunshpee","steam_id":76561198834445483,"connected_time":2662000000000,"state":"active","ping":57},{"user_id":405,"name":"⭐A Random Guy ツ","steam_id":76561199076452888,"connected_time":1926000000000,"state":"active","ping":76},{"user_id":439,"name":"Polyester","steam_id":76561198400698408,"connected_time":238000000000,"state":"active","ping":90},{"user_id":406,"name":"Bird","steam_id":76561198964524382,"connected_time":1883000000000,"state":"active","ping":78},{"user_id":409,"name":"HFAs","steam_id":76561197999099632,"connected_time":1655000000000,"state":"active","ping":76},{"user_id":344,"name":"timmy.1366","steam_id":76561199065433547,"connected_time":6095000000000,"state":"active","ping":80},{"user_id":402,"name":"Male Detected!","steam_id":76561199082459598,"connected_time":2140000000000,"state":"active","ping":96},{"user_id":378,"name":"sloth of the fragment clan","steam_id":76561198214192048,"connected_time":3801000000000,"state":"active","ping":96},{"user_id":380,"name":"Shinobimono","steam_id":76561198343322788,"connected_time":3692000000000,"state":"active","ping":131},{"user_id":445,"name":"Aero","steam_id":76561198096630758,"connected_time":27000000000,"state":"active","ping":83},{"user_id":403,"name":"razetime","steam_id":76561198093904557,"connected_time":2051000000000,"state":"active","ping":133},{"user_id":421,"name":"Med1c","steam_id":76561199000423415,"connected_time":1198000000000,"state":"active","ping":108},{"user_id":411,"name":"Sentry Buster","steam_id":76561199362114225,"connected_time":1513000000000,"state":"active","ping":116},{"user_id":432,"name":"hasty","steam_id":76561198439382132,"connected_time":629000000000,"state":"active","ping":112},{"user_id":435,"name":"screaming sniper","steam_id":76561199085568674,"connected_time":469000000000,"state":"active","ping":74},{"user_id":436,"name":"qb","steam_id":76561198412329672,"connected_time":401000000000,"state":"active","ping":83},{"user_id":442,"name":"Seiko Shinohara.png","steam_id":76561198089493039,"connected_time":77000000000,"state":"active","ping":98},{"user_id":430,"name":"junbi OK","steam_id":76561198116387218,"connected_time":662000000000,"state":"active","ping":93},{"user_id":443,"name":"mongolian boy","steam_id":76561199443930358,"connected_time":52000000000,"state":"active","ping":109},{"user_id":444,"name":"✪ L1u.Ramon","steam_id":76561198267833157,"connected_time":41000000000,"state":"active","ping":93},{"user_id":446,"name":"Kazzac·Hekmatyar","steam_id":76561198168718157,"connected_time":19000000000,"state":"spawning","ping":87},{"user_id":447,"name":"stexgashgaux","steam_id":76561198413116920,"connected_time":12000000000,"state":"spawning","ping":102}]},{"server_id":1,"name":"Uncletopia | Los Angeles | 1 | All Maps","name_short":"lax-1","host":"lax-1.us.uncletopia.com","port":27015,"enabled":true,"region":"us-west","cc":"us","latitude":33.94279,"longitude":-118.41004,"reserved":0,"last_update":"0001-01-01T00:00:00Z","name_a2s":"Uncletopia | Los Angeles | 1 | All Maps","protocol":17,"map":"cp_altitude","folder":"tf","game":"Team Fortress","app_id":440,"player_count":0,"max_players":24,"Bots":0,"server_type":"Dedicated","server_os":"Linux","password":true,"vac":true,"version":"7757534","steam_id":85568392924469991,"keywords":["cp","nocrits","nodmgspread","uncletopia"],"game_id":440,"stv_port":27016,"stv_name":"Uncletopia | Los Angeles | 1 | All Maps | STV","players":null},{"server_id":112,"name":"Uncletopia | Los Angeles | 2 | All Maps","name_short":"lax-2","host":"lax-1.us.uncletopia.com","port":27025,"enabled":true,"region":"us-west","cc":"us","latitude":33.94279,"longitude":-118.41004,"reserved":0,"last_update":"0001-01-01T00:00:00Z","name_a2s":"Uncletopia | Los Angeles | 2 | All Maps","protocol":17,"map":"koth_cascade","folder":"tf","game":"Team Fortress","app_id":440,"player_count":0,"max_players":24,"Bots":0,"server_type":"Dedicated","server_os":"Linux","password":true,"vac":true,"version":"7757534","steam_id":85568392924469992,"keywords":["cp","nocrits","nodmgspread","uncletopia"],"game_id":440,"stv_port":27026,"stv_name":"Uncletopia | Los Angeles | 2 | All Maps | STV","players":null},{"server_id":324,"name":"Uncletopia | Los Angeles | 3 | All Maps","name_short":"lax-3","host":"lax-1.us.uncletopia.com","port":27035,"enabled":true,"region":"us-west","cc":"us","latitude":33.94279,"longitude":-118.41004,"reserved":0,"last_update":"0001-01-01T00:00:00Z","name_a2s":"Uncletopia | Los Angeles | 3 | All Maps","protocol":17,"map":"koth_highpass","folder":"tf","game":"Team Fortress","app_id":440,"player_count":0,"max_players":24,"Bots":0,"server_type":"Dedicated","server_os":"Linux","password":true,"vac":true,"version":"7757534","steam_id":85568392924510198,"keywords":["cp","nocrits","nodmgspread","uncletopia"],"game_id":440,"stv_port":27036,"stv_name":"Uncletopia | Los Angeles | 3 | All Maps | STV","players":null},{"server_id":25,"name":"Uncletopia | Los Angeles | 4 | Stopwatch Beta","name_short":"lax-4","host":"lax-1.us.uncletopia.com","port":27045,"enabled":true,"region":"us-west","cc":"us","latitude":33.94279,"longitude":-118.41004,"reserved":0,"last_update":"0001-01-01T00:00:00Z","name_a2s":"Uncletopia | Los Angeles | 4 | Stopwatch Beta","protocol":17,"map":"pl_frontier_final","folder":"tf","game":"Team Fortress","app_id":440,"player_count":0,"max_players":24,"Bots":0,"server_type":"Dedicated","server_os":"Linux","password":true,"vac":true,"version":"7757534","steam_id":85568392924510199,"keywords":["nocrits","nodmgspread","payload","uncletopia"],"game_id":440,"stv_port":27046,"stv_name":"Uncletopia | Los Angeles | 4 | Stopwatch Beta | STV","players":null},{"server_id":11,"name":"Uncletopia | London | 1 | All Maps","name_short":"lon-1","host":"lon-1.uk.uncletopia.com","port":27015,"enabled":true,"region":"eu","cc":"gb","latitude":51.509865,"longitude":-0.118092,"reserved":0,"last_update":"0001-01-01T00:00:00Z","name_a2s":"Uncletopia | London | 1 | All Maps","protocol":17,"map":"pl_barnblitz","folder":"tf","game":"Team Fortress","app_id":440,"player_count":23,"max_players":24,"Bots":0,"server_type":"Dedicated","server_os":"Linux","password":true,"vac":true,"version":"7757534","steam_id":85568392924367362,"keywords":["nocrits","nodmgspread","payload","uncletopia"],"game_id":440,"stv_port":27016,"stv_name":"Uncletopia | London | 1 | All Maps | STV","players":[{"user_id":174,"name":"Sylbar","steam_id":76561198065379590,"connected_time":3151000000000,"state":"active","ping":77},{"user_id":57,"name":"The Wolf Leader","steam_id":76561198038007462,"connected_time":12085000000000,"state":"active","ping":80},{"user_id":208,"name":"Hey, I´m Andy!","steam_id":76561198060337777,"connected_time":72000000000,"state":"active","ping":90},{"user_id":147,"name":"Grim the lemon","steam_id":76561199083433988,"connected_time":4808000000000,"state":"active","ping":48},{"user_id":204,"name":"ɹǝuʍo sɥɓıɥ⊥","steam_id":76561198986703944,"connected_time":242000000000,"state":"active","ping":88},{"user_id":205,"name":"AnonTron","steam_id":76561199031895493,"connected_time":226000000000,"state":"active","ping":175},{"user_id":209,"name":"Funny mann with a shootgun","steam_id":76561199017872113,"connected_time":67000000000,"state":"active","ping":50},{"user_id":127,"name":"Miczu555PL","steam_id":76561198058500895,"connected_time":6506000000000,"state":"active","ping":75},{"user_id":187,"name":"Taskyy","steam_id":76561198134901175,"connected_time":1859000000000,"state":"active","ping":84},{"user_id":169,"name":"Bell","steam_id":76561199454586928,"connected_time":3344000000000,"state":"active","ping":135},{"user_id":190,"name":"Purplish","steam_id":76561198006393993,"connected_time":1430000000000,"state":"active","ping":41},{"user_id":206,"name":"Bepperman","steam_id":76561198397517828,"connected_time":225000000000,"state":"active","ping":53},{"user_id":207,"name":"erobrine2","steam_id":76561198173218318,"connected_time":221000000000,"state":"active","ping":51},{"user_id":155,"name":"Dolcelatte","steam_id":76561198038501770,"connected_time":4653000000000,"state":"active","ping":74},{"user_id":201,"name":"Rick Assley","steam_id":76561198365019199,"connected_time":928000000000,"state":"active","ping":161},{"user_id":166,"name":"963 frequency of gods","steam_id":76561199088506542,"connected_time":4014000000000,"state":"active","ping":72},{"user_id":182,"name":"LOBZIK","steam_id":76561198114830120,"connected_time":2565000000000,"state":"active","ping":86},{"user_id":180,"name":"Yoddler","steam_id":76561198031573426,"connected_time":2940000000000,"state":"active","ping":75},{"user_id":193,"name":"Sneaky boi","steam_id":76561199195985387,"connected_time":1361000000000,"state":"active","ping":96},{"user_id":181,"name":"Sverhrazym","steam_id":76561198868708664,"connected_time":2925000000000,"state":"active","ping":99},{"user_id":99,"name":"ciliorkun18","steam_id":76561198228942500,"connected_time":9402000000000,"state":"active","ping":90},{"user_id":194,"name":"BONK-TEC!","steam_id":76561198272667029,"connected_time":1216000000000,"state":"active","ping":45},{"user_id":186,"name":"Kwizine","steam_id":76561198147999400,"connected_time":1875000000000,"state":"active","ping":68}]},{"server_id":114,"name":"Uncletopia | London | 2 | All Maps","name_short":"lon-2","host":"lon-1.uk.uncletopia.com","port":27025,"enabled":true,"region":"eu","cc":"gb","latitude":51.509865,"longitude":-0.118092,"reserved":0,"last_update":"0001-01-01T00:00:00Z","name_a2s":"Uncletopia | London | 2 | All Maps","protocol":17,"map":"koth_harvest_final","folder":"tf","game":"Team Fortress","app_id":440,"player_count":23,"max_players":24,"Bots":0,"server_type":"Dedicated","server_os":"Linux","password":true,"vac":true,"version":"7757534","steam_id":85568392924470941,"keywords":["cp","nocrits","nodmgspread","uncletopia"],"game_id":440,"stv_port":27026,"stv_name":"Uncletopia | London | 2 | All Maps | STV","players":[{"user_id":87,"name":"actuallythere","steam_id":76561198434566417,"connected_time":3137000000000,"state":"active","ping":90},{"user_id":144,"name":"Ray","steam_id":76561199472077482,"connected_time":922000000000,"state":"active","ping":179},{"user_id":140,"name":"Walle","steam_id":76561197995148937,"connected_time":1069000000000,"state":"active","ping":74},{"user_id":133,"name":"Zzziiighghmuund","steam_id":76561198798167787,"connected_time":1178000000000,"state":"active","ping":89},{"user_id":119,"name":"Allereinan","steam_id":76561198342239906,"connected_time":2317000000000,"state":"active","ping":101},{"user_id":115,"name":"fume.","steam_id":76561197960476801,"connected_time":2517000000000,"state":"active","ping":62},{"user_id":135,"name":"Pancakes","steam_id":76561198196259989,"connected_time":1165000000000,"state":"active","ping":45},{"user_id":127,"name":"snooper main","steam_id":76561199073802389,"connected_time":1376000000000,"state":"active","ping":91},{"user_id":105,"name":"tux","steam_id":76561198987650016,"connected_time":2765000000000,"state":"active","ping":72},{"user_id":96,"name":"duuuuutch","steam_id":76561199062586342,"connected_time":2860000000000,"state":"active","ping":61},{"user_id":136,"name":"tete","steam_id":76561198045222850,"connected_time":1163000000000,"state":"active","ping":78},{"user_id":147,"name":"homeinvasion$","steam_id":76561199111905021,"connected_time":858000000000,"state":"active","ping":124},{"user_id":121,"name":"Sakari","steam_id":76561197997811299,"connected_time":2279000000000,"state":"active","ping":60},{"user_id":150,"name":"cutie","steam_id":76561198976720761,"connected_time":556000000000,"state":"active","ping":46},{"user_id":137,"name":"nachtraaf","steam_id":76561197960473205,"connected_time":1152000000000,"state":"active","ping":58},{"user_id":139,"name":"Sgreff","steam_id":76561198036304365,"connected_time":1124000000000,"state":"active","ping":44},{"user_id":145,"name":"dairy","steam_id":76561198117033273,"connected_time":897000000000,"state":"active","ping":47},{"user_id":148,"name":"nik","steam_id":76561198210482280,"connected_time":686000000000,"state":"active","ping":62},{"user_id":128,"name":"hxcrry","steam_id":76561199452047896,"connected_time":1319000000000,"state":"active","ping":42},{"user_id":103,"name":"Chill Spirit","steam_id":76561198845001725,"connected_time":2798000000000,"state":"active","ping":60},{"user_id":146,"name":"Chicote","steam_id":76561198054689637,"connected_time":884000000000,"state":"active","ping":71},{"user_id":134,"name":"MÉZ","steam_id":76561198167504701,"connected_time":1177000000000,"state":"active","ping":86},{"user_id":151,"name":"Паскудер","steam_id":76561199002864030,"connected_time":337000000000,"state":"active","ping":101}]},{"server_id":320,"name":"Uncletopia | London | 3 | All Maps","name_short":"lon-3","host":"lon-1.uk.uncletopia.com","port":27035,"enabled":true,"region":"eu","cc":"gb","latitude":51.509865,"longitude":-0.118092,"reserved":0,"last_update":"0001-01-01T00:00:00Z","name_a2s":"Uncletopia | London | 3 | All Maps","protocol":17,"map":"pl_badwater","folder":"tf","game":"Team Fortress","app_id":440,"player_count":0,"max_players":24,"Bots":0,"server_type":"Dedicated","server_os":"Linux","password":true,"vac":true,"version":"7757534","steam_id":85568392924510192,"keywords":["nocrits","nodmgspread","payload","uncletopia"],"game_id":440,"stv_port":27036,"stv_name":"Uncletopia | London | 3 | All Maps | STV","players":null},{"server_id":321,"name":"Uncletopia | London | 4 | All Maps","name_short":"lon-4","host":"lon-1.uk.uncletopia.com","port":27045,"enabled":true,"region":"eu","cc":"gb","latitude":51.509865,"longitude":-0.118092,"reserved":0,"last_update":"0001-01-01T00:00:00Z","name_a2s":"Uncletopia | London | 4 | All Maps","protocol":17,"map":"koth_viaduct","folder":"tf","game":"Team Fortress","app_id":440,"player_count":0,"max_players":24,"Bots":0,"server_type":"Dedicated","server_os":"Linux","password":true,"vac":true,"version":"7757534","steam_id":85568392924510193,"keywords":["cp","nocrits","nodmgspread","uncletopia"],"game_id":440,"stv_port":27046,"stv_name":"Uncletopia | London | 4 | All Maps | STV","players":null},{"server_id":21,"name":"Uncletopia | London | 5 | All Maps","name_short":"lon-5","host":"lon-1.uk.uncletopia.com","port":27055,"enabled":true,"region":"eu","cc":"gb","latitude":51.509865,"longitude":-0.118092,"reserved":0,"last_update":"0001-01-01T00:00:00Z","name_a2s":"Uncletopia | London | 5 | All Maps","protocol":17,"map":"pl_snowycoast","folder":"tf","game":"Team Fortress","app_id":440,"player_count":0,"max_players":24,"Bots":0,"server_type":"Dedicated","server_os":"Linux","password":true,"vac":true,"version":"7757534","steam_id":85568392924742829,"keywords":["nocrits","nodmgspread","payload","uncletopia"],"game_id":440,"stv_port":27056,"stv_name":"Uncletopia | London | 5 | All Maps | STV","players":null},{"server_id":22,"name":"Uncletopia | London | 6 | All Maps","name_short":"lon-6","host":"lon-1.uk.uncletopia.com","port":27065,"enabled":true,"region":"eu","cc":"gb","latitude":51.509865,"longitude":-0.118092,"reserved":0,"last_update":"0001-01-01T00:00:00Z","name_a2s":"Uncletopia | London | 6 | All Maps","protocol":17,"map":"koth_cascade","folder":"tf","game":"Team Fortress","app_id":440,"player_count":0,"max_players":24,"Bots":0,"server_type":"Dedicated","server_os":"Linux","password":true,"vac":true,"version":"7757534","steam_id":85568392924742830,"keywords":["cp","nocrits","nodmgspread","uncletopia"],"game_id":440,"stv_port":27066,"stv_name":"Uncletopia | London | 6 | All Maps | STV","players":null},{"server_id":40,"name":"Uncletopia | London | 7 | No Payload","name_short":"lon-7","host":"lon-1.uk.uncletopia.com","port":27075,"enabled":true,"region":"eu","cc":"gb","latitude":51.509865,"longitude":-0.118092,"reserved":0,"last_update":"0001-01-01T00:00:00Z","name_a2s":"Uncletopia | London | 7 | No Payload","protocol":17,"map":"cp_5gorge","folder":"tf","game":"Team Fortress","app_id":440,"player_count":21,"max_players":24,"Bots":0,"server_type":"Dedicated","server_os":"Linux","password":true,"vac":true,"version":"7757534","steam_id":85568392924964314,"keywords":["cp","nocrits","nodmgspread","uncletopia"],"game_id":440,"stv_port":27076,"stv_name":"Uncletopia | London | 7 | No Payload | STV","players":[{"user_id":12,"name":"Mowelic","steam_id":76561198873641222,"connected_time":927000000000,"state":"active","ping":86},{"user_id":10,"name":"rolaray","steam_id":76561198218012025,"connected_time":1040000000000,"state":"active","ping":89},{"user_id":11,"name":"Swedde","steam_id":76561198297296440,"connected_time":1011000000000,"state":"active","ping":63},{"user_id":15,"name":"Cheekus Breekus","steam_id":76561198188310329,"connected_time":745000000000,"state":"active","ping":100},{"user_id":16,"name":"cof","steam_id":76561199128417805,"connected_time":735000000000,"state":"active","ping":58},{"user_id":17,"name":"Hypno_Flower","steam_id":76561199225893185,"connected_time":687000000000,"state":"active","ping":51},{"user_id":20,"name":"Dedeil","steam_id":76561198254839532,"connected_time":615000000000,"state":"active","ping":56},{"user_id":19,"name":"Was_Wolf","steam_id":76561199153210310,"connected_time":634000000000,"state":"active","ping":83},{"user_id":21,"name":"❤ Susie ❤","steam_id":76561198330190696,"connected_time":566000000000,"state":"active","ping":74},{"user_id":22,"name":"wamw","steam_id":76561199206660048,"connected_time":541000000000,"state":"active","ping":68},{"user_id":23,"name":"Денис Базука","steam_id":76561198835849082,"connected_time":535000000000,"state":"active","ping":101},{"user_id":24,"name":"the real lancer from deltarune","steam_id":76561199078505144,"connected_time":483000000000,"state":"active","ping":90},{"user_id":25,"name":"BingusDingus","steam_id":76561198310983903,"connected_time":441000000000,"state":"active","ping":49},{"user_id":26,"name":"Garden Freeman","steam_id":76561199073314677,"connected_time":399000000000,"state":"active","ping":81},{"user_id":27,"name":"Ivan the Terrible","steam_id":76561198139595241,"connected_time":367000000000,"state":"active","ping":88},{"user_id":30,"name":"SkellyBoaty","steam_id":76561198283661095,"connected_time":297000000000,"state":"active","ping":73},{"user_id":31,"name":"Milkano","steam_id":76561198862931339,"connected_time":281000000000,"state":"active","ping":74},{"user_id":32,"name":"Mr Xbow","steam_id":76561198862864460,"connected_time":279000000000,"state":"active","ping":52},{"user_id":33,"name":"lomse_","steam_id":76561198146939162,"connected_time":213000000000,"state":"active","ping":48},{"user_id":34,"name":"Le Nain","steam_id":76561198050638632,"connected_time":186000000000,"state":"active","ping":70},{"user_id":38,"name":"medicinal man","steam_id":76561198202668788,"connected_time":86000000000,"state":"active","ping":74}]},{"server_id":41,"name":"Uncletopia | London | 8 | Community","name_short":"lon-8","host":"lon-1.uk.uncletopia.com","port":27085,"enabled":true,"region":"eu","cc":"gb","latitude":51.509865,"longitude":-0.118092,"reserved":0,"last_update":"0001-01-01T00:00:00Z","name_a2s":"Uncletopia | London | 8 | Community","protocol":17,"map":"workshop/pl_highwood_b13.ugc1769496557","folder":"tf","game":"Team Fortress","app_id":440,"player_count":0,"max_players":24,"Bots":0,"server_type":"Dedicated","server_os":"Linux","password":true,"vac":true,"version":"7757534","steam_id":85568392924964315,"keywords":["nocrits","nodmgspread","payload","uncletopia"],"game_id":440,"stv_port":27086,"stv_name":"Uncletopia | London | 8 | Community | STV","players":null},{"server_id":300,"name":"Uncletopia | Montréal | 1 | All Maps","name_short":"mtl-1","host":"mtl-1.ca.uncletopia.com","port":27015,"enabled":true,"region":"us-east","cc":"ca","latitude":45.50889,"longitude":-73.56167,"reserved":0,"last_update":"0001-01-01T00:00:00Z","name_a2s":"Uncletopia | Montréal | 1 | All Maps","protocol":17,"map":"pl_snowycoast","folder":"tf","game":"Team Fortress","app_id":440,"player_count":0,"max_players":24,"Bots":0,"server_type":"Dedicated","server_os":"Linux","password":true,"vac":true,"version":"7757534","steam_id":85568392924500087,"keywords":["nocrits","nodmgspread","payload","uncletopia"],"game_id":440,"stv_port":27016,"stv_name":"Uncletopia | Montréal | 1 | All Maps | STV","players":null},{"server_id":301,"name":"Uncletopia | Montréal | 2 | All Maps","name_short":"mtl-2","host":"mtl-1.ca.uncletopia.com","port":27025,"enabled":true,"region":"us-east","cc":"ca","latitude":45.50889,"longitude":-73.56167,"reserved":0,"last_update":"0001-01-01T00:00:00Z","name_a2s":"Uncletopia | Montréal | 2 | All Maps","protocol":17,"map":"pl_snowycoast","folder":"tf","game":"Team Fortress","app_id":440,"player_count":0,"max_players":24,"Bots":0,"server_type":"Dedicated","server_os":"Linux","password":true,"vac":true,"version":"7757534","steam_id":85568392924500088,"keywords":["nocrits","nodmgspread","payload","uncletopia"],"game_id":440,"stv_port":27026,"stv_name":"Uncletopia | Montréal | 2 | All Maps | STV","players":null},{"server_id":302,"name":"Uncletopia | Montréal | 3 | All Maps","name_short":"mtl-3","host":"mtl-1.ca.uncletopia.com","port":27035,"enabled":true,"region":"us-east","cc":"ca","latitude":45.50889,"longitude":-73.56167,"reserved":0,"last_update":"0001-01-01T00:00:00Z","name_a2s":"Uncletopia | Montréal | 3 | All Maps","protocol":17,"map":"cp_dustbowl","folder":"tf","game":"Team Fortress","app_id":440,"player_count":0,"max_players":24,"Bots":0,"server_type":"Dedicated","server_os":"Linux","password":true,"vac":true,"version":"7757534","steam_id":85568392924500089,"keywords":["cp","nocrits","nodmgspread","uncletopia"],"game_id":440,"stv_port":27036,"stv_name":"Uncletopia | Montréal | 3 | All Maps | STV","players":null},{"server_id":303,"name":"Uncletopia | Montréal | 4 | No Payload","name_short":"mtl-4","host":"mtl-1.ca.uncletopia.com","port":27045,"enabled":true,"region":"us-east","cc":"ca","latitude":45.50889,"longitude":-73.56167,"reserved":0,"last_update":"0001-01-01T00:00:00Z","name_a2s":"Uncletopia | Montréal | 4 | No Payload","protocol":17,"map":"pl_borneo","folder":"tf","game":"Team Fortress","app_id":440,"player_count":0,"max_players":24,"Bots":0,"server_type":"Dedicated","server_os":"Linux","password":true,"vac":true,"version":"7757534","steam_id":85568392924500090,"keywords":["nocrits","nodmgspread","payload","uncletopia"],"game_id":440,"stv_port":27046,"stv_name":"Uncletopia | Montréal | 4 | No Payload | STV","players":null},{"server_id":13,"name":"Uncletopia | New York City | 1 | All Maps","name_short":"nyc-1","host":"nyc-1.us.uncletopia.com","port":27015,"enabled":true,"region":"us-east","cc":"us","latitude":40.73061,"longitude":-73.93524,"reserved":0,"last_update":"0001-01-01T00:00:00Z","name_a2s":"Uncletopia | New York City | 1 | All Maps","protocol":17,"map":"koth_cascade","folder":"tf","game":"Team Fortress","app_id":440,"player_count":0,"max_players":24,"Bots":0,"server_type":"Dedicated","server_os":"Linux","password":true,"vac":true,"version":"7757534","steam_id":85568392924469993,"keywords":["cp","nocrits","nodmgspread","uncletopia"],"game_id":440,"stv_port":27016,"stv_name":"Uncletopia | New York City | 1 | All Maps | STV","players":null},{"server_id":14,"name":"Uncletopia | New York City | 2 | All Maps","name_short":"nyc-2","host":"nyc-1.us.uncletopia.com","port":27025,"enabled":true,"region":"us-east","cc":"us","latitude":40.73061,"longitude":-73.93524,"reserved":0,"last_update":"0001-01-01T00:00:00Z","name_a2s":"Uncletopia | New York City | 2 | All Maps","protocol":17,"map":"pl_pier","folder":"tf","game":"Team Fortress","app_id":440,"player_count":0,"max_players":24,"Bots":0,"server_type":"Dedicated","server_os":"Linux","password":true,"vac":true,"version":"7757534","steam_id":85568392924469994,"keywords":["nocrits","nodmgspread","payload","uncletopia"],"game_id":440,"stv_port":27026,"stv_name":"Uncletopia | New York City | 2 | All Maps | STV","players":null},{"server_id":15,"name":"Uncletopia | New York City | 3 | Stopwatch Beta","name_short":"nyc-3","host":"nyc-1.us.uncletopia.com","port":27035,"enabled":true,"region":"us-east","cc":"us","latitude":40.73061,"longitude":-73.93524,"reserved":0,"last_update":"0001-01-01T00:00:00Z","name_a2s":"Uncletopia | New York City | 3 | Stopwatch Beta","protocol":17,"map":"cp_mountainlab","folder":"tf","game":"Team Fortress","app_id":440,"player_count":0,"max_players":24,"Bots":0,"server_type":"Dedicated","server_os":"Linux","password":true,"vac":true,"version":"7757534","steam_id":85568392924742820,"keywords":["cp","nocrits","nodmgspread","uncletopia"],"game_id":440,"stv_port":27036,"stv_name":"Uncletopia | New York City | 3 | Stopwatch Beta | STV","players":null},{"server_id":16,"name":"Uncletopia | New York City | 4 | Community","name_short":"nyc-4","host":"nyc-1.us.uncletopia.com","port":27045,"enabled":true,"region":"us-east","cc":"us","latitude":40.73061,"longitude":-73.93524,"reserved":0,"last_update":"0001-01-01T00:00:00Z","name_a2s":"Uncletopia | New York City | 4 | Community","protocol":17,"map":"pl_borneo","folder":"tf","game":"Team Fortress","app_id":440,"player_count":0,"max_players":24,"Bots":0,"server_type":"Dedicated","server_os":"Linux","password":true,"vac":true,"version":"7757534","steam_id":85568392924742821,"keywords":["nocrits","nodmgspread","payload","uncletopia"],"game_id":440,"stv_port":27046,"stv_name":"Uncletopia | New York City | 4 | Community | STV","players":null},{"server_id":142,"name":"Uncletopia | São Paulo | 1 | All Maps","name_short":"sao-1","host":"sao-1.br.uncletopia.com","port":27015,"enabled":true,"region":"sa","cc":"br","latitude":-23.533773,"longitude":-46.62529,"reserved":0,"last_update":"0001-01-01T00:00:00Z","name_a2s":"Uncletopia | São Paulo | 1 | All Maps","protocol":17,"map":"pl_badwater","folder":"tf","game":"Team Fortress","app_id":440,"player_count":0,"max_players":24,"Bots":0,"server_type":"Dedicated","server_os":"Linux","password":true,"vac":true,"version":"7757534","steam_id":85568392924469996,"keywords":["nocrits","nodmgspread","payload","uncletopia"],"game_id":440,"stv_port":27016,"stv_name":"Uncletopia | São Paulo | 1 | All Maps | STV","players":null},{"server_id":143,"name":"Uncletopia | São Paulo | 2 | All Maps","name_short":"sao-2","host":"sao-2.br.uncletopia.com","port":27015,"enabled":true,"region":"sa","cc":"br","latitude":-23.533773,"longitude":-46.62529,"reserved":0,"last_update":"0001-01-01T00:00:00Z","name_a2s":"Uncletopia | São Paulo | 2 | All Maps","protocol":17,"map":"pl_borneo","folder":"tf","game":"Team Fortress","app_id":440,"player_count":0,"max_players":24,"Bots":0,"server_type":"Dedicated","server_os":"Linux","password":true,"vac":true,"version":"7757534","steam_id":85568392924485349,"keywords":["nocrits","nodmgspread","payload","uncletopia"],"game_id":440,"stv_port":27016,"stv_name":"Uncletopia | São Paulo | 2 | All Maps | STV","players":null},{"server_id":7,"name":"Uncletopia | Seattle | 1 | All Maps","name_short":"sea-1","host":"sea-1.us.uncletopia.com","port":27015,"enabled":true,"region":"us-west","cc":"us","latitude":47.608013,"longitude":-122.33517,"reserved":0,"last_update":"0001-01-01T00:00:00Z","name_a2s":"Uncletopia | Seattle | 1 | All Maps","protocol":17,"map":"plr_bananabay","folder":"tf","game":"Team Fortress","app_id":440,"player_count":24,"max_players":24,"Bots":0,"server_type":"Dedicated","server_os":"Linux","password":true,"vac":true,"version":"7757534","steam_id":85568392924469997,"keywords":["nocrits","nodmgspread","payload","uncletopia"],"game_id":440,"stv_port":27016,"stv_name":"Uncletopia | Seattle | 1 | All Maps | STV","players":[{"user_id":936,"name":"Kitty Kisses","steam_id":76561198055368938,"connected_time":1571000000000,"state":"active","ping":78},{"user_id":935,"name":"Lamy","steam_id":76561198348354629,"connected_time":1599000000000,"state":"active","ping":65},{"user_id":947,"name":"ChaoticAngel","steam_id":76561198293528217,"connected_time":376000000000,"state":"active","ping":120},{"user_id":913,"name":"Fajita Master","steam_id":76561198329150962,"connected_time":3540000000000,"state":"active","ping":75},{"user_id":928,"name":"Professor Peppermint","steam_id":76561198184017082,"connected_time":2231000000000,"state":"active","ping":101},{"user_id":929,"name":"Stovi3t","steam_id":76561198833276190,"connected_time":2223000000000,"state":"active","ping":68},{"user_id":954,"name":"Griffin","steam_id":76561198159339442,"connected_time":131000000000,"state":"active","ping":116},{"user_id":912,"name":"lavender","steam_id":76561199069518286,"connected_time":3900000000000,"state":"active","ping":70},{"user_id":946,"name":"Kartyac","steam_id":76561197991069005,"connected_time":402000000000,"state":"active","ping":134},{"user_id":937,"name":"fishystick gaming","steam_id":76561198000744865,"connected_time":1571000000000,"state":"active","ping":48},{"user_id":951,"name":"Drying Pan","steam_id":76561199165328652,"connected_time":294000000000,"state":"active","ping":65},{"user_id":861,"name":"smeasly","steam_id":76561198028718812,"connected_time":8261000000000,"state":"active","ping":42},{"user_id":940,"name":"poopass","steam_id":76561197988226228,"connected_time":800000000000,"state":"active","ping":107},{"user_id":949,"name":"trackpad gaming | f2p","steam_id":76561198840414371,"connected_time":315000000000,"state":"active","ping":50},{"user_id":938,"name":"pickle","steam_id":76561198115269587,"connected_time":1458000000000,"state":"active","ping":114},{"user_id":902,"name":"teh mummy","steam_id":76561198044123636,"connected_time":4904000000000,"state":"active","ping":60},{"user_id":926,"name":"maiden abyss","steam_id":76561198968958854,"connected_time":2483000000000,"state":"active","ping":55},{"user_id":950,"name":"doobiebob","steam_id":76561198071963742,"connected_time":305000000000,"state":"active","ping":86},{"user_id":952,"name":"downhillchaos","steam_id":76561198079462284,"connected_time":293000000000,"state":"active","ping":53},{"user_id":906,"name":"riri ᗜᴗᗜ","steam_id":76561198055462404,"connected_time":4814000000000,"state":"active","ping":71},{"user_id":953,"name":"{YT} Sayori Fortress 2","steam_id":76561198988657191,"connected_time":178000000000,"state":"active","ping":114},{"user_id":956,"name":"hardfork","steam_id":76561197960958019,"connected_time":68000000000,"state":"active","ping":49},{"user_id":892,"name":"Bryce Gobo","steam_id":76561199411560141,"connected_time":5827000000000,"state":"active","ping":49},{"user_id":942,"name":"Tokoda","steam_id":76561198843459019,"connected_time":626000000000,"state":"active","ping":72}]},{"server_id":119,"name":"Uncletopia | Seattle | 2 | All Maps","name_short":"sea-2","host":"sea-1.us.uncletopia.com","port":27025,"enabled":true,"region":"us-west","cc":"us","latitude":47.608013,"longitude":-122.33517,"reserved":0,"last_update":"0001-01-01T00:00:00Z","name_a2s":"Uncletopia | Seattle | 2 | All Maps","protocol":17,"map":"koth_cascade","folder":"tf","game":"Team Fortress","app_id":440,"player_count":5,"max_players":24,"Bots":0,"server_type":"Dedicated","server_os":"Linux","password":true,"vac":true,"version":"7757534","steam_id":85568392924469998,"keywords":["cp","nocrits","nodmgspread","uncletopia"],"game_id":440,"stv_port":27026,"stv_name":"Uncletopia | Seattle | 2 | All Maps | STV","players":[{"user_id":891,"name":"Roko","steam_id":76561199265247548,"connected_time":210000000000,"state":"active","ping":95},{"user_id":887,"name":"JAUNDIZER","steam_id":76561199068565222,"connected_time":1535000000000,"state":"active","ping":44},{"user_id":885,"name":"Brain Rot Zee","steam_id":76561198094070642,"connected_time":2104000000000,"state":"active","ping":84},{"user_id":889,"name":"Lag","steam_id":76561198983494186,"connected_time":991000000000,"state":"active","ping":136},{"user_id":787,"name":"too funky ᗜˬᗜ","steam_id":76561199120399776,"connected_time":10864000000000,"state":"active","ping":65}]},{"server_id":406,"name":"Uncletopia | Seattle | 3 | Stopwatch Beta","name_short":"sea-3","host":"sea-1.us.uncletopia.com","port":27035,"enabled":true,"region":"us-west","cc":"us","latitude":47.608013,"longitude":-122.33517,"reserved":0,"last_update":"0001-01-01T00:00:00Z","name_a2s":"Uncletopia | Seattle | 3 | Stopwatch Beta","protocol":17,"map":"workshop/koth_product_final.ugc454272353","folder":"tf","game":"Team Fortress","app_id":440,"player_count":0,"max_players":24,"Bots":0,"server_type":"Dedicated","server_os":"Linux","password":true,"vac":true,"version":"7757534","steam_id":85568392924515217,"keywords":["cp","nocrits","nodmgspread","uncletopia"],"game_id":440,"stv_port":27036,"stv_name":"Uncletopia | Seattle | 3 | Stopwatch Beta | STV","players":null},{"server_id":17,"name":"Uncletopia | San Francisco | 1 | All Maps","name_short":"sfo-1","host":"sfo-1.us.uncletopia.com","port":27015,"enabled":true,"region":"us-west","cc":"us","latitude":37.77397,"longitude":-122.4313,"reserved":0,"last_update":"0001-01-01T00:00:00Z","name_a2s":"Uncletopia | San Francisco | 1 | All Maps","protocol":17,"map":"koth_cascade","folder":"tf","game":"Team Fortress","app_id":440,"player_count":0,"max_players":24,"Bots":0,"server_type":"Dedicated","server_os":"Linux","password":true,"vac":true,"version":"7757534","steam_id":85568392924469999,"keywords":["cp","nocrits","nodmgspread","uncletopia"],"game_id":440,"stv_port":27016,"stv_name":"Uncletopia | San Francisco | 1 | All Maps | STV","players":null},{"server_id":18,"name":"Uncletopia | San Francisco | 2 | All Maps","name_short":"sfo-2","host":"sfo-1.us.uncletopia.com","port":27025,"enabled":true,"region":"us-west","cc":"us","latitude":37.77397,"longitude":-122.4313,"reserved":0,"last_update":"0001-01-01T00:00:00Z","name_a2s":"Uncletopia | San Francisco | 2 | All Maps","protocol":17,"map":"cp_process_final","folder":"tf","game":"Team Fortress","app_id":440,"player_count":0,"max_players":24,"Bots":0,"server_type":"Dedicated","server_os":"Linux","password":true,"vac":true,"version":"7757534","steam_id":85568392924470000,"keywords":["cp","nocrits","nodmgspread","uncletopia"],"game_id":440,"stv_port":27026,"stv_name":"Uncletopia | San Francisco | 2 | All Maps | STV","players":null},{"server_id":19,"name":"Uncletopia | San Francisco | 3 | Stopwatch Beta","name_short":"sfo-3","host":"sfo-1.us.uncletopia.com","port":27035,"enabled":true,"region":"us-west","cc":"us","latitude":37.77397,"longitude":-122.4313,"reserved":0,"last_update":"0001-01-01T00:00:00Z","name_a2s":"Uncletopia | San Francisco | 3 | Stopwatch Beta","protocol":17,"map":"pl_borneo","folder":"tf","game":"Team Fortress","app_id":440,"player_count":0,"max_players":24,"Bots":0,"server_type":"Dedicated","server_os":"Linux","password":true,"vac":true,"version":"7757534","steam_id":85568392924742824,"keywords":["nocrits","nodmgspread","payload","uncletopia"],"game_id":440,"stv_port":27036,"stv_name":"Uncletopia | San Francisco | 3 | Stopwatch Beta | STV","players":null},{"server_id":20,"name":"Uncletopia | San Francisco | 4 | Community","name_short":"sfo-4","host":"sfo-1.us.uncletopia.com","port":27045,"enabled":true,"region":"us-west","cc":"us","latitude":37.77397,"longitude":-122.4313,"reserved":0,"last_update":"0001-01-01T00:00:00Z","name_a2s":"Uncletopia | San Francisco | 4 | Community","protocol":17,"map":"workshop/koth_bagel_rc5.ugc2514036946","folder":"tf","game":"Team Fortress","app_id":440,"player_count":0,"max_players":24,"Bots":0,"server_type":"Dedicated","server_os":"Linux","password":true,"vac":true,"version":"7757534","steam_id":85568392924742826,"keywords":["cp","nocrits","nodmgspread","uncletopia"],"game_id":440,"stv_port":27046,"stv_name":"Uncletopia | San Francisco | 4 | Community | STV","players":null},{"server_id":141,"name":"Uncletopia | Sydney | 1 | All Maps","name_short":"syd-1","host":"syd-1.au.uncletopia.com","port":27015,"enabled":true,"region":"au","cc":"au","latitude":-33.865143,"longitude":151.2099,"reserved":0,"last_update":"0001-01-01T00:00:00Z","name_a2s":"Uncletopia | Sydney | 1 | All Maps","protocol":17,"map":"cp_mountainlab","folder":"tf","game":"Team Fortress","app_id":440,"player_count":0,"max_players":24,"Bots":0,"server_type":"Dedicated","server_os":"Linux","password":true,"vac":true,"version":"7757534","steam_id":85568392924470001,"keywords":["cp","nocrits","nodmgspread","uncletopia"],"game_id":440,"stv_port":27016,"stv_name":"Uncletopia | Sydney | 1 | All Maps | STV","players":null},{"server_id":123,"name":"Uncletopia | Sydney | 2 | All Maps","name_short":"syd-2","host":"syd-1.au.uncletopia.com","port":27025,"enabled":true,"region":"au","cc":"au","latitude":-33.865143,"longitude":151.2099,"reserved":0,"last_update":"0001-01-01T00:00:00Z","name_a2s":"Uncletopia | Sydney | 2 | All Maps","protocol":17,"map":"cp_steel","folder":"tf","game":"Team Fortress","app_id":440,"player_count":18,"max_players":24,"Bots":0,"server_type":"Dedicated","server_os":"Linux","password":true,"vac":true,"version":"7757534","steam_id":85568392924470002,"keywords":["cp","nocrits","nodmgspread","uncletopia"],"game_id":440,"stv_port":27026,"stv_name":"Uncletopia | Sydney | 2 | All Maps | STV","players":[{"user_id":284,"name":"Oysenberry","steam_id":76561198125443335,"connected_time":3756000000000,"state":"active","ping":43},{"user_id":300,"name":"scuba cat... my beloved","steam_id":76561198203917953,"connected_time":2076000000000,"state":"active","ping":65},{"user_id":330,"name":"Just Brando","steam_id":76561198914415738,"connected_time":386000000000,"state":"active","ping":61},{"user_id":291,"name":"Charles the Movie","steam_id":76561198071250884,"connected_time":2902000000000,"state":"active","ping":54},{"user_id":321,"name":"XenoConroy","steam_id":76561198299737803,"connected_time":863000000000,"state":"active","ping":81},{"user_id":333,"name":"Sulu","steam_id":76561198298126905,"connected_time":0,"state":"spawning","ping":11},{"user_id":272,"name":"steame17","steam_id":76561199387872784,"connected_time":4130000000000,"state":"active","ping":167},{"user_id":323,"name":"LightningBlock","steam_id":76561198289997742,"connected_time":763000000000,"state":"active","ping":40},{"user_id":185,"name":"Robert Feigen","steam_id":76561198038261903,"connected_time":9378000000000,"state":"spawning","ping":32},{"user_id":222,"name":"Apteryx","steam_id":76561197976460834,"connected_time":6418000000000,"state":"active","ping":63},{"user_id":332,"name":"A Purple Swirl","steam_id":76561197994590608,"connected_time":142000000000,"state":"active","ping":44},{"user_id":293,"name":"RoverTw0","steam_id":76561198025416071,"connected_time":2782000000000,"state":"active","ping":40},{"user_id":309,"name":"uncle david","steam_id":76561198282686781,"connected_time":1808000000000,"state":"spawning","ping":37},{"user_id":298,"name":"Ratbagus","steam_id":76561197993827486,"connected_time":2340000000000,"state":"active","ping":72},{"user_id":325,"name":"Matt","steam_id":76561198006791420,"connected_time":694000000000,"state":"spawning","ping":78},{"user_id":262,"name":"Corrupt","steam_id":76561198008567328,"connected_time":4566000000000,"state":"active","ping":106},{"user_id":329,"name":"Bin","steam_id":76561199117653318,"connected_time":490000000000,"state":"active","ping":68},{"user_id":312,"name":"MikkyD","steam_id":76561198043452962,"connected_time":1731000000000,"state":"active","ping":61}]},{"server_id":395,"name":"Uncletopia | Sydney | 3 | All Maps","name_short":"syd-3","host":"syd-1.au.uncletopia.com","port":27035,"enabled":true,"region":"au","cc":"au","latitude":-33.865143,"longitude":151.2099,"reserved":0,"last_update":"0001-01-01T00:00:00Z","name_a2s":"Uncletopia | Sydney | 3 | All Maps","protocol":17,"map":"pl_barnblitz","folder":"tf","game":"Team Fortress","app_id":440,"player_count":0,"max_players":24,"Bots":0,"server_type":"Dedicated","server_os":"Linux","password":true,"vac":true,"version":"7757534","steam_id":85568392925194467,"keywords":["nocrits","nodmgspread","payload","uncletopia"],"game_id":440,"stv_port":27036,"stv_name":"Uncletopia | Sydney | 3 | All Maps | STV","players":null},{"server_id":396,"name":"Uncletopia | Sydney | 4 | All Maps","name_short":"syd-4","host":"syd-1.au.uncletopia.com","port":27045,"enabled":true,"region":"au","cc":"au","latitude":-33.865143,"longitude":151.2099,"reserved":0,"last_update":"0001-01-01T00:00:00Z","name_a2s":"Uncletopia | Sydney | 4 | All Maps","protocol":17,"map":"koth_viaduct","folder":"tf","game":"Team Fortress","app_id":440,"player_count":0,"max_players":24,"Bots":0,"server_type":"Dedicated","server_os":"Linux","password":true,"vac":true,"version":"7757534","steam_id":85568392925397958,"keywords":["cp","nocrits","nodmgspread","uncletopia"],"game_id":440,"stv_port":27046,"stv_name":"Uncletopia | Sydney | 4 | All Maps | STV","players":null},{"server_id":58,"name":"Uncletopia | Sydney | 5 | Stopwatch Beta","name_short":"syd-5","host":"syd-1.au.uncletopia.com","port":27055,"enabled":true,"region":"au","cc":"au","latitude":-33.865143,"longitude":151.2099,"reserved":0,"last_update":"0001-01-01T00:00:00Z","name_a2s":"Uncletopia | Sydney | 5 | Stopwatch Beta","protocol":17,"map":"workshop/koth_ramjam_rc1.ugc459778887","folder":"tf","game":"Team Fortress","app_id":440,"player_count":0,"max_players":24,"Bots":0,"server_type":"Dedicated","server_os":"Linux","password":true,"vac":true,"version":"7757534","steam_id":85568392925397959,"keywords":["cp","nocrits","nodmgspread","uncletopia"],"game_id":440,"stv_port":27056,"stv_name":"Uncletopia | Sydney | 5 | Stopwatch Beta | STV","players":null},{"server_id":59,"name":"Uncletopia | Sydney | 6 | Community","name_short":"syd-6","host":"syd-1.au.uncletopia.com","port":27065,"enabled":true,"region":"au","cc":"au","latitude":-33.865143,"longitude":151.2099,"reserved":0,"last_update":"0001-01-01T00:00:00Z","name_a2s":"Uncletopia | Sydney | 6 | Community","protocol":17,"map":"cp_sunshine","folder":"tf","game":"Team Fortress","app_id":440,"player_count":0,"max_players":24,"Bots":0,"server_type":"Dedicated","server_os":"Linux","password":true,"vac":true,"version":"7757534","steam_id":85568392925397960,"keywords":["cp","nocrits","nodmgspread","uncletopia"],"game_id":440,"stv_port":27066,"stv_name":"Uncletopia | Sydney | 6 | Community | STV","players":null},{"server_id":49,"name":"Uncletopia | Warsaw | 1 | All Maps","name_short":"waw-1","host":"waw-1.pl.uncletopia.com","port":27015,"enabled":true,"region":"eu","cc":"pl","latitude":52.2297,"longitude":21.017532,"reserved":0,"last_update":"0001-01-01T00:00:00Z","name_a2s":"","protocol":0,"map":"","folder":"","game":"","app_id":0,"player_count":0,"max_players":0,"Bots":0,"server_type":"","server_os":"","password":false,"vac":false,"version":"","steam_id":0,"keywords":null,"game_id":0,"stv_port":0,"stv_name":"","players":null},{"server_id":50,"name":"Uncletopia | Warsaw | 2 | All Maps","name_short":"waw-2","host":"waw-1.pl.uncletopia.com","port":27025,"enabled":true,"region":"eu","cc":"pl","latitude":52.2297,"longitude":21.017532,"reserved":0,"last_update":"0001-01-01T00:00:00Z","name_a2s":"Uncletopia | Warsaw | 2 | All Maps","protocol":17,"map":"koth_viaduct","folder":"tf","game":"Team Fortress","app_id":440,"player_count":0,"max_players":24,"Bots":0,"server_type":"Dedicated","server_os":"Linux","password":true,"vac":true,"version":"7757534","steam_id":85568392925397851,"keywords":["cp","nocrits","nodmgspread","uncletopia"],"game_id":440,"stv_port":27026,"stv_name":"Uncletopia | Warsaw | 2 | All Maps | STV","players":null},{"server_id":51,"name":"Uncletopia | Warsaw | 3 | All Maps","name_short":"waw-3","host":"waw-1.pl.uncletopia.com","port":27035,"enabled":true,"region":"eu","cc":"pl","latitude":52.2297,"longitude":21.017532,"reserved":0,"last_update":"0001-01-01T00:00:00Z","name_a2s":"Uncletopia | Warsaw | 3 | All Maps","protocol":17,"map":"pl_barnblitz","folder":"tf","game":"Team Fortress","app_id":440,"player_count":0,"max_players":24,"Bots":0,"server_type":"Dedicated","server_os":"Linux","password":true,"vac":true,"version":"7757534","steam_id":85568392925397852,"keywords":["nocrits","nodmgspread","payload","uncletopia"],"game_id":440,"stv_port":27036,"stv_name":"Uncletopia | Warsaw | 3 | All Maps | STV","players":null},{"server_id":52,"name":"Uncletopia | Warsaw | 4 | All Maps","name_short":"waw-4","host":"waw-1.pl.uncletopia.com","port":27045,"enabled":true,"region":"eu","cc":"pl","latitude":52.2297,"longitude":21.017532,"reserved":0,"last_update":"0001-01-01T00:00:00Z","name_a2s":"Uncletopia | Warsaw | 4 | All Maps","protocol":17,"map":"pl_snowycoast","folder":"tf","game":"Team Fortress","app_id":440,"player_count":0,"max_players":24,"Bots":0,"server_type":"Dedicated","server_os":"Linux","password":true,"vac":true,"version":"7757534","steam_id":85568392925397853,"keywords":["nocrits","nodmgspread","payload","uncletopia"],"game_id":440,"stv_port":27046,"stv_name":"Uncletopia | Warsaw | 4 | All Maps | STV","players":null},{"server_id":53,"name":"Uncletopia | Warsaw | 5 | Stopwatch Beta","name_short":"waw-5","host":"waw-1.pl.uncletopia.com","port":27055,"enabled":true,"region":"eu","cc":"pl","latitude":52.2297,"longitude":21.017532,"reserved":0,"last_update":"0001-01-01T00:00:00Z","name_a2s":"Uncletopia | Warsaw | 5 | Stopwatch Beta","protocol":17,"map":"pl_barnblitz","folder":"tf","game":"Team Fortress","app_id":440,"player_count":0,"max_players":24,"Bots":0,"server_type":"Dedicated","server_os":"Linux","password":true,"vac":true,"version":"7757534","steam_id":85568392925397854,"keywords":["nocrits","nodmgspread","payload","uncletopia"],"game_id":440,"stv_port":27056,"stv_name":"Uncletopia | Warsaw | 5 | Stopwatch Beta | STV","players":null},{"server_id":54,"name":"Uncletopia | Warsaw | 6 | Community","name_short":"waw-6","host":"waw-1.pl.uncletopia.com","port":27065,"enabled":true,"region":"eu","cc":"pl","latitude":52.2297,"longitude":21.017532,"reserved":0,"last_update":"0001-01-01T00:00:00Z","name_a2s":"Uncletopia | Warsaw | 6 | Community","protocol":17,"map":"pl_swiftwater_final1","folder":"tf","game":"Team Fortress","app_id":440,"player_count":0,"max_players":24,"Bots":0,"server_type":"Dedicated","server_os":"Linux","password":true,"vac":true,"version":"7757534","steam_id":85568392925397856,"keywords":["nocrits","nodmgspread","payload","uncletopia"],"game_id":440,"stv_port":27066,"stv_name":"Uncletopia | Warsaw | 6 | Community | STV","players":null}]}