{"status":true,"message":"","result":[{"server_id":9,"name":"Uncletopia | Atlanta | 1 | All Maps","name_short":"atl-1","host":"atl-1.us.uncletopia.com","port":27015,"enabled":true,"region":"us-east","cc":"us","latitude":33.753746,"longitude":-84.38633,"reserved":0,"last_update":"0001-01-01T00:00:00Z","name_a2s":"Uncletopia | Atlanta | 1 | All Maps","protocol":17,"map":"pl_upward","folder":"tf","game":"Team Fortress","app_id":440,"player_count":24,"max_players":24,"Bots":0,"server_type":"Dedicated","server_os":"Linux","password":true,"vac":true,"version":"7723704","steam_id":85568392924469982,"keywords":["nocrits","nodmgspread","payload","uncletopia"],"game_id":440,"stv_port":27016,"stv_name":"Uncletopia | Atlanta | 1 | All Maps | STV","players":[{"user_id":58,"name":"Warlock","steam_id":76561198801747883,"connected_time":6648000000000,"state":"active","ping":89},{"user_id":151,"name":"Lost (15)","steam_id":76561198093713427,"connected_time":286000000000,"state":"active","ping":93},{"user_id":89,"name":"stink","steam_id":76561198099318923,"connected_time":4870000000000,"state":"active","ping":87},{"user_id":149,"name":"ZRMicrowave","steam_id":76561198288574525,"connected_time":321000000000,"state":"active","ping":70},{"user_id":153,"name":"Pure Cancer","steam_id":76561198059048859,"connected_time":218000000000,"state":"active","ping":75},{"user_id":152,"name":"T.w¬≤ | Sliced Bread","steam_id":76561198128489595,"connected_time":224000000000,"state":"active","ping":95},{"user_id":141,"name":"Phestive Pango","steam_id":76561198069811545,"connected_time":1071000000000,"state":"active","ping":47},{"user_id":55,"name":"Warme Perle","steam_id":76561198020071321,"connected_time":7122000000000,"state":"active","ping":150},{"user_id":140,"name":"vid_","steam_id":76561198065159053,"connected_time":1560000000000,"state":"active","ping":49},{"user_id":113,"name":"coolkid ARG#1!!","steam_id":76561198072600034,"connected_time":3547000000000,"state":"active","ping":98},{"user_id":139,"name":"eredyn","steam_id":76561198868116439,"connected_time":1779000000000,"state":"active","ping":74},{"user_id":108,"name":"SnowStorm (No Audio)","steam_id":76561198095817025,"connected_time":4040000000000,"state":"active","ping":39},{"user_id":116,"name":"shadow","steam_id":76561198161824724,"connected_time":3341000000000,"state":"active","ping":104},{"user_id":117,"name":"Apachegg","steam_id":76561199407948948,"connected_time":3336000000000,"state":"active","ping":91},{"user_id":150,"name":"‚ô•Ranman‚ô•Femboy‚ô•","steam_id":76561198042144492,"connected_time":311000000000,"state":"active","ping":47},{"user_id":154,"name":"self loathing and boredom","steam_id":76561198088529360,"connected_time":199000000000,"state":"active","ping":80},{"user_id":112,"name":"Young-OG","steam_id":76561198058800479,"connected_time":3694000000000,"state":"active","ping":66},{"user_id":102,"name":"LAB8","steam_id":76561198047743526,"connected_time":4185000000000,"state":"active","ping":103},{"user_id":111,"name":"Kanny","steam_id":76561198058810184,"connected_time":3753000000000,"state":"active","ping":152},{"user_id":131,"name":"Echoing","steam_id":76561199172072079,"connected_time":2460000000000,"state":"active","ping":67},{"user_id":143,"name":"sansa musa","steam_id":76561198163723555,"connected_time":903000000000,"state":"active","ping":96},{"user_id":145,"name":"jerry","steam_id":76561198090326126,"connected_time":876000000000,"state":"active","ping":72},{"user_id":135,"name":"A_vacuum","steam_id":76561199160874929,"connected_time":2201000000000,"state":"active","ping":71}]},{"server_id":400,"name":"Uncletopia | Atlanta | 3 | Stopwatch Beta","name_short":"atl-3","host":"atl-1.us.uncletopia.com","port":27035,"enabled":true,"region":"us-east","cc":"us","latitude":33.753746,"longitude":-84.38633,"reserved":0,"last_update":"0001-01-01T00:00:00Z","name_a2s":"Uncletopia | Atlanta | 3 | Stopwatch Beta","protocol":17,"map":"koth_cascade","folder":"tf","game":"Team Fortress","app_id":440,"player_count":1,"max_players":24,"Bots":0,"server_type":"Dedicated","server_os":"Linux","password":true,"vac":true,"version":"7723704","steam_id":85568392924515187,"keywords":["cp","nocrits","nodmgspread","uncletopia"],"game_id":440,"stv_port":27036,"stv_name":"Uncletopia | Atlanta | 3 | Stopwatch Beta | STV","players":[{"user_id":3,"name":"Hephaesta13","steam_id":76561199026788557,"connected_time":32000000000,"state":"active","ping":126}]},{"server_id":401,"name":"Uncletopia | Atlanta | 4 | No Payload","name_short":"atl-4","host":"atl-1.us.uncletopia.com","port":27045,"enabled":true,"region":"us-east","cc":"us","latitude":33.753746,"longitude":-84.38633,"reserved":0,"last_update":"0001-01-01T00:00:00Z","name_a2s":"Uncletopia | Atlanta | 4 | No Payload","protocol":17,"map":"ctf_doublecross","folder":"tf","game":"Team Fortress","app_id":440,"player_count":0,"max_players":24,"Bots":0,"server_type":"Dedicated","server_os":"Linux","password":true,"vac":true,"version":"7723704","steam_id":85568392924515188,"keywords":["ctf","nocrits","nodmgspread","uncletopia"],"game_id":440,"stv_port":27046,"stv_name":"Uncletopia | Atlanta | 4 | No Payload | STV","players":null},{"server_id":2,"name":"Uncletopia | Chicago | 1 | All Maps","name_short":"chi-1","host":"chi-1.us.uncletopia.com","port":27015,"enabled":true,"region":"us-central","cc":"us","latitude":41.881832,"longitude":-87.62318,"reserved":0,"last_update":"0001-01-01T00:00:00Z","name_a2s":"Uncletopia | Chicago | 1 | All Maps","protocol":17,"map":"pl_borneo","folder":"tf","game":"Team Fortress","app_id":440,"player_count":24,"max_players":24,"Bots":0,"server_type":"Dedicated","server_os":"Linux","password":true,"vac":true,"version":"7723704","steam_id":85568392924469984,"keywords":["nocrits","nodmgspread","payload","uncletopia"],"game_id":440,"stv_port":27016,"stv_name":"Uncletopia | Chicago | 1 | All Maps | STV","players":[{"user_id":256,"name":"FunGi","steam_id":76561198881418662,"connected_time":945000000000,"state":"active","ping":78},{"user_id":229,"name":"Owen","steam_id":76561198126511851,"connected_time":3284000000000,"state":"active","ping":64},{"user_id":213,"name":"hoOmIN","steam_id":76561198334947079,"connected_time":5090000000000,"state":"active","ping":89},{"user_id":251,"name":"sneakyflamingo","steam_id":76561199093026056,"connected_time":1841000000000,"state":"active","ping":75},{"user_id":228,"name":"A Sun","steam_id":76561198142545364,"connected_time":3375000000000,"state":"active","ping":66},{"user_id":237,"name":"Apprehended","steam_id":76561198356370892,"connected_time":2845000000000,"state":"active","ping":80},{"user_id":262,"name":"48","steam_id":76561198156422760,"connected_time":565000000000,"state":"active","ping":59},{"user_id":245,"name":"GiLbert","steam_id":76561198268170382,"connected_time":2283000000000,"state":"active","ping":58},{"user_id":247,"name":"Amogus The Sussy Baka ‡∂û","steam_id":76561198008577961,"connected_time":2072000000000,"state":"active","ping":74},{"user_id":252,"name":"Female Gamer","steam_id":76561199366482682,"connected_time":1787000000000,"state":"active","ping":95},{"user_id":257,"name":"Shaunhan","steam_id":76561198386596938,"connected_time":789000000000,"state":"active","ping":55},{"user_id":244,"name":"Max_Attack","steam_id":76561198944028607,"connected_time":2314000000000,"state":"active","ping":76},{"user_id":264,"name":"Stihl","steam_id":76561198025152405,"connected_time":237000000000,"state":"active","ping":45},{"user_id":238,"name":"icecxld","steam_id":76561198079018805,"connected_time":2833000000000,"state":"active","ping":49},{"user_id":263,"name":"Cusven","steam_id":76561198319658526,"connected_time":391000000000,"state":"active","ping":51},{"user_id":231,"name":"motorized bar of soap","steam_id":76561198882404753,"connected_time":3038000000000,"state":"active","ping":81},{"user_id":260,"name":"Vox Vulpera","steam_id":76561198796227041,"connected_time":754000000000,"state":"active","ping":63},{"user_id":243,"name":"Retrowave","steam_id":76561198061921346,"connected_time":2636000000000,"state":"active","ping":69},{"user_id":232,"name":"Queen Frau the Round","steam_id":76561197999942134,"connected_time":2897000000000,"state":"active","ping":46},{"user_id":210,"name":"jon.cinnamon","steam_id":76561198127316418,"connected_time":5373000000000,"state":"active","ping":71},{"user_id":235,"name":"Boby","steam_id":76561198296309695,"connected_time":2873000000000,"state":"active","ping":169},{"user_id":261,"name":"anewbpro2015","steam_id":76561198214610860,"connected_time":669000000000,"state":"active","ping":65},{"user_id":211,"name":"Sully","steam_id":76561198310784589,"connected_time":5371000000000,"state":"active","ping":70},{"user_id":253,"name":"kablong","steam_id":76561199094392047,"connected_time":1786000000000,"state":"active","ping":77}]},{"server_id":106,"name":"Uncletopia | Chicago | 2 | All Maps","name_short":"chi-2","host":"chi-1.us.uncletopia.com","port":27025,"enabled":true,"region":"us-central","cc":"us","latitude":41.881832,"longitude":-87.62318,"reserved":0,"last_update":"0001-01-01T00:00:00Z","name_a2s":"Uncletopia | Chicago | 2 | All Maps","protocol":17,"map":"koth_highpass","folder":"tf","game":"Team Fortress","app_id":440,"player_count":24,"max_players":24,"Bots":0,"server_type":"Dedicated","server_os":"Linux","password":true,"vac":true,"version":"7723704","steam_id":85568392924469985,"keywords":["cp","nocrits","nodmgspread","uncletopia"],"game_id":440,"stv_port":27026,"stv_name":"Uncletopia | Chicago | 2 | All Maps | STV","players":[{"user_id":145,"name":"Seico Bass","steam_id":76561198123498500,"connected_time":1110000000000,"state":"active","ping":79},{"user_id":120,"name":"Professional Glue Sniffer","steam_id":76561198970722195,"connected_time":3298000000000,"state":"active","ping":101},{"user_id":156,"name":"Spicy Within Reason","steam_id":76561198066700370,"connected_time":548000000000,"state":"active","ping":82},{"user_id":154,"name":"Aster","steam_id":76561198037920420,"connected_time":829000000000,"state":"active","ping":106},{"user_id":155,"name":"flygonboy127","steam_id":76561199105773990,"connected_time":811000000000,"state":"active","ping":59},{"user_id":124,"name":"|AAML| Captain QuacknSnow","steam_id":76561198153568933,"connected_time":3027000000000,"state":"active","ping":47},{"user_id":106,"name":"Ta–øgen","steam_id":76561198120329367,"connected_time":3987000000000,"state":"active","ping":161},{"user_id":159,"name":"XxX_Yung_XxX_Pr0d1gy_XxX","steam_id":76561198076367669,"connected_time":62000000000,"state":"active","ping":70},{"user_id":146,"name":"Nuggets","steam_id":76561198267826226,"connected_time":1107000000000,"state":"active","ping":94},{"user_id":158,"name":"Architect","steam_id":76561198015242016,"connected_time":171000000000,"state":"active","ping":43},{"user_id":147,"name":"Whip_the_Rabbit","steam_id":76561198049896057,"connected_time":1085000000000,"state":"active","ping":103},{"user_id":139,"name":"TwistedCamel","steam_id":76561198011396500,"connected_time":1320000000000,"state":"active","ping":55},{"user_id":141,"name":"Space‚≠êTaffy","steam_id":76561198002271720,"connected_time":1148000000000,"state":"active","ping":50},{"user_id":133,"name":"Ace Chromatica","steam_id":76561198042211131,"connected_time":1920000000000,"state":"active","ping":51},{"user_id":148,"name":"KOOSTIFF","steam_id":76561198053727976,"connected_time":1083000000000,"state":"active","ping":68},{"user_id":82,"name":"Walmart Employee","steam_id":76561198840373909,"connected_time":5900000000000,"state":"active","ping":85},{"user_id":130,"name":"Microreo","steam_id":76561198006966554,"connected_time":2433000000000,"state":"active","ping":71},{"user_id":152,"name":"Cleric.UTC.TF2","steam_id":76561198045887994,"connected_time":912000000000,"state":"active","ping":43},{"user_id":149,"name":"tame","steam_id":76561198925005855,"connected_time":1081000000000,"state":"active","ping":182},{"user_id":153,"name":"ryce","steam_id":76561198114572309,"connected_time":896000000000,"state":"active","ping":80},{"user_id":97,"name":"wolf_71","steam_id":76561198963570945,"connected_time":4676000000000,"state":"active","ping":71},{"user_id":40,"name":"‡πá","steam_id":76561198039763676,"connected_time":9880000000000,"state":"active","ping":64},{"user_id":110,"name":"MR.Badatgames","steam_id":76561198820423721,"connected_time":3695000000000,"state":"active","ping":59},{"user_id":140,"name":"Brian","steam_id":76561198144650969,"connected_time":1298000000000,"state":"active","ping":75}]},{"server_id":402,"name":"Uncletopia | Chicago | 3 | All Maps","name_short":"chi-3","host":"chi-1.us.uncletopia.com","port":27035,"enabled":true,"region":"us-central","cc":"us","latitude":41.881832,"longitude":-87.62318,"reserved":0,"last_update":"0001-01-01T00:00:00Z","name_a2s":"Uncletopia | Chicago | 3 | All Maps","protocol":17,"map":"cp_snakewater_final1","folder":"tf","game":"Team Fortress","app_id":440,"player_count":0,"max_players":24,"Bots":0,"server_type":"Dedicated","server_os":"Linux","password":true,"vac":true,"version":"7723704","steam_id":85568392924515191,"keywords":["cp","nocrits","nodmgspread","uncletopia"],"game_id":440,"stv_port":27036,"stv_name":"Uncletopia | Chicago | 3 | All Maps | STV","players":null},{"server_id":403,"name":"Uncletopia | Chicago | 4 | All Maps","name_short":"chi-4","host":"chi-1.us.uncletopia.com","port":27045,"enabled":true,"region":"us-central","cc":"us","latitude":41.881832,"longitude":-87.62318,"reserved":0,"last_update":"0001-01-01T00:00:00Z","name_a2s":"Uncletopia | Chicago | 4 | All Maps","protocol":17,"map":"pl_upward","folder":"tf","game":"Team Fortress","app_id":440,"player_count":0,"max_players":24,"Bots":0,"server_type":"Dedicated","server_os":"Linux","password":true,"vac":true,"version":"7723704","steam_id":85568392924515193,"keywords":["nocrits","nodmgspread","payload","uncletopia"],"game_id":440,"stv_port":27046,"stv_name":"Uncletopia | Chicago | 4 | All Maps | STV","players":null},{"server_id":36,"name":"Uncletopia | Chicago | 5 | All Maps","name_short":"chi-5","host":"chi-2.us.uncletopia.com","port":27015,"enabled":true,"region":"us-central","cc":"us","latitude":41.881832,"longitude":-87.62318,"reserved":0,"last_update":"0001-01-01T00:00:00Z","name_a2s":"Uncletopia | Chicago | 5 | All Maps","protocol":17,"map":"cp_altitude","folder":"tf","game":"Team Fortress","app_id":440,"player_count":0,"max_players":24,"Bots":0,"server_type":"Dedicated","server_os":"Linux","password":true,"vac":true,"version":"7723704","steam_id":85568392924866362,"keywords":["cp","nocrits","nodmgspread","uncletopia"],"game_id":440,"stv_port":27016,"stv_name":"Uncletopia | Chicago | 5 | All Maps | STV","players":null},{"server_id":37,"name":"Uncletopia | Chicago | 6 | All Maps","name_short":"chi-6","host":"chi-2.us.uncletopia.com","port":27025,"enabled":true,"region":"us-central","cc":"us","latitude":41.881832,"longitude":-87.62318,"reserved":0,"last_update":"0001-01-01T00:00:00Z","name_a2s":"Uncletopia | Chicago | 6 | All Maps","protocol":17,"map":"pl_swiftwater_final1","folder":"tf","game":"Team Fortress","app_id":440,"player_count":0,"max_players":24,"Bots":0,"server_type":"Dedicated","server_os":"Linux","password":true,"vac":true,"version":"7723704","steam_id":85568392924866363,"keywords":["nocrits","nodmgspread","payload","uncletopia"],"game_id":440,"stv_port":27026,"stv_name":"Uncletopia | Chicago | 6 | All Maps | STV","players":null},{"server_id":38,"name":"Uncletopia | Chicago | 7 | Stopwatch Beta","name_short":"chi-7","host":"chi-2.us.uncletopia.com","port":27035,"enabled":true,"region":"us-central","cc":"us","latitude":41.881832,"longitude":-87.62318,"reserved":0,"last_update":"0001-01-01T00:00:00Z","name_a2s":"Uncletopia | Chicago | 7 | Stopwatch Beta","protocol":17,"map":"pl_upward","folder":"tf","game":"Team Fortress","app_id":440,"player_count":0,"max_players":24,"Bots":0,"server_type":"Dedicated","server_os":"Linux","password":true,"vac":true,"version":"7723704","steam_id":85568392924866364,"keywords":["nocrits","nodmgspread","payload","uncletopia"],"game_id":440,"stv_port":27036,"stv_name":"Uncletopia | Chicago | 7 | Stopwatch Beta | STV","players":null},{"server_id":39,"name":"Uncletopia | Chicago | 8 | Community","name_short":"chi-8","host":"chi-2.us.uncletopia.com","port":27045,"enabled":true,"region":"us-central","cc":"us","latitude":41.881832,"longitude":-87.62318,"reserved":0,"last_update":"0001-01-01T00:00:00Z","name_a2s":"Uncletopia | Chicago | 8 | Community","protocol":17,"map":"pl_frontier_final","folder":"tf","game":"Team Fortress","app_id":440,"player_count":0,"max_players":24,"Bots":0,"server_type":"Dedicated","server_os":"Linux","password":true,"vac":true,"version":"7723704","steam_id":85568392924866365,"keywords":["nocrits","nodmgspread","payload","uncletopia"],"game_id":440,"stv_port":27046,"stv_name":"Uncletopia | Chicago | 8 | Community | STV","players":null},{"server_id":8,"name":"Uncletopia | Dallas | 1 | All Maps","name_short":"dal-1","host":"dal-1.us.uncletopia.com","port":27015,"enabled":true,"region":"us-central","cc":"us","latitude":32.779167,"longitude":-96.80889,"reserved":0,"last_update":"0001-01-01T00:00:00Z","name_a2s":"Uncletopia | Dallas | 1 | All Maps","protocol":17,"map":"pl_pier","folder":"tf","game":"Team Fortress","app_id":440,"player_count":24,"max_players":24,"Bots":0,"server_type":"Dedicated","server_os":"Linux","password":true,"vac":true,"version":"7723704","steam_id":85568392924469986,"keywords":["nocrits","nodmgspread","payload","uncletopia"],"game_id":440,"stv_port":27016,"stv_name":"Uncletopia | Dallas | 1 | All Maps | STV","players":[{"user_id":116,"name":"hellohello","steam_id":76561198094058177,"connected_time":5887000000000,"state":"active","ping":68},{"user_id":195,"name":"Zolo","steam_id":76561198088444038,"connected_time":569000000000,"state":"active","ping":78},{"user_id":164,"name":"Faust main","steam_id":76561198971799149,"connected_time":2701000000000,"state":"active","ping":75},{"user_id":174,"name":"Eightyy  Fourr","steam_id":76561197960374225,"connected_time":2164000000000,"state":"active","ping":45},{"user_id":166,"name":"Apetometrist","steam_id":76561198045391635,"connected_time":2664000000000,"state":"active","ping":83},{"user_id":138,"name":"Satori Komeiji","steam_id":76561198158211423,"connected_time":5165000000000,"state":"active","ping":68},{"user_id":188,"name":"Poco","steam_id":76561198027830843,"connected_time":1013000000000,"state":"active","ping":89},{"user_id":201,"name":"Christoph Waltz eating a burger","steam_id":76561199215811448,"connected_time":37000000000,"state":"active","ping":90},{"user_id":173,"name":"DrD","steam_id":76561198067266383,"connected_time":2222000000000,"state":"active","ping":83},{"user_id":163,"name":"The Squid Gamer‚Ñ¢","steam_id":76561198340621517,"connected_time":2979000000000,"state":"active","ping":91},{"user_id":199,"name":"xXx_The_REAL_Marge_Simpson_xXx","steam_id":76561199116846851,"connected_time":144000000000,"state":"active","ping":81},{"user_id":194,"name":"Meownsterhunter","steam_id":76561198319992602,"connected_time":594000000000,"state":"active","ping":69},{"user_id":189,"name":"TheSaltRobot","steam_id":76561198839739497,"connected_time":988000000000,"state":"active","ping":54},{"user_id":177,"name":"rkp!","steam_id":76561199053070819,"connected_time":2036000000000,"state":"active","ping":74},{"user_id":193,"name":"Pneumo.","steam_id":76561197987911883,"connected_time":615000000000,"state":"active","ping":114},{"user_id":178,"name":"Quansen","steam_id":76561198151594550,"connected_time":2033000000000,"state":"active","ping":75},{"user_id":198,"name":"Onyx","steam_id":76561198275349640,"connected_time":529000000000,"state":"active","ping":67},{"user_id":132,"name":"Jonatello","steam_id":76561198045699189,"connected_time":5434000000000,"state":"active","ping":98},{"user_id":191,"name":"Stapler","steam_id":76561198099295077,"connected_time":947000000000,"state":"active","ping":80},{"user_id":181,"name":"The Milkman","steam_id":76561198025418738,"connected_time":1980000000000,"state":"active","ping":90},{"user_id":200,"name":"The Moist Pirate","steam_id":76561198876374669,"connected_time":143000000000,"state":"active","ping":84},{"user_id":172,"name":"fL0","steam_id":76561197990989939,"connected_time":2261000000000,"state":"active","ping":95},{"user_id":115,"name":"I LOVE DEMOKNIGHT!!!!!!!!","steam_id":76561199100938373,"connected_time":5928000000000,"state":"active","ping":82},{"user_id":183,"name":"fhish","steam_id":76561198064911344,"connected_time":1956000000000,"state":"active","ping":50}]},{"server_id":108,"name":"Uncletopia | Dallas | 2 | All Maps","name_short":"dal-2","host":"dal-1.us.uncletopia.com","port":27025,"enabled":true,"region":"us-central","cc":"us","latitude":32.779167,"longitude":-96.80889,"reserved":0,"last_update":"0001-01-01T00:00:00Z","name_a2s":"Uncletopia | Dallas | 2 | All Maps","protocol":17,"map":"pl_borneo","folder":"tf","game":"Team Fortress","app_id":440,"player_count":0,"max_players":24,"Bots":0,"server_type":"Dedicated","server_os":"Linux","password":true,"vac":true,"version":"7723704","steam_id":85568392924469988,"keywords":["nocrits","nodmgspread","payload","uncletopia"],"game_id":440,"stv_port":27026,"stv_name":"Uncletopia | Dallas | 2 | All Maps | STV","players":null},{"server_id":5,"name":"Uncletopia | Frankfurt | 1 | All Maps","name_short":"frk-1","host":"frk-1.de.uncletopia.com","port":27015,"enabled":true,"region":"eu","cc":"de","latitude":50.110924,"longitude":8.682127,"reserved":0,"last_update":"0001-01-01T00:00:00Z","name_a2s":"Uncletopia | Frankfurt | 1 | All Maps","protocol":17,"map":"pl_borneo","folder":"tf","game":"Team Fortress","app_id":440,"player_count":24,"max_players":24,"Bots":0,"server_type":"Dedicated","server_os":"Linux","password":true,"vac":true,"version":"7723704","steam_id":85568392924469989,"keywords":["nocrits","nodmgspread","payload","uncletopia"],"game_id":440,"stv_port":27016,"stv_name":"Uncletopia | Frankfurt | 1 | All Maps | STV","players":[{"user_id":228,"name":"[Insert Oneshot refrence]","steam_id":76561198951206047,"connected_time":10181000000000,"state":"active","ping":81},{"user_id":380,"name":"Fales","steam_id":76561198126124929,"connected_time":1013000000000,"state":"active","ping":70},{"user_id":372,"name":"Raxor","steam_id":76561198239927434,"connected_time":1966000000000,"state":"active","ping":87},{"user_id":376,"name":"Miiukade","steam_id":76561198089157860,"connected_time":1521000000000,"state":"active","ping":144},{"user_id":383,"name":"TheKlin","steam_id":76561198032331453,"connected_time":710000000000,"state":"active","ping":100},{"user_id":349,"name":"unbelievable polish behavior","steam_id":76561198126524735,"connected_time":3076000000000,"state":"active","ping":75},{"user_id":363,"name":"KGiorgios_Bully","steam_id":76561198825392728,"connected_time":2213000000000,"state":"active","ping":123},{"user_id":387,"name":"drew","steam_id":76561198012304706,"connected_time":587000000000,"state":"active","ping":90},{"user_id":389,"name":"TaroPlant","steam_id":76561198122927374,"connected_time":510000000000,"state":"active","ping":54},{"user_id":336,"name":"night.s","steam_id":76561198326287823,"connected_time":4089000000000,"state":"active","ping":83},{"user_id":385,"name":"WolfmanCZ","steam_id":76561199157141414,"connected_time":678000000000,"state":"active","ping":74},{"user_id":360,"name":"AFerociousTeddyBearSlayer","steam_id":76561198247447256,"connected_time":2383000000000,"state":"active","ping":60},{"user_id":346,"name":"Sloppy polish handyman","steam_id":76561198126398022,"connected_time":3154000000000,"state":"active","ping":79},{"user_id":341,"name":".quickfast.","steam_id":76561199438900919,"connected_time":3424000000000,"state":"active","ping":64},{"user_id":382,"name":"//frequeNt","steam_id":76561198087457220,"connected_time":724000000000,"state":"active","ping":71},{"user_id":381,"name":"Julez","steam_id":76561198045505082,"connected_time":856000000000,"state":"active","ping":130},{"user_id":391,"name":"steve","steam_id":76561198076135756,"connected_time":264000000000,"state":"active","ping":45},{"user_id":342,"name":"Mankor","steam_id":76561198020439322,"connected_time":3420000000000,"state":"active","ping":49},{"user_id":388,"name":"zheel","steam_id":76561198354135485,"connected_time":572000000000,"state":"active","ping":74},{"user_id":375,"name":"advanced polish lifeform","steam_id":76561198062107879,"connected_time":1735000000000,"state":"active","ping":138},{"user_id":303,"name":"r06u3","steam_id":76561198254099253,"connected_time":6982000000000,"state":"active","ping":171},{"user_id":377,"name":"frying pan (real)","steam_id":76561198875409640,"connected_time":1464000000000,"state":"active","ping":98},{"user_id":379,"name":"hushhx","steam_id":76561198216200092,"connected_time":1151000000000,"state":"active","ping":66},{"user_id":348,"name":"low-income polish city","steam_id":76561199433578516,"connected_time":3123000000000,"state":"active","ping":139}]},{"server_id":110,"name":"Uncletopia | Frankfurt | 2 | All Maps","name_short":"frk-2","host":"frk-1.de.uncletopia.com","port":27025,"enabled":true,"region":"eu","cc":"de","latitude":50.110924,"longitude":8.682127,"reserved":0,"last_update":"0001-01-01T00:00:00Z","name_a2s":"Uncletopia | Frankfurt | 2 | All Maps","protocol":17,"map":"pl_upward","folder":"tf","game":"Team Fortress","app_id":440,"player_count":24,"max_players":24,"Bots":0,"server_type":"Dedicated","server_os":"Linux","password":true,"vac":true,"version":"7723704","steam_id":85568392924469990,"keywords":["nocrits","nodmgspread","payload","uncletopia"],"game_id":440,"stv_port":27026,"stv_name":"Uncletopia | Frankfurt | 2 | All Maps | STV","players":[{"user_id":534,"name":"hulluheppu1","steam_id":76561198093458326,"connected_time":1182000000000,"state":"active","ping":60},{"user_id":539,"name":"manKe","steam_id":76561198008564860,"connected_time":1032000000000,"state":"active","ping":47},{"user_id":470,"name":"Ultimo","steam_id":76561198061802565,"connected_time":3181000000000,"state":"active","ping":98},{"user_id":550,"name":"Frank","steam_id":76561198086672774,"connected_time":28000000000,"state":"active","ping":68},{"user_id":541,"name":"Warrior_Tongs","steam_id":76561197971278858,"connected_time":810000000000,"state":"active","ping":64},{"user_id":489,"name":"Clumsy ‚ô•","steam_id":76561199049413586,"connected_time":2734000000000,"state":"active","ping":74},{"user_id":548,"name":"brtaba","steam_id":76561198796334790,"connected_time":95000000000,"state":"active","ping":54},{"user_id":448,"name":"Caliban","steam_id":76561197999696839,"connected_time":3604000000000,"state":"active","ping":90},{"user_id":533,"name":"PabloGamerPro3000","steam_id":76561198082457496,"connected_time":1292000000000,"state":"active","ping":85},{"user_id":540,"name":"Trash Bandicoot","steam_id":76561198127596400,"connected_time":1017000000000,"state":"active","ping":60},{"user_id":551,"name":"–ò–Ω—Å–ø–µ–∫—Ç–æ—Ä –ê—Ç–∞—Å","steam_id":76561199175688390,"connected_time":8000000000,"state":"active","ping":87},{"user_id":455,"name":"Sylbar","steam_id":76561198065379590,"connected_time":3461000000000,"state":"active","ping":64},{"user_id":543,"name":"gagalak","steam_id":76561198089979108,"connected_time":546000000000,"state":"active","ping":90},{"user_id":544,"name":"qlqlqlqlql jb.ggez.ro","steam_id":76561198420226408,"connected_time":355000000000,"state":"active","ping":87},{"user_id":546,"name":"Moebius","steam_id":76561198045069988,"connected_time":299000000000,"state":"active","ping":59},{"user_id":549,"name":"jolie rouge","steam_id":76561197988085026,"connected_time":87000000000,"state":"active","ping":62},{"user_id":538,"name":"SvbK","steam_id":76561198201478866,"connected_time":1059000000000,"state":"active","ping":83},{"user_id":517,"name":"Greg","steam_id":76561198014131702,"connected_time":1729000000000,"state":"active","ping":130},{"user_id":504,"name":"Osmo","steam_id":76561199286764992,"connected_time":2152000000000,"state":"active","ping":100},{"user_id":523,"name":"Johnny","steam_id":76561198880265246,"connected_time":1534000000000,"state":"active","ping":93},{"user_id":547,"name":"mimi","steam_id":76561198060648946,"connected_time":135000000000,"state":"active","ping":60},{"user_id":520,"name":"Birne","steam_id":76561198001335120,"connected_time":1615000000000,"state":"active","ping":47},{"user_id":463,"name":"FeminineAtom","steam_id":76561198311208470,"connected_time":3299000000000,"state":"active","ping":45},{"user_id":472,"name":"MARNEX","steam_id":76561198149296726,"connected_time":3175000000000,"state":"active","ping":80}]},{"server_id":308,"name":"Uncletopia | Frankfurt | 3 | All Maps","name_short":"frk-3","host":"frk-1.de.uncletopia.com","port":27035,"enabled":true,"region":"eu","cc":"de","latitude":50.110924,"longitude":8.682127,"reserved":0,"last_update":"0001-01-01T00:00:00Z","name_a2s":"Uncletopia | Frankfurt | 3 | All Maps","protocol":17,"map":"pl_upward","folder":"tf","game":"Team Fortress","app_id":440,"player_count":24,"max_players":24,"Bots":0,"server_type":"Dedicated","server_os":"Linux","password":true,"vac":true,"version":"7723704","steam_id":85568392924504274,"keywords":["nocrits","nodmgspread","payload","uncletopia"],"game_id":440,"stv_port":27036,"stv_name":"Uncletopia | Frankfurt | 3 | All Maps | STV","players":[{"user_id":463,"name":"Solid","steam_id":76561198357049292,"connected_time":3664000000000,"state":"active","ping":79},{"user_id":500,"name":"Haggabah,WhoPliesTheUmbralPath","steam_id":76561198846984399,"connected_time":568000000000,"state":"active","ping":81},{"user_id":477,"name":"Ixsus\u003c3","steam_id":76561198094756869,"connected_time":2266000000000,"state":"active","ping":53},{"user_id":469,"name":"W+M1","steam_id":76561198418538887,"connected_time":2592000000000,"state":"active","ping":101},{"user_id":507,"name":"Gabys","steam_id":76561198282892553,"connected_time":323000000000,"state":"active","ping":71},{"user_id":491,"name":"Gerz","steam_id":76561198121260981,"connected_time":964000000000,"state":"active","ping":46},{"user_id":480,"name":"Fran","steam_id":76561199070516960,"connected_time":2162000000000,"state":"active","ping":68},{"user_id":484,"name":"üÉî Nugg1t(sme/lly)","steam_id":76561198065652251,"connected_time":1964000000000,"state":"active","ping":39},{"user_id":510,"name":"–ö–æ—Ç–ª–µ—Ç–∞ –ë–æ–≥–∞","steam_id":76561198014808352,"connected_time":174000000000,"state":"active","ping":76},{"user_id":496,"name":"Hexagon","steam_id":76561198151205758,"connected_time":776000000000,"state":"active","ping":79},{"user_id":505,"name":"Noob_with_source","steam_id":76561198870362103,"connected_time":381000000000,"state":"active","ping":60},{"user_id":466,"name":"Regan","steam_id":76561198100631086,"connected_time":2998000000000,"state":"active","ping":63},{"user_id":474,"name":"player","steam_id":76561198054474684,"connected_time":2508000000000,"state":"active","ping":75},{"user_id":498,"name":"mt","steam_id":76561197961319303,"connected_time":658000000000,"state":"active","ping":45},{"user_id":495,"name":"ErJu","steam_id":76561198106273165,"connected_time":859000000000,"state":"active","ping":72},{"user_id":506,"name":"Dommy","steam_id":76561197990864747,"connected_time":355000000000,"state":"active","ping":53},{"user_id":508,"name":"Mafloy","steam_id":76561198049243300,"connected_time":256000000000,"state":"active","ping":79},{"user_id":502,"name":"tarzan","steam_id":76561198050715408,"connected_time":552000000000,"state":"active","ping":79},{"user_id":509,"name":"Torrii","steam_id":76561198307916635,"connected_time":210000000000,"state":"active","ping":69},{"user_id":490,"name":"Tmpod","steam_id":76561198069210431,"connected_time":1002000000000,"state":"active","ping":74},{"user_id":483,"name":"–ù–µ—á—É–π-–õ–µ–≤–∏—Ü—å–∫–∏–π","steam_id":76561198870926865,"connected_time":2080000000000,"state":"active","ping":63},{"user_id":489,"name":"Mex","steam_id":76561198108279631,"connected_time":1021000000000,"state":"active","ping":66},{"user_id":465,"name":"Turbo Unge","steam_id":76561199067700855,"connected_time":3382000000000,"state":"active","ping":68},{"user_id":492,"name":"goktwoxd","steam_id":76561198065114415,"connected_time":962000000000,"state":"active","ping":89}]},{"server_id":309,"name":"Uncletopia | Frankfurt | 4 | All Maps","name_short":"frk-4","host":"frk-1.de.uncletopia.com","port":27045,"enabled":true,"region":"eu","cc":"de","latitude":50.110924,"longitude":8.682127,"reserved":0,"last_update":"0001-01-01T00:00:00Z","name_a2s":"Uncletopia | Frankfurt | 4 | All Maps","protocol":17,"map":"koth_lakeside_final","folder":"tf","game":"Team Fortress","app_id":440,"player_count":1,"max_players":24,"Bots":0,"server_type":"Dedicated","server_os":"Linux","password":true,"vac":true,"version":"7723704","steam_id":85568392924504275,"keywords":["cp","nocrits","nodmgspread","uncletopia"],"game_id":440,"stv_port":27046,"stv_name":"Uncletopia | Frankfurt | 4 | All Maps | STV","players":[{"user_id":226,"name":"Yoshikage Kira","steam_id":76561199051752886,"connected_time":42000000000,"state":"spawning","ping":642}]},{"server_id":310,"name":"Uncletopia | Frankfurt | 5 | All Maps","name_short":"frk-5","host":"frk-1.de.uncletopia.com","port":27055,"enabled":true,"region":"eu","cc":"de","latitude":50.110924,"longitude":8.682127,"reserved":0,"last_update":"0001-01-01T00:00:00Z","name_a2s":"Uncletopia | Frankfurt | 5 | All Maps","protocol":17,"map":"pl_snowycoast","folder":"tf","game":"Team Fortress","app_id":440,"player_count":0,"max_players":24,"Bots":0,"server_type":"Dedicated","server_os":"Linux","password":true,"vac":true,"version":"7723704","steam_id":85568392924504277,"keywords":["nocrits","nodmgspread","payload","uncletopia"],"game_id":440,"stv_port":27056,"stv_name":"Uncletopia | Frankfurt | 5 | All Maps | STV","players":null},{"server_id":311,"name":"Uncletopia | Frankfurt | 6 | All Maps","name_short":"frk-6","host":"frk-1.de.uncletopia.com","port":27065,"enabled":true,"region":"eu","cc":"de","latitude":50.110924,"longitude":8.682127,"reserved":0,"last_update":"0001-01-01T00:00:00Z","name_a2s":"Uncletopia | Frankfurt | 6 | All Maps","protocol":17,"map":"koth_viaduct","folder":"tf","game":"Team Fortress","app_id":440,"player_count":0,"max_players":24,"Bots":0,"server_type":"Dedicated","server_os":"Linux","password":true,"vac":true,"version":"7723704","steam_id":85568392924504278,"keywords":["cp","nocrits","nodmgspread","uncletopia"],"game_id":440,"stv_port":27066,"stv_name":"Uncletopia | Frankfurt | 6 | All Maps | STV","players":null},{"server_id":23,"name":"Uncletopia | Frankfurt | 7 | Stopwatch Beta","name_short":"frk-7","host":"frk-1.de.uncletopia.com","port":27075,"enabled":true,"region":"eu","cc":"de","latitude":50.110924,"longitude":8.682127,"reserved":0,"last_update":"0001-01-01T00:00:00Z","name_a2s":"Uncletopia | Frankfurt | 7 | Stopwatch Beta","protocol":17,"map":"pl_borneo","folder":"tf","game":"Team Fortress","app_id":440,"player_count":23,"max_players":24,"Bots":0,"server_type":"Dedicated","server_os":"Linux","password":true,"vac":true,"version":"7723704","steam_id":85568392924742827,"keywords":["nocrits","nodmgspread","payload","uncletopia"],"game_id":440,"stv_port":27076,"stv_name":"Uncletopia | Frankfurt | 7 | Stopwatch Beta | STV","players":[{"user_id":411,"name":"‚ú∞ BEENKNEETOEMOOSEO'LEANIE","steam_id":76561198264641620,"connected_time":339000000000,"state":"active","ping":118},{"user_id":333,"name":"Kamanie","steam_id":76561198135448255,"connected_time":2669000000000,"state":"active","ping":61},{"user_id":340,"name":"vuggie","steam_id":76561198042227249,"connected_time":2262000000000,"state":"active","ping":45},{"user_id":405,"name":"Bob Salami","steam_id":76561198150681340,"connected_time":697000000000,"state":"active","ping":89},{"user_id":378,"name":"Larry Penus","steam_id":76561198207546233,"connected_time":1325000000000,"state":"active","ping":58},{"user_id":401,"name":"Skrbi‚ù§","steam_id":76561198393866042,"connected_time":815000000000,"state":"active","ping":73},{"user_id":413,"name":"Anti_Dragon","steam_id":76561198969060607,"connected_time":83000000000,"state":"spawning","ping":121},{"user_id":380,"name":"Troodon","steam_id":76561198223648788,"connected_time":1244000000000,"state":"active","ping":100},{"user_id":402,"name":"jurasic park","steam_id":76561198875472890,"connected_time":771000000000,"state":"active","ping":79},{"user_id":396,"name":"Michael","steam_id":76561198003146906,"connected_time":887000000000,"state":"active","ping":61},{"user_id":409,"name":"SMARTDANGER","steam_id":76561198124417946,"connected_time":493000000000,"state":"active","ping":85},{"user_id":410,"name":"LilBozoOops","steam_id":76561199021476227,"connected_time":483000000000,"state":"active","ping":76},{"user_id":335,"name":"Gruel","steam_id":76561198045408509,"connected_time":2636000000000,"state":"active","ping":57},{"user_id":375,"name":"Mike Doe","steam_id":76561198331251922,"connected_time":1384000000000,"state":"active","ping":60},{"user_id":412,"name":"Ok","steam_id":76561198356826506,"connected_time":331000000000,"state":"active","ping":55},{"user_id":346,"name":"Redeyedcat","steam_id":76561199217188911,"connected_time":2075000000000,"state":"active","ping":61},{"user_id":399,"name":"zasvicuful","steam_id":76561198186803294,"connected_time":855000000000,"state":"active","ping":75},{"user_id":192,"name":"zoinks!","steam_id":76561198068645362,"connected_time":13190000000000,"state":"active","ping":58},{"user_id":349,"name":"Jonas Destark","steam_id":76561198030327441,"connected_time":2028000000000,"state":"active","ping":64},{"user_id":350,"name":"snake9544","steam_id":76561198083076205,"connected_time":2021000000000,"state":"active","ping":85},{"user_id":400,"name":"Qwerty","steam_id":76561198023525894,"connected_time":851000000000,"state":"active","ping":85},{"user_id":383,"name":"Cobb Salads","steam_id":76561197971140507,"connected_time":1208000000000,"state":"active","ping":73},{"user_id":360,"name":"steve franklin","steam_id":76561199163877201,"connected_time":1772000000000,"state":"active","ping":102}]},{"server_id":24,"name":"Uncletopia | Frankfurt | 8 | Community","name_short":"frk-8","host":"frk-1.de.uncletopia.com","port":27085,"enabled":true,"region":"eu","cc":"de","latitude":50.110924,"longitude":8.682127,"reserved":0,"last_update":"0001-01-01T00:00:00Z","name_a2s":"Uncletopia | Frankfurt | 8 | Community","protocol":17,"map":"workshop/rd_asteroid_redux_rc9.ugc2154902912","folder":"tf","game":"Team Fortress","app_id":440,"player_count":0,"max_players":24,"Bots":0,"server_type":"Dedicated","server_os":"Linux","password":true,"vac":true,"version":"7723704","steam_id":85568392924742828,"keywords":["beta","nocrits","nodmgspread","rd","uncletopia"],"game_id":440,"stv_port":27086,"stv_name":"Uncletopia | Frankfurt | 8 | Community | STV","players":null},{"server_id":202,"name":"Uncletopia | Hong Kong | 1 | All Maps","name_short":"hgk-1","host":"hgk-1.hk.uncletopia.com","port":27015,"enabled":true,"region":"asia","cc":"hk","latitude":22.302711,"longitude":114.177216,"reserved":0,"last_update":"0001-01-01T00:00:00Z","name_a2s":"Uncletopia | Hong Kong | 1 | All Maps","protocol":17,"map":"koth_harvest_final","folder":"tf","game":"Team Fortress","app_id":440,"player_count":3,"max_players":24,"Bots":0,"server_type":"Dedicated","server_os":"Linux","password":true,"vac":true,"version":"7723704","steam_id":85568392924494504,"keywords":["cp","nocrits","nodmgspread","uncletopia"],"game_id":440,"stv_port":27016,"stv_name":"Uncletopia | Hong Kong | 1 | All Maps | STV","players":[{"user_id":466,"name":"Paranoya","steam_id":76561199139659838,"connected_time":367000000000,"state":"active","ping":121},{"user_id":461,"name":"Bingsu","steam_id":76561199385814973,"connected_time":1805000000000,"state":"active","ping":64},{"user_id":464,"name":"Bleno","steam_id":76561199250209631,"connected_time":1496000000000,"state":"active","ping":60}]},{"server_id":1,"name":"Uncletopia | Los Angeles | 1 | All Maps","name_short":"lax-1","host":"lax-1.us.uncletopia.com","port":27015,"enabled":true,"region":"us-west","cc":"us","latitude":33.94279,"longitude":-118.41004,"reserved":0,"last_update":"0001-01-01T00:00:00Z","name_a2s":"Uncletopia | Los Angeles | 1 | All Maps","protocol":17,"map":"pl_pier","folder":"tf","game":"Team Fortress","app_id":440,"player_count":0,"max_players":24,"Bots":0,"server_type":"Dedicated","server_os":"Linux","password":true,"vac":true,"version":"7723704","steam_id":85568392924469991,"keywords":["nocrits","nodmgspread","payload","uncletopia"],"game_id":440,"stv_port":27016,"stv_name":"Uncletopia | Los Angeles | 1 | All Maps | STV","players":null},{"server_id":112,"name":"Uncletopia | Los Angeles | 2 | All Maps","name_short":"lax-2","host":"lax-1.us.uncletopia.com","port":27025,"enabled":true,"region":"us-west","cc":"us","latitude":33.94279,"longitude":-118.41004,"reserved":0,"last_update":"0001-01-01T00:00:00Z","name_a2s":"Uncletopia | Los Angeles | 2 | All Maps","protocol":17,"map":"koth_viaduct","folder":"tf","game":"Team Fortress","app_id":440,"player_count":0,"max_players":24,"Bots":0,"server_type":"Dedicated","server_os":"Linux","password":true,"vac":true,"version":"7723704","steam_id":85568392924469992,"keywords":["cp","nocrits","nodmgspread","uncletopia"],"game_id":440,"stv_port":27026,"stv_name":"Uncletopia | Los Angeles | 2 | All Maps | STV","players":null},{"server_id":324,"name":"Uncletopia | Los Angeles | 3 | All Maps","name_short":"lax-3","host":"lax-1.us.uncletopia.com","port":27035,"enabled":true,"region":"us-west","cc":"us","latitude":33.94279,"longitude":-118.41004,"reserved":0,"last_update":"0001-01-01T00:00:00Z","name_a2s":"Uncletopia | Los Angeles | 3 | All Maps","protocol":17,"map":"koth_viaduct","folder":"tf","game":"Team Fortress","app_id":440,"player_count":0,"max_players":24,"Bots":0,"server_type":"Dedicated","server_os":"Linux","password":true,"vac":true,"version":"7723704","steam_id":85568392924510198,"keywords":["cp","nocrits","nodmgspread","uncletopia"],"game_id":440,"stv_port":27036,"stv_name":"Uncletopia | Los Angeles | 3 | All Maps | STV","players":null},{"server_id":25,"name":"Uncletopia | Los Angeles | 4 | Stopwatch Beta","name_short":"lax-4","host":"lax-1.us.uncletopia.com","port":27045,"enabled":true,"region":"us-west","cc":"us","latitude":33.94279,"longitude":-118.41004,"reserved":0,"last_update":"0001-01-01T00:00:00Z","name_a2s":"Uncletopia | Los Angeles | 4 | Stopwatch Beta","protocol":17,"map":"cp_sunshine","folder":"tf","game":"Team Fortress","app_id":440,"player_count":0,"max_players":24,"Bots":0,"server_type":"Dedicated","server_os":"Linux","password":true,"vac":true,"version":"7723704","steam_id":85568392924510199,"keywords":["cp","nocrits","nodmgspread","uncletopia"],"game_id":440,"stv_port":27046,"stv_name":"Uncletopia | Los Angeles | 4 | Stopwatch Beta | STV","players":null},{"server_id":11,"name":"Uncletopia | London | 1 | All Maps","name_short":"lon-1","host":"lon-1.uk.uncletopia.com","port":27015,"enabled":true,"region":"eu","cc":"gb","latitude":51.509865,"longitude":-0.118092,"reserved":0,"last_update":"0001-01-01T00:00:00Z","name_a2s":"Uncletopia | London | 1 | All Maps","protocol":17,"map":"pl_badwater","folder":"tf","game":"Team Fortress","app_id":440,"player_count":23,"max_players":24,"Bots":0,"server_type":"Dedicated","server_os":"Linux","password":true,"vac":true,"version":"7723704","steam_id":85568392924367362,"keywords":["nocrits","nodmgspread","payload","uncletopia"],"game_id":440,"stv_port":27016,"stv_name":"Uncletopia | London | 1 | All Maps | STV","players":[{"user_id":421,"name":"amyroseWHOA","steam_id":76561198284518326,"connected_time":14000000000,"state":"connecting","ping":120},{"user_id":355,"name":"Chocopenguin","steam_id":76561198247470284,"connected_time":2139000000000,"state":"spawning","ping":85},{"user_id":405,"name":"Trigger","steam_id":76561197962164925,"connected_time":647000000000,"state":"spawning","ping":120},{"user_id":419,"name":"Swedde","steam_id":76561198297296440,"connected_time":76000000000,"state":"spawning","ping":98},{"user_id":378,"name":"nox","steam_id":76561198287360892,"connected_time":1488000000000,"state":"spawning","ping":95},{"user_id":416,"name":"naaaa","steam_id":76561198136259553,"connected_time":202000000000,"state":"spawning","ping":184},{"user_id":351,"name":"john fluidmasterballwasher doe","steam_id":76561199006462039,"connected_time":2306000000000,"state":"connecting","ping":64},{"user_id":406,"name":"greg's mom","steam_id":76561198050525471,"connected_time":627000000000,"state":"spawning","ping":95},{"user_id":353,"name":"Garoiop","steam_id":76561198082326459,"connected_time":2234000000000,"state":"spawning","ping":70},{"user_id":391,"name":"Lucoa Enjoyer","steam_id":76561198842622419,"connected_time":934000000000,"state":"spawning","ping":153},{"user_id":393,"name":"Hkitchen","steam_id":76561198194779526,"connected_time":864000000000,"state":"spawning","ping":63},{"user_id":404,"name":"eggslut","steam_id":76561198010752241,"connected_time":694000000000,"state":"spawning","ping":94},{"user_id":394,"name":"Cat","steam_id":76561198344276348,"connected_time":863000000000,"state":"spawning","ping":124},{"user_id":422,"name":"Sza","steam_id":76561198022132105,"connected_time":7000000000,"state":"spawning","ping":86},{"user_id":420,"name":"Lag","steam_id":76561198159360376,"connected_time":52000000000,"state":"spawning","ping":78},{"user_id":413,"name":"my balls are feeling tight","steam_id":76561199208283508,"connected_time":293000000000,"state":"spawning","ping":126},{"user_id":414,"name":"seishiliar","steam_id":76561198355587569,"connected_time":259000000000,"state":"spawning","ping":157},{"user_id":397,"name":"[P-roc] Cmm Bert","steam_id":76561198016658674,"connected_time":819000000000,"state":"spawning","ping":81},{"user_id":398,"name":"Lukas","steam_id":76561198009118452,"connected_time":819000000000,"state":"spawning","ping":97},{"user_id":415,"name":"fimmone","steam_id":76561198073562913,"connected_time":231000000000,"state":"spawning","ping":131},{"user_id":418,"name":"Diana Ball","steam_id":76561198382533813,"connected_time":195000000000,"state":"connecting","ping":59},{"user_id":409,"name":"WinRAR‚Ñ¢","steam_id":76561198056522270,"connected_time":473000000000,"state":"spawning","ping":139},{"user_id":346,"name":"Svilar","steam_id":76561198828348612,"connected_time":2592000000000,"state":"spawning","ping":58}]},{"server_id":114,"name":"Uncletopia | London | 2 | All Maps","name_short":"lon-2","host":"lon-1.uk.uncletopia.com","port":27025,"enabled":true,"region":"eu","cc":"gb","latitude":51.509865,"longitude":-0.118092,"reserved":0,"last_update":"0001-01-01T00:00:00Z","name_a2s":"Uncletopia | London | 2 | All Maps","protocol":17,"map":"cp_snakewater_final1","folder":"tf","game":"Team Fortress","app_id":440,"player_count":24,"max_players":24,"Bots":0,"server_type":"Dedicated","server_os":"Linux","password":true,"vac":true,"version":"7723704","steam_id":85568392924470941,"keywords":["cp","nocrits","nodmgspread","uncletopia"],"game_id":440,"stv_port":27026,"stv_name":"Uncletopia | London | 2 | All Maps | STV","players":[{"user_id":91,"name":"Ben Dover","steam_id":76561198034264020,"connected_time":1028000000000,"state":"active","ping":134},{"user_id":84,"name":"F","steam_id":76561199149462792,"connected_time":1274000000000,"state":"active","ping":57},{"user_id":99,"name":"Frazzles","steam_id":76561199228009586,"connected_time":476000000000,"state":"active","ping":55},{"user_id":49,"name":"kalaa ‚Ä†","steam_id":76561198134652336,"connected_time":2961000000000,"state":"active","ping":71},{"user_id":101,"name":"PWizard","steam_id":76561198026458489,"connected_time":459000000000,"state":"active","ping":71},{"user_id":103,"name":"Cranjis McBasketball","steam_id":76561198051290193,"connected_time":363000000000,"state":"active","ping":56},{"user_id":60,"name":"Henk_de_Patatman","steam_id":76561198070103191,"connected_time":2244000000000,"state":"active","ping":43},{"user_id":95,"name":"wickEd_","steam_id":76561198048068999,"connected_time":547000000000,"state":"active","ping":145},{"user_id":71,"name":"DunDUNDAN","steam_id":76561198041700091,"connected_time":1629000000000,"state":"active","ping":62},{"user_id":89,"name":"FruteBrute","steam_id":76561198803472441,"connected_time":1192000000000,"state":"active","ping":118},{"user_id":104,"name":"soup","steam_id":76561198386933065,"connected_time":78000000000,"state":"active","ping":71},{"user_id":97,"name":"outlaw","steam_id":76561198323805289,"connected_time":520000000000,"state":"active","ping":43},{"user_id":56,"name":"xX_GamingGilf_Xx","steam_id":76561199118876157,"connected_time":2491000000000,"state":"active","ping":46},{"user_id":72,"name":"Rocadinis","steam_id":76561198095910616,"connected_time":1627000000000,"state":"active","ping":97},{"user_id":51,"name":"cheesecake.","steam_id":76561198426604784,"connected_time":2919000000000,"state":"active","ping":58},{"user_id":57,"name":"UNO, The Ubisoft Original","steam_id":76561198846784757,"connected_time":2485000000000,"state":"active","ping":49},{"user_id":62,"name":"nyanezt","steam_id":76561198253734265,"connected_time":2082000000000,"state":"active","ping":88},{"user_id":63,"name":"king251311","steam_id":76561199063310889,"connected_time":2055000000000,"state":"active","ping":84},{"user_id":105,"name":"dustee","steam_id":76561198023486582,"connected_time":73000000000,"state":"active","ping":130},{"user_id":98,"name":"Chimmii","steam_id":76561198415959583,"connected_time":516000000000,"state":"active","ping":35},{"user_id":82,"name":"Lil BOX","steam_id":76561198063607187,"connected_time":1304000000000,"state":"active","ping":79},{"user_id":90,"name":"I Bleed Butter","steam_id":76561198130814770,"connected_time":1172000000000,"state":"active","ping":61},{"user_id":79,"name":"mordecai.nmc","steam_id":76561197997223851,"connected_time":1441000000000,"state":"active","ping":52},{"user_id":100,"name":"FackaYou","steam_id":76561198193036090,"connected_time":472000000000,"state":"active","ping":63}]},{"server_id":320,"name":"Uncletopia | London | 3 | All Maps","name_short":"lon-3","host":"lon-1.uk.uncletopia.com","port":27035,"enabled":true,"region":"eu","cc":"gb","latitude":51.509865,"longitude":-0.118092,"reserved":0,"last_update":"0001-01-01T00:00:00Z","name_a2s":"Uncletopia | London | 3 | All Maps","protocol":17,"map":"cp_dustbowl","folder":"tf","game":"Team Fortress","app_id":440,"player_count":24,"max_players":24,"Bots":0,"server_type":"Dedicated","server_os":"Linux","password":true,"vac":true,"version":"7723704","steam_id":85568392924510192,"keywords":["cp","nocrits","nodmgspread","uncletopia"],"game_id":440,"stv_port":27036,"stv_name":"Uncletopia | London | 3 | All Maps | STV","players":[{"user_id":559,"name":"Icarus300","steam_id":76561198015125766,"connected_time":1950000000000,"state":"active","ping":96},{"user_id":569,"name":"eeeeee","steam_id":76561198017786875,"connected_time":1600000000000,"state":"active","ping":58},{"user_id":570,"name":"Carrotcracker","steam_id":76561198034862396,"connected_time":1590000000000,"state":"active","ping":71},{"user_id":588,"name":"Creative","steam_id":76561198835034247,"connected_time":382000000000,"state":"active","ping":84},{"user_id":577,"name":"rlty","steam_id":76561198009395055,"connected_time":1284000000000,"state":"active","ping":126},{"user_id":582,"name":"yeldad","steam_id":76561198447264153,"connected_time":941000000000,"state":"active","ping":119},{"user_id":551,"name":"FemKastely","steam_id":76561198164079439,"connected_time":2680000000000,"state":"active","ping":80},{"user_id":585,"name":"‚ô• Cirno ‚ô•","steam_id":76561198834982738,"connected_time":690000000000,"state":"active","ping":68},{"user_id":591,"name":"brick","steam_id":76561198052465575,"connected_time":194000000000,"state":"active","ping":77},{"user_id":524,"name":"Gui","steam_id":76561198072054467,"connected_time":3990000000000,"state":"active","ping":76},{"user_id":542,"name":"Salty4life","steam_id":76561198267148145,"connected_time":3001000000000,"state":"active","ping":75},{"user_id":565,"name":"Fish Killer","steam_id":76561198067332366,"connected_time":1725000000000,"state":"active","ping":47},{"user_id":592,"name":"juginjr","steam_id":76561198134899981,"connected_time":168000000000,"state":"active","ping":42},{"user_id":587,"name":"sasharudzik","steam_id":76561199126617781,"connected_time":492000000000,"state":"active","ping":134},{"user_id":545,"name":"vzl","steam_id":76561198286587649,"connected_time":2990000000000,"state":"active","ping":86},{"user_id":595,"name":"Munibe","steam_id":76561198107967904,"connected_time":20000000000,"state":"active","ping":99},{"user_id":572,"name":"Peat","steam_id":76561197992168067,"connected_time":1546000000000,"state":"active","ping":71},{"user_id":573,"name":"TheBeardedM1G","steam_id":76561198040208946,"connected_time":1542000000000,"state":"active","ping":45},{"user_id":554,"name":"üß±Big Murstenüß±","steam_id":76561199073257952,"connected_time":2258000000000,"state":"active","ping":74},{"user_id":590,"name":"ldshwt","steam_id":76561198090364357,"connected_time":332000000000,"state":"active","ping":63},{"user_id":548,"name":"rjuaum","steam_id":76561198100142702,"connected_time":2979000000000,"state":"active","ping":90},{"user_id":531,"name":"Mr.Narwhal","steam_id":76561198077712601,"connected_time":3549000000000,"state":"active","ping":55},{"user_id":575,"name":"Random Cap","steam_id":76561198129271321,"connected_time":1344000000000,"state":"active","ping":62},{"user_id":535,"name":"sHIFTINGvORTEX","steam_id":76561198231648332,"connected_time":3324000000000,"state":"active","ping":61}]},{"server_id":321,"name":"Uncletopia | London | 4 | All Maps","name_short":"lon-4","host":"lon-1.uk.uncletopia.com","port":27045,"enabled":true,"region":"eu","cc":"gb","latitude":51.509865,"longitude":-0.118092,"reserved":0,"last_update":"0001-01-01T00:00:00Z","name_a2s":"Uncletopia | London | 4 | All Maps","protocol":17,"map":"koth_lakeside_final","folder":"tf","game":"Team Fortress","app_id":440,"player_count":0,"max_players":24,"Bots":0,"server_type":"Dedicated","server_os":"Linux","password":true,"vac":true,"version":"7723704","steam_id":85568392924510193,"keywords":["cp","nocrits","nodmgspread","uncletopia"],"game_id":440,"stv_port":27046,"stv_name":"Uncletopia | London | 4 | All Maps | STV","players":null},{"server_id":21,"name":"Uncletopia | London | 5 | All Maps","name_short":"lon-5","host":"lon-1.uk.uncletopia.com","port":27055,"enabled":true,"region":"eu","cc":"gb","latitude":51.509865,"longitude":-0.118092,"reserved":0,"last_update":"0001-01-01T00:00:00Z","name_a2s":"Uncletopia | London | 5 | All Maps","protocol":17,"map":"pl_pier","folder":"tf","game":"Team Fortress","app_id":440,"player_count":24,"max_players":24,"Bots":0,"server_type":"Dedicated","server_os":"Linux","password":true,"vac":true,"version":"7723704","steam_id":85568392924742829,"keywords":["nocrits","nodmgspread","payload","uncletopia"],"game_id":440,"stv_port":27056,"stv_name":"Uncletopia | London | 5 | All Maps | STV","players":[{"user_id":128,"name":"Citrus","steam_id":76561198090650837,"connected_time":523000000000,"state":"active","ping":46},{"user_id":112,"name":"MEL/MELLI","steam_id":76561198060534948,"connected_time":1174000000000,"state":"active","ping":44},{"user_id":66,"name":"sugo","steam_id":76561198129319394,"connected_time":4147000000000,"state":"active","ping":90},{"user_id":99,"name":"Joe's Nuts","steam_id":76561198257383813,"connected_time":1940000000000,"state":"active","ping":60},{"user_id":132,"name":"LegoKatt","steam_id":76561198064536870,"connected_time":433000000000,"state":"active","ping":81},{"user_id":109,"name":"peach soup","steam_id":76561199366403155,"connected_time":1377000000000,"state":"active","ping":90},{"user_id":124,"name":"Big They/Them is watching YOU","steam_id":76561198307598168,"connected_time":686000000000,"state":"active","ping":60},{"user_id":127,"name":"ShoobyDooby","steam_id":76561198118473910,"connected_time":553000000000,"state":"active","ping":50},{"user_id":100,"name":"def","steam_id":76561198857396812,"connected_time":1934000000000,"state":"active","ping":59},{"user_id":136,"name":"Doctorcardio","steam_id":76561198438030767,"connected_time":297000000000,"state":"active","ping":189},{"user_id":142,"name":"michael","steam_id":76561198030911232,"connected_time":101000000000,"state":"active","ping":102},{"user_id":122,"name":"tristan","steam_id":76561198096097448,"connected_time":805000000000,"state":"active","ping":46},{"user_id":139,"name":"Kiryu Kazuma","steam_id":76561198120390292,"connected_time":223000000000,"state":"active","ping":71},{"user_id":64,"name":"georgiboy111","steam_id":76561198093018761,"connected_time":4369000000000,"state":"active","ping":76},{"user_id":137,"name":"PrinceGrotle","steam_id":76561198206131603,"connected_time":288000000000,"state":"active","ping":120},{"user_id":117,"name":"Mor'du","steam_id":76561198274105878,"connected_time":1067000000000,"state":"active","ping":94},{"user_id":141,"name":"Mr. Hunts","steam_id":76561197981910397,"connected_time":108000000000,"state":"active","ping":66},{"user_id":129,"name":"Siwel","steam_id":76561198058711500,"connected_time":511000000000,"state":"active","ping":63},{"user_id":131,"name":"Salesman","steam_id":76561198045527771,"connected_time":441000000000,"state":"active","ping":57},{"user_id":57,"name":"Anri Okita's Massive Milkers","steam_id":76561199186352720,"connected_time":4807000000000,"state":"active","ping":59},{"user_id":138,"name":"bramble","steam_id":76561198043863024,"connected_time":258000000000,"state":"active","ping":65},{"user_id":125,"name":"Tanza -","steam_id":76561197961335217,"connected_time":640000000000,"state":"active","ping":47},{"user_id":130,"name":".bAruch","steam_id":76561198046673026,"connected_time":468000000000,"state":"active","ping":92},{"user_id":59,"name":"Ablativus","steam_id":76561198025698470,"connected_time":4785000000000,"state":"active","ping":77}]},{"server_id":22,"name":"Uncletopia | London | 6 | All Maps","name_short":"lon-6","host":"lon-1.uk.uncletopia.com","port":27065,"enabled":true,"region":"eu","cc":"gb","latitude":51.509865,"longitude":-0.118092,"reserved":0,"last_update":"0001-01-01T00:00:00Z","name_a2s":"Uncletopia | London | 6 | All Maps","protocol":17,"map":"pl_badwater","folder":"tf","game":"Team Fortress","app_id":440,"player_count":0,"max_players":24,"Bots":0,"server_type":"Dedicated","server_os":"Linux","password":true,"vac":true,"version":"7723704","steam_id":85568392924742830,"keywords":["nocrits","nodmgspread","payload","uncletopia"],"game_id":440,"stv_port":27066,"stv_name":"Uncletopia | London | 6 | All Maps | STV","players":null},{"server_id":40,"name":"Uncletopia | London | 7 | No Payload","name_short":"lon-7","host":"lon-1.uk.uncletopia.com","port":27075,"enabled":true,"region":"eu","cc":"gb","latitude":51.509865,"longitude":-0.118092,"reserved":0,"last_update":"0001-01-01T00:00:00Z","name_a2s":"Uncletopia | London | 7 | No Payload","protocol":17,"map":"koth_sawmill","folder":"tf","game":"Team Fortress","app_id":440,"player_count":0,"max_players":24,"Bots":0,"server_type":"Dedicated","server_os":"Linux","password":true,"vac":true,"version":"7723704","steam_id":85568392924964314,"keywords":["cp","nocrits","nodmgspread","uncletopia"],"game_id":440,"stv_port":27076,"stv_name":"Uncletopia | London | 7 | No Payload | STV","players":null},{"server_id":41,"name":"Uncletopia | London | 8 | Community","name_short":"lon-8","host":"lon-1.uk.uncletopia.com","port":27085,"enabled":true,"region":"eu","cc":"gb","latitude":51.509865,"longitude":-0.118092,"reserved":0,"last_update":"0001-01-01T00:00:00Z","name_a2s":"Uncletopia | London | 8 | Community","protocol":17,"map":"koth_highpass","folder":"tf","game":"Team Fortress","app_id":440,"player_count":0,"max_players":24,"Bots":0,"server_type":"Dedicated","server_os":"Linux","password":true,"vac":true,"version":"7723704","steam_id":85568392924964315,"keywords":["cp","nocrits","nodmgspread","uncletopia"],"game_id":440,"stv_port":27086,"stv_name":"Uncletopia | London | 8 | Community | STV","players":null},{"server_id":300,"name":"Uncletopia | Montr√©al | 1 | All Maps","name_short":"mtl-1","host":"mtl-1.ca.uncletopia.com","port":27015,"enabled":true,"region":"us-east","cc":"ca","latitude":45.50889,"longitude":-73.56167,"reserved":0,"last_update":"0001-01-01T00:00:00Z","name_a2s":"Uncletopia | Montr√©al | 1 | All Maps","protocol":17,"map":"koth_cascade","folder":"tf","game":"Team Fortress","app_id":440,"player_count":0,"max_players":24,"Bots":0,"server_type":"Dedicated","server_os":"Linux","password":true,"vac":true,"version":"7723704","steam_id":85568392924500087,"keywords":["cp","nocrits","nodmgspread","uncletopia"],"game_id":440,"stv_port":27016,"stv_name":"Uncletopia | Montr√©al | 1 | All Maps | STV","players":null},{"server_id":301,"name":"Uncletopia | Montr√©al | 2 | All Maps","name_short":"mtl-2","host":"mtl-1.ca.uncletopia.com","port":27025,"enabled":true,"region":"us-east","cc":"ca","latitude":45.50889,"longitude":-73.56167,"reserved":0,"last_update":"0001-01-01T00:00:00Z","name_a2s":"Uncletopia | Montr√©al | 2 | All Maps","protocol":17,"map":"cp_process_final","folder":"tf","game":"Team Fortress","app_id":440,"player_count":0,"max_players":24,"Bots":0,"server_type":"Dedicated","server_os":"Linux","password":true,"vac":true,"version":"7723704","steam_id":85568392924500088,"keywords":["cp","nocrits","nodmgspread","uncletopia"],"game_id":440,"stv_port":27026,"stv_name":"Uncletopia | Montr√©al | 2 | All Maps | STV","players":null},{"server_id":302,"name":"Uncletopia | Montr√©al | 3 | All Maps","name_short":"mtl-3","host":"mtl-1.ca.uncletopia.com","port":27035,"enabled":true,"region":"us-east","cc":"ca","latitude":45.50889,"longitude":-73.56167,"reserved":0,"last_update":"0001-01-01T00:00:00Z","name_a2s":"Uncletopia | Montr√©al | 3 | All Maps","protocol":17,"map":"cp_mountainlab","folder":"tf","game":"Team Fortress","app_id":440,"player_count":0,"max_players":24,"Bots":0,"server_type":"Dedicated","server_os":"Linux","password":true,"vac":true,"version":"7723704","steam_id":85568392924500089,"keywords":["cp","nocrits","nodmgspread","uncletopia"],"game_id":440,"stv_port":27036,"stv_name":"Uncletopia | Montr√©al | 3 | All Maps | STV","players":null},{"server_id":303,"name":"Uncletopia | Montr√©al | 4 | No Payload","name_short":"mtl-4","host":"mtl-1.ca.uncletopia.com","port":27045,"enabled":true,"region":"us-east","cc":"ca","latitude":45.50889,"longitude":-73.56167,"reserved":0,"last_update":"0001-01-01T00:00:00Z","name_a2s":"Uncletopia | Montr√©al | 4 | No Payload","protocol":17,"map":"koth_cascade","folder":"tf","game":"Team Fortress","app_id":440,"player_count":0,"max_players":24,"Bots":0,"server_type":"Dedicated","server_os":"Linux","password":true,"vac":true,"version":"7723704","steam_id":85568392924500090,"keywords":["cp","nocrits","nodmgspread","uncletopia"],"game_id":440,"stv_port":27046,"stv_name":"Uncletopia | Montr√©al | 4 | No Payload | STV","players":null},{"server_id":13,"name":"Uncletopia | New York City | 1 | All Maps","name_short":"nyc-1","host":"nyc-1.us.uncletopia.com","port":27015,"enabled":true,"region":"us-east","cc":"us","latitude":40.73061,"longitude":-73.93524,"reserved":0,"last_update":"0001-01-01T00:00:00Z","name_a2s":"Uncletopia | New York City | 1 | All Maps","protocol":17,"map":"koth_harvest_final","folder":"tf","game":"Team Fortress","app_id":440,"player_count":24,"max_players":24,"Bots":0,"server_type":"Dedicated","server_os":"Linux","password":true,"vac":true,"version":"7723704","steam_id":85568392924469993,"keywords":["cp","nocrits","nodmgspread","uncletopia"],"game_id":440,"stv_port":27016,"stv_name":"Uncletopia | New York City | 1 | All Maps | STV","players":[{"user_id":264,"name":"MrLeftTurn","steam_id":76561198856743969,"connected_time":618000000000,"state":"active","ping":147},{"user_id":276,"name":"Fermenting Kiwi","steam_id":76561198253303497,"connected_time":231000000000,"state":"active","ping":94},{"user_id":265,"name":"Blitzy","steam_id":76561198149472890,"connected_time":555000000000,"state":"active","ping":93},{"user_id":277,"name":"ImperialRat22","steam_id":76561199122597223,"connected_time":208000000000,"state":"active","ping":82},{"user_id":239,"name":"LividALX","steam_id":76561198145429015,"connected_time":2667000000000,"state":"active","ping":51},{"user_id":240,"name":"Korriu","steam_id":76561198246881314,"connected_time":2660000000000,"state":"active","ping":59},{"user_id":282,"name":"jenny ‚òÜ","steam_id":76561198190106735,"connected_time":44000000000,"state":"active","ping":48},{"user_id":217,"name":"yougotsauled","steam_id":76561198880754695,"connected_time":4439000000000,"state":"active","ping":51},{"user_id":271,"name":"Verathragna","steam_id":76561198067215453,"connected_time":484000000000,"state":"active","ping":53},{"user_id":267,"name":"Snugboo","steam_id":76561198147970327,"connected_time":526000000000,"state":"active","ping":44},{"user_id":258,"name":"Zoawsome","steam_id":76561198018758753,"connected_time":1654000000000,"state":"active","ping":71},{"user_id":272,"name":"Spiral Mountain","steam_id":76561198058683715,"connected_time":412000000000,"state":"active","ping":57},{"user_id":268,"name":"faxxy","steam_id":76561198079621240,"connected_time":523000000000,"state":"active","ping":78},{"user_id":244,"name":"Ponder","steam_id":76561198398163239,"connected_time":2626000000000,"state":"active","ping":77},{"user_id":234,"name":"MILF Gaming","steam_id":76561198155378170,"connected_time":3103000000000,"state":"active","ping":60},{"user_id":279,"name":"GnafS","steam_id":76561199101583864,"connected_time":123000000000,"state":"active","ping":124},{"user_id":275,"name":"pim","steam_id":76561198095163441,"connected_time":286000000000,"state":"active","ping":89},{"user_id":247,"name":"merge without looking","steam_id":76561198056702628,"connected_time":2579000000000,"state":"active","ping":76},{"user_id":269,"name":"Bottle","steam_id":76561198044031558,"connected_time":513000000000,"state":"active","ping":45},{"user_id":280,"name":"Berries","steam_id":76561198109312962,"connected_time":92000000000,"state":"active","ping":70},{"user_id":281,"name":"whimmu","steam_id":76561198370839794,"connected_time":87000000000,"state":"active","ping":135},{"user_id":223,"name":"xXcLaImEd__ReApErXx [F2P]","steam_id":76561198067232540,"connected_time":4302000000000,"state":"active","ping":77},{"user_id":270,"name":"Stream Alex Unknown","steam_id":76561199067402431,"connected_time":507000000000,"state":"active","ping":98},{"user_id":238,"name":"jodie.blend","steam_id":76561198140701807,"connected_time":2688000000000,"state":"active","ping":86}]},{"server_id":14,"name":"Uncletopia | New York City | 2 | All Maps","name_short":"nyc-2","host":"nyc-1.us.uncletopia.com","port":27025,"enabled":true,"region":"us-east","cc":"us","latitude":40.73061,"longitude":-73.93524,"reserved":0,"last_update":"0001-01-01T00:00:00Z","name_a2s":"Uncletopia | New York City | 2 | All Maps","protocol":17,"map":"cp_mountainlab","folder":"tf","game":"Team Fortress","app_id":440,"player_count":0,"max_players":24,"Bots":0,"server_type":"Dedicated","server_os":"Linux","password":true,"vac":true,"version":"7723704","steam_id":85568392924469994,"keywords":["cp","nocrits","nodmgspread","uncletopia"],"game_id":440,"stv_port":27026,"stv_name":"Uncletopia | New York City | 2 | All Maps | STV","players":null},{"server_id":15,"name":"Uncletopia | New York City | 3 | Stopwatch Beta","name_short":"nyc-3","host":"nyc-1.us.uncletopia.com","port":27035,"enabled":true,"region":"us-east","cc":"us","latitude":40.73061,"longitude":-73.93524,"reserved":0,"last_update":"0001-01-01T00:00:00Z","name_a2s":"Uncletopia | New York City | 3 | Stopwatch Beta","protocol":17,"map":"cp_sunshine","folder":"tf","game":"Team Fortress","app_id":440,"player_count":24,"max_players":24,"Bots":0,"server_type":"Dedicated","server_os":"Linux","password":true,"vac":true,"version":"7723704","steam_id":85568392924742820,"keywords":["cp","nocrits","nodmgspread","uncletopia"],"game_id":440,"stv_port":27036,"stv_name":"Uncletopia | New York City | 3 | Stopwatch Beta | STV","players":[{"user_id":100,"name":"Koishi Komeiji","steam_id":76561198063315650,"connected_time":1416000000000,"state":"active","ping":89},{"user_id":51,"name":"mid","steam_id":76561198328109873,"connected_time":4737000000000,"state":"active","ping":64},{"user_id":106,"name":"Rat","steam_id":76561198138555648,"connected_time":1258000000000,"state":"active","ping":47},{"user_id":87,"name":"Spiteful_Guru","steam_id":76561199227572419,"connected_time":2522000000000,"state":"active","ping":75},{"user_id":107,"name":"DJ Absolute Garbage","steam_id":76561198068000747,"connected_time":1198000000000,"state":"active","ping":45},{"user_id":143,"name":"uber the medic","steam_id":76561198985073952,"connected_time":71000000000,"state":"active","ping":76},{"user_id":109,"name":"Dispenser","steam_id":76561199260739414,"connected_time":1101000000000,"state":"active","ping":85},{"user_id":124,"name":"steelborg","steam_id":76561198427292802,"connected_time":644000000000,"state":"active","ping":100},{"user_id":144,"name":"PeopleOrderOurPatties","steam_id":76561198323144922,"connected_time":32000000000,"state":"active","ping":84},{"user_id":139,"name":"golf","steam_id":76561198926834568,"connected_time":260000000000,"state":"active","ping":45},{"user_id":69,"name":"ElectroTheWhatever","steam_id":76561199094231565,"connected_time":3862000000000,"state":"active","ping":85},{"user_id":141,"name":"dnl","steam_id":76561198096413059,"connected_time":250000000000,"state":"active","ping":124},{"user_id":82,"name":"ragu","steam_id":76561198004882625,"connected_time":2837000000000,"state":"active","ping":108},{"user_id":67,"name":"ECR Savory","steam_id":76561199064252157,"connected_time":4006000000000,"state":"active","ping":89},{"user_id":91,"name":"daemon","steam_id":76561198001541433,"connected_time":2204000000000,"state":"active","ping":74},{"user_id":135,"name":"Nepeta Gamer","steam_id":76561198964321336,"connected_time":351000000000,"state":"active","ping":75},{"user_id":120,"name":"ClanCat","steam_id":76561199033616639,"connected_time":677000000000,"state":"active","ping":62},{"user_id":136,"name":"OCDkitty","steam_id":76561198266296221,"connected_time":325000000000,"state":"active","ping":81},{"user_id":121,"name":"Bean0914","steam_id":76561198261906023,"connected_time":667000000000,"state":"active","ping":69},{"user_id":131,"name":"Capatat","steam_id":76561198863586248,"connected_time":474000000000,"state":"active","ping":151},{"user_id":123,"name":"meat.","steam_id":76561198262170368,"connected_time":666000000000,"state":"active","ping":75},{"user_id":132,"name":"acxeu","steam_id":76561198394435000,"connected_time":459000000000,"state":"active","ping":55},{"user_id":133,"name":"A Puppy","steam_id":76561198828184456,"connected_time":451000000000,"state":"active","ping":49},{"user_id":142,"name":"Medicated Thembo","steam_id":76561198035868181,"connected_time":248000000000,"state":"active","ping":110}]},{"server_id":16,"name":"Uncletopia | New York City | 4 | Community","name_short":"nyc-4","host":"nyc-1.us.uncletopia.com","port":27045,"enabled":true,"region":"us-east","cc":"us","latitude":40.73061,"longitude":-73.93524,"reserved":0,"last_update":"0001-01-01T00:00:00Z","name_a2s":"Uncletopia | New York City | 4 | Community","protocol":17,"map":"pl_frontier_final","folder":"tf","game":"Team Fortress","app_id":440,"player_count":0,"max_players":24,"Bots":0,"server_type":"Dedicated","server_os":"Linux","password":true,"vac":true,"version":"7723704","steam_id":85568392924742821,"keywords":["nocrits","nodmgspread","payload","uncletopia"],"game_id":440,"stv_port":27046,"stv_name":"Uncletopia | New York City | 4 | Community | STV","players":null},{"server_id":142,"name":"Uncletopia | S√£o Paulo | 1 | All Maps","name_short":"sao-1","host":"sao-1.br.uncletopia.com","port":27015,"enabled":true,"region":"sa","cc":"br","latitude":-23.533773,"longitude":-46.62529,"reserved":0,"last_update":"0001-01-01T00:00:00Z","name_a2s":"Uncletopia | S√£o Paulo | 1 | All Maps","protocol":17,"map":"pl_pier","folder":"tf","game":"Team Fortress","app_id":440,"player_count":9,"max_players":24,"Bots":0,"server_type":"Dedicated","server_os":"Linux","password":true,"vac":true,"version":"7723704","steam_id":85568392924469996,"keywords":["nocrits","nodmgspread","payload","uncletopia"],"game_id":440,"stv_port":27016,"stv_name":"Uncletopia | S√£o Paulo | 1 | All Maps | STV","players":[{"user_id":68,"name":"Blepy","steam_id":76561198199455773,"connected_time":1000000000000,"state":"active","ping":79},{"user_id":64,"name":"Dex","steam_id":76561198973555920,"connected_time":1675000000000,"state":"active","ping":59},{"user_id":61,"name":"1 beer left","steam_id":76561198995575441,"connected_time":1994000000000,"state":"active","ping":40},{"user_id":70,"name":"lambari makonha","steam_id":76561198169083341,"connected_time":536000000000,"state":"active","ping":58},{"user_id":45,"name":"Bellesi","steam_id":76561198056750369,"connected_time":4095000000000,"state":"active","ping":54},{"user_id":71,"name":"Darkno","steam_id":76561199219302058,"connected_time":388000000000,"state":"active","ping":60},{"user_id":73,"name":"luiz.lineu13","steam_id":76561199057600862,"connected_time":307000000000,"state":"active","ping":93},{"user_id":51,"name":"matheus_lanches","steam_id":76561199359501901,"connected_time":3329000000000,"state":"active","ping":41},{"user_id":53,"name":"PrÈÄö„Çä„ÅÆ‰ºùË™¨","steam_id":76561198976110673,"connected_time":3020000000000,"state":"active","ping":60}]},{"server_id":143,"name":"Uncletopia | S√£o Paulo | 2 | All Maps","name_short":"sao-2","host":"sao-2.br.uncletopia.com","port":27015,"enabled":true,"region":"sa","cc":"br","latitude":-23.533773,"longitude":-46.62529,"reserved":0,"last_update":"0001-01-01T00:00:00Z","name_a2s":"Uncletopia | S√£o Paulo | 2 | All Maps","protocol":17,"map":"cp_process_final","folder":"tf","game":"Team Fortress","app_id":440,"player_count":0,"max_players":24,"Bots":0,"server_type":"Dedicated","server_os":"Linux","password":true,"vac":true,"version":"7723704","steam_id":85568392924485349,"keywords":["cp","nocrits","nodmgspread","uncletopia"],"game_id":440,"stv_port":27016,"stv_name":"Uncletopia | S√£o Paulo | 2 | All Maps | STV","players":null},{"server_id":7,"name":"Uncletopia | Seattle | 1 | All Maps","name_short":"sea-1","host":"sea-1.us.uncletopia.com","port":27015,"enabled":true,"region":"us-west","cc":"us","latitude":47.608013,"longitude":-122.33517,"reserved":0,"last_update":"0001-01-01T00:00:00Z","name_a2s":"Uncletopia | Seattle | 1 | All Maps","protocol":17,"map":"koth_cascade","folder":"tf","game":"Team Fortress","app_id":440,"player_count":0,"max_players":24,"Bots":0,"server_type":"Dedicated","server_os":"Linux","password":true,"vac":true,"version":"7723704","steam_id":85568392924469997,"keywords":["cp","nocrits","nodmgspread","uncletopia"],"game_id":440,"stv_port":27016,"stv_name":"Uncletopia | Seattle | 1 | All Maps | STV","players":null},{"server_id":119,"name":"Uncletopia | Seattle | 2 | All Maps","name_short":"sea-2","host":"sea-1.us.uncletopia.com","port":27025,"enabled":true,"region":"us-west","cc":"us","latitude":47.608013,"longitude":-122.33517,"reserved":0,"last_update":"0001-01-01T00:00:00Z","name_a2s":"Uncletopia | Seattle | 2 | All Maps","protocol":17,"map":"pl_upward","folder":"tf","game":"Team Fortress","app_id":440,"player_count":0,"max_players":24,"Bots":0,"server_type":"Dedicated","server_os":"Linux","password":true,"vac":true,"version":"7723704","steam_id":85568392924469998,"keywords":["nocrits","nodmgspread","payload","uncletopia"],"game_id":440,"stv_port":27026,"stv_name":"Uncletopia | Seattle | 2 | All Maps | STV","players":null},{"server_id":406,"name":"Uncletopia | Seattle | 3 | Stopwatch Beta","name_short":"sea-3","host":"sea-1.us.uncletopia.com","port":27035,"enabled":true,"region":"us-west","cc":"us","latitude":47.608013,"longitude":-122.33517,"reserved":0,"last_update":"0001-01-01T00:00:00Z","name_a2s":"Uncletopia | Seattle | 3 | Stopwatch Beta","protocol":17,"map":"cp_altitude","folder":"tf","game":"Team Fortress","app_id":440,"player_count":0,"max_players":24,"Bots":0,"server_type":"Dedicated","server_os":"Linux","password":true,"vac":false,"version":"7723704","steam_id":0,"keywords":["cp","nocrits","nodmgspread","uncletopia"],"game_id":440,"stv_port":27036,"stv_name":"Uncletopia | Seattle | 3 | Stopwatch Beta | STV","players":null},{"server_id":17,"name":"Uncletopia | San Francisco | 1 | All Maps","name_short":"sfo-1","host":"sfo-1.us.uncletopia.com","port":27015,"enabled":true,"region":"us-west","cc":"us","latitude":37.77397,"longitude":-122.4313,"reserved":0,"last_update":"0001-01-01T00:00:00Z","name_a2s":"Uncletopia | San Francisco | 1 | All Maps","protocol":17,"map":"pl_frontier_final","folder":"tf","game":"Team Fortress","app_id":440,"player_count":24,"max_players":24,"Bots":0,"server_type":"Dedicated","server_os":"Linux","password":true,"vac":true,"version":"7723704","steam_id":85568392924469999,"keywords":["nocrits","nodmgspread","payload","uncletopia"],"game_id":440,"stv_port":27016,"stv_name":"Uncletopia | San Francisco | 1 | All Maps | STV","players":[{"user_id":57,"name":"sugar shit","steam_id":76561198133360797,"connected_time":838000000000,"state":"active","ping":64},{"user_id":40,"name":"Non weeb","steam_id":76561199066748501,"connected_time":1903000000000,"state":"active","ping":45},{"user_id":11,"name":"dust","steam_id":76561198045218909,"connected_time":4014000000000,"state":"active","ping":58},{"user_id":58,"name":"gnome","steam_id":76561198262275475,"connected_time":832000000000,"state":"active","ping":123},{"user_id":59,"name":"Antonio","steam_id":76561199166925881,"connected_time":822000000000,"state":"active","ping":57},{"user_id":9,"name":"cinna.gamer.2007","steam_id":76561198309760791,"connected_time":4181000000000,"state":"active","ping":106},{"user_id":41,"name":"chuck","steam_id":76561198065428413,"connected_time":1895000000000,"state":"active","ping":64},{"user_id":15,"name":"Dad 2","steam_id":76561198138546187,"connected_time":3127000000000,"state":"active","ping":64},{"user_id":60,"name":"Sheppy","steam_id":76561198295126940,"connected_time":808000000000,"state":"active","ping":111},{"user_id":26,"name":"LeFunnyMan","steam_id":76561199081645289,"connected_time":2739000000000,"state":"active","ping":88},{"user_id":65,"name":"Bruised Banana","steam_id":76561198364172677,"connected_time":488000000000,"state":"active","ping":121},{"user_id":62,"name":"Fly_Johnson","steam_id":76561198882285873,"connected_time":780000000000,"state":"active","ping":119},{"user_id":56,"name":"TheMagicMrWaffle","steam_id":76561198104357256,"connected_time":875000000000,"state":"active","ping":50},{"user_id":63,"name":"Wan Shi Tong","steam_id":76561198076441225,"connected_time":704000000000,"state":"active","ping":116},{"user_id":64,"name":"real human bean","steam_id":76561198059535856,"connected_time":678000000000,"state":"active","ping":135},{"user_id":32,"name":"Yoinky","steam_id":76561199021887027,"connected_time":2347000000000,"state":"active","ping":122},{"user_id":44,"name":"Donkski","steam_id":76561198406895347,"connected_time":1860000000000,"state":"active","ping":75},{"user_id":45,"name":"incineratedbread","steam_id":76561198133619079,"connected_time":1825000000000,"state":"active","ping":57},{"user_id":53,"name":"CassandraRC7 (She/her)","steam_id":76561198094123940,"connected_time":1548000000000,"state":"active","ping":105},{"user_id":38,"name":"Serene Salamander","steam_id":76561198001094770,"connected_time":2152000000000,"state":"active","ping":66},{"user_id":55,"name":"jungus","steam_id":76561198129862008,"connected_time":901000000000,"state":"active","ping":56},{"user_id":47,"name":"comet sooicidy","steam_id":76561198025173479,"connected_time":1779000000000,"state":"active","ping":129},{"user_id":50,"name":"Pinicle","steam_id":76561198163251509,"connected_time":1713000000000,"state":"active","ping":81},{"user_id":67,"name":"OH JIMMY I'M HOME #SaveTf2","steam_id":76561198396658806,"connected_time":404000000000,"state":"active","ping":61}]},{"server_id":18,"name":"Uncletopia | San Francisco | 2 | All Maps","name_short":"sfo-2","host":"sfo-1.us.uncletopia.com","port":27025,"enabled":true,"region":"us-west","cc":"us","latitude":37.77397,"longitude":-122.4313,"reserved":0,"last_update":"0001-01-01T00:00:00Z","name_a2s":"Uncletopia | San Francisco | 2 | All Maps","protocol":17,"map":"pl_upward","folder":"tf","game":"Team Fortress","app_id":440,"player_count":0,"max_players":24,"Bots":0,"server_type":"Dedicated","server_os":"Linux","password":true,"vac":true,"version":"7723704","steam_id":85568392924470000,"keywords":["nocrits","nodmgspread","payload","uncletopia"],"game_id":440,"stv_port":27026,"stv_name":"Uncletopia | San Francisco | 2 | All Maps | STV","players":null},{"server_id":19,"name":"Uncletopia | San Francisco | 3 | Stopwatch Beta","name_short":"sfo-3","host":"sfo-1.us.uncletopia.com","port":27035,"enabled":true,"region":"us-west","cc":"us","latitude":37.77397,"longitude":-122.4313,"reserved":0,"last_update":"0001-01-01T00:00:00Z","name_a2s":"Uncletopia | San Francisco | 3 | Stopwatch Beta","protocol":17,"map":"pl_pier","folder":"tf","game":"Team Fortress","app_id":440,"player_count":0,"max_players":24,"Bots":0,"server_type":"Dedicated","server_os":"Linux","password":true,"vac":true,"version":"7723704","steam_id":85568392924742824,"keywords":["nocrits","nodmgspread","payload","uncletopia"],"game_id":440,"stv_port":27036,"stv_name":"Uncletopia | San Francisco | 3 | Stopwatch Beta | STV","players":null},{"server_id":20,"name":"Uncletopia | San Francisco | 4 | Community","name_short":"sfo-4","host":"sfo-1.us.uncletopia.com","port":27045,"enabled":true,"region":"us-west","cc":"us","latitude":37.77397,"longitude":-122.4313,"reserved":0,"last_update":"0001-01-01T00:00:00Z","name_a2s":"Uncletopia | San Francisco | 4 | Community","protocol":17,"map":"koth_cascade","folder":"tf","game":"Team Fortress","app_id":440,"player_count":0,"max_players":24,"Bots":0,"server_type":"Dedicated","server_os":"Linux","password":true,"vac":true,"version":"7723704","steam_id":85568392924742826,"keywords":["cp","nocrits","nodmgspread","uncletopia"],"game_id":440,"stv_port":27046,"stv_name":"Uncletopia | San Francisco | 4 | Community | STV","players":null},{"server_id":141,"name":"Uncletopia | Sydney | 1 | All Maps","name_short":"syd-1","host":"syd-1.au.uncletopia.com","port":27015,"enabled":true,"region":"au","cc":"au","latitude":-33.865143,"longitude":151.2099,"reserved":0,"last_update":"0001-01-01T00:00:00Z","name_a2s":"Uncletopia | Sydney | 1 | All Maps","protocol":17,"map":"koth_highpass","folder":"tf","game":"Team Fortress","app_id":440,"player_count":0,"max_players":24,"Bots":0,"server_type":"Dedicated","server_os":"Linux","password":true,"vac":true,"version":"7723704","steam_id":85568392924470001,"keywords":["cp","nocrits","nodmgspread","uncletopia"],"game_id":440,"stv_port":27016,"stv_name":"Uncletopia | Sydney | 1 | All Maps | STV","players":null},{"server_id":123,"name":"Uncletopia | Sydney | 2 | All Maps","name_short":"syd-2","host":"syd-1.au.uncletopia.com","port":27025,"enabled":true,"region":"au","cc":"au","latitude":-33.865143,"longitude":151.2099,"reserved":0,"last_update":"0001-01-01T00:00:00Z","name_a2s":"Uncletopia | Sydney | 2 | All Maps","protocol":17,"map":"koth_cascade","folder":"tf","game":"Team Fortress","app_id":440,"player_count":0,"max_players":24,"Bots":0,"server_type":"Dedicated","server_os":"Linux","password":true,"vac":true,"version":"7723704","steam_id":85568392924470002,"keywords":["cp","nocrits","nodmgspread","uncletopia"],"game_id":440,"stv_port":27026,"stv_name":"Uncletopia | Sydney | 2 | All Maps | STV","players":null},{"server_id":395,"name":"Uncletopia | Sydney | 3 | All Maps","name_short":"syd-3","host":"syd-1.au.uncletopia.com","port":27035,"enabled":true,"region":"au","cc":"au","latitude":-33.865143,"longitude":151.2099,"reserved":0,"last_update":"0001-01-01T00:00:00Z","name_a2s":"Uncletopia | Sydney | 3 | All Maps","protocol":17,"map":"cp_altitude","folder":"tf","game":"Team Fortress","app_id":440,"player_count":0,"max_players":24,"Bots":0,"server_type":"Dedicated","server_os":"Linux","password":true,"vac":true,"version":"7723704","steam_id":85568392925194467,"keywords":["cp","nocrits","nodmgspread","uncletopia"],"game_id":440,"stv_port":27036,"stv_name":"Uncletopia | Sydney | 3 | All Maps | STV","players":null},{"server_id":396,"name":"Uncletopia | Sydney | 4 | All Maps","name_short":"syd-4","host":"syd-1.au.uncletopia.com","port":27045,"enabled":true,"region":"au","cc":"au","latitude":-33.865143,"longitude":151.2099,"reserved":0,"last_update":"0001-01-01T00:00:00Z","name_a2s":"Uncletopia | Sydney | 4 | All Maps","protocol":17,"map":"koth_cascade","folder":"tf","game":"Team Fortress","app_id":440,"player_count":0,"max_players":24,"Bots":0,"server_type":"Dedicated","server_os":"Linux","password":true,"vac":true,"version":"7723704","steam_id":85568392925397958,"keywords":["cp","nocrits","nodmgspread","uncletopia"],"game_id":440,"stv_port":27046,"stv_name":"Uncletopia | Sydney | 4 | All Maps | STV","players":null},{"server_id":58,"name":"Uncletopia | Sydney | 5 | Stopwatch Beta","name_short":"syd-5","host":"syd-1.au.uncletopia.com","port":27055,"enabled":true,"region":"au","cc":"au","latitude":-33.865143,"longitude":151.2099,"reserved":0,"last_update":"0001-01-01T00:00:00Z","name_a2s":"Uncletopia | Sydney | 5 | Stopwatch Beta","protocol":17,"map":"cp_altitude","folder":"tf","game":"Team Fortress","app_id":440,"player_count":0,"max_players":24,"Bots":0,"server_type":"Dedicated","server_os":"Linux","password":true,"vac":true,"version":"7723704","steam_id":85568392925397959,"keywords":["cp","nocrits","nodmgspread","uncletopia"],"game_id":440,"stv_port":27056,"stv_name":"Uncletopia | Sydney | 5 | Stopwatch Beta | STV","players":null},{"server_id":59,"name":"Uncletopia | Sydney | 6 | Community","name_short":"syd-6","host":"syd-1.au.uncletopia.com","port":27065,"enabled":true,"region":"au","cc":"au","latitude":-33.865143,"longitude":151.2099,"reserved":0,"last_update":"0001-01-01T00:00:00Z","name_a2s":"Uncletopia | Sydney | 6 | Community","protocol":17,"map":"workshop/pl_eruption_b8c.ugc2865677281","folder":"tf","game":"Team Fortress","app_id":440,"player_count":0,"max_players":24,"Bots":0,"server_type":"Dedicated","server_os":"Linux","password":true,"vac":true,"version":"7723704","steam_id":85568392925397960,"keywords":["nocrits","nodmgspread","payload","uncletopia"],"game_id":440,"stv_port":27066,"stv_name":"Uncletopia | Sydney | 6 | Community | STV","players":null},{"server_id":49,"name":"Uncletopia | Warsaw | 1 | All Maps","name_short":"waw-1","host":"waw-1.pl.uncletopia.com","port":27015,"enabled":true,"region":"eu","cc":"pl","latitude":52.2297,"longitude":21.017532,"reserved":0,"last_update":"0001-01-01T00:00:00Z","name_a2s":"Uncletopia | Warsaw | 1 | All Maps","protocol":17,"map":"koth_highpass","folder":"tf","game":"Team Fortress","app_id":440,"player_count":0,"max_players":24,"Bots":0,"server_type":"Dedicated","server_os":"Linux","password":true,"vac":true,"version":"7723704","steam_id":85568392925397850,"keywords":["cp","nocrits","nodmgspread","uncletopia"],"game_id":440,"stv_port":27016,"stv_name":"Uncletopia | Warsaw | 1 | All Maps | STV","players":null},{"server_id":50,"name":"Uncletopia | Warsaw | 2 | All Maps","name_short":"waw-2","host":"waw-1.pl.uncletopia.com","port":27025,"enabled":true,"region":"eu","cc":"pl","latitude":52.2297,"longitude":21.017532,"reserved":0,"last_update":"0001-01-01T00:00:00Z","name_a2s":"Uncletopia | Warsaw | 2 | All Maps","protocol":17,"map":"pl_pier","folder":"tf","game":"Team Fortress","app_id":440,"player_count":0,"max_players":24,"Bots":0,"server_type":"Dedicated","server_os":"Linux","password":true,"vac":true,"version":"7723704","steam_id":85568392925397851,"keywords":["nocrits","nodmgspread","payload","uncletopia"],"game_id":440,"stv_port":27026,"stv_name":"Uncletopia | Warsaw | 2 | All Maps | STV","players":null},{"server_id":51,"name":"Uncletopia | Warsaw | 3 | All Maps","name_short":"waw-3","host":"waw-1.pl.uncletopia.com","port":27035,"enabled":true,"region":"eu","cc":"pl","latitude":52.2297,"longitude":21.017532,"reserved":0,"last_update":"0001-01-01T00:00:00Z","name_a2s":"Uncletopia | Warsaw | 3 | All Maps","protocol":17,"map":"pl_barnblitz","folder":"tf","game":"Team Fortress","app_id":440,"player_count":0,"max_players":24,"Bots":0,"server_type":"Dedicated","server_os":"Linux","password":true,"vac":true,"version":"7723704","steam_id":85568392925397852,"keywords":["nocrits","nodmgspread","payload","uncletopia"],"game_id":440,"stv_port":27036,"stv_name":"Uncletopia | Warsaw | 3 | All Maps | STV","players":null},{"server_id":52,"name":"Uncletopia | Warsaw | 4 | All Maps","name_short":"waw-4","host":"waw-1.pl.uncletopia.com","port":27045,"enabled":true,"region":"eu","cc":"pl","latitude":52.2297,"longitude":21.017532,"reserved":0,"last_update":"0001-01-01T00:00:00Z","name_a2s":"Uncletopia | Warsaw | 4 | All Maps","protocol":17,"map":"koth_viaduct","folder":"tf","game":"Team Fortress","app_id":440,"player_count":0,"max_players":24,"Bots":0,"server_type":"Dedicated","server_os":"Linux","password":true,"vac":true,"version":"7723704","steam_id":85568392925397853,"keywords":["cp","nocrits","nodmgspread","uncletopia"],"game_id":440,"stv_port":27046,"stv_name":"Uncletopia | Warsaw | 4 | All Maps | STV","players":null},{"server_id":53,"name":"Uncletopia | Warsaw | 5 | Stopwatch Beta","name_short":"waw-5","host":"waw-1.pl.uncletopia.com","port":27055,"enabled":true,"region":"eu","cc":"pl","latitude":52.2297,"longitude":21.017532,"reserved":0,"last_update":"0001-01-01T00:00:00Z","name_a2s":"Uncletopia | Warsaw | 5 | Stopwatch Beta","protocol":17,"map":"cp_sunshine","folder":"tf","game":"Team Fortress","app_id":440,"player_count":0,"max_players":24,"Bots":0,"server_type":"Dedicated","server_os":"Linux","password":true,"vac":true,"version":"7723704","steam_id":85568392925397854,"keywords":["cp","nocrits","nodmgspread","uncletopia"],"game_id":440,"stv_port":27056,"stv_name":"Uncletopia | Warsaw | 5 | Stopwatch Beta | STV","players":null},{"server_id":54,"name":"Uncletopia | Warsaw | 6 | Community","name_short":"waw-6","host":"waw-1.pl.uncletopia.com","port":27065,"enabled":true,"region":"eu","cc":"pl","latitude":52.2297,"longitude":21.017532,"reserved":0,"last_update":"0001-01-01T00:00:00Z","name_a2s":"Uncletopia | Warsaw | 6 | Community","protocol":17,"map":"workshop/koth_product_final.ugc454272353","folder":"tf","game":"Team Fortress","app_id":440,"player_count":0,"max_players":24,"Bots":0,"server_type":"Dedicated","server_os":"Linux","password":true,"vac":true,"version":"7723704","steam_id":85568392925397856,"keywords":["cp","nocrits","nodmgspread","uncletopia"],"game_id":440,"stv_port":27066,"stv_name":"Uncletopia | Warsaw | 6 | Community | STV","players":null}]}