{"status":true,"message":"","result":[{"server_id":9,"name":"Uncletopia | Atlanta | 1 | All Maps","name_short":"atl-1","host":"atl-1.us.uncletopia.com","port":27015,"enabled":true,"region":"us-east","cc":"us","latitude":33.753746,"longitude":-84.38633,"reserved":0,"last_update":"0001-01-01T00:00:00Z","name_a2s":"Uncletopia | Atlanta | 1 | All Maps","protocol":17,"map":"pl_upward","folder":"tf","game":"Team Fortress","app_id":440,"player_count":24,"max_players":24,"Bots":0,"server_type":"Dedicated","server_os":"Linux","password":true,"vac":true,"version":"7757534","steam_id":85568392924469982,"keywords":["nocrits","nodmgspread","payload","uncletopia"],"game_id":440,"stv_port":27016,"stv_name":"Uncletopia | Atlanta | 1 | All Maps | STV","players":[{"user_id":118,"name":"FancyBones","steam_id":76561198180198885,"connected_time":590000000000,"state":"active","ping":68},{"user_id":47,"name":"Scorch","steam_id":76561198167024005,"connected_time":5057000000000,"state":"active","ping":61},{"user_id":119,"name":"Khailby","steam_id":76561198811728410,"connected_time":581000000000,"state":"active","ping":45},{"user_id":106,"name":"jandajanda","steam_id":76561198235722476,"connected_time":1717000000000,"state":"active","ping":53},{"user_id":44,"name":"Crunchy","steam_id":76561199065412274,"connected_time":5546000000000,"state":"active","ping":57},{"user_id":125,"name":"TheKromeDome","steam_id":76561198288951592,"connected_time":498000000000,"state":"active","ping":184},{"user_id":98,"name":"HarryjusttHarry","steam_id":76561198982810452,"connected_time":2507000000000,"state":"active","ping":77},{"user_id":60,"name":"Super","steam_id":76561199179611350,"connected_time":4304000000000,"state":"active","ping":86},{"user_id":64,"name":"Monster","steam_id":76561198189429665,"connected_time":4206000000000,"state":"active","ping":58},{"user_id":112,"name":"whisper","steam_id":76561198116741891,"connected_time":981000000000,"state":"active","ping":60},{"user_id":127,"name":"Giddy","steam_id":76561198103183739,"connected_time":412000000000,"state":"active","ping":66},{"user_id":76,"name":"Thotimus Begonimus","steam_id":76561197970275938,"connected_time":3690000000000,"state":"active","ping":40},{"user_id":129,"name":"Thor engineer is a bloody spy!","steam_id":76561198384098648,"connected_time":340000000000,"state":"active","ping":70},{"user_id":115,"name":"Eins","steam_id":76561199030343810,"connected_time":619000000000,"state":"active","ping":40},{"user_id":114,"name":"Kitt(eh) ∑:3","steam_id":76561198110858518,"connected_time":667000000000,"state":"active","ping":68},{"user_id":94,"name":"Mr.P","steam_id":76561199238117658,"connected_time":2847000000000,"state":"active","ping":86},{"user_id":110,"name":"ATL1 | Pango","steam_id":76561198069811545,"connected_time":1171000000000,"state":"active","ping":45},{"user_id":117,"name":"Bird","steam_id":76561198247484514,"connected_time":605000000000,"state":"active","ping":65},{"user_id":122,"name":"Λlxium","steam_id":76561198131272900,"connected_time":575000000000,"state":"active","ping":82},{"user_id":123,"name":"Raptortastic","steam_id":76561198105613110,"connected_time":573000000000,"state":"active","ping":72},{"user_id":73,"name":"marguerite","steam_id":76561198170873495,"connected_time":3900000000000,"state":"active","ping":54},{"user_id":103,"name":"firetamer2","steam_id":76561198040886980,"connected_time":2251000000000,"state":"active","ping":64},{"user_id":77,"name":"BurgerPizza","steam_id":76561198151256410,"connected_time":3674000000000,"state":"active","ping":145},{"user_id":124,"name":"Shmebulock","steam_id":76561198046941925,"connected_time":566000000000,"state":"active","ping":75}]},{"server_id":104,"name":"Uncletopia | Atlanta | 2 | All Maps","name_short":"atl-2","host":"atl-1.us.uncletopia.com","port":27025,"enabled":true,"region":"us-east","cc":"us","latitude":33.753746,"longitude":-84.38633,"reserved":0,"last_update":"0001-01-01T00:00:00Z","name_a2s":"Uncletopia | Atlanta | 2 | All Maps","protocol":17,"map":"koth_viaduct","folder":"tf","game":"Team Fortress","app_id":440,"player_count":0,"max_players":24,"Bots":0,"server_type":"Dedicated","server_os":"Linux","password":true,"vac":true,"version":"7757534","steam_id":85568392924469983,"keywords":["cp","nocrits","nodmgspread","uncletopia"],"game_id":440,"stv_port":27026,"stv_name":"Uncletopia | Atlanta | 2 | All Maps | STV","players":null},{"server_id":400,"name":"Uncletopia | Atlanta | 3 | Community","name_short":"atl-3","host":"atl-1.us.uncletopia.com","port":27035,"enabled":true,"region":"us-east","cc":"us","latitude":33.753746,"longitude":-84.38633,"reserved":0,"last_update":"0001-01-01T00:00:00Z","name_a2s":"Uncletopia | Atlanta | 3 | Community","protocol":17,"map":"cp_snakewater_final1","folder":"tf","game":"Team Fortress","app_id":440,"player_count":0,"max_players":24,"Bots":0,"server_type":"Dedicated","server_os":"Linux","password":true,"vac":true,"version":"7757534","steam_id":85568392924515187,"keywords":["cp","nocrits","nodmgspread","uncletopia"],"game_id":440,"stv_port":27036,"stv_name":"Uncletopia | Atlanta | 3 | Community | STV","players":null},{"server_id":401,"name":"Uncletopia | Atlanta | 4 | No Payload","name_short":"atl-4","host":"atl-1.us.uncletopia.com","port":27045,"enabled":true,"region":"us-east","cc":"us","latitude":33.753746,"longitude":-84.38633,"reserved":0,"last_update":"0001-01-01T00:00:00Z","name_a2s":"","protocol":0,"map":"","folder":"","game":"","app_id":0,"player_count":0,"max_players":0,"Bots":0,"server_type":"","server_os":"","password":false,"vac":false,"version":"","steam_id":0,"keywords":null,"game_id":0,"stv_port":0,"stv_name":"","players":null},{"server_id":2,"name":"Uncletopia | Chicago | 1 | All Maps","name_short":"chi-1","host":"chi-1.us.uncletopia.com","port":27015,"enabled":true,"region":"us-central","cc":"us","latitude":41.881832,"longitude":-87.62318,"reserved":0,"last_update":"0001-01-01T00:00:00Z","name_a2s":"Uncletopia | Chicago | 1 | All Maps","protocol":17,"map":"pl_swiftwater_final1","folder":"tf","game":"Team Fortress","app_id":440,"player_count":25,"max_players":24,"Bots":0,"server_type":"Dedicated","server_os":"Linux","password":true,"vac":true,"version":"7757534","steam_id":85568392924469984,"keywords":["nocrits","nodmgspread","payload","uncletopia"],"game_id":440,"stv_port":27016,"stv_name":"Uncletopia | Chicago | 1 | All Maps | STV","players":[{"user_id":350,"name":"soy consumer","steam_id":76561198047168548,"connected_time":893000000000,"state":"active","ping":102},{"user_id":319,"name":"Cleric","steam_id":76561198045887994,"connected_time":2490000000000,"state":"active","ping":46},{"user_id":307,"name":"TeeTree","steam_id":76561198862307874,"connected_time":3588000000000,"state":"active","ping":60},{"user_id":359,"name":"Hooked","steam_id":76561198007302139,"connected_time":112000000000,"state":"active","ping":75},{"user_id":344,"name":"tim-","steam_id":76561199119101315,"connected_time":1103000000000,"state":"active","ping":65},{"user_id":341,"name":"hoodwink00❤","steam_id":76561198133869796,"connected_time":1271000000000,"state":"active","ping":89},{"user_id":347,"name":"..","steam_id":76561199090287295,"connected_time":1034000000000,"state":"active","ping":66},{"user_id":342,"name":"stardust","steam_id":76561198413930183,"connected_time":1163000000000,"state":"active","ping":62},{"user_id":356,"name":"Veirū Viseris","steam_id":76561197989857176,"connected_time":579000000000,"state":"active","ping":169},{"user_id":353,"name":"Meringue","steam_id":76561198067899943,"connected_time":597000000000,"state":"active","ping":80},{"user_id":346,"name":"That Guy","steam_id":76561198798973444,"connected_time":1091000000000,"state":"active","ping":70},{"user_id":335,"name":"Howard Hamlin","steam_id":76561198881039861,"connected_time":1631000000000,"state":"active","ping":48},{"user_id":360,"name":"Skab","steam_id":76561199126112357,"connected_time":101000000000,"state":"connecting","ping":0},{"user_id":336,"name":"JestinJester","steam_id":76561198411846094,"connected_time":1621000000000,"state":"active","ping":69},{"user_id":333,"name":"Tommy Pickles (Very Cool)","steam_id":76561198391261463,"connected_time":1877000000000,"state":"active","ping":69},{"user_id":351,"name":"Coupon","steam_id":76561198111947598,"connected_time":603000000000,"state":"active","ping":91},{"user_id":265,"name":"vv","steam_id":76561198134813102,"connected_time":5704000000000,"state":"active","ping":62},{"user_id":328,"name":"Argo","steam_id":76561198353725622,"connected_time":2241000000000,"state":"active","ping":75},{"user_id":352,"name":"chest cutter","steam_id":76561199132268907,"connected_time":599000000000,"state":"active","ping":52},{"user_id":355,"name":"white ray","steam_id":76561198026664629,"connected_time":587000000000,"state":"active","ping":52},{"user_id":349,"name":"Tlaloc","steam_id":76561198375215983,"connected_time":909000000000,"state":"active","ping":120},{"user_id":315,"name":"roller","steam_id":76561198091233439,"connected_time":2734000000000,"state":"active","ping":52},{"user_id":357,"name":"CamSoup","steam_id":76561198202483168,"connected_time":578000000000,"state":"active","ping":69},{"user_id":325,"name":"ChefMike","steam_id":76561198414034069,"connected_time":2434000000000,"state":"active","ping":68},{"user_id":361,"name":"volta","steam_id":76561199214283884,"connected_time":97000000000,"state":"active","ping":105}]},{"server_id":106,"name":"Uncletopia | Chicago | 2 | All Maps","name_short":"chi-2","host":"chi-1.us.uncletopia.com","port":27025,"enabled":true,"region":"us-central","cc":"us","latitude":41.881832,"longitude":-87.62318,"reserved":0,"last_update":"0001-01-01T00:00:00Z","name_a2s":"Uncletopia | Chicago | 2 | All Maps","protocol":17,"map":"cp_steel","folder":"tf","game":"Team Fortress","app_id":440,"player_count":20,"max_players":24,"Bots":0,"server_type":"Dedicated","server_os":"Linux","password":true,"vac":true,"version":"7757534","steam_id":85568392924469985,"keywords":["cp","nocrits","nodmgspread","uncletopia"],"game_id":440,"stv_port":27026,"stv_name":"Uncletopia | Chicago | 2 | All Maps | STV","players":[{"user_id":102,"name":"Davy Jones","steam_id":76561198956823243,"connected_time":235000000000,"state":"active","ping":60},{"user_id":91,"name":"Wizard101 Enjoyer","steam_id":76561198400952853,"connected_time":1113000000000,"state":"active","ping":66},{"user_id":95,"name":"james may","steam_id":76561198043857339,"connected_time":1044000000000,"state":"active","ping":103},{"user_id":101,"name":"Floating Peasant","steam_id":76561198000183671,"connected_time":302000000000,"state":"active","ping":59},{"user_id":98,"name":"Shrek I Guess","steam_id":76561198152587680,"connected_time":557000000000,"state":"active","ping":108},{"user_id":80,"name":"Dookie","steam_id":76561198354025894,"connected_time":1889000000000,"state":"active","ping":61},{"user_id":94,"name":"Antknee","steam_id":76561198263793809,"connected_time":1066000000000,"state":"active","ping":70},{"user_id":99,"name":"hoot.","steam_id":76561198066876703,"connected_time":362000000000,"state":"active","ping":57},{"user_id":92,"name":"Shuual","steam_id":76561198004395256,"connected_time":1105000000000,"state":"active","ping":82},{"user_id":103,"name":"Human_Duck_Box","steam_id":76561199216572071,"connected_time":200000000000,"state":"active","ping":92},{"user_id":105,"name":"Decs","steam_id":76561198825197974,"connected_time":84000000000,"state":"active","ping":125},{"user_id":106,"name":"Yeagle","steam_id":76561199086620299,"connected_time":50000000000,"state":"active","ping":75},{"user_id":85,"name":"gorf?","steam_id":76561198142286417,"connected_time":1193000000000,"state":"active","ping":53},{"user_id":77,"name":"pepdgpr mang","steam_id":76561198241438086,"connected_time":2013000000000,"state":"active","ping":61},{"user_id":89,"name":"Raine","steam_id":76561199081937889,"connected_time":1172000000000,"state":"active","ping":70},{"user_id":71,"name":"Bullwinkle J. Moose","steam_id":76561198075977196,"connected_time":2510000000000,"state":"active","ping":75},{"user_id":82,"name":"Dude Named Bob","steam_id":76561198310448093,"connected_time":1524000000000,"state":"active","ping":45},{"user_id":87,"name":"Lost","steam_id":76561198093713427,"connected_time":1179000000000,"state":"active","ping":59},{"user_id":100,"name":"PzVIIIMaus","steam_id":76561198346559365,"connected_time":342000000000,"state":"active","ping":46},{"user_id":57,"name":"team fortress","steam_id":76561198115443354,"connected_time":3495000000000,"state":"active","ping":49}]},{"server_id":402,"name":"Uncletopia | Chicago | 3 | All Maps","name_short":"chi-3","host":"chi-1.us.uncletopia.com","port":27035,"enabled":true,"region":"us-central","cc":"us","latitude":41.881832,"longitude":-87.62318,"reserved":0,"last_update":"0001-01-01T00:00:00Z","name_a2s":"Uncletopia | Chicago | 3 | All Maps","protocol":17,"map":"koth_cascade","folder":"tf","game":"Team Fortress","app_id":440,"player_count":4,"max_players":24,"Bots":0,"server_type":"Dedicated","server_os":"Linux","password":true,"vac":true,"version":"7757534","steam_id":85568392924515191,"keywords":["cp","nocrits","nodmgspread","uncletopia"],"game_id":440,"stv_port":27036,"stv_name":"Uncletopia | Chicago | 3 | All Maps | STV","players":[{"user_id":7,"name":"The World's Softest Sandwich","steam_id":76561198015577707,"connected_time":770000000000,"state":"active","ping":73},{"user_id":8,"name":"Business skeleton","steam_id":76561198840648058,"connected_time":346000000000,"state":"active","ping":47},{"user_id":9,"name":"Fresh Lychee","steam_id":76561198045399559,"connected_time":316000000000,"state":"active","ping":51},{"user_id":10,"name":"L_J","steam_id":76561198331514963,"connected_time":9000000000,"state":"spawning","ping":51}]},{"server_id":403,"name":"Uncletopia | Chicago | 4 | All Maps","name_short":"chi-4","host":"chi-1.us.uncletopia.com","port":27045,"enabled":true,"region":"us-central","cc":"us","latitude":41.881832,"longitude":-87.62318,"reserved":0,"last_update":"0001-01-01T00:00:00Z","name_a2s":"Uncletopia | Chicago | 4 | All Maps","protocol":17,"map":"cp_granary","folder":"tf","game":"Team Fortress","app_id":440,"player_count":16,"max_players":24,"Bots":0,"server_type":"Dedicated","server_os":"Linux","password":true,"vac":true,"version":"7757534","steam_id":85568392924515193,"keywords":["cp","nocrits","nodmgspread","uncletopia"],"game_id":440,"stv_port":27046,"stv_name":"Uncletopia | Chicago | 4 | All Maps | STV","players":[{"user_id":461,"name":"soup","steam_id":76561198099977572,"connected_time":0,"state":"spawning","ping":15},{"user_id":198,"name":"dog","steam_id":76561198263873491,"connected_time":7164000000000,"state":"active","ping":42},{"user_id":305,"name":"girlboss","steam_id":76561197989019617,"connected_time":5672000000000,"state":"active","ping":47},{"user_id":450,"name":"{FITH}™ SmittyWun {FM}","steam_id":76561198079531938,"connected_time":1004000000000,"state":"active","ping":75},{"user_id":449,"name":"ShadBad","steam_id":76561198248287390,"connected_time":1293000000000,"state":"active","ping":104},{"user_id":17,"name":"tacofever","steam_id":76561198010966507,"connected_time":11256000000000,"state":"active","ping":105},{"user_id":453,"name":"Dreck the Opossum","steam_id":76561198029411841,"connected_time":958000000000,"state":"active","ping":62},{"user_id":454,"name":"Bren","steam_id":76561198093573384,"connected_time":952000000000,"state":"active","ping":60},{"user_id":458,"name":"nefarious criminal","steam_id":76561198077506415,"connected_time":344000000000,"state":"active","ping":60},{"user_id":459,"name":"Brandonazz","steam_id":76561197994366351,"connected_time":230000000000,"state":"active","ping":65},{"user_id":436,"name":"JACOB","steam_id":76561198211874895,"connected_time":3310000000000,"state":"active","ping":78},{"user_id":447,"name":"The Drunk Clown","steam_id":76561197986850426,"connected_time":1765000000000,"state":"active","ping":72},{"user_id":428,"name":"Neo Kojiro","steam_id":76561198000967076,"connected_time":3559000000000,"state":"active","ping":78},{"user_id":455,"name":"THE Bucket Man","steam_id":76561198851816161,"connected_time":942000000000,"state":"active","ping":74},{"user_id":457,"name":"THE KING","steam_id":76561198066174041,"connected_time":415000000000,"state":"active","ping":61},{"user_id":240,"name":"hideyochest","steam_id":76561198090366059,"connected_time":6523000000000,"state":"active","ping":58}]},{"server_id":36,"name":"Uncletopia | Chicago | 5 | All Maps","name_short":"chi-5","host":"chi-2.us.uncletopia.com","port":27015,"enabled":true,"region":"us-central","cc":"us","latitude":41.881832,"longitude":-87.62318,"reserved":0,"last_update":"0001-01-01T00:00:00Z","name_a2s":"Uncletopia | Chicago | 5 | All Maps","protocol":17,"map":"koth_cascade","folder":"tf","game":"Team Fortress","app_id":440,"player_count":0,"max_players":24,"Bots":0,"server_type":"Dedicated","server_os":"Linux","password":true,"vac":true,"version":"7757534","steam_id":85568392924866362,"keywords":["cp","nocrits","nodmgspread","uncletopia"],"game_id":440,"stv_port":27016,"stv_name":"Uncletopia | Chicago | 5 | All Maps | STV","players":null},{"server_id":37,"name":"Uncletopia | Chicago | 6 | All Maps","name_short":"chi-6","host":"chi-2.us.uncletopia.com","port":27025,"enabled":true,"region":"us-central","cc":"us","latitude":41.881832,"longitude":-87.62318,"reserved":0,"last_update":"0001-01-01T00:00:00Z","name_a2s":"Uncletopia | Chicago | 6 | All Maps","protocol":17,"map":"pl_barnblitz","folder":"tf","game":"Team Fortress","app_id":440,"player_count":24,"max_players":24,"Bots":0,"server_type":"Dedicated","server_os":"Linux","password":true,"vac":true,"version":"7757534","steam_id":85568392924866363,"keywords":["nocrits","nodmgspread","payload","uncletopia"],"game_id":440,"stv_port":27026,"stv_name":"Uncletopia | Chicago | 6 | All Maps | STV","players":[{"user_id":52,"name":"CINDER","steam_id":76561198928210978,"connected_time":412000000000,"state":"active","ping":62},{"user_id":55,"name":"vergil","steam_id":76561197972605325,"connected_time":383000000000,"state":"active","ping":186},{"user_id":51,"name":"bash -lc ./asshat.sh","steam_id":76561198004584315,"connected_time":426000000000,"state":"active","ping":65},{"user_id":17,"name":"Robo Intern","steam_id":76561199067098696,"connected_time":2192000000000,"state":"active","ping":90},{"user_id":33,"name":"Aura","steam_id":76561198010021047,"connected_time":1376000000000,"state":"active","ping":78},{"user_id":56,"name":"Buff Wizard","steam_id":76561198151397667,"connected_time":375000000000,"state":"active","ping":101},{"user_id":21,"name":"hoOmIN","steam_id":76561198334947079,"connected_time":1745000000000,"state":"active","ping":91},{"user_id":62,"name":"Sandwich Thief","steam_id":76561198094928735,"connected_time":227000000000,"state":"active","ping":64},{"user_id":57,"name":"Orc peon","steam_id":76561198208567789,"connected_time":368000000000,"state":"active","ping":87},{"user_id":24,"name":"The Sydney Sleeper Itself","steam_id":76561198180251763,"connected_time":1597000000000,"state":"active","ping":68},{"user_id":25,"name":"N-Word ScissorHands","steam_id":76561198054353610,"connected_time":1579000000000,"state":"active","ping":108},{"user_id":26,"name":"Randombrawl","steam_id":76561198045020108,"connected_time":1555000000000,"state":"active","ping":96},{"user_id":58,"name":"Aristotle Voulton","steam_id":76561198100174923,"connected_time":366000000000,"state":"active","ping":95},{"user_id":37,"name":"Moop","steam_id":76561198096984681,"connected_time":1314000000000,"state":"active","ping":92},{"user_id":29,"name":"Schwagz","steam_id":76561198038330649,"connected_time":1532000000000,"state":"active","ping":85},{"user_id":47,"name":"Zero","steam_id":76561199383267408,"connected_time":596000000000,"state":"active","ping":75},{"user_id":46,"name":"the bron jame","steam_id":76561198371235518,"connected_time":658000000000,"state":"active","ping":126},{"user_id":63,"name":"Dr.KombatPhD.ttv","steam_id":76561198263847667,"connected_time":87000000000,"state":"active","ping":67},{"user_id":34,"name":"raccoonclint","steam_id":76561199073295092,"connected_time":1365000000000,"state":"active","ping":115},{"user_id":35,"name":"Ann1ck","steam_id":76561198361129190,"connected_time":1362000000000,"state":"active","ping":63},{"user_id":60,"name":"flamingcookies","steam_id":76561198280864779,"connected_time":270000000000,"state":"active","ping":79},{"user_id":64,"name":"SkyCinnamon","steam_id":76561198049469563,"connected_time":60000000000,"state":"active","ping":76},{"user_id":61,"name":"Microsoft Excel","steam_id":76561198036504161,"connected_time":252000000000,"state":"active","ping":125},{"user_id":50,"name":"Mayor McCheese","steam_id":76561198055417680,"connected_time":497000000000,"state":"active","ping":102}]},{"server_id":38,"name":"Uncletopia | Chicago | 7 | Stopwatch Beta","name_short":"chi-7","host":"chi-2.us.uncletopia.com","port":27035,"enabled":true,"region":"us-central","cc":"us","latitude":41.881832,"longitude":-87.62318,"reserved":0,"last_update":"0001-01-01T00:00:00Z","name_a2s":"Uncletopia | Chicago | 7 | Stopwatch Beta","protocol":17,"map":"pl_barnblitz","folder":"tf","game":"Team Fortress","app_id":440,"player_count":0,"max_players":24,"Bots":0,"server_type":"Dedicated","server_os":"Linux","password":true,"vac":true,"version":"7757534","steam_id":85568392924866364,"keywords":["nocrits","nodmgspread","payload","uncletopia"],"game_id":440,"stv_port":27036,"stv_name":"Uncletopia | Chicago | 7 | Stopwatch Beta | STV","players":null},{"server_id":39,"name":"Uncletopia | Chicago | 8 | Community","name_short":"chi-8","host":"chi-2.us.uncletopia.com","port":27045,"enabled":true,"region":"us-central","cc":"us","latitude":41.881832,"longitude":-87.62318,"reserved":0,"last_update":"0001-01-01T00:00:00Z","name_a2s":"Uncletopia | Chicago | 8 | Community","protocol":17,"map":"koth_cascade","folder":"tf","game":"Team Fortress","app_id":440,"player_count":0,"max_players":24,"Bots":0,"server_type":"Dedicated","server_os":"Linux","password":true,"vac":true,"version":"7757534","steam_id":85568392924866365,"keywords":["cp","nocrits","nodmgspread","uncletopia"],"game_id":440,"stv_port":27046,"stv_name":"Uncletopia | Chicago | 8 | Community | STV","players":null},{"server_id":8,"name":"Uncletopia | Dallas | 1 | All Maps","name_short":"dal-1","host":"dal-1.us.uncletopia.com","port":27015,"enabled":true,"region":"us-central","cc":"us","latitude":32.779167,"longitude":-96.80889,"reserved":0,"last_update":"0001-01-01T00:00:00Z","name_a2s":"Uncletopia | Dallas | 1 | All Maps","protocol":17,"map":"pl_badwater","folder":"tf","game":"Team Fortress","app_id":440,"player_count":24,"max_players":24,"Bots":0,"server_type":"Dedicated","server_os":"Linux","password":true,"vac":true,"version":"7757534","steam_id":85568392924469986,"keywords":["nocrits","nodmgspread","payload","uncletopia"],"game_id":440,"stv_port":27016,"stv_name":"Uncletopia | Dallas | 1 | All Maps | STV","players":[{"user_id":75,"name":"bagel_man","steam_id":76561198164640460,"connected_time":5119000000000,"state":"active","ping":117},{"user_id":143,"name":"apricity_a","steam_id":76561198202273263,"connected_time":1705000000000,"state":"active","ping":71},{"user_id":14,"name":"The Ultimate Coomer","steam_id":76561199128833757,"connected_time":8354000000000,"state":"active","ping":53},{"user_id":89,"name":"coodge","steam_id":76561198139080439,"connected_time":4271000000000,"state":"active","ping":82},{"user_id":131,"name":"Agent Q","steam_id":76561198830829003,"connected_time":1937000000000,"state":"active","ping":92},{"user_id":150,"name":"dicksnip","steam_id":76561198356515396,"connected_time":677000000000,"state":"active","ping":56},{"user_id":159,"name":"M@verick","steam_id":76561198006363519,"connected_time":131000000000,"state":"active","ping":91},{"user_id":122,"name":"goldorak_hobo_","steam_id":76561199472139808,"connected_time":2958000000000,"state":"active","ping":153},{"user_id":151,"name":"i live in your attic","steam_id":76561198796525948,"connected_time":551000000000,"state":"active","ping":66},{"user_id":144,"name":"creeeeeee","steam_id":76561198392539722,"connected_time":1556000000000,"state":"active","ping":82},{"user_id":117,"name":"Judgement.","steam_id":76561198280031462,"connected_time":3052000000000,"state":"active","ping":73},{"user_id":154,"name":"CEO of Great Value Rootbeer","steam_id":76561198255823904,"connected_time":204000000000,"state":"active","ping":83},{"user_id":155,"name":"mkl","steam_id":76561197986401685,"connected_time":203000000000,"state":"active","ping":58},{"user_id":141,"name":"cody","steam_id":76561198847749278,"connected_time":1710000000000,"state":"active","ping":43},{"user_id":156,"name":"Meth Goblin","steam_id":76561198086355221,"connected_time":198000000000,"state":"active","ping":62},{"user_id":146,"name":"Travis","steam_id":76561198121819162,"connected_time":1166000000000,"state":"active","ping":57},{"user_id":152,"name":"Ambrose Kenny-Smith (Real)","steam_id":76561198822069026,"connected_time":500000000000,"state":"active","ping":114},{"user_id":148,"name":"beans","steam_id":76561199082781884,"connected_time":851000000000,"state":"active","ping":66},{"user_id":157,"name":"evanferrito2010","steam_id":76561199452465999,"connected_time":175000000000,"state":"active","ping":102},{"user_id":96,"name":"rkp!","steam_id":76561199053070819,"connected_time":4091000000000,"state":"active","ping":66},{"user_id":158,"name":"Herobrineclone7","steam_id":76561199193733613,"connected_time":174000000000,"state":"active","ping":107},{"user_id":149,"name":"Cosmic Torgue","steam_id":76561198828724945,"connected_time":710000000000,"state":"active","ping":105},{"user_id":108,"name":"Seal","steam_id":76561198040969743,"connected_time":3523000000000,"state":"active","ping":75},{"user_id":138,"name":"jack","steam_id":76561198408702012,"connected_time":1747000000000,"state":"active","ping":101}]},{"server_id":108,"name":"Uncletopia | Dallas | 2 | All Maps","name_short":"dal-2","host":"dal-1.us.uncletopia.com","port":27025,"enabled":true,"region":"us-central","cc":"us","latitude":32.779167,"longitude":-96.80889,"reserved":0,"last_update":"0001-01-01T00:00:00Z","name_a2s":"Uncletopia | Dallas | 2 | All Maps","protocol":17,"map":"pl_barnblitz","folder":"tf","game":"Team Fortress","app_id":440,"player_count":24,"max_players":24,"Bots":0,"server_type":"Dedicated","server_os":"Linux","password":true,"vac":true,"version":"7757534","steam_id":85568392924469988,"keywords":["nocrits","nodmgspread","payload","uncletopia"],"game_id":440,"stv_port":27026,"stv_name":"Uncletopia | Dallas | 2 | All Maps | STV","players":[{"user_id":100,"name":"Tejo","steam_id":76561198200617911,"connected_time":309000000000,"state":"active","ping":51},{"user_id":98,"name":"sosu","steam_id":76561198012675381,"connected_time":385000000000,"state":"active","ping":75},{"user_id":89,"name":"Jared In Target","steam_id":76561198372449718,"connected_time":998000000000,"state":"active","ping":44},{"user_id":39,"name":"CylonPlays","steam_id":76561198014978060,"connected_time":4293000000000,"state":"active","ping":76},{"user_id":73,"name":"Henryhouse","steam_id":76561198035290490,"connected_time":1884000000000,"state":"active","ping":63},{"user_id":91,"name":"CreepaZoid08","steam_id":76561199077199356,"connected_time":934000000000,"state":"active","ping":70},{"user_id":70,"name":"bo scrungulus","steam_id":76561198038036122,"connected_time":2212000000000,"state":"active","ping":74},{"user_id":55,"name":"Dive(z)","steam_id":76561198140843225,"connected_time":2993000000000,"state":"active","ping":86},{"user_id":85,"name":"CR3EP","steam_id":76561198071554862,"connected_time":1368000000000,"state":"active","ping":91},{"user_id":82,"name":"Zombiehunter11","steam_id":76561198237517830,"connected_time":1430000000000,"state":"active","ping":92},{"user_id":16,"name":"TheGhostThatWas","steam_id":76561198055836483,"connected_time":5116000000000,"state":"active","ping":75},{"user_id":48,"name":"CyberBeans","steam_id":76561198239042642,"connected_time":3764000000000,"state":"active","ping":64},{"user_id":93,"name":"⯁ Ramiel","steam_id":76561198329087915,"connected_time":823000000000,"state":"active","ping":79},{"user_id":88,"name":"inzang","steam_id":76561198088318074,"connected_time":1153000000000,"state":"active","ping":56},{"user_id":99,"name":"WaywardFinn","steam_id":76561198040391296,"connected_time":355000000000,"state":"active","ping":99},{"user_id":60,"name":"Fishstall","steam_id":76561198038126034,"connected_time":2784000000000,"state":"active","ping":122},{"user_id":84,"name":"Donnie Oats","steam_id":76561198091111592,"connected_time":1385000000000,"state":"active","ping":57},{"user_id":83,"name":"ferretsock","steam_id":76561198209927431,"connected_time":1409000000000,"state":"active","ping":167},{"user_id":51,"name":"Fart Smella","steam_id":76561199095883173,"connected_time":3420000000000,"state":"active","ping":81},{"user_id":97,"name":"the smiling zombie","steam_id":76561199246231090,"connected_time":396000000000,"state":"active","ping":80},{"user_id":86,"name":"heimdall","steam_id":76561198069380992,"connected_time":1344000000000,"state":"active","ping":65},{"user_id":68,"name":"Rin \"Hindwing\" Redtail","steam_id":76561199074865638,"connected_time":2329000000000,"state":"active","ping":50},{"user_id":95,"name":"mnmtortise","steam_id":76561198310540900,"connected_time":586000000000,"state":"active","ping":99},{"user_id":96,"name":"Tamanugs","steam_id":76561198102045833,"connected_time":559000000000,"state":"active","ping":107}]},{"server_id":5,"name":"Uncletopia | Frankfurt | 1 | All Maps","name_short":"frk-1","host":"frk-1.de.uncletopia.com","port":27015,"enabled":true,"region":"eu","cc":"de","latitude":50.110924,"longitude":8.682127,"reserved":0,"last_update":"0001-01-01T00:00:00Z","name_a2s":"Uncletopia | Frankfurt | 1 | All Maps","protocol":17,"map":"koth_viaduct","folder":"tf","game":"Team Fortress","app_id":440,"player_count":0,"max_players":24,"Bots":0,"server_type":"Dedicated","server_os":"Linux","password":true,"vac":true,"version":"7757534","steam_id":85568392924469989,"keywords":["cp","nocrits","nodmgspread","uncletopia"],"game_id":440,"stv_port":27016,"stv_name":"Uncletopia | Frankfurt | 1 | All Maps | STV","players":null},{"server_id":110,"name":"Uncletopia | Frankfurt | 2 | All Maps","name_short":"frk-2","host":"frk-1.de.uncletopia.com","port":27025,"enabled":true,"region":"eu","cc":"de","latitude":50.110924,"longitude":8.682127,"reserved":0,"last_update":"0001-01-01T00:00:00Z","name_a2s":"Uncletopia | Frankfurt | 2 | All Maps","protocol":17,"map":"cp_dustbowl","folder":"tf","game":"Team Fortress","app_id":440,"player_count":24,"max_players":24,"Bots":0,"server_type":"Dedicated","server_os":"Linux","password":true,"vac":true,"version":"7757534","steam_id":85568392924469990,"keywords":["cp","nocrits","nodmgspread","uncletopia"],"game_id":440,"stv_port":27026,"stv_name":"Uncletopia | Frankfurt | 2 | All Maps | STV","players":[{"user_id":318,"name":"padillacampos","steam_id":76561198161923970,"connected_time":685000000000,"state":"active","ping":81},{"user_id":340,"name":"Petight","steam_id":76561197999438798,"connected_time":73000000000,"state":"active","ping":57},{"user_id":319,"name":"EdSuedi","steam_id":76561199387956486,"connected_time":658000000000,"state":"active","ping":48},{"user_id":323,"name":"the wind will carry you","steam_id":76561198377654570,"connected_time":500000000000,"state":"active","ping":35},{"user_id":320,"name":"laser","steam_id":76561198036030697,"connected_time":646000000000,"state":"active","ping":62},{"user_id":321,"name":"Stummelschwanz-Zwergtyrann","steam_id":76561198045784485,"connected_time":624000000000,"state":"active","ping":66},{"user_id":334,"name":"chidory41","steam_id":76561199404844130,"connected_time":210000000000,"state":"active","ping":84},{"user_id":298,"name":"SpilledMilk","steam_id":76561198174123971,"connected_time":3097000000000,"state":"active","ping":56},{"user_id":310,"name":"Economic crisis","steam_id":76561198063562843,"connected_time":1642000000000,"state":"active","ping":57},{"user_id":324,"name":"doe","steam_id":76561198058432834,"connected_time":446000000000,"state":"active","ping":53},{"user_id":333,"name":"Grillem Dafoe","steam_id":76561198306874574,"connected_time":244000000000,"state":"active","ping":78},{"user_id":332,"name":"gagalak","steam_id":76561198089979108,"connected_time":271000000000,"state":"active","ping":92},{"user_id":290,"name":"poo brother","steam_id":76561199368726811,"connected_time":3523000000000,"state":"active","ping":87},{"user_id":335,"name":"peter dangling","steam_id":76561198864327475,"connected_time":163000000000,"state":"active","ping":53},{"user_id":284,"name":"Spieller","steam_id":76561198057197847,"connected_time":3757000000000,"state":"active","ping":75},{"user_id":329,"name":"eatmysword_","steam_id":76561199063665709,"connected_time":393000000000,"state":"active","ping":93},{"user_id":341,"name":"テイルス","steam_id":76561198022403271,"connected_time":37000000000,"state":"active","ping":50},{"user_id":328,"name":"Weenie Hut Jr's","steam_id":76561198050515739,"connected_time":405000000000,"state":"active","ping":62},{"user_id":287,"name":"Serton♝","steam_id":76561198011061126,"connected_time":3658000000000,"state":"active","ping":88},{"user_id":305,"name":"muZ","steam_id":76561198060145190,"connected_time":2848000000000,"state":"active","ping":54},{"user_id":330,"name":"Der er et søm igennem mit ben","steam_id":76561198204171871,"connected_time":367000000000,"state":"active","ping":91},{"user_id":293,"name":"Ixsus\u003c3","steam_id":76561198094756869,"connected_time":3348000000000,"state":"active","ping":59},{"user_id":280,"name":"Pacanaz","steam_id":76561198011514552,"connected_time":3894000000000,"state":"active","ping":83},{"user_id":309,"name":"garf","steam_id":76561198162723276,"connected_time":1804000000000,"state":"active","ping":96}]},{"server_id":308,"name":"Uncletopia | Frankfurt | 3 | All Maps","name_short":"frk-3","host":"frk-1.de.uncletopia.com","port":27035,"enabled":true,"region":"eu","cc":"de","latitude":50.110924,"longitude":8.682127,"reserved":0,"last_update":"0001-01-01T00:00:00Z","name_a2s":"Uncletopia | Frankfurt | 3 | All Maps","protocol":17,"map":"pl_goldrush","folder":"tf","game":"Team Fortress","app_id":440,"player_count":18,"max_players":24,"Bots":0,"server_type":"Dedicated","server_os":"Linux","password":true,"vac":true,"version":"7757534","steam_id":85568392924504274,"keywords":["nocrits","nodmgspread","payload","uncletopia"],"game_id":440,"stv_port":27036,"stv_name":"Uncletopia | Frankfurt | 3 | All Maps | STV","players":[{"user_id":418,"name":"lord-carlos","steam_id":76561198025150761,"connected_time":1660000000000,"state":"active","ping":49},{"user_id":437,"name":"LOBZIK","steam_id":76561198114830120,"connected_time":360000000000,"state":"active","ping":75},{"user_id":357,"name":"LemonLeCitron","steam_id":76561198215545267,"connected_time":5097000000000,"state":"active","ping":69},{"user_id":440,"name":"AfroCookie","steam_id":76561198138362851,"connected_time":244000000000,"state":"active","ping":91},{"user_id":442,"name":"Ocelot9610","steam_id":76561199227216384,"connected_time":196000000000,"state":"active","ping":67},{"user_id":445,"name":"Sam04","steam_id":76561199004535941,"connected_time":134000000000,"state":"active","ping":97},{"user_id":371,"name":"zem","steam_id":76561198864329072,"connected_time":3853000000000,"state":"active","ping":104},{"user_id":386,"name":"soopeli","steam_id":76561198003350251,"connected_time":3316000000000,"state":"active","ping":65},{"user_id":443,"name":"Zox","steam_id":76561198214232577,"connected_time":172000000000,"state":"active","ping":51},{"user_id":432,"name":"Sydney","steam_id":76561198044082408,"connected_time":653000000000,"state":"active","ping":97},{"user_id":444,"name":"wasto-/-™","steam_id":76561198102888038,"connected_time":170000000000,"state":"active","ping":59},{"user_id":358,"name":"Breizbuc","steam_id":76561198118220633,"connected_time":5078000000000,"state":"active","ping":65},{"user_id":393,"name":"maika","steam_id":76561198027172275,"connected_time":3184000000000,"state":"active","ping":65},{"user_id":409,"name":"mohemmedmokhter2005","steam_id":76561199197650506,"connected_time":2079000000000,"state":"active","ping":116},{"user_id":446,"name":"bigwish | bmod.tf","steam_id":76561197997859723,"connected_time":128000000000,"state":"active","ping":93},{"user_id":449,"name":"adamΔ","steam_id":76561199007826093,"connected_time":52000000000,"state":"active","ping":81},{"user_id":431,"name":"Bölverkr","steam_id":76561198037444331,"connected_time":872000000000,"state":"active","ping":86},{"user_id":406,"name":"G1","steam_id":76561199097753630,"connected_time":2467000000000,"state":"active","ping":68}]},{"server_id":309,"name":"Uncletopia | Frankfurt | 4 | All Maps","name_short":"frk-4","host":"frk-1.de.uncletopia.com","port":27045,"enabled":true,"region":"eu","cc":"de","latitude":50.110924,"longitude":8.682127,"reserved":0,"last_update":"0001-01-01T00:00:00Z","name_a2s":"Uncletopia | Frankfurt | 4 | All Maps","protocol":17,"map":"cp_dustbowl","folder":"tf","game":"Team Fortress","app_id":440,"player_count":23,"max_players":24,"Bots":0,"server_type":"Dedicated","server_os":"Linux","password":true,"vac":true,"version":"7757534","steam_id":85568392924504275,"keywords":["cp","nocrits","nodmgspread","uncletopia"],"game_id":440,"stv_port":27046,"stv_name":"Uncletopia | Frankfurt | 4 | All Maps | STV","players":[{"user_id":325,"name":"barosans FR","steam_id":76561198038109099,"connected_time":1187000000000,"state":"active","ping":51},{"user_id":328,"name":"ILoveSalad","steam_id":76561199134152301,"connected_time":1080000000000,"state":"active","ping":112},{"user_id":334,"name":"LaserDisc_","steam_id":76561198048461220,"connected_time":872000000000,"state":"active","ping":71},{"user_id":336,"name":"Dzieciol","steam_id":76561198160237556,"connected_time":828000000000,"state":"active","ping":66},{"user_id":329,"name":"⨂","steam_id":76561198087800030,"connected_time":1066000000000,"state":"active","ping":75},{"user_id":337,"name":"hellrunner","steam_id":76561198205309695,"connected_time":828000000000,"state":"active","ping":79},{"user_id":314,"name":"szakember","steam_id":76561198273042780,"connected_time":2306000000000,"state":"active","ping":60},{"user_id":332,"name":"Green/Black Weezer CD#36","steam_id":76561198851520459,"connected_time":964000000000,"state":"active","ping":147},{"user_id":333,"name":"Red/Blue Weezer CD#35","steam_id":76561199008044410,"connected_time":954000000000,"state":"active","ping":163},{"user_id":318,"name":"GoatLord1","steam_id":76561198157964544,"connected_time":2178000000000,"state":"active","ping":51},{"user_id":252,"name":"the femboy gamer","steam_id":76561198445810164,"connected_time":6329000000000,"state":"active","ping":72},{"user_id":335,"name":"LIGHTWEIGHT BABY","steam_id":76561198002761980,"connected_time":857000000000,"state":"active","ping":60},{"user_id":338,"name":"Deginantisgameris","steam_id":76561199002417084,"connected_time":816000000000,"state":"active","ping":80},{"user_id":276,"name":"biden blast","steam_id":76561198059699043,"connected_time":5046000000000,"state":"active","ping":67},{"user_id":323,"name":"Pingu","steam_id":76561198207966532,"connected_time":1425000000000,"state":"active","ping":63},{"user_id":342,"name":"Gio'sMonkey","steam_id":76561198892432223,"connected_time":514000000000,"state":"active","ping":78},{"user_id":289,"name":"Nibbenji2077","steam_id":76561199219663655,"connected_time":4167000000000,"state":"active","ping":128},{"user_id":290,"name":"StabbyKnife","steam_id":76561198094010004,"connected_time":4161000000000,"state":"active","ping":86},{"user_id":340,"name":"bAdmon","steam_id":76561197961785793,"connected_time":793000000000,"state":"active","ping":59},{"user_id":246,"name":"nidob","steam_id":76561198349648942,"connected_time":6751000000000,"state":"active","ping":159},{"user_id":265,"name":"Jörmungandr","steam_id":76561199121981748,"connected_time":5444000000000,"state":"active","ping":71},{"user_id":301,"name":"geo_eo112","steam_id":76561198157082747,"connected_time":3382000000000,"state":"active","ping":85},{"user_id":343,"name":"X45Y","steam_id":76561198112534025,"connected_time":254000000000,"state":"active","ping":45}]},{"server_id":310,"name":"Uncletopia | Frankfurt | 5 | All Maps","name_short":"frk-5","host":"frk-1.de.uncletopia.com","port":27055,"enabled":true,"region":"eu","cc":"de","latitude":50.110924,"longitude":8.682127,"reserved":0,"last_update":"0001-01-01T00:00:00Z","name_a2s":"Uncletopia | Frankfurt | 5 | All Maps","protocol":17,"map":"koth_cascade","folder":"tf","game":"Team Fortress","app_id":440,"player_count":24,"max_players":24,"Bots":0,"server_type":"Dedicated","server_os":"Linux","password":true,"vac":true,"version":"7757534","steam_id":85568392924504277,"keywords":["cp","nocrits","nodmgspread","uncletopia"],"game_id":440,"stv_port":27056,"stv_name":"Uncletopia | Frankfurt | 5 | All Maps | STV","players":[{"user_id":314,"name":"akela","steam_id":76561198122010232,"connected_time":2759000000000,"state":"active","ping":58},{"user_id":350,"name":"Fus in Boots","steam_id":76561198053897722,"connected_time":599000000000,"state":"active","ping":61},{"user_id":354,"name":"Chez","steam_id":76561198150315584,"connected_time":471000000000,"state":"active","ping":74},{"user_id":329,"name":"блин!","steam_id":76561198808819694,"connected_time":1515000000000,"state":"active","ping":52},{"user_id":290,"name":"recoil","steam_id":76561199168419398,"connected_time":4369000000000,"state":"active","ping":78},{"user_id":341,"name":"Spootnak","steam_id":76561198049052518,"connected_time":1060000000000,"state":"active","ping":71},{"user_id":360,"name":"Dooble donk man look at me donk","steam_id":76561198225523596,"connected_time":203000000000,"state":"active","ping":67},{"user_id":312,"name":"Пес Патрон","steam_id":76561198273199378,"connected_time":2784000000000,"state":"active","ping":69},{"user_id":333,"name":"sam-","steam_id":76561198013770973,"connected_time":1413000000000,"state":"active","ping":75},{"user_id":356,"name":"I was good before.","steam_id":76561198187045217,"connected_time":415000000000,"state":"active","ping":76},{"user_id":355,"name":"Shaddow","steam_id":76561198105348049,"connected_time":456000000000,"state":"active","ping":74},{"user_id":282,"name":"Ape","steam_id":76561198322703872,"connected_time":5027000000000,"state":"active","ping":65},{"user_id":330,"name":"Flying skyhigh","steam_id":76561198372971096,"connected_time":1503000000000,"state":"active","ping":63},{"user_id":347,"name":"marshmallow","steam_id":76561198120166752,"connected_time":803000000000,"state":"active","ping":76},{"user_id":348,"name":"punk rock loser","steam_id":76561199117720299,"connected_time":788000000000,"state":"active","ping":65},{"user_id":326,"name":"anders McFlanders","steam_id":76561198022811995,"connected_time":1808000000000,"state":"active","ping":67},{"user_id":327,"name":"David \"Crash\" Murphy","steam_id":76561198292845505,"connected_time":1805000000000,"state":"active","ping":93},{"user_id":344,"name":"disposablesuperbread","steam_id":76561199074703607,"connected_time":882000000000,"state":"active","ping":102},{"user_id":361,"name":"panakid","steam_id":76561198364121077,"connected_time":202000000000,"state":"active","ping":104},{"user_id":269,"name":"cislastar","steam_id":76561198027202375,"connected_time":5720000000000,"state":"active","ping":80},{"user_id":336,"name":"Kurage","steam_id":76561198021221288,"connected_time":1292000000000,"state":"active","ping":62},{"user_id":323,"name":"zvekan","steam_id":76561198381101196,"connected_time":2298000000000,"state":"active","ping":63},{"user_id":349,"name":"player","steam_id":76561198054474684,"connected_time":759000000000,"state":"active","ping":75},{"user_id":357,"name":"Remyie","steam_id":76561198131031404,"connected_time":407000000000,"state":"active","ping":103}]},{"server_id":311,"name":"Uncletopia | Frankfurt | 6 | All Maps","name_short":"frk-6","host":"frk-1.de.uncletopia.com","port":27065,"enabled":true,"region":"eu","cc":"de","latitude":50.110924,"longitude":8.682127,"reserved":0,"last_update":"0001-01-01T00:00:00Z","name_a2s":"Uncletopia | Frankfurt | 6 | All Maps","protocol":17,"map":"pl_barnblitz","folder":"tf","game":"Team Fortress","app_id":440,"player_count":23,"max_players":24,"Bots":0,"server_type":"Dedicated","server_os":"Linux","password":true,"vac":true,"version":"7757534","steam_id":85568392924504278,"keywords":["nocrits","nodmgspread","payload","uncletopia"],"game_id":440,"stv_port":27066,"stv_name":"Uncletopia | Frankfurt | 6 | All Maps | STV","players":[{"user_id":150,"name":"Boki","steam_id":76561198044553351,"connected_time":1798000000000,"state":"active","ping":76},{"user_id":146,"name":"Tort","steam_id":76561198329646769,"connected_time":2058000000000,"state":"active","ping":73},{"user_id":117,"name":"malcolm sex","steam_id":76561198133532980,"connected_time":4234000000000,"state":"active","ping":60},{"user_id":168,"name":"Fancy","steam_id":76561198350658462,"connected_time":232000000000,"state":"active","ping":76},{"user_id":139,"name":"a straight white male","steam_id":76561198381120660,"connected_time":2529000000000,"state":"active","ping":85},{"user_id":140,"name":"Haha?","steam_id":76561198056882245,"connected_time":2509000000000,"state":"active","ping":47},{"user_id":128,"name":"89384HDHSJDHU\u0026/","steam_id":76561198057833760,"connected_time":3055000000000,"state":"active","ping":76},{"user_id":149,"name":".::[SerafeTTiN]::.","steam_id":76561198009471724,"connected_time":1802000000000,"state":"active","ping":90},{"user_id":162,"name":"funny yakuza man","steam_id":76561198800685443,"connected_time":1003000000000,"state":"active","ping":45},{"user_id":153,"name":"Brica","steam_id":76561198196324799,"connected_time":1711000000000,"state":"active","ping":81},{"user_id":89,"name":"Ennard777","steam_id":76561198965409493,"connected_time":6300000000000,"state":"active","ping":110},{"user_id":141,"name":"Bob Burger","steam_id":76561197996149548,"connected_time":2493000000000,"state":"active","ping":69},{"user_id":167,"name":"Sputnik","steam_id":76561198138660241,"connected_time":332000000000,"state":"active","ping":90},{"user_id":155,"name":"benibachi","steam_id":76561198190816499,"connected_time":1683000000000,"state":"active","ping":69},{"user_id":137,"name":"Chad","steam_id":76561198037309490,"connected_time":2698000000000,"state":"active","ping":72},{"user_id":156,"name":"TJ1212","steam_id":76561199013575313,"connected_time":1681000000000,"state":"active","ping":64},{"user_id":105,"name":"RawGorilla","steam_id":76561198063654194,"connected_time":5875000000000,"state":"active","ping":61},{"user_id":161,"name":"folköl gaming","steam_id":76561198239265962,"connected_time":1029000000000,"state":"active","ping":70},{"user_id":159,"name":"Kretur","steam_id":76561198161086266,"connected_time":1569000000000,"state":"active","ping":94},{"user_id":169,"name":"Soerlssoelssöen","steam_id":76561197993060585,"connected_time":224000000000,"state":"active","ping":79},{"user_id":147,"name":"Lyell","steam_id":76561198350329389,"connected_time":1981000000000,"state":"active","ping":82},{"user_id":142,"name":"The","steam_id":76561198359311605,"connected_time":2486000000000,"state":"active","ping":69},{"user_id":158,"name":"0","steam_id":76561198267909207,"connected_time":1584000000000,"state":"active","ping":84}]},{"server_id":23,"name":"Uncletopia | Frankfurt | 7 | Stopwatch Beta","name_short":"frk-7","host":"frk-1.de.uncletopia.com","port":27075,"enabled":true,"region":"eu","cc":"de","latitude":50.110924,"longitude":8.682127,"reserved":0,"last_update":"0001-01-01T00:00:00Z","name_a2s":"Uncletopia | Frankfurt | 7 | Stopwatch Beta","protocol":17,"map":"workshop/koth_clearcut_b15.ugc2107050255","folder":"tf","game":"Team Fortress","app_id":440,"player_count":0,"max_players":24,"Bots":0,"server_type":"Dedicated","server_os":"Linux","password":true,"vac":true,"version":"7757534","steam_id":85568392924742827,"keywords":["cp","nocrits","nodmgspread","uncletopia"],"game_id":440,"stv_port":27076,"stv_name":"Uncletopia | Frankfurt | 7 | Stopwatch Beta | STV","players":null},{"server_id":24,"name":"Uncletopia | Frankfurt | 8 | Community","name_short":"frk-8","host":"frk-1.de.uncletopia.com","port":27085,"enabled":true,"region":"eu","cc":"de","latitude":50.110924,"longitude":8.682127,"reserved":0,"last_update":"0001-01-01T00:00:00Z","name_a2s":"Uncletopia | Frankfurt | 8 | Community","protocol":17,"map":"workshop/cp_propaganda_b18.ugc1603743849","folder":"tf","game":"Team Fortress","app_id":440,"player_count":24,"max_players":24,"Bots":0,"server_type":"Dedicated","server_os":"Linux","password":true,"vac":true,"version":"7757534","steam_id":85568392924742828,"keywords":["cp","nocrits","nodmgspread","uncletopia"],"game_id":440,"stv_port":27086,"stv_name":"Uncletopia | Frankfurt | 8 | Community | STV","players":[{"user_id":301,"name":"Larso","steam_id":76561198996464912,"connected_time":1246000000000,"state":"active","ping":77},{"user_id":300,"name":"chssdk","steam_id":76561198262231733,"connected_time":1393000000000,"state":"active","ping":60},{"user_id":312,"name":"Drekadóttir","steam_id":76561198119979169,"connected_time":972000000000,"state":"active","ping":68},{"user_id":316,"name":"Topme","steam_id":76561198091734693,"connected_time":820000000000,"state":"active","ping":75},{"user_id":303,"name":"Kiwami","steam_id":76561198307503265,"connected_time":1208000000000,"state":"active","ping":114},{"user_id":307,"name":"dr. coom","steam_id":76561198172193711,"connected_time":1181000000000,"state":"active","ping":62},{"user_id":291,"name":"c64guy","steam_id":76561198023022744,"connected_time":2273000000000,"state":"active","ping":173},{"user_id":290,"name":"Irbynx","steam_id":76561197980421195,"connected_time":2335000000000,"state":"active","ping":80},{"user_id":314,"name":"Dave The Sloth","steam_id":76561199135831355,"connected_time":873000000000,"state":"active","ping":68},{"user_id":268,"name":"Operunter","steam_id":76561198059937616,"connected_time":3286000000000,"state":"active","ping":70},{"user_id":315,"name":"The Empire Ant","steam_id":76561198082466790,"connected_time":873000000000,"state":"active","ping":61},{"user_id":194,"name":"Spetse","steam_id":76561197990649972,"connected_time":7925000000000,"state":"active","ping":94},{"user_id":281,"name":"!","steam_id":76561198893062319,"connected_time":2615000000000,"state":"active","ping":66},{"user_id":310,"name":"SHADOW WIZARD MONEY GANG","steam_id":76561198179324075,"connected_time":1121000000000,"state":"active","ping":72},{"user_id":299,"name":"JohkupohkuXD","steam_id":76561198391108762,"connected_time":1954000000000,"state":"active","ping":86},{"user_id":282,"name":"Shelk0","steam_id":76561198153349968,"connected_time":2588000000000,"state":"active","ping":82},{"user_id":309,"name":"pardner","steam_id":76561198451471161,"connected_time":1128000000000,"state":"active","ping":69},{"user_id":298,"name":"rob","steam_id":76561198122211848,"connected_time":2026000000000,"state":"active","ping":108},{"user_id":311,"name":"lore","steam_id":76561198120984188,"connected_time":1120000000000,"state":"active","ping":58},{"user_id":318,"name":"Welder","steam_id":76561198355300561,"connected_time":224000000000,"state":"active","ping":65},{"user_id":250,"name":"bliss","steam_id":76561198067459427,"connected_time":4258000000000,"state":"active","ping":54},{"user_id":317,"name":"hud_saytext_time 0","steam_id":76561198010327228,"connected_time":675000000000,"state":"active","ping":65},{"user_id":285,"name":"Sir Skyber","steam_id":76561198064440004,"connected_time":2528000000000,"state":"active","ping":91},{"user_id":288,"name":"Krabs","steam_id":76561198161679477,"connected_time":2440000000000,"state":"active","ping":58}]},{"server_id":202,"name":"Uncletopia | Hong Kong | 1 | All Maps","name_short":"hgk-1","host":"hgk-1.hk.uncletopia.com","port":27015,"enabled":true,"region":"asia","cc":"hk","latitude":22.302711,"longitude":114.177216,"reserved":0,"last_update":"0001-01-01T00:00:00Z","name_a2s":"Uncletopia | Hong Kong | 1 | All Maps","protocol":17,"map":"cp_altitude","folder":"tf","game":"Team Fortress","app_id":440,"player_count":0,"max_players":24,"Bots":0,"server_type":"Dedicated","server_os":"Linux","password":true,"vac":true,"version":"7757534","steam_id":85568392924494504,"keywords":["cp","nocrits","nodmgspread","uncletopia"],"game_id":440,"stv_port":27016,"stv_name":"Uncletopia | Hong Kong | 1 | All Maps | STV","players":null},{"server_id":1,"name":"Uncletopia | Los Angeles | 1 | All Maps","name_short":"lax-1","host":"lax-1.us.uncletopia.com","port":27015,"enabled":true,"region":"us-west","cc":"us","latitude":33.94279,"longitude":-118.41004,"reserved":0,"last_update":"0001-01-01T00:00:00Z","name_a2s":"Uncletopia | Los Angeles | 1 | All Maps","protocol":17,"map":"koth_lakeside_final","folder":"tf","game":"Team Fortress","app_id":440,"player_count":0,"max_players":24,"Bots":0,"server_type":"Dedicated","server_os":"Linux","password":true,"vac":true,"version":"7757534","steam_id":85568392924469991,"keywords":["cp","nocrits","nodmgspread","uncletopia"],"game_id":440,"stv_port":27016,"stv_name":"Uncletopia | Los Angeles | 1 | All Maps | STV","players":null},{"server_id":112,"name":"Uncletopia | Los Angeles | 2 | All Maps","name_short":"lax-2","host":"lax-1.us.uncletopia.com","port":27025,"enabled":true,"region":"us-west","cc":"us","latitude":33.94279,"longitude":-118.41004,"reserved":0,"last_update":"0001-01-01T00:00:00Z","name_a2s":"Uncletopia | Los Angeles | 2 | All Maps","protocol":17,"map":"cp_snakewater_final1","folder":"tf","game":"Team Fortress","app_id":440,"player_count":0,"max_players":24,"Bots":0,"server_type":"Dedicated","server_os":"Linux","password":true,"vac":true,"version":"7757534","steam_id":85568392924469992,"keywords":["cp","nocrits","nodmgspread","uncletopia"],"game_id":440,"stv_port":27026,"stv_name":"Uncletopia | Los Angeles | 2 | All Maps | STV","players":null},{"server_id":324,"name":"Uncletopia | Los Angeles | 3 | All Maps","name_short":"lax-3","host":"lax-1.us.uncletopia.com","port":27035,"enabled":true,"region":"us-west","cc":"us","latitude":33.94279,"longitude":-118.41004,"reserved":0,"last_update":"0001-01-01T00:00:00Z","name_a2s":"Uncletopia | Los Angeles | 3 | All Maps","protocol":17,"map":"pl_barnblitz","folder":"tf","game":"Team Fortress","app_id":440,"player_count":0,"max_players":24,"Bots":0,"server_type":"Dedicated","server_os":"Linux","password":true,"vac":true,"version":"7757534","steam_id":85568392924510198,"keywords":["nocrits","nodmgspread","payload","uncletopia"],"game_id":440,"stv_port":27036,"stv_name":"Uncletopia | Los Angeles | 3 | All Maps | STV","players":null},{"server_id":25,"name":"Uncletopia | Los Angeles | 4 | Stopwatch Beta","name_short":"lax-4","host":"lax-1.us.uncletopia.com","port":27045,"enabled":true,"region":"us-west","cc":"us","latitude":33.94279,"longitude":-118.41004,"reserved":0,"last_update":"0001-01-01T00:00:00Z","name_a2s":"Uncletopia | Los Angeles | 4 | Stopwatch Beta","protocol":17,"map":"pl_swiftwater_final1","folder":"tf","game":"Team Fortress","app_id":440,"player_count":0,"max_players":24,"Bots":0,"server_type":"Dedicated","server_os":"Linux","password":true,"vac":true,"version":"7757534","steam_id":85568392924510199,"keywords":["nocrits","nodmgspread","payload","uncletopia"],"game_id":440,"stv_port":27046,"stv_name":"Uncletopia | Los Angeles | 4 | Stopwatch Beta | STV","players":null},{"server_id":11,"name":"Uncletopia | London | 1 | All Maps","name_short":"lon-1","host":"lon-1.uk.uncletopia.com","port":27015,"enabled":true,"region":"eu","cc":"gb","latitude":51.509865,"longitude":-0.118092,"reserved":0,"last_update":"0001-01-01T00:00:00Z","name_a2s":"Uncletopia | London | 1 | All Maps","protocol":17,"map":"pl_pier","folder":"tf","game":"Team Fortress","app_id":440,"player_count":24,"max_players":24,"Bots":0,"server_type":"Dedicated","server_os":"Linux","password":true,"vac":true,"version":"7757534","steam_id":85568392924367362,"keywords":["nocrits","nodmgspread","payload","uncletopia"],"game_id":440,"stv_port":27016,"stv_name":"Uncletopia | London | 1 | All Maps | STV","players":[{"user_id":704,"name":"homeinvasion$","steam_id":76561199111905021,"connected_time":349000000000,"state":"active","ping":112},{"user_id":693,"name":"twitch.tv/vision515","steam_id":76561198065293729,"connected_time":1414000000000,"state":"active","ping":182},{"user_id":525,"name":":)","steam_id":76561198039964082,"connected_time":6186000000000,"state":"active","ping":65},{"user_id":706,"name":"Mr_White","steam_id":76561198024615280,"connected_time":235000000000,"state":"active","ping":77},{"user_id":710,"name":"Carrot","steam_id":76561198119340863,"connected_time":114000000000,"state":"active","ping":33},{"user_id":695,"name":"help","steam_id":76561199056338917,"connected_time":1186000000000,"state":"active","ping":166},{"user_id":696,"name":"Th3Celestial","steam_id":76561198353312252,"connected_time":1172000000000,"state":"active","ping":54},{"user_id":526,"name":"0xDEADBEEF","steam_id":76561199075416111,"connected_time":5903000000000,"state":"active","ping":62},{"user_id":691,"name":"WinsomeYapper9","steam_id":76561199275285546,"connected_time":1473000000000,"state":"active","ping":113},{"user_id":678,"name":"deepsheet","steam_id":76561198245761116,"connected_time":2189000000000,"state":"active","ping":83},{"user_id":707,"name":"Mop","steam_id":76561198822725169,"connected_time":132000000000,"state":"active","ping":57},{"user_id":708,"name":"Kan0_","steam_id":76561198129596771,"connected_time":132000000000,"state":"active","ping":70},{"user_id":698,"name":"Poppy Stingray","steam_id":76561198049673783,"connected_time":694000000000,"state":"active","ping":70},{"user_id":705,"name":"Solarflame","steam_id":76561198158780844,"connected_time":341000000000,"state":"active","ping":90},{"user_id":699,"name":"Contemporary_Chaos","steam_id":76561198138784538,"connected_time":573000000000,"state":"active","ping":72},{"user_id":712,"name":"marvs","steam_id":76561198851777617,"connected_time":81000000000,"state":"active","ping":43},{"user_id":603,"name":"✪ qua ✪","steam_id":76561198066408333,"connected_time":3506000000000,"state":"active","ping":84},{"user_id":632,"name":"A Pigeon","steam_id":76561198114090555,"connected_time":2887000000000,"state":"active","ping":81},{"user_id":700,"name":"MedicMania","steam_id":76561199013190566,"connected_time":573000000000,"state":"active","ping":52},{"user_id":682,"name":"M4R1O","steam_id":76561198050528464,"connected_time":1767000000000,"state":"active","ping":60},{"user_id":702,"name":"Hercules","steam_id":76561198041164170,"connected_time":485000000000,"state":"active","ping":61},{"user_id":714,"name":"Uncle Terry","steam_id":76561198396415736,"connected_time":0,"state":"spawning","ping":33},{"user_id":713,"name":"Stabbyratbag","steam_id":76561198119531916,"connected_time":81000000000,"state":"active","ping":39},{"user_id":648,"name":"Siemens Desiro","steam_id":76561199203076508,"connected_time":2617000000000,"state":"active","ping":77}]},{"server_id":114,"name":"Uncletopia | London | 2 | All Maps","name_short":"lon-2","host":"lon-1.uk.uncletopia.com","port":27025,"enabled":true,"region":"eu","cc":"gb","latitude":51.509865,"longitude":-0.118092,"reserved":0,"last_update":"0001-01-01T00:00:00Z","name_a2s":"Uncletopia | London | 2 | All Maps","protocol":17,"map":"cp_mountainlab","folder":"tf","game":"Team Fortress","app_id":440,"player_count":23,"max_players":24,"Bots":0,"server_type":"Dedicated","server_os":"Linux","password":true,"vac":true,"version":"7757534","steam_id":85568392924470941,"keywords":["cp","nocrits","nodmgspread","uncletopia"],"game_id":440,"stv_port":27026,"stv_name":"Uncletopia | London | 2 | All Maps | STV","players":[{"user_id":215,"name":"rwota","steam_id":76561198385769722,"connected_time":7081000000000,"state":"active","ping":115},{"user_id":293,"name":"Si","steam_id":76561197990442745,"connected_time":526000000000,"state":"active","ping":60},{"user_id":287,"name":"Neiro👽ᗩYY ᒪᗰᗩO","steam_id":76561198046743985,"connected_time":578000000000,"state":"active","ping":77},{"user_id":285,"name":"bruh","steam_id":76561198059635136,"connected_time":613000000000,"state":"active","ping":60},{"user_id":257,"name":"Mato","steam_id":76561198267114673,"connected_time":3540000000000,"state":"active","ping":61},{"user_id":212,"name":"hipster_doofus","steam_id":76561197970902697,"connected_time":7210000000000,"state":"active","ping":60},{"user_id":274,"name":"blurst of times","steam_id":76561197972325640,"connected_time":1446000000000,"state":"active","ping":44},{"user_id":296,"name":"Jughead","steam_id":76561198000355410,"connected_time":50000000000,"state":"active","ping":45},{"user_id":222,"name":"Lord","steam_id":76561198241305816,"connected_time":6437000000000,"state":"active","ping":127},{"user_id":288,"name":"Lil StinGa","steam_id":76561198069444222,"connected_time":574000000000,"state":"active","ping":45},{"user_id":280,"name":"The Funny Cat-Heaby","steam_id":76561198439978112,"connected_time":895000000000,"state":"active","ping":129},{"user_id":265,"name":"Mayor Wank from Wanker Town","steam_id":76561197998253588,"connected_time":1897000000000,"state":"active","ping":57},{"user_id":289,"name":"floppy-adde","steam_id":76561199258890641,"connected_time":570000000000,"state":"active","ping":73},{"user_id":267,"name":"Sparks","steam_id":76561198423827206,"connected_time":1891000000000,"state":"active","ping":60},{"user_id":250,"name":"Arcader","steam_id":76561198109860110,"connected_time":4362000000000,"state":"active","ping":62},{"user_id":295,"name":"Gnaisse","steam_id":76561198010560642,"connected_time":191000000000,"state":"active","ping":75},{"user_id":202,"name":"Zerfesh","steam_id":76561198117534358,"connected_time":8041000000000,"state":"active","ping":93},{"user_id":253,"name":"Fezhoof","steam_id":76561198086918780,"connected_time":3916000000000,"state":"active","ping":70},{"user_id":245,"name":"Lowy","steam_id":76561198031470048,"connected_time":5132000000000,"state":"active","ping":47},{"user_id":261,"name":"Mr Toxic","steam_id":76561198040057167,"connected_time":1954000000000,"state":"active","ping":166},{"user_id":279,"name":"Saul Goodman gaming","steam_id":76561198216750785,"connected_time":1164000000000,"state":"active","ping":110},{"user_id":291,"name":"Rex","steam_id":76561199474556920,"connected_time":556000000000,"state":"active","ping":106},{"user_id":240,"name":"Pershing[GER]","steam_id":76561197970330818,"connected_time":5481000000000,"state":"active","ping":68}]},{"server_id":320,"name":"Uncletopia | London | 3 | All Maps","name_short":"lon-3","host":"lon-1.uk.uncletopia.com","port":27035,"enabled":true,"region":"eu","cc":"gb","latitude":51.509865,"longitude":-0.118092,"reserved":0,"last_update":"0001-01-01T00:00:00Z","name_a2s":"Uncletopia | London | 3 | All Maps","protocol":17,"map":"pl_upward","folder":"tf","game":"Team Fortress","app_id":440,"player_count":24,"max_players":24,"Bots":0,"server_type":"Dedicated","server_os":"Linux","password":true,"vac":true,"version":"7757534","steam_id":85568392924510192,"keywords":["nocrits","nodmgspread","payload","uncletopia"],"game_id":440,"stv_port":27036,"stv_name":"Uncletopia | London | 3 | All Maps | STV","players":[{"user_id":458,"name":"yeyegoncas","steam_id":76561198061217656,"connected_time":145000000000,"state":"active","ping":81},{"user_id":400,"name":"goreston","steam_id":76561197964666781,"connected_time":4771000000000,"state":"active","ping":46},{"user_id":411,"name":"cosmo kramer, lord of the manor","steam_id":76561198074979596,"connected_time":4529000000000,"state":"active","ping":89},{"user_id":445,"name":"NotFionn","steam_id":76561198890525176,"connected_time":1946000000000,"state":"active","ping":76},{"user_id":459,"name":"🦐 Tust 🦐","steam_id":76561198045694677,"connected_time":24000000000,"state":"active","ping":46},{"user_id":440,"name":"Eggcracker","steam_id":76561199274850641,"connected_time":2763000000000,"state":"active","ping":86},{"user_id":428,"name":"john fortress","steam_id":76561198013237629,"connected_time":3781000000000,"state":"active","ping":86},{"user_id":421,"name":"BRICK TOP","steam_id":76561198014366715,"connected_time":4097000000000,"state":"active","ping":46},{"user_id":432,"name":"Madree","steam_id":76561199443143457,"connected_time":3647000000000,"state":"active","ping":102},{"user_id":443,"name":"hora","steam_id":76561198404470526,"connected_time":2311000000000,"state":"active","ping":88},{"user_id":451,"name":"Turtle Fuckers 2","steam_id":76561198071938027,"connected_time":1170000000000,"state":"active","ping":40},{"user_id":253,"name":"GamliRaudur1","steam_id":76561199179181105,"connected_time":15799000000000,"state":"active","ping":86},{"user_id":456,"name":"bimgus","steam_id":76561198208045069,"connected_time":505000000000,"state":"active","ping":52},{"user_id":405,"name":"ashen lad","steam_id":76561199360319669,"connected_time":4656000000000,"state":"active","ping":136},{"user_id":448,"name":"Packet","steam_id":76561199173195875,"connected_time":1238000000000,"state":"active","ping":82},{"user_id":441,"name":"badoo","steam_id":76561198056336216,"connected_time":2499000000000,"state":"active","ping":45},{"user_id":453,"name":"Insain Bolt!","steam_id":76561198025687726,"connected_time":1132000000000,"state":"active","ping":71},{"user_id":275,"name":"Brainfart08","steam_id":76561198170156079,"connected_time":14497000000000,"state":"active","ping":87},{"user_id":431,"name":"Anonymous47007","steam_id":76561199005211417,"connected_time":3675000000000,"state":"active","ping":82},{"user_id":455,"name":"Dr.Sees [F2P]","steam_id":76561199219233587,"connected_time":1009000000000,"state":"active","ping":76},{"user_id":452,"name":"Pyrolander","steam_id":76561198050785450,"connected_time":1156000000000,"state":"active","ping":57},{"user_id":416,"name":"Yelowchy","steam_id":76561198199416121,"connected_time":4407000000000,"state":"active","ping":67},{"user_id":454,"name":"cat","steam_id":76561198832231975,"connected_time":1023000000000,"state":"active","ping":90},{"user_id":457,"name":"Dag!","steam_id":76561198030147941,"connected_time":504000000000,"state":"active","ping":71}]},{"server_id":321,"name":"Uncletopia | London | 4 | All Maps","name_short":"lon-4","host":"lon-1.uk.uncletopia.com","port":27045,"enabled":true,"region":"eu","cc":"gb","latitude":51.509865,"longitude":-0.118092,"reserved":0,"last_update":"0001-01-01T00:00:00Z","name_a2s":"Uncletopia | London | 4 | All Maps","protocol":17,"map":"pl_borneo","folder":"tf","game":"Team Fortress","app_id":440,"player_count":24,"max_players":24,"Bots":0,"server_type":"Dedicated","server_os":"Linux","password":true,"vac":true,"version":"7757534","steam_id":85568392924510193,"keywords":["nocrits","nodmgspread","payload","uncletopia"],"game_id":440,"stv_port":27046,"stv_name":"Uncletopia | London | 4 | All Maps | STV","players":[{"user_id":218,"name":"Chum","steam_id":76561199113165764,"connected_time":1533000000000,"state":"active","ping":132},{"user_id":209,"name":"Son Goku","steam_id":76561199383437138,"connected_time":1728000000000,"state":"active","ping":120},{"user_id":278,"name":"random_player691","steam_id":76561199209946306,"connected_time":115000000000,"state":"active","ping":58},{"user_id":266,"name":"Milca_11","steam_id":76561198848650365,"connected_time":849000000000,"state":"active","ping":91},{"user_id":276,"name":"Aigan","steam_id":76561198130354707,"connected_time":133000000000,"state":"active","ping":84},{"user_id":277,"name":"Michael","steam_id":76561198003146906,"connected_time":124000000000,"state":"active","ping":44},{"user_id":267,"name":"sz(k)","steam_id":76561198118500940,"connected_time":846000000000,"state":"active","ping":67},{"user_id":275,"name":"SuperBob103","steam_id":76561199175360012,"connected_time":202000000000,"state":"active","ping":47},{"user_id":265,"name":"Nigglemonster","steam_id":76561198366525123,"connected_time":869000000000,"state":"active","ping":85},{"user_id":192,"name":"Swede_Tomate","steam_id":76561198177768455,"connected_time":2745000000000,"state":"active","ping":69},{"user_id":279,"name":"Cyan","steam_id":76561198090433914,"connected_time":110000000000,"state":"active","ping":154},{"user_id":206,"name":"Calamity","steam_id":76561198094879610,"connected_time":1869000000000,"state":"active","ping":91},{"user_id":280,"name":"onion knight","steam_id":76561198328543549,"connected_time":88000000000,"state":"active","ping":92},{"user_id":281,"name":"Gotharski","steam_id":76561198012263719,"connected_time":82000000000,"state":"active","ping":83},{"user_id":282,"name":"Vacation","steam_id":76561198348081238,"connected_time":73000000000,"state":"active","ping":284},{"user_id":251,"name":"piss™","steam_id":76561198108098760,"connected_time":1139000000000,"state":"active","ping":38},{"user_id":283,"name":"Bits\u0026Peices","steam_id":76561199225453607,"connected_time":59000000000,"state":"active","ping":129},{"user_id":284,"name":"JohnMat2","steam_id":76561199007662486,"connected_time":51000000000,"state":"active","ping":63},{"user_id":285,"name":"simplistic","steam_id":76561198231690748,"connected_time":19000000000,"state":"active","ping":54},{"user_id":271,"name":"ZRD83[FR]","steam_id":76561198411341922,"connected_time":433000000000,"state":"active","ping":57},{"user_id":286,"name":"Ankle Dane","steam_id":76561198134378108,"connected_time":15000000000,"state":"active","ping":75},{"user_id":119,"name":"Wardruna96","steam_id":76561199057083828,"connected_time":6882000000000,"state":"active","ping":77},{"user_id":273,"name":"B@yka","steam_id":76561198986736592,"connected_time":417000000000,"state":"active","ping":71},{"user_id":203,"name":"2ka","steam_id":76561198343747394,"connected_time":1915000000000,"state":"active","ping":60}]},{"server_id":21,"name":"Uncletopia | London | 5 | All Maps","name_short":"lon-5","host":"lon-1.uk.uncletopia.com","port":27055,"enabled":true,"region":"eu","cc":"gb","latitude":51.509865,"longitude":-0.118092,"reserved":0,"last_update":"0001-01-01T00:00:00Z","name_a2s":"Uncletopia | London | 5 | All Maps","protocol":17,"map":"koth_lakeside_final","folder":"tf","game":"Team Fortress","app_id":440,"player_count":0,"max_players":24,"Bots":0,"server_type":"Dedicated","server_os":"Linux","password":true,"vac":true,"version":"7757534","steam_id":85568392924742829,"keywords":["cp","nocrits","nodmgspread","uncletopia"],"game_id":440,"stv_port":27056,"stv_name":"Uncletopia | London | 5 | All Maps | STV","players":null},{"server_id":22,"name":"Uncletopia | London | 6 | All Maps","name_short":"lon-6","host":"lon-1.uk.uncletopia.com","port":27065,"enabled":true,"region":"eu","cc":"gb","latitude":51.509865,"longitude":-0.118092,"reserved":0,"last_update":"0001-01-01T00:00:00Z","name_a2s":"Uncletopia | London | 6 | All Maps","protocol":17,"map":"koth_highpass","folder":"tf","game":"Team Fortress","app_id":440,"player_count":0,"max_players":24,"Bots":0,"server_type":"Dedicated","server_os":"Linux","password":true,"vac":true,"version":"7757534","steam_id":85568392924742830,"keywords":["cp","nocrits","nodmgspread","uncletopia"],"game_id":440,"stv_port":27066,"stv_name":"Uncletopia | London | 6 | All Maps | STV","players":null},{"server_id":40,"name":"Uncletopia | London | 7 | No Payload","name_short":"lon-7","host":"lon-1.uk.uncletopia.com","port":27075,"enabled":true,"region":"eu","cc":"gb","latitude":51.509865,"longitude":-0.118092,"reserved":0,"last_update":"0001-01-01T00:00:00Z","name_a2s":"Uncletopia | London | 7 | No Payload","protocol":17,"map":"koth_king","folder":"tf","game":"Team Fortress","app_id":440,"player_count":0,"max_players":24,"Bots":0,"server_type":"Dedicated","server_os":"Linux","password":true,"vac":true,"version":"7757534","steam_id":85568392924964314,"keywords":["cp","nocrits","nodmgspread","uncletopia"],"game_id":440,"stv_port":27076,"stv_name":"Uncletopia | London | 7 | No Payload | STV","players":null},{"server_id":41,"name":"Uncletopia | London | 8 | Community","name_short":"lon-8","host":"lon-1.uk.uncletopia.com","port":27085,"enabled":true,"region":"eu","cc":"gb","latitude":51.509865,"longitude":-0.118092,"reserved":0,"last_update":"0001-01-01T00:00:00Z","name_a2s":"Uncletopia | London | 8 | Community","protocol":17,"map":"workshop/koth_ashville_final.ugc2130459942","folder":"tf","game":"Team Fortress","app_id":440,"player_count":8,"max_players":24,"Bots":0,"server_type":"Dedicated","server_os":"Linux","password":true,"vac":true,"version":"7757534","steam_id":85568392924964315,"keywords":["cp","nocrits","nodmgspread","uncletopia"],"game_id":440,"stv_port":27086,"stv_name":"Uncletopia | London | 8 | Community | STV","players":[{"user_id":12,"name":"frosty","steam_id":76561198094560834,"connected_time":349000000000,"state":"active","ping":34},{"user_id":13,"name":"SuperBob103","steam_id":76561199175360012,"connected_time":228000000000,"state":"connecting","ping":0},{"user_id":14,"name":"Belmore","steam_id":76561198009355231,"connected_time":192000000000,"state":"active","ping":195},{"user_id":15,"name":"༘ ⋆˚🎧Caffeine☕*˖°","steam_id":76561199259309294,"connected_time":176000000000,"state":"active","ping":134},{"user_id":16,"name":"Miss Scruples","steam_id":76561198047951860,"connected_time":167000000000,"state":"active","ping":54},{"user_id":17,"name":"MeMegaCreeper","steam_id":76561198090619900,"connected_time":160000000000,"state":"active","ping":69},{"user_id":18,"name":"cock wizard","steam_id":76561198045826293,"connected_time":137000000000,"state":"active","ping":35},{"user_id":19,"name":"Swedde","steam_id":76561198297296440,"connected_time":114000000000,"state":"active","ping":63}]},{"server_id":300,"name":"Uncletopia | Montréal | 1 | All Maps","name_short":"mtl-1","host":"mtl-1.ca.uncletopia.com","port":27015,"enabled":true,"region":"us-east","cc":"ca","latitude":45.50889,"longitude":-73.56167,"reserved":0,"last_update":"0001-01-01T00:00:00Z","name_a2s":"Uncletopia | Montréal | 1 | All Maps","protocol":17,"map":"pl_upward","folder":"tf","game":"Team Fortress","app_id":440,"player_count":0,"max_players":24,"Bots":0,"server_type":"Dedicated","server_os":"Linux","password":true,"vac":true,"version":"7757534","steam_id":85568392924500087,"keywords":["nocrits","nodmgspread","payload","uncletopia"],"game_id":440,"stv_port":27016,"stv_name":"Uncletopia | Montréal | 1 | All Maps | STV","players":null},{"server_id":301,"name":"Uncletopia | Montréal | 2 | All Maps","name_short":"mtl-2","host":"mtl-1.ca.uncletopia.com","port":27025,"enabled":true,"region":"us-east","cc":"ca","latitude":45.50889,"longitude":-73.56167,"reserved":0,"last_update":"0001-01-01T00:00:00Z","name_a2s":"Uncletopia | Montréal | 2 | All Maps","protocol":17,"map":"pl_snowycoast","folder":"tf","game":"Team Fortress","app_id":440,"player_count":0,"max_players":24,"Bots":0,"server_type":"Dedicated","server_os":"Linux","password":true,"vac":true,"version":"7757534","steam_id":85568392924500088,"keywords":["nocrits","nodmgspread","payload","uncletopia"],"game_id":440,"stv_port":27026,"stv_name":"Uncletopia | Montréal | 2 | All Maps | STV","players":null},{"server_id":302,"name":"Uncletopia | Montréal | 3 | All Maps","name_short":"mtl-3","host":"mtl-1.ca.uncletopia.com","port":27035,"enabled":true,"region":"us-east","cc":"ca","latitude":45.50889,"longitude":-73.56167,"reserved":0,"last_update":"0001-01-01T00:00:00Z","name_a2s":"Uncletopia | Montréal | 3 | All Maps","protocol":17,"map":"pl_swiftwater_final1","folder":"tf","game":"Team Fortress","app_id":440,"player_count":0,"max_players":24,"Bots":0,"server_type":"Dedicated","server_os":"Linux","password":true,"vac":true,"version":"7757534","steam_id":85568392924500089,"keywords":["nocrits","nodmgspread","payload","uncletopia"],"game_id":440,"stv_port":27036,"stv_name":"Uncletopia | Montréal | 3 | All Maps | STV","players":null},{"server_id":303,"name":"Uncletopia | Montréal | 4 | No Payload","name_short":"mtl-4","host":"mtl-1.ca.uncletopia.com","port":27045,"enabled":true,"region":"us-east","cc":"ca","latitude":45.50889,"longitude":-73.56167,"reserved":0,"last_update":"0001-01-01T00:00:00Z","name_a2s":"Uncletopia | Montréal | 4 | No Payload","protocol":17,"map":"pl_pier","folder":"tf","game":"Team Fortress","app_id":440,"player_count":0,"max_players":24,"Bots":0,"server_type":"Dedicated","server_os":"Linux","password":true,"vac":true,"version":"7757534","steam_id":85568392924500090,"keywords":["nocrits","nodmgspread","payload","uncletopia"],"game_id":440,"stv_port":27046,"stv_name":"Uncletopia | Montréal | 4 | No Payload | STV","players":null},{"server_id":13,"name":"Uncletopia | New York City | 1 | All Maps","name_short":"nyc-1","host":"nyc-1.us.uncletopia.com","port":27015,"enabled":true,"region":"us-east","cc":"us","latitude":40.73061,"longitude":-73.93524,"reserved":0,"last_update":"0001-01-01T00:00:00Z","name_a2s":"Uncletopia | New York City | 1 | All Maps","protocol":17,"map":"pl_upward","folder":"tf","game":"Team Fortress","app_id":440,"player_count":24,"max_players":24,"Bots":0,"server_type":"Dedicated","server_os":"Linux","password":true,"vac":true,"version":"7757534","steam_id":85568392924469993,"keywords":["nocrits","nodmgspread","payload","uncletopia"],"game_id":440,"stv_port":27016,"stv_name":"Uncletopia | New York City | 1 | All Maps | STV","players":[{"user_id":125,"name":"Sm0ky","steam_id":76561198418262145,"connected_time":3781000000000,"state":"active","ping":167},{"user_id":177,"name":"Gibby","steam_id":76561199336569123,"connected_time":301000000000,"state":"active","ping":164},{"user_id":140,"name":"TheRealAaron (PR)","steam_id":76561199227674545,"connected_time":2715000000000,"state":"active","ping":191},{"user_id":162,"name":"Viokik","steam_id":76561198408846602,"connected_time":1519000000000,"state":"active","ping":100},{"user_id":167,"name":"clack","steam_id":76561198966980576,"connected_time":427000000000,"state":"active","ping":43},{"user_id":166,"name":"CesarSalad","steam_id":76561198985356050,"connected_time":484000000000,"state":"active","ping":63},{"user_id":181,"name":"Box Spy","steam_id":76561198414175953,"connected_time":75000000000,"state":"active","ping":170},{"user_id":87,"name":"the doo doo man","steam_id":76561198057076267,"connected_time":6781000000000,"state":"active","ping":113},{"user_id":153,"name":"Deathbear56","steam_id":76561198233300700,"connected_time":1939000000000,"state":"active","ping":73},{"user_id":174,"name":"VioletSpecs","steam_id":76561198089366466,"connected_time":329000000000,"state":"active","ping":61},{"user_id":180,"name":"TheCaberMagnet","steam_id":76561198796383697,"connected_time":122000000000,"state":"active","ping":123},{"user_id":175,"name":"jacktangent","steam_id":76561198846704532,"connected_time":328000000000,"state":"active","ping":187},{"user_id":169,"name":"Juanelo","steam_id":76561199096390505,"connected_time":402000000000,"state":"active","ping":95},{"user_id":179,"name":"b4rry","steam_id":76561198365887154,"connected_time":244000000000,"state":"active","ping":53},{"user_id":176,"name":"Toasty","steam_id":76561198363417298,"connected_time":327000000000,"state":"active","ping":56},{"user_id":182,"name":"carrot cake","steam_id":76561198055174915,"connected_time":51000000000,"state":"active","ping":73},{"user_id":156,"name":"InkLink (PAN CLAN)","steam_id":76561199188229760,"connected_time":1769000000000,"state":"active","ping":56},{"user_id":170,"name":"Daemon","steam_id":76561198007015109,"connected_time":395000000000,"state":"active","ping":167},{"user_id":163,"name":"jarby","steam_id":76561198130689358,"connected_time":1115000000000,"state":"active","ping":43},{"user_id":57,"name":"Wayne Noodleman","steam_id":76561198046347398,"connected_time":8825000000000,"state":"active","ping":69},{"user_id":116,"name":"SomeFlamingo","steam_id":76561198869299841,"connected_time":5161000000000,"state":"active","ping":58},{"user_id":173,"name":"apricot liquor","steam_id":76561198289280906,"connected_time":368000000000,"state":"active","ping":133},{"user_id":144,"name":"Doc_Eevee","steam_id":76561199289204820,"connected_time":2570000000000,"state":"active","ping":98},{"user_id":172,"name":"yeyoi","steam_id":76561198069821885,"connected_time":385000000000,"state":"active","ping":59}]},{"server_id":14,"name":"Uncletopia | New York City | 2 | All Maps","name_short":"nyc-2","host":"nyc-1.us.uncletopia.com","port":27025,"enabled":true,"region":"us-east","cc":"us","latitude":40.73061,"longitude":-73.93524,"reserved":0,"last_update":"0001-01-01T00:00:00Z","name_a2s":"Uncletopia | New York City | 2 | All Maps","protocol":17,"map":"pl_upward","folder":"tf","game":"Team Fortress","app_id":440,"player_count":24,"max_players":24,"Bots":0,"server_type":"Dedicated","server_os":"Linux","password":true,"vac":true,"version":"7757534","steam_id":85568392924469994,"keywords":["nocrits","nodmgspread","payload","uncletopia"],"game_id":440,"stv_port":27026,"stv_name":"Uncletopia | New York City | 2 | All Maps | STV","players":[{"user_id":243,"name":"Sapphireblitz","steam_id":76561198272635379,"connected_time":705000000000,"state":"active","ping":63},{"user_id":213,"name":"Jaime","steam_id":76561198442021682,"connected_time":2975000000000,"state":"active","ping":58},{"user_id":246,"name":"srac","steam_id":76561199046993811,"connected_time":430000000000,"state":"active","ping":132},{"user_id":235,"name":"Agent Hugh Jass","steam_id":76561199097744991,"connected_time":1148000000000,"state":"active","ping":66},{"user_id":222,"name":"Snugboo","steam_id":76561198147970327,"connected_time":2155000000000,"state":"active","ping":36},{"user_id":232,"name":"Ping","steam_id":76561199206514106,"connected_time":1526000000000,"state":"active","ping":62},{"user_id":220,"name":"Teleporter (Evil_Elephant)","steam_id":76561199055338631,"connected_time":2539000000000,"state":"active","ping":134},{"user_id":200,"name":"Its Dr.Stoned","steam_id":76561198079622791,"connected_time":3359000000000,"state":"active","ping":69},{"user_id":201,"name":"10KO!","steam_id":76561199134895220,"connected_time":3351000000000,"state":"active","ping":56},{"user_id":230,"name":"Redkiller","steam_id":76561199453655288,"connected_time":1654000000000,"state":"active","ping":67},{"user_id":225,"name":"Flip Flop BUBABUBA","steam_id":76561199253937434,"connected_time":1832000000000,"state":"active","ping":60},{"user_id":238,"name":"Ursus Ludius","steam_id":76561198025470722,"connected_time":1123000000000,"state":"active","ping":66},{"user_id":214,"name":"Daddys Home","steam_id":76561198034702011,"connected_time":2852000000000,"state":"active","ping":60},{"user_id":236,"name":"oel","steam_id":76561198021224745,"connected_time":1145000000000,"state":"active","ping":44},{"user_id":244,"name":"OPOC","steam_id":76561198026539183,"connected_time":523000000000,"state":"active","ping":62},{"user_id":250,"name":"PeachFlavoredBleach","steam_id":76561198116226449,"connected_time":98000000000,"state":"active","ping":87},{"user_id":226,"name":"Cicada_Man","steam_id":76561199130601341,"connected_time":1829000000000,"state":"active","ping":48},{"user_id":206,"name":"BiggFoot","steam_id":76561197998605599,"connected_time":3280000000000,"state":"active","ping":69},{"user_id":248,"name":"Chambersite","steam_id":76561198197022399,"connected_time":183000000000,"state":"active","ping":140},{"user_id":239,"name":"Misterr_Oogwayy","steam_id":76561199141055964,"connected_time":1094000000000,"state":"active","ping":79},{"user_id":172,"name":"Aurro","steam_id":76561198315692300,"connected_time":6117000000000,"state":"active","ping":99},{"user_id":251,"name":"popfulmail","steam_id":76561198865971290,"connected_time":39000000000,"state":"active","ping":147},{"user_id":249,"name":"slurp","steam_id":76561198323497535,"connected_time":160000000000,"state":"active","ping":59},{"user_id":245,"name":"Spiral Mountain","steam_id":76561198058683715,"connected_time":442000000000,"state":"active","ping":67}]},{"server_id":15,"name":"Uncletopia | New York City | 3 | Stopwatch Beta","name_short":"nyc-3","host":"nyc-1.us.uncletopia.com","port":27035,"enabled":true,"region":"us-east","cc":"us","latitude":40.73061,"longitude":-73.93524,"reserved":0,"last_update":"0001-01-01T00:00:00Z","name_a2s":"Uncletopia | New York City | 3 | Stopwatch Beta","protocol":17,"map":"workshop/koth_bagel_rc6.ugc2514036946","folder":"tf","game":"Team Fortress","app_id":440,"player_count":0,"max_players":24,"Bots":0,"server_type":"Dedicated","server_os":"Linux","password":true,"vac":true,"version":"7757534","steam_id":85568392924742820,"keywords":["cp","nocrits","nodmgspread","uncletopia"],"game_id":440,"stv_port":27036,"stv_name":"Uncletopia | New York City | 3 | Stopwatch Beta | STV","players":null},{"server_id":16,"name":"Uncletopia | New York City | 4 | Community","name_short":"nyc-4","host":"nyc-1.us.uncletopia.com","port":27045,"enabled":true,"region":"us-east","cc":"us","latitude":40.73061,"longitude":-73.93524,"reserved":0,"last_update":"0001-01-01T00:00:00Z","name_a2s":"Uncletopia | New York City | 4 | Community","protocol":17,"map":"workshop/cp_glassworks_rc6a.ugc454118349","folder":"tf","game":"Team Fortress","app_id":440,"player_count":5,"max_players":24,"Bots":0,"server_type":"Dedicated","server_os":"Linux","password":true,"vac":true,"version":"7757534","steam_id":85568392924742821,"keywords":["cp","nocrits","nodmgspread","uncletopia"],"game_id":440,"stv_port":27046,"stv_name":"Uncletopia | New York City | 4 | Community | STV","players":[{"user_id":29,"name":"brett","steam_id":76561198799740059,"connected_time":793000000000,"state":"active","ping":60},{"user_id":30,"name":"abed","steam_id":76561198072856511,"connected_time":782000000000,"state":"active","ping":60},{"user_id":31,"name":"Boreism","steam_id":76561198440808916,"connected_time":669000000000,"state":"active","ping":100},{"user_id":14,"name":"MagicMuffinman","steam_id":76561198149255313,"connected_time":5154000000000,"state":"active","ping":79},{"user_id":33,"name":"Ranger Locust","steam_id":76561198065223333,"connected_time":560000000000,"state":"active","ping":86}]},{"server_id":142,"name":"Uncletopia | São Paulo | 1 | All Maps","name_short":"sao-1","host":"sao-1.br.uncletopia.com","port":27015,"enabled":true,"region":"sa","cc":"br","latitude":-23.533773,"longitude":-46.62529,"reserved":0,"last_update":"0001-01-01T00:00:00Z","name_a2s":"Uncletopia | São Paulo | 1 | All Maps","protocol":17,"map":"koth_lakeside_final","folder":"tf","game":"Team Fortress","app_id":440,"player_count":0,"max_players":24,"Bots":0,"server_type":"Dedicated","server_os":"Linux","password":true,"vac":true,"version":"7757534","steam_id":85568392924469996,"keywords":["cp","nocrits","nodmgspread","uncletopia"],"game_id":440,"stv_port":27016,"stv_name":"Uncletopia | São Paulo | 1 | All Maps | STV","players":null},{"server_id":143,"name":"Uncletopia | São Paulo | 2 | All Maps","name_short":"sao-2","host":"sao-2.br.uncletopia.com","port":27015,"enabled":true,"region":"sa","cc":"br","latitude":-23.533773,"longitude":-46.62529,"reserved":0,"last_update":"0001-01-01T00:00:00Z","name_a2s":"Uncletopia | São Paulo | 2 | All Maps","protocol":17,"map":"pl_goldrush","folder":"tf","game":"Team Fortress","app_id":440,"player_count":10,"max_players":24,"Bots":0,"server_type":"Dedicated","server_os":"Linux","password":true,"vac":true,"version":"7757534","steam_id":85568392924485349,"keywords":["nocrits","nodmgspread","payload","uncletopia"],"game_id":440,"stv_port":27016,"stv_name":"Uncletopia | São Paulo | 2 | All Maps | STV","players":[{"user_id":44,"name":"Kenoxn","steam_id":76561198045818080,"connected_time":1684000000000,"state":"active","ping":78},{"user_id":58,"name":"Artyom","steam_id":76561199199932446,"connected_time":574000000000,"state":"active","ping":204},{"user_id":38,"name":"Gustavo_Banana","steam_id":76561198387866587,"connected_time":2216000000000,"state":"active","ping":57},{"user_id":64,"name":"colourful elephants","steam_id":76561198929646112,"connected_time":94000000000,"state":"active","ping":187},{"user_id":54,"name":"susi spah","steam_id":76561199095176649,"connected_time":1138000000000,"state":"active","ping":43},{"user_id":65,"name":"ikkipepsi","steam_id":76561198304094192,"connected_time":39000000000,"state":"active","ping":34},{"user_id":60,"name":"TONIX","steam_id":76561198183582835,"connected_time":439000000000,"state":"active","ping":217},{"user_id":62,"name":"Neptarus","steam_id":76561198121245060,"connected_time":345000000000,"state":"active","ping":49},{"user_id":63,"name":"Ambatükämpf Von Omaygottenbur","steam_id":76561198988997847,"connected_time":322000000000,"state":"active","ping":281},{"user_id":42,"name":"HeadShotGamerBR","steam_id":76561198116856702,"connected_time":2027000000000,"state":"active","ping":86}]},{"server_id":7,"name":"Uncletopia | Seattle | 1 | All Maps","name_short":"sea-1","host":"sea-1.us.uncletopia.com","port":27015,"enabled":true,"region":"us-west","cc":"us","latitude":47.608013,"longitude":-122.33517,"reserved":0,"last_update":"0001-01-01T00:00:00Z","name_a2s":"Uncletopia | Seattle | 1 | All Maps","protocol":17,"map":"pl_snowycoast","folder":"tf","game":"Team Fortress","app_id":440,"player_count":24,"max_players":24,"Bots":0,"server_type":"Dedicated","server_os":"Linux","password":true,"vac":true,"version":"7757534","steam_id":85568392924469997,"keywords":["nocrits","nodmgspread","payload","uncletopia"],"game_id":440,"stv_port":27016,"stv_name":"Uncletopia | Seattle | 1 | All Maps | STV","players":[{"user_id":171,"name":"Korshal","steam_id":76561198819036121,"connected_time":4383000000000,"state":"active","ping":129},{"user_id":211,"name":"Diarrhea Gaming","steam_id":76561198090589784,"connected_time":1566000000000,"state":"active","ping":140},{"user_id":234,"name":"LILIUM","steam_id":76561198086591493,"connected_time":644000000000,"state":"active","ping":89},{"user_id":219,"name":"♥ Milo Stefferson ♥ (Soupca","steam_id":76561198056269538,"connected_time":1202000000000,"state":"active","ping":59},{"user_id":209,"name":"Cob","steam_id":76561198042518365,"connected_time":1627000000000,"state":"active","ping":65},{"user_id":115,"name":"Dob Bole","steam_id":76561198056367220,"connected_time":7099000000000,"state":"active","ping":75},{"user_id":213,"name":"Little Linguine","steam_id":76561198816986370,"connected_time":1520000000000,"state":"active","ping":60},{"user_id":220,"name":"AmiableNebula","steam_id":76561198094306627,"connected_time":1152000000000,"state":"active","ping":74},{"user_id":240,"name":"Fishmonger","steam_id":76561198372237027,"connected_time":105000000000,"state":"active","ping":46},{"user_id":207,"name":"jackhillard83","steam_id":76561199057098390,"connected_time":1845000000000,"state":"active","ping":124},{"user_id":229,"name":"SenTreats","steam_id":76561198085835841,"connected_time":762000000000,"state":"active","ping":88},{"user_id":218,"name":"paolobuts","steam_id":76561199047108638,"connected_time":1275000000000,"state":"active","ping":69},{"user_id":237,"name":"Ballistyx","steam_id":76561199210836206,"connected_time":434000000000,"state":"active","ping":95},{"user_id":236,"name":"Mignyanne :3","steam_id":76561198048754056,"connected_time":480000000000,"state":"active","ping":61},{"user_id":238,"name":"the bunny man","steam_id":76561199082935128,"connected_time":355000000000,"state":"active","ping":96},{"user_id":221,"name":"2Case","steam_id":76561198451849633,"connected_time":1108000000000,"state":"active","ping":131},{"user_id":232,"name":"Flyingmeadow","steam_id":76561198144687723,"connected_time":719000000000,"state":"active","ping":130},{"user_id":233,"name":"Yuuka","steam_id":76561198074873916,"connected_time":715000000000,"state":"active","ping":55},{"user_id":214,"name":"party rock velk.ca","steam_id":76561198272403721,"connected_time":1476000000000,"state":"active","ping":56},{"user_id":185,"name":"dust | she/it","steam_id":76561198045218909,"connected_time":3136000000000,"state":"active","ping":42},{"user_id":215,"name":"xXx420YoloSwaggins69xXx","steam_id":76561198054889312,"connected_time":1454000000000,"state":"active","ping":120},{"user_id":239,"name":"Saltz (Follow God not others)","steam_id":76561198452519031,"connected_time":241000000000,"state":"active","ping":55},{"user_id":235,"name":"A Duck With Socks","steam_id":76561198018844227,"connected_time":560000000000,"state":"active","ping":60},{"user_id":222,"name":"gl1tchr","steam_id":76561198302661983,"connected_time":1105000000000,"state":"active","ping":129}]},{"server_id":119,"name":"Uncletopia | Seattle | 2 | All Maps","name_short":"sea-2","host":"sea-1.us.uncletopia.com","port":27025,"enabled":true,"region":"us-west","cc":"us","latitude":47.608013,"longitude":-122.33517,"reserved":0,"last_update":"0001-01-01T00:00:00Z","name_a2s":"Uncletopia | Seattle | 2 | All Maps","protocol":17,"map":"pl_swiftwater_final1","folder":"tf","game":"Team Fortress","app_id":440,"player_count":24,"max_players":24,"Bots":0,"server_type":"Dedicated","server_os":"Linux","password":true,"vac":true,"version":"7757534","steam_id":85568392924469998,"keywords":["nocrits","nodmgspread","payload","uncletopia"],"game_id":440,"stv_port":27026,"stv_name":"Uncletopia | Seattle | 2 | All Maps | STV","players":[{"user_id":106,"name":"ClosetBotany","steam_id":76561198088324821,"connected_time":1461000000000,"state":"active","ping":45},{"user_id":111,"name":"Duncle Frazzle","steam_id":76561198145596626,"connected_time":624000000000,"state":"active","ping":72},{"user_id":78,"name":"Unwavering Flavor","steam_id":76561198053306065,"connected_time":3127000000000,"state":"active","ping":101},{"user_id":10,"name":"Hopes","steam_id":76561198024188720,"connected_time":7325000000000,"state":"active","ping":39},{"user_id":88,"name":"camp3r","steam_id":76561197992870439,"connected_time":2287000000000,"state":"active","ping":31},{"user_id":110,"name":"Superbacon24","steam_id":76561198121223443,"connected_time":723000000000,"state":"active","ping":69},{"user_id":113,"name":"Nibotshooter","steam_id":76561199284825579,"connected_time":468000000000,"state":"active","ping":112},{"user_id":15,"name":"Mall","steam_id":76561198436085386,"connected_time":6795000000000,"state":"active","ping":117},{"user_id":107,"name":"Padre Pat","steam_id":76561198392985381,"connected_time":1418000000000,"state":"active","ping":96},{"user_id":49,"name":"cattzer","steam_id":76561199055713543,"connected_time":5020000000000,"state":"active","ping":106},{"user_id":76,"name":"Moth","steam_id":76561199214894158,"connected_time":3341000000000,"state":"active","ping":99},{"user_id":115,"name":"Marz","steam_id":76561198799364911,"connected_time":236000000000,"state":"active","ping":87},{"user_id":102,"name":"AlphaScout","steam_id":76561198047797890,"connected_time":1916000000000,"state":"active","ping":105},{"user_id":109,"name":"fancyfreak","steam_id":76561198326466375,"connected_time":1194000000000,"state":"active","ping":82},{"user_id":93,"name":"Spxulate","steam_id":76561198315288276,"connected_time":2201000000000,"state":"active","ping":138},{"user_id":114,"name":"Bloo","steam_id":76561199015827567,"connected_time":255000000000,"state":"active","ping":135},{"user_id":116,"name":"kodynotcody","steam_id":76561198340685758,"connected_time":144000000000,"state":"active","ping":57},{"user_id":96,"name":"Nemcat.Jr","steam_id":76561198079821706,"connected_time":2113000000000,"state":"active","ping":114},{"user_id":97,"name":"Mr8bittripper","steam_id":76561198133894229,"connected_time":2103000000000,"state":"active","ping":37},{"user_id":112,"name":"Momazos","steam_id":76561198346410032,"connected_time":606000000000,"state":"active","ping":83},{"user_id":108,"name":"♥Lyra♥","steam_id":76561198092853824,"connected_time":1308000000000,"state":"active","ping":49},{"user_id":67,"name":"Evil babies (with guns)","steam_id":76561198085815757,"connected_time":4217000000000,"state":"active","ping":118},{"user_id":101,"name":"charley","steam_id":76561198828238339,"connected_time":1988000000000,"state":"active","ping":84},{"user_id":105,"name":"Deja Vu","steam_id":76561198062090620,"connected_time":1607000000000,"state":"active","ping":98}]},{"server_id":406,"name":"Uncletopia | Seattle | 3 | Stopwatch Beta","name_short":"sea-3","host":"sea-1.us.uncletopia.com","port":27035,"enabled":true,"region":"us-west","cc":"us","latitude":47.608013,"longitude":-122.33517,"reserved":0,"last_update":"0001-01-01T00:00:00Z","name_a2s":"Uncletopia | Seattle | 3 | Stopwatch Beta","protocol":17,"map":"workshop/pl_vigil_rc9.ugc1266210012","folder":"tf","game":"Team Fortress","app_id":440,"player_count":0,"max_players":24,"Bots":0,"server_type":"Dedicated","server_os":"Linux","password":true,"vac":true,"version":"7757534","steam_id":85568392924515217,"keywords":["nocrits","nodmgspread","payload","uncletopia"],"game_id":440,"stv_port":27036,"stv_name":"Uncletopia | Seattle | 3 | Stopwatch Beta | STV","players":null},{"server_id":17,"name":"Uncletopia | San Francisco | 1 | All Maps","name_short":"sfo-1","host":"sfo-1.us.uncletopia.com","port":27015,"enabled":true,"region":"us-west","cc":"us","latitude":37.77397,"longitude":-122.4313,"reserved":0,"last_update":"0001-01-01T00:00:00Z","name_a2s":"Uncletopia | San Francisco | 1 | All Maps","protocol":17,"map":"pl_badwater","folder":"tf","game":"Team Fortress","app_id":440,"player_count":24,"max_players":24,"Bots":0,"server_type":"Dedicated","server_os":"Linux","password":true,"vac":true,"version":"7757534","steam_id":85568392924469999,"keywords":["nocrits","nodmgspread","payload","uncletopia"],"game_id":440,"stv_port":27016,"stv_name":"Uncletopia | San Francisco | 1 | All Maps | STV","players":[{"user_id":152,"name":"Fembowl","steam_id":76561198268683620,"connected_time":3011000000000,"state":"active","ping":59},{"user_id":138,"name":"Dimmerswitch","steam_id":76561198034782177,"connected_time":4327000000000,"state":"active","ping":33},{"user_id":196,"name":"Greskrendtregk","steam_id":76561197969553142,"connected_time":196000000000,"state":"active","ping":66},{"user_id":195,"name":"uzr","steam_id":76561198799343084,"connected_time":241000000000,"state":"active","ping":54},{"user_id":183,"name":"primordialheath","steam_id":76561199386942638,"connected_time":1466000000000,"state":"active","ping":128},{"user_id":197,"name":"no vc no c","steam_id":76561197989503095,"connected_time":192000000000,"state":"active","ping":149},{"user_id":193,"name":"kirkland signature sex","steam_id":76561199077027954,"connected_time":582000000000,"state":"active","ping":71},{"user_id":179,"name":"Scrubby D Luffy","steam_id":76561198245268708,"connected_time":1857000000000,"state":"active","ping":112},{"user_id":184,"name":"Wizened","steam_id":76561199035458926,"connected_time":1146000000000,"state":"active","ping":46},{"user_id":139,"name":"Sakisano","steam_id":76561198245814880,"connected_time":4090000000000,"state":"active","ping":99},{"user_id":156,"name":"zpalmtree","steam_id":76561198134307620,"connected_time":2807000000000,"state":"active","ping":119},{"user_id":168,"name":"Shoehorn Jim","steam_id":76561198310004779,"connected_time":2345000000000,"state":"active","ping":120},{"user_id":198,"name":"KingSteve42","steam_id":76561198409455888,"connected_time":150000000000,"state":"active","ping":98},{"user_id":189,"name":"MusKle Sandwich","steam_id":76561198088118846,"connected_time":1037000000000,"state":"active","ping":62},{"user_id":176,"name":"creamy","steam_id":76561198157435832,"connected_time":1964000000000,"state":"active","ping":119},{"user_id":201,"name":"Laxoloni","steam_id":76561199197045700,"connected_time":102000000000,"state":"active","ping":68},{"user_id":186,"name":"dysesthesia","steam_id":76561198027159018,"connected_time":1084000000000,"state":"active","ping":130},{"user_id":146,"name":"Training Arc","steam_id":76561198038832034,"connected_time":3649000000000,"state":"active","ping":78},{"user_id":97,"name":"Summer's Snowman","steam_id":76561198057140854,"connected_time":7292000000000,"state":"active","ping":61},{"user_id":194,"name":"❄ Alice ♥","steam_id":76561198869945051,"connected_time":407000000000,"state":"active","ping":107},{"user_id":129,"name":"simerzz_gamerzz","steam_id":76561199123438534,"connected_time":4774000000000,"state":"active","ping":59},{"user_id":200,"name":"machete man","steam_id":76561199433814691,"connected_time":114000000000,"state":"active","ping":133},{"user_id":187,"name":"el muchacho","steam_id":76561198282632562,"connected_time":1084000000000,"state":"active","ping":110},{"user_id":173,"name":"TheMagicMrWaffle","steam_id":76561198104357256,"connected_time":2141000000000,"state":"active","ping":57}]},{"server_id":18,"name":"Uncletopia | San Francisco | 2 | All Maps","name_short":"sfo-2","host":"sfo-1.us.uncletopia.com","port":27025,"enabled":true,"region":"us-west","cc":"us","latitude":37.77397,"longitude":-122.4313,"reserved":0,"last_update":"0001-01-01T00:00:00Z","name_a2s":"Uncletopia | San Francisco | 2 | All Maps","protocol":17,"map":"koth_highpass","folder":"tf","game":"Team Fortress","app_id":440,"player_count":0,"max_players":24,"Bots":0,"server_type":"Dedicated","server_os":"Linux","password":true,"vac":true,"version":"7757534","steam_id":85568392924470000,"keywords":["cp","nocrits","nodmgspread","uncletopia"],"game_id":440,"stv_port":27026,"stv_name":"Uncletopia | San Francisco | 2 | All Maps | STV","players":null},{"server_id":19,"name":"Uncletopia | San Francisco | 3 | Stopwatch Beta","name_short":"sfo-3","host":"sfo-1.us.uncletopia.com","port":27035,"enabled":true,"region":"us-west","cc":"us","latitude":37.77397,"longitude":-122.4313,"reserved":0,"last_update":"0001-01-01T00:00:00Z","name_a2s":"Uncletopia | San Francisco | 3 | Stopwatch Beta","protocol":17,"map":"koth_lakeside_final","folder":"tf","game":"Team Fortress","app_id":440,"player_count":0,"max_players":24,"Bots":0,"server_type":"Dedicated","server_os":"Linux","password":true,"vac":true,"version":"7757534","steam_id":85568392924742824,"keywords":["cp","nocrits","nodmgspread","uncletopia"],"game_id":440,"stv_port":27036,"stv_name":"Uncletopia | San Francisco | 3 | Stopwatch Beta | STV","players":null},{"server_id":20,"name":"Uncletopia | San Francisco | 4 | Community","name_short":"sfo-4","host":"sfo-1.us.uncletopia.com","port":27045,"enabled":true,"region":"us-west","cc":"us","latitude":37.77397,"longitude":-122.4313,"reserved":0,"last_update":"0001-01-01T00:00:00Z","name_a2s":"Uncletopia | San Francisco | 4 | Community","protocol":17,"map":"cp_altitude","folder":"tf","game":"Team Fortress","app_id":440,"player_count":0,"max_players":24,"Bots":0,"server_type":"Dedicated","server_os":"Linux","password":true,"vac":true,"version":"7757534","steam_id":85568392924742826,"keywords":["cp","nocrits","nodmgspread","uncletopia"],"game_id":440,"stv_port":27046,"stv_name":"Uncletopia | San Francisco | 4 | Community | STV","players":null},{"server_id":141,"name":"Uncletopia | Sydney | 1 | All Maps","name_short":"syd-1","host":"syd-1.au.uncletopia.com","port":27015,"enabled":true,"region":"au","cc":"au","latitude":-33.865143,"longitude":151.2099,"reserved":0,"last_update":"0001-01-01T00:00:00Z","name_a2s":"Uncletopia | Sydney | 1 | All Maps","protocol":17,"map":"koth_highpass","folder":"tf","game":"Team Fortress","app_id":440,"player_count":0,"max_players":24,"Bots":0,"server_type":"Dedicated","server_os":"Linux","password":true,"vac":true,"version":"7757534","steam_id":85568392924470001,"keywords":["cp","nocrits","nodmgspread","uncletopia"],"game_id":440,"stv_port":27016,"stv_name":"Uncletopia | Sydney | 1 | All Maps | STV","players":null},{"server_id":123,"name":"Uncletopia | Sydney | 2 | All Maps","name_short":"syd-2","host":"syd-1.au.uncletopia.com","port":27025,"enabled":true,"region":"au","cc":"au","latitude":-33.865143,"longitude":151.2099,"reserved":0,"last_update":"0001-01-01T00:00:00Z","name_a2s":"Uncletopia | Sydney | 2 | All Maps","protocol":17,"map":"pl_barnblitz","folder":"tf","game":"Team Fortress","app_id":440,"player_count":0,"max_players":24,"Bots":0,"server_type":"Dedicated","server_os":"Linux","password":true,"vac":true,"version":"7757534","steam_id":85568392924470002,"keywords":["nocrits","nodmgspread","payload","uncletopia"],"game_id":440,"stv_port":27026,"stv_name":"Uncletopia | Sydney | 2 | All Maps | STV","players":null},{"server_id":395,"name":"Uncletopia | Sydney | 3 | All Maps","name_short":"syd-3","host":"syd-1.au.uncletopia.com","port":27035,"enabled":true,"region":"au","cc":"au","latitude":-33.865143,"longitude":151.2099,"reserved":0,"last_update":"0001-01-01T00:00:00Z","name_a2s":"Uncletopia | Sydney | 3 | All Maps","protocol":17,"map":"koth_lakeside_final","folder":"tf","game":"Team Fortress","app_id":440,"player_count":0,"max_players":24,"Bots":0,"server_type":"Dedicated","server_os":"Linux","password":true,"vac":true,"version":"7757534","steam_id":85568392925194467,"keywords":["cp","nocrits","nodmgspread","uncletopia"],"game_id":440,"stv_port":27036,"stv_name":"Uncletopia | Sydney | 3 | All Maps | STV","players":null},{"server_id":396,"name":"Uncletopia | Sydney | 4 | All Maps","name_short":"syd-4","host":"syd-1.au.uncletopia.com","port":27045,"enabled":true,"region":"au","cc":"au","latitude":-33.865143,"longitude":151.2099,"reserved":0,"last_update":"0001-01-01T00:00:00Z","name_a2s":"Uncletopia | Sydney | 4 | All Maps","protocol":17,"map":"cp_snakewater_final1","folder":"tf","game":"Team Fortress","app_id":440,"player_count":0,"max_players":24,"Bots":0,"server_type":"Dedicated","server_os":"Linux","password":true,"vac":true,"version":"7757534","steam_id":85568392925397958,"keywords":["cp","nocrits","nodmgspread","uncletopia"],"game_id":440,"stv_port":27046,"stv_name":"Uncletopia | Sydney | 4 | All Maps | STV","players":null},{"server_id":58,"name":"Uncletopia | Sydney | 5 | Stopwatch Beta","name_short":"syd-5","host":"syd-1.au.uncletopia.com","port":27055,"enabled":true,"region":"au","cc":"au","latitude":-33.865143,"longitude":151.2099,"reserved":0,"last_update":"0001-01-01T00:00:00Z","name_a2s":"Uncletopia | Sydney | 5 | Stopwatch Beta","protocol":17,"map":"pl_upward","folder":"tf","game":"Team Fortress","app_id":440,"player_count":0,"max_players":24,"Bots":0,"server_type":"Dedicated","server_os":"Linux","password":true,"vac":true,"version":"7757534","steam_id":85568392925397959,"keywords":["nocrits","nodmgspread","payload","uncletopia"],"game_id":440,"stv_port":27056,"stv_name":"Uncletopia | Sydney | 5 | Stopwatch Beta | STV","players":null},{"server_id":59,"name":"Uncletopia | Sydney | 6 | Community","name_short":"syd-6","host":"syd-1.au.uncletopia.com","port":27065,"enabled":true,"region":"au","cc":"au","latitude":-33.865143,"longitude":151.2099,"reserved":0,"last_update":"0001-01-01T00:00:00Z","name_a2s":"Uncletopia | Sydney | 6 | Community","protocol":17,"map":"workshop/pl_badwater_pro_v12.ugc2142942074","folder":"tf","game":"Team Fortress","app_id":440,"player_count":0,"max_players":24,"Bots":0,"server_type":"Dedicated","server_os":"Linux","password":true,"vac":true,"version":"7757534","steam_id":85568392925397960,"keywords":["nocrits","nodmgspread","payload","uncletopia"],"game_id":440,"stv_port":27066,"stv_name":"Uncletopia | Sydney | 6 | Community | STV","players":null},{"server_id":49,"name":"Uncletopia | Warsaw | 1 | All Maps","name_short":"waw-1","host":"waw-1.pl.uncletopia.com","port":27015,"enabled":true,"region":"eu","cc":"pl","latitude":52.2297,"longitude":21.017532,"reserved":0,"last_update":"0001-01-01T00:00:00Z","name_a2s":"","protocol":0,"map":"","folder":"","game":"","app_id":0,"player_count":0,"max_players":0,"Bots":0,"server_type":"","server_os":"","password":false,"vac":false,"version":"","steam_id":0,"keywords":null,"game_id":0,"stv_port":0,"stv_name":"","players":null},{"server_id":50,"name":"Uncletopia | Warsaw | 2 | All Maps","name_short":"waw-2","host":"waw-1.pl.uncletopia.com","port":27025,"enabled":true,"region":"eu","cc":"pl","latitude":52.2297,"longitude":21.017532,"reserved":0,"last_update":"0001-01-01T00:00:00Z","name_a2s":"Uncletopia | Warsaw | 2 | All Maps","protocol":17,"map":"koth_lakeside_final","folder":"tf","game":"Team Fortress","app_id":440,"player_count":5,"max_players":24,"Bots":0,"server_type":"Dedicated","server_os":"Linux","password":true,"vac":true,"version":"7757534","steam_id":85568392925397851,"keywords":["cp","nocrits","nodmgspread","uncletopia"],"game_id":440,"stv_port":27026,"stv_name":"Uncletopia | Warsaw | 2 | All Maps | STV","players":[{"user_id":64,"name":"пельмень26","steam_id":76561199124796011,"connected_time":202000000000,"state":"active","ping":68},{"user_id":65,"name":"A Blåhaj Fan","steam_id":76561199029212388,"connected_time":46000000000,"state":"active","ping":31},{"user_id":60,"name":"FxaS","steam_id":76561198092776178,"connected_time":1425000000000,"state":"active","ping":32},{"user_id":22,"name":"Krestovski","steam_id":76561198987597036,"connected_time":2624000000000,"state":"active","ping":84},{"user_id":23,"name":"Spedfor","steam_id":76561198449455462,"connected_time":2624000000000,"state":"active","ping":147}]},{"server_id":51,"name":"Uncletopia | Warsaw | 3 | All Maps","name_short":"waw-3","host":"waw-1.pl.uncletopia.com","port":27035,"enabled":true,"region":"eu","cc":"pl","latitude":52.2297,"longitude":21.017532,"reserved":0,"last_update":"0001-01-01T00:00:00Z","name_a2s":"Uncletopia | Warsaw | 3 | All Maps","protocol":17,"map":"pl_snowycoast","folder":"tf","game":"Team Fortress","app_id":440,"player_count":0,"max_players":24,"Bots":0,"server_type":"Dedicated","server_os":"Linux","password":true,"vac":true,"version":"7757534","steam_id":85568392925397852,"keywords":["nocrits","nodmgspread","payload","uncletopia"],"game_id":440,"stv_port":27036,"stv_name":"Uncletopia | Warsaw | 3 | All Maps | STV","players":null},{"server_id":52,"name":"Uncletopia | Warsaw | 4 | All Maps","name_short":"waw-4","host":"waw-1.pl.uncletopia.com","port":27045,"enabled":true,"region":"eu","cc":"pl","latitude":52.2297,"longitude":21.017532,"reserved":0,"last_update":"0001-01-01T00:00:00Z","name_a2s":"Uncletopia | Warsaw | 4 | All Maps","protocol":17,"map":"koth_lakeside_final","folder":"tf","game":"Team Fortress","app_id":440,"player_count":0,"max_players":24,"Bots":0,"server_type":"Dedicated","server_os":"Linux","password":true,"vac":true,"version":"7757534","steam_id":85568392925397853,"keywords":["cp","nocrits","nodmgspread","uncletopia"],"game_id":440,"stv_port":27046,"stv_name":"Uncletopia | Warsaw | 4 | All Maps | STV","players":null},{"server_id":53,"name":"Uncletopia | Warsaw | 5 | Stopwatch Beta","name_short":"waw-5","host":"waw-1.pl.uncletopia.com","port":27055,"enabled":true,"region":"eu","cc":"pl","latitude":52.2297,"longitude":21.017532,"reserved":0,"last_update":"0001-01-01T00:00:00Z","name_a2s":"Uncletopia | Warsaw | 5 | Stopwatch Beta","protocol":17,"map":"workshop/koth_bagel_rc6.ugc2514036946","folder":"tf","game":"Team Fortress","app_id":440,"player_count":0,"max_players":24,"Bots":0,"server_type":"Dedicated","server_os":"Linux","password":true,"vac":true,"version":"7757534","steam_id":85568392925397854,"keywords":["cp","nocrits","nodmgspread","uncletopia"],"game_id":440,"stv_port":27056,"stv_name":"Uncletopia | Warsaw | 5 | Stopwatch Beta | STV","players":null},{"server_id":54,"name":"Uncletopia | Warsaw | 6 | Community","name_short":"waw-6","host":"waw-1.pl.uncletopia.com","port":27065,"enabled":true,"region":"eu","cc":"pl","latitude":52.2297,"longitude":21.017532,"reserved":0,"last_update":"0001-01-01T00:00:00Z","name_a2s":"Uncletopia | Warsaw | 6 | Community","protocol":17,"map":"workshop/koth_kemptown_rc1.ugc767410655","folder":"tf","game":"Team Fortress","app_id":440,"player_count":0,"max_players":24,"Bots":0,"server_type":"Dedicated","server_os":"Linux","password":true,"vac":true,"version":"7757534","steam_id":85568392925397856,"keywords":["cp","nocrits","nodmgspread","uncletopia"],"game_id":440,"stv_port":27066,"stv_name":"Uncletopia | Warsaw | 6 | Community | STV","players":null}]}