{"status":true,"message":"","result":[{"server_id":9,"name":"Uncletopia | Atlanta | 1 | All Maps","name_short":"atl-1","host":"atl-1.us.uncletopia.com","port":27015,"enabled":true,"region":"us-east","cc":"us","latitude":33.753746,"longitude":-84.38633,"reserved":0,"last_update":"0001-01-01T00:00:00Z","name_a2s":"Uncletopia | Atlanta | 1 | All Maps","protocol":17,"map":"pl_snowycoast","folder":"tf","game":"Team Fortress","app_id":440,"player_count":24,"max_players":24,"Bots":0,"server_type":"Dedicated","server_os":"Linux","password":true,"vac":true,"version":"7742253","steam_id":85568392924469982,"keywords":["nocrits","nodmgspread","payload","uncletopia"],"game_id":440,"stv_port":27016,"stv_name":"Uncletopia | Atlanta | 1 | All Maps | STV","players":[{"user_id":190,"name":"Kuddly Kay (She/Her)","steam_id":76561198353432576,"connected_time":6535000000000,"state":"active","ping":61},{"user_id":242,"name":"Pickle Chips","steam_id":76561198271951504,"connected_time":896000000000,"state":"active","ping":65},{"user_id":241,"name":"Donk","steam_id":76561198803472441,"connected_time":959000000000,"state":"active","ping":65},{"user_id":151,"name":"Mr. Cheesey","steam_id":76561198153462183,"connected_time":8528000000000,"state":"active","ping":74},{"user_id":217,"name":"forklift circumcised","steam_id":76561198278756087,"connected_time":3537000000000,"state":"active","ping":77},{"user_id":205,"name":"Rappitor","steam_id":76561198105613110,"connected_time":4138000000000,"state":"active","ping":73},{"user_id":253,"name":"ATL1 | icyy","steam_id":76561198968001329,"connected_time":116000000000,"state":"active","ping":45},{"user_id":208,"name":"stink","steam_id":76561198099318923,"connected_time":4123000000000,"state":"active","ping":79},{"user_id":236,"name":"Sparky-a-nature","steam_id":76561198090982334,"connected_time":1012000000000,"state":"active","ping":87},{"user_id":234,"name":"Pacogomez.2005","steam_id":76561198960183175,"connected_time":1115000000000,"state":"active","ping":111},{"user_id":229,"name":"Pablogonzales.2009","steam_id":76561198981009008,"connected_time":1853000000000,"state":"active","ping":73},{"user_id":228,"name":"drdonutman","steam_id":76561197998488821,"connected_time":2129000000000,"state":"active","ping":60},{"user_id":246,"name":"ac3. thread","steam_id":76561199114474224,"connected_time":444000000000,"state":"active","ping":102},{"user_id":224,"name":"SneakySneak","steam_id":76561198064847921,"connected_time":2727000000000,"state":"active","ping":66},{"user_id":239,"name":"Thunde55","steam_id":76561198820288056,"connected_time":992000000000,"state":"active","ping":74},{"user_id":195,"name":"abomination","steam_id":76561198167974713,"connected_time":6153000000000,"state":"active","ping":55},{"user_id":222,"name":"TwentyFive","steam_id":76561198334910862,"connected_time":3458000000000,"state":"active","ping":85},{"user_id":247,"name":"Kawflynn","steam_id":76561198029885678,"connected_time":442000000000,"state":"active","ping":85},{"user_id":235,"name":"Love","steam_id":76561198121692871,"connected_time":1039000000000,"state":"active","ping":96},{"user_id":152,"name":"--_Cook_--","steam_id":76561198080855748,"connected_time":8495000000000,"state":"active","ping":62},{"user_id":243,"name":"Birch","steam_id":76561198316231704,"connected_time":527000000000,"state":"active","ping":59},{"user_id":245,"name":"Hylic","steam_id":76561199051314589,"connected_time":470000000000,"state":"active","ping":84},{"user_id":252,"name":"sansa musa","steam_id":76561198163723555,"connected_time":215000000000,"state":"active","ping":73}]},{"server_id":400,"name":"Uncletopia | Atlanta | 3 | Stopwatch Beta","name_short":"atl-3","host":"atl-1.us.uncletopia.com","port":27035,"enabled":true,"region":"us-east","cc":"us","latitude":33.753746,"longitude":-84.38633,"reserved":0,"last_update":"0001-01-01T00:00:00Z","name_a2s":"Uncletopia | Atlanta | 3 | Stopwatch Beta","protocol":17,"map":"workshop/cp_process_f11.ugc2302948105","folder":"tf","game":"Team Fortress","app_id":440,"player_count":0,"max_players":24,"Bots":0,"server_type":"Dedicated","server_os":"Linux","password":true,"vac":true,"version":"7742253","steam_id":85568392924515187,"keywords":["cp","nocrits","nodmgspread","uncletopia"],"game_id":440,"stv_port":27036,"stv_name":"Uncletopia | Atlanta | 3 | Stopwatch Beta | STV","players":null},{"server_id":401,"name":"Uncletopia | Atlanta | 4 | No Payload","name_short":"atl-4","host":"atl-1.us.uncletopia.com","port":27045,"enabled":true,"region":"us-east","cc":"us","latitude":33.753746,"longitude":-84.38633,"reserved":0,"last_update":"0001-01-01T00:00:00Z","name_a2s":"Uncletopia | Atlanta | 4 | No Payload","protocol":17,"map":"pl_pier","folder":"tf","game":"Team Fortress","app_id":440,"player_count":0,"max_players":24,"Bots":0,"server_type":"Dedicated","server_os":"Linux","password":true,"vac":true,"version":"7723704","steam_id":85568392924515188,"keywords":["nocrits","nodmgspread","payload","uncletopia"],"game_id":440,"stv_port":27046,"stv_name":"Uncletopia | Atlanta | 4 | No Payload | STV","players":null},{"server_id":2,"name":"Uncletopia | Chicago | 1 | All Maps","name_short":"chi-1","host":"chi-1.us.uncletopia.com","port":27015,"enabled":true,"region":"us-central","cc":"us","latitude":41.881832,"longitude":-87.62318,"reserved":0,"last_update":"0001-01-01T00:00:00Z","name_a2s":"Uncletopia | Chicago | 1 | All Maps","protocol":17,"map":"pl_badwater","folder":"tf","game":"Team Fortress","app_id":440,"player_count":24,"max_players":24,"Bots":0,"server_type":"Dedicated","server_os":"Linux","password":true,"vac":true,"version":"7742253","steam_id":85568392924469984,"keywords":["nocrits","nodmgspread","payload","uncletopia"],"game_id":440,"stv_port":27016,"stv_name":"Uncletopia | Chicago | 1 | All Maps | STV","players":[{"user_id":203,"name":"Lunartik","steam_id":76561199004827382,"connected_time":2025000000000,"state":"active","ping":62},{"user_id":209,"name":"Kipernicus","steam_id":76561197998180212,"connected_time":1060000000000,"state":"active","ping":52},{"user_id":139,"name":"dr peppah chug!","steam_id":76561198068835693,"connected_time":7342000000000,"state":"active","ping":83},{"user_id":208,"name":"Death Bird","steam_id":76561198041329791,"connected_time":1285000000000,"state":"active","ping":98},{"user_id":201,"name":"Chimpish","steam_id":76561199263493270,"connected_time":2120000000000,"state":"active","ping":91},{"user_id":180,"name":"no","steam_id":76561198248853140,"connected_time":3910000000000,"state":"active","ping":48},{"user_id":165,"name":"ch","steam_id":76561198012566405,"connected_time":5848000000000,"state":"active","ping":73},{"user_id":189,"name":"Mailman","steam_id":76561198090675970,"connected_time":2985000000000,"state":"active","ping":54},{"user_id":169,"name":"three three","steam_id":76561198177354155,"connected_time":4979000000000,"state":"active","ping":54},{"user_id":206,"name":"Scum Knight","steam_id":76561198282444763,"connected_time":1615000000000,"state":"active","ping":61},{"user_id":207,"name":"jstn","steam_id":76561198845283665,"connected_time":1592000000000,"state":"active","ping":72},{"user_id":150,"name":"Tealim","steam_id":76561198330085713,"connected_time":6878000000000,"state":"active","ping":108},{"user_id":181,"name":"Mixomin","steam_id":76561198295061570,"connected_time":3894000000000,"state":"active","ping":56},{"user_id":51,"name":"YungKeet","steam_id":76561198293854963,"connected_time":13853000000000,"state":"active","ping":85},{"user_id":193,"name":"Xbox_Pro_2016","steam_id":76561198176126519,"connected_time":2548000000000,"state":"active","ping":71},{"user_id":163,"name":"Kiddo0","steam_id":76561198359596849,"connected_time":6012000000000,"state":"active","ping":83},{"user_id":210,"name":"Yukon Cornelius","steam_id":76561198261512781,"connected_time":1058000000000,"state":"active","ping":79},{"user_id":211,"name":"lemon","steam_id":76561198329179651,"connected_time":1053000000000,"state":"active","ping":107},{"user_id":213,"name":"cool","steam_id":76561199033484246,"connected_time":719000000000,"state":"active","ping":83},{"user_id":212,"name":"flow","steam_id":76561198051928674,"connected_time":958000000000,"state":"active","ping":60},{"user_id":196,"name":"❤ Ashley ❤","steam_id":76561198056428303,"connected_time":2422000000000,"state":"active","ping":105},{"user_id":167,"name":"ApertureCity","steam_id":76561198004153607,"connected_time":5627000000000,"state":"active","ping":76},{"user_id":202,"name":"Enderneer","steam_id":76561198012136653,"connected_time":2119000000000,"state":"active","ping":57},{"user_id":78,"name":"SuperJagops","steam_id":76561198034689716,"connected_time":11896000000000,"state":"active","ping":63}]},{"server_id":106,"name":"Uncletopia | Chicago | 2 | All Maps","name_short":"chi-2","host":"chi-1.us.uncletopia.com","port":27025,"enabled":true,"region":"us-central","cc":"us","latitude":41.881832,"longitude":-87.62318,"reserved":0,"last_update":"0001-01-01T00:00:00Z","name_a2s":"Uncletopia | Chicago | 2 | All Maps","protocol":17,"map":"cp_sunshine","folder":"tf","game":"Team Fortress","app_id":440,"player_count":24,"max_players":24,"Bots":0,"server_type":"Dedicated","server_os":"Linux","password":true,"vac":true,"version":"7742253","steam_id":85568392924469985,"keywords":["cp","nocrits","nodmgspread","uncletopia"],"game_id":440,"stv_port":27026,"stv_name":"Uncletopia | Chicago | 2 | All Maps | STV","players":[{"user_id":72,"name":"-flagellum","steam_id":76561198006297974,"connected_time":840000000000,"state":"active","ping":53},{"user_id":87,"name":"Doost44","steam_id":76561198115785902,"connected_time":363000000000,"state":"active","ping":60},{"user_id":75,"name":"McDumDum","steam_id":76561198040738807,"connected_time":823000000000,"state":"active","ping":80},{"user_id":83,"name":"keffers | Chrimbus Time","steam_id":76561198202338796,"connected_time":624000000000,"state":"active","ping":68},{"user_id":20,"name":"The Sophons","steam_id":76561199386992993,"connected_time":3784000000000,"state":"active","ping":120},{"user_id":85,"name":"Aleph_Infinite","steam_id":76561198211621889,"connected_time":414000000000,"state":"active","ping":79},{"user_id":68,"name":"Chase McCain","steam_id":76561198314538469,"connected_time":919000000000,"state":"active","ping":73},{"user_id":89,"name":"riri ᗜᴗᗜ","steam_id":76561198055462404,"connected_time":347000000000,"state":"active","ping":83},{"user_id":49,"name":"hashmap","steam_id":76561198043794014,"connected_time":2333000000000,"state":"active","ping":55},{"user_id":80,"name":"scrapheap","steam_id":76561198202407087,"connected_time":720000000000,"state":"active","ping":67},{"user_id":64,"name":"Stheno","steam_id":76561198063895996,"connected_time":1279000000000,"state":"active","ping":62},{"user_id":62,"name":"Haze","steam_id":76561198032486799,"connected_time":1438000000000,"state":"active","ping":75},{"user_id":60,"name":"quality_ch3ck","steam_id":76561198361132101,"connected_time":1623000000000,"state":"active","ping":87},{"user_id":88,"name":"vinny6","steam_id":76561198386735728,"connected_time":363000000000,"state":"active","ping":60},{"user_id":90,"name":"BlueSpy","steam_id":76561198134707089,"connected_time":342000000000,"state":"active","ping":61},{"user_id":28,"name":"Pisser12434","steam_id":76561198835144780,"connected_time":3724000000000,"state":"active","ping":70},{"user_id":30,"name":"Cursed Dog","steam_id":76561198090785078,"connected_time":3720000000000,"state":"active","ping":94},{"user_id":46,"name":"spherewithahat","steam_id":76561199122192660,"connected_time":2436000000000,"state":"active","ping":70},{"user_id":32,"name":"４０ ＦＰＳ","steam_id":76561198272394965,"connected_time":3690000000000,"state":"active","ping":138},{"user_id":33,"name":"starfungus","steam_id":76561198158312789,"connected_time":3667000000000,"state":"active","ping":70},{"user_id":69,"name":"Mateo :-)","steam_id":76561199084303314,"connected_time":864000000000,"state":"active","ping":78},{"user_id":63,"name":"bugbread*","steam_id":76561198082480100,"connected_time":1433000000000,"state":"active","ping":60},{"user_id":81,"name":"stop","steam_id":76561198268686419,"connected_time":719000000000,"state":"active","ping":64},{"user_id":84,"name":"frank","steam_id":76561198045436159,"connected_time":448000000000,"state":"active","ping":75}]},{"server_id":402,"name":"Uncletopia | Chicago | 3 | All Maps","name_short":"chi-3","host":"chi-1.us.uncletopia.com","port":27035,"enabled":true,"region":"us-central","cc":"us","latitude":41.881832,"longitude":-87.62318,"reserved":0,"last_update":"0001-01-01T00:00:00Z","name_a2s":"Uncletopia | Chicago | 3 | All Maps","protocol":17,"map":"pl_pier","folder":"tf","game":"Team Fortress","app_id":440,"player_count":24,"max_players":24,"Bots":0,"server_type":"Dedicated","server_os":"Linux","password":true,"vac":true,"version":"7742253","steam_id":85568392924515191,"keywords":["nocrits","nodmgspread","payload","uncletopia"],"game_id":440,"stv_port":27036,"stv_name":"Uncletopia | Chicago | 3 | All Maps | STV","players":[{"user_id":228,"name":"Bread Baker","steam_id":76561198185335103,"connected_time":296000000000,"state":"active","ping":56},{"user_id":174,"name":"[slug]","steam_id":76561197989592178,"connected_time":5704000000000,"state":"active","ping":60},{"user_id":234,"name":"Obamacare","steam_id":76561198018894553,"connected_time":222000000000,"state":"active","ping":91},{"user_id":221,"name":"Teeheeman456","steam_id":76561198418971756,"connected_time":2156000000000,"state":"active","ping":83},{"user_id":199,"name":"shrimperino","steam_id":76561198367735460,"connected_time":3548000000000,"state":"active","ping":75},{"user_id":242,"name":"None of that $9.99 bullshit","steam_id":76561198116169903,"connected_time":39000000000,"state":"active","ping":58},{"user_id":211,"name":"Maniaa","steam_id":76561198257140802,"connected_time":3109000000000,"state":"active","ping":69},{"user_id":229,"name":"Seico Bass","steam_id":76561198123498500,"connected_time":292000000000,"state":"active","ping":78},{"user_id":230,"name":"Room","steam_id":76561199174579733,"connected_time":275000000000,"state":"active","ping":69},{"user_id":231,"name":"Dr. Martin Luther","steam_id":76561198064572586,"connected_time":259000000000,"state":"active","ping":66},{"user_id":235,"name":"Kzjytsugn","steam_id":76561198130241974,"connected_time":213000000000,"state":"active","ping":92},{"user_id":171,"name":"hej","steam_id":76561197996366940,"connected_time":6068000000000,"state":"active","ping":63},{"user_id":232,"name":"Grouch","steam_id":76561198080790944,"connected_time":254000000000,"state":"active","ping":74},{"user_id":225,"name":"ee err","steam_id":76561197986847586,"connected_time":703000000000,"state":"active","ping":61},{"user_id":233,"name":"Gravee","steam_id":76561197999283582,"connected_time":254000000000,"state":"active","ping":50},{"user_id":236,"name":"Annanomity","steam_id":76561199091255050,"connected_time":208000000000,"state":"active","ping":69},{"user_id":191,"name":"Swshbcklr","steam_id":76561197969421355,"connected_time":4318000000000,"state":"active","ping":50},{"user_id":237,"name":"SomeCozyKid","steam_id":76561198086113234,"connected_time":203000000000,"state":"active","ping":59},{"user_id":238,"name":"Only One Jhakobi","steam_id":76561197993641141,"connected_time":187000000000,"state":"active","ping":53},{"user_id":193,"name":"send dudes","steam_id":76561198084277762,"connected_time":4183000000000,"state":"active","ping":63},{"user_id":239,"name":"sebjzy","steam_id":76561198009959034,"connected_time":121000000000,"state":"active","ping":77},{"user_id":227,"name":"Quansen","steam_id":76561198151594550,"connected_time":450000000000,"state":"active","ping":58},{"user_id":218,"name":"Rin \"Hindwing\" Redtail","steam_id":76561199074865638,"connected_time":2281000000000,"state":"active","ping":72},{"user_id":241,"name":"cokersworld","steam_id":76561198039731344,"connected_time":103000000000,"state":"active","ping":80}]},{"server_id":403,"name":"Uncletopia | Chicago | 4 | All Maps","name_short":"chi-4","host":"chi-1.us.uncletopia.com","port":27045,"enabled":true,"region":"us-central","cc":"us","latitude":41.881832,"longitude":-87.62318,"reserved":0,"last_update":"0001-01-01T00:00:00Z","name_a2s":"Uncletopia | Chicago | 4 | All Maps","protocol":17,"map":"koth_viaduct","folder":"tf","game":"Team Fortress","app_id":440,"player_count":24,"max_players":24,"Bots":0,"server_type":"Dedicated","server_os":"Linux","password":true,"vac":true,"version":"7742253","steam_id":85568392924515193,"keywords":["cp","nocrits","nodmgspread","uncletopia"],"game_id":440,"stv_port":27046,"stv_name":"Uncletopia | Chicago | 4 | All Maps | STV","players":[{"user_id":178,"name":"aimee","steam_id":76561198834309212,"connected_time":64000000000,"state":"active","ping":76},{"user_id":112,"name":"『Jax$』","steam_id":76561198025717379,"connected_time":3458000000000,"state":"active","ping":69},{"user_id":173,"name":"Michaelpc1","steam_id":76561198088365519,"connected_time":669000000000,"state":"active","ping":78},{"user_id":166,"name":"Anti-Capitalist","steam_id":76561198131179644,"connected_time":1248000000000,"state":"active","ping":81},{"user_id":156,"name":"no wtf not that","steam_id":76561198461518382,"connected_time":1506000000000,"state":"active","ping":56},{"user_id":164,"name":"LobsterPot","steam_id":76561198072225973,"connected_time":1289000000000,"state":"active","ping":56},{"user_id":179,"name":"VerociousVee","steam_id":76561198289106015,"connected_time":51000000000,"state":"active","ping":90},{"user_id":153,"name":"sxl","steam_id":76561198150627999,"connected_time":1572000000000,"state":"active","ping":65},{"user_id":135,"name":"Ringmaster Wumbo","steam_id":76561198255786250,"connected_time":2448000000000,"state":"active","ping":99},{"user_id":168,"name":"really hot sexy mom (real)","steam_id":76561198044696803,"connected_time":937000000000,"state":"active","ping":69},{"user_id":177,"name":"Shrake","steam_id":76561198114379995,"connected_time":107000000000,"state":"active","ping":33},{"user_id":180,"name":"Vivi","steam_id":76561198141001353,"connected_time":50000000000,"state":"active","ping":35},{"user_id":181,"name":"Anthoneeee","steam_id":76561199209220671,"connected_time":35000000000,"state":"active","ping":102},{"user_id":176,"name":"hydrochloric acid drinker","steam_id":76561198077272494,"connected_time":328000000000,"state":"active","ping":69},{"user_id":140,"name":"jan kili","steam_id":76561198289894834,"connected_time":2212000000000,"state":"active","ping":61},{"user_id":143,"name":"Coup de Grass","steam_id":76561198011643226,"connected_time":2072000000000,"state":"active","ping":80},{"user_id":165,"name":"costco food court","steam_id":76561198971838406,"connected_time":1285000000000,"state":"active","ping":56},{"user_id":147,"name":"L0gicz","steam_id":76561198082466196,"connected_time":1727000000000,"state":"active","ping":82},{"user_id":183,"name":"=Silver=","steam_id":76561198292307127,"connected_time":32000000000,"state":"spawning","ping":91},{"user_id":130,"name":"who ate the cheese","steam_id":76561198275408467,"connected_time":2701000000000,"state":"active","ping":49},{"user_id":141,"name":"Chrome Knight","steam_id":76561198851348871,"connected_time":2192000000000,"state":"active","ping":77},{"user_id":162,"name":"Inevitable","steam_id":76561198210050169,"connected_time":1396000000000,"state":"active","ping":60},{"user_id":172,"name":"Dorso","steam_id":76561198380590080,"connected_time":711000000000,"state":"active","ping":83},{"user_id":184,"name":"2 Point Tom","steam_id":76561198087617008,"connected_time":18000000000,"state":"spawning","ping":98}]},{"server_id":36,"name":"Uncletopia | Chicago | 5 | All Maps","name_short":"chi-5","host":"chi-2.us.uncletopia.com","port":27015,"enabled":true,"region":"us-central","cc":"us","latitude":41.881832,"longitude":-87.62318,"reserved":0,"last_update":"0001-01-01T00:00:00Z","name_a2s":"Uncletopia | Chicago | 5 | All Maps","protocol":17,"map":"pl_barnblitz","folder":"tf","game":"Team Fortress","app_id":440,"player_count":1,"max_players":24,"Bots":0,"server_type":"Dedicated","server_os":"Linux","password":true,"vac":true,"version":"7742253","steam_id":85568392924866362,"keywords":["nocrits","nodmgspread","payload","uncletopia"],"game_id":440,"stv_port":27016,"stv_name":"Uncletopia | Chicago | 5 | All Maps | STV","players":[{"user_id":14,"name":"svltr","steam_id":76561198164627676,"connected_time":389000000000,"state":"active","ping":53}]},{"server_id":37,"name":"Uncletopia | Chicago | 6 | All Maps","name_short":"chi-6","host":"chi-2.us.uncletopia.com","port":27025,"enabled":true,"region":"us-central","cc":"us","latitude":41.881832,"longitude":-87.62318,"reserved":0,"last_update":"0001-01-01T00:00:00Z","name_a2s":"Uncletopia | Chicago | 6 | All Maps","protocol":17,"map":"koth_lakeside_final","folder":"tf","game":"Team Fortress","app_id":440,"player_count":0,"max_players":24,"Bots":0,"server_type":"Dedicated","server_os":"Linux","password":true,"vac":true,"version":"7742253","steam_id":85568392924866363,"keywords":["cp","nocrits","nodmgspread","uncletopia"],"game_id":440,"stv_port":27026,"stv_name":"Uncletopia | Chicago | 6 | All Maps | STV","players":null},{"server_id":38,"name":"Uncletopia | Chicago | 7 | Stopwatch Beta","name_short":"chi-7","host":"chi-2.us.uncletopia.com","port":27035,"enabled":true,"region":"us-central","cc":"us","latitude":41.881832,"longitude":-87.62318,"reserved":0,"last_update":"0001-01-01T00:00:00Z","name_a2s":"Uncletopia | Chicago | 7 | Stopwatch Beta","protocol":17,"map":"cp_granary","folder":"tf","game":"Team Fortress","app_id":440,"player_count":24,"max_players":24,"Bots":0,"server_type":"Dedicated","server_os":"Linux","password":true,"vac":true,"version":"7742253","steam_id":85568392924866364,"keywords":["cp","nocrits","nodmgspread","uncletopia"],"game_id":440,"stv_port":27036,"stv_name":"Uncletopia | Chicago | 7 | Stopwatch Beta | STV","players":[{"user_id":104,"name":"Dr. Kamirubich","steam_id":76561198136169355,"connected_time":1939000000000,"state":"active","ping":49},{"user_id":50,"name":"valz","steam_id":76561198263040660,"connected_time":4675000000000,"state":"active","ping":45},{"user_id":22,"name":"Nespreco","steam_id":76561198252035336,"connected_time":5745000000000,"state":"active","ping":80},{"user_id":97,"name":"BangusHonkle","steam_id":76561198218887511,"connected_time":2069000000000,"state":"active","ping":87},{"user_id":86,"name":"crumbles","steam_id":76561198168707036,"connected_time":3101000000000,"state":"active","ping":98},{"user_id":108,"name":"Aeris","steam_id":76561198287271028,"connected_time":1804000000000,"state":"active","ping":58},{"user_id":107,"name":"TeeTree","steam_id":76561198862307874,"connected_time":1845000000000,"state":"active","ping":61},{"user_id":127,"name":"KoNeet","steam_id":76561199013241741,"connected_time":204000000000,"state":"active","ping":137},{"user_id":66,"name":"hooley","steam_id":76561198041923067,"connected_time":3706000000000,"state":"active","ping":68},{"user_id":128,"name":"Highway Gothic","steam_id":76561198118102935,"connected_time":192000000000,"state":"active","ping":70},{"user_id":103,"name":"Bottle","steam_id":76561198044031558,"connected_time":1975000000000,"state":"active","ping":60},{"user_id":122,"name":"Regi","steam_id":76561198271508598,"connected_time":674000000000,"state":"active","ping":58},{"user_id":62,"name":"M4 Sherman","steam_id":76561198126990820,"connected_time":3881000000000,"state":"active","ping":86},{"user_id":117,"name":"Phat_nibba29","steam_id":76561198165661855,"connected_time":1269000000000,"state":"active","ping":88},{"user_id":124,"name":"toastman","steam_id":76561198207073088,"connected_time":520000000000,"state":"active","ping":76},{"user_id":90,"name":"cool beans","steam_id":76561198321591685,"connected_time":2729000000000,"state":"active","ping":80},{"user_id":129,"name":"TurboRaspberry","steam_id":76561199215360629,"connected_time":114000000000,"state":"active","ping":84},{"user_id":114,"name":"KingSteve42","steam_id":76561198409455888,"connected_time":1367000000000,"state":"active","ping":98},{"user_id":89,"name":"AOkScrump","steam_id":76561198996230924,"connected_time":3064000000000,"state":"active","ping":71},{"user_id":123,"name":"PzVIIIMaus","steam_id":76561198346559365,"connected_time":666000000000,"state":"active","ping":49},{"user_id":130,"name":"Quantify45","steam_id":76561198044400135,"connected_time":94000000000,"state":"active","ping":104},{"user_id":125,"name":"Dust","steam_id":76561198063959574,"connected_time":228000000000,"state":"active","ping":81},{"user_id":119,"name":"\u003every bad","steam_id":76561198064879329,"connected_time":1209000000000,"state":"active","ping":60},{"user_id":120,"name":"Crackhead","steam_id":76561198883918047,"connected_time":1150000000000,"state":"active","ping":57}]},{"server_id":39,"name":"Uncletopia | Chicago | 8 | Community","name_short":"chi-8","host":"chi-2.us.uncletopia.com","port":27045,"enabled":true,"region":"us-central","cc":"us","latitude":41.881832,"longitude":-87.62318,"reserved":0,"last_update":"0001-01-01T00:00:00Z","name_a2s":"Uncletopia | Chicago | 8 | Community","protocol":17,"map":"koth_lakeside_final","folder":"tf","game":"Team Fortress","app_id":440,"player_count":0,"max_players":24,"Bots":0,"server_type":"Dedicated","server_os":"Linux","password":true,"vac":true,"version":"7742253","steam_id":85568392924866365,"keywords":["cp","nocrits","nodmgspread","uncletopia"],"game_id":440,"stv_port":27046,"stv_name":"Uncletopia | Chicago | 8 | Community | STV","players":null},{"server_id":8,"name":"Uncletopia | Dallas | 1 | All Maps","name_short":"dal-1","host":"dal-1.us.uncletopia.com","port":27015,"enabled":true,"region":"us-central","cc":"us","latitude":32.779167,"longitude":-96.80889,"reserved":0,"last_update":"0001-01-01T00:00:00Z","name_a2s":"Uncletopia | Dallas | 1 | All Maps","protocol":17,"map":"pl_borneo","folder":"tf","game":"Team Fortress","app_id":440,"player_count":24,"max_players":24,"Bots":0,"server_type":"Dedicated","server_os":"Linux","password":true,"vac":true,"version":"7742253","steam_id":85568392924469986,"keywords":["nocrits","nodmgspread","payload","uncletopia"],"game_id":440,"stv_port":27016,"stv_name":"Uncletopia | Dallas | 1 | All Maps | STV","players":[{"user_id":289,"name":"Mr.Momo","steam_id":76561199013406551,"connected_time":3133000000000,"state":"active","ping":221},{"user_id":315,"name":"Fancyassasin","steam_id":76561198331864258,"connected_time":1278000000000,"state":"active","ping":50},{"user_id":300,"name":"SpA_Ceyy","steam_id":76561199011611671,"connected_time":2136000000000,"state":"active","ping":52},{"user_id":319,"name":"Derply","steam_id":76561198871211642,"connected_time":589000000000,"state":"active","ping":80},{"user_id":270,"name":"robobingus3002","steam_id":76561199135217441,"connected_time":4955000000000,"state":"active","ping":76},{"user_id":268,"name":"Anononomous Dumbo Octopus","steam_id":76561198252522394,"connected_time":5275000000000,"state":"active","ping":49},{"user_id":302,"name":"Johno","steam_id":76561199231993886,"connected_time":1956000000000,"state":"active","ping":78},{"user_id":308,"name":"Faust main","steam_id":76561198971799149,"connected_time":1731000000000,"state":"active","ping":58},{"user_id":235,"name":"[LINUX] F2P=S*(M/B)+H || Spy!","steam_id":76561198093538786,"connected_time":8468000000000,"state":"active","ping":45},{"user_id":304,"name":"Punglie","steam_id":76561198108514838,"connected_time":1780000000000,"state":"active","ping":59},{"user_id":294,"name":"Number 1 Ken Marino fan","steam_id":76561199215811448,"connected_time":3025000000000,"state":"active","ping":96},{"user_id":303,"name":"The Great Eagle Scourge of 1822","steam_id":76561198325086209,"connected_time":1852000000000,"state":"active","ping":79},{"user_id":312,"name":"Braixen","steam_id":76561198354314389,"connected_time":1653000000000,"state":"active","ping":84},{"user_id":314,"name":"The War of 1812","steam_id":76561198318151266,"connected_time":1497000000000,"state":"active","ping":122},{"user_id":318,"name":"the Duke","steam_id":76561198045062191,"connected_time":784000000000,"state":"active","ping":67},{"user_id":311,"name":"Civilian","steam_id":76561198153573947,"connected_time":1694000000000,"state":"active","ping":64},{"user_id":143,"name":"Red","steam_id":76561197998285162,"connected_time":15284000000000,"state":"active","ping":92},{"user_id":313,"name":"FUSION","steam_id":76561197972659738,"connected_time":1627000000000,"state":"active","ping":76},{"user_id":316,"name":"Mr. Bixby","steam_id":76561198868839264,"connected_time":1268000000000,"state":"active","ping":46},{"user_id":240,"name":"Lolxdloldx","steam_id":76561198136887125,"connected_time":8122000000000,"state":"active","ping":72},{"user_id":269,"name":"Sugar Rush","steam_id":76561198094620058,"connected_time":5242000000000,"state":"active","ping":47},{"user_id":299,"name":"Siren","steam_id":76561198047395823,"connected_time":2163000000000,"state":"active","ping":63},{"user_id":320,"name":"dingus","steam_id":76561198190077399,"connected_time":5000000000,"state":"spawning","ping":89},{"user_id":248,"name":"Pepsi-Man","steam_id":76561198052061790,"connected_time":7966000000000,"state":"active","ping":86}]},{"server_id":108,"name":"Uncletopia | Dallas | 2 | All Maps","name_short":"dal-2","host":"dal-1.us.uncletopia.com","port":27025,"enabled":true,"region":"us-central","cc":"us","latitude":32.779167,"longitude":-96.80889,"reserved":0,"last_update":"0001-01-01T00:00:00Z","name_a2s":"Uncletopia | Dallas | 2 | All Maps","protocol":17,"map":"cp_sunshine","folder":"tf","game":"Team Fortress","app_id":440,"player_count":10,"max_players":24,"Bots":0,"server_type":"Dedicated","server_os":"Linux","password":true,"vac":true,"version":"7742253","steam_id":85568392924469988,"keywords":["cp","nocrits","nodmgspread","uncletopia"],"game_id":440,"stv_port":27026,"stv_name":"Uncletopia | Dallas | 2 | All Maps | STV","players":[{"user_id":6,"name":"TVmeem","steam_id":76561198384879041,"connected_time":3578000000000,"state":"active","ping":73},{"user_id":24,"name":"Humbetymymeaty","steam_id":76561198435326008,"connected_time":252000000000,"state":"active","ping":70},{"user_id":19,"name":"BIRD_UP!","steam_id":76561199273290583,"connected_time":455000000000,"state":"active","ping":117},{"user_id":20,"name":"watchfull","steam_id":76561198433266742,"connected_time":443000000000,"state":"active","ping":103},{"user_id":14,"name":"Scrambledeggs","steam_id":76561198988504962,"connected_time":1350000000000,"state":"active","ping":64},{"user_id":17,"name":"spot (paradise edition)","steam_id":76561198151135298,"connected_time":875000000000,"state":"active","ping":68},{"user_id":21,"name":"Red Heavy The Sandwich Slayer","steam_id":76561199187226776,"connected_time":392000000000,"state":"active","ping":50},{"user_id":22,"name":"Mablinlok","steam_id":76561197992718242,"connected_time":373000000000,"state":"active","ping":98},{"user_id":25,"name":"cup","steam_id":76561198121245586,"connected_time":230000000000,"state":"active","ping":65},{"user_id":27,"name":"tae","steam_id":76561198294360662,"connected_time":169000000000,"state":"active","ping":76}]},{"server_id":5,"name":"Uncletopia | Frankfurt | 1 | All Maps","name_short":"frk-1","host":"frk-1.de.uncletopia.com","port":27015,"enabled":true,"region":"eu","cc":"de","latitude":50.110924,"longitude":8.682127,"reserved":0,"last_update":"0001-01-01T00:00:00Z","name_a2s":"Uncletopia | Frankfurt | 1 | All Maps","protocol":17,"map":"ctf_2fort","folder":"tf","game":"Team Fortress","app_id":440,"player_count":1,"max_players":24,"Bots":0,"server_type":"Dedicated","server_os":"Linux","password":true,"vac":true,"version":"7742253","steam_id":85568392924469989,"keywords":["ctf","nocrits","nodmgspread","uncletopia"],"game_id":440,"stv_port":27016,"stv_name":"Uncletopia | Frankfurt | 1 | All Maps | STV","players":[{"user_id":587,"name":"Chen","steam_id":76561198440363619,"connected_time":262000000000,"state":"active","ping":42}]},{"server_id":110,"name":"Uncletopia | Frankfurt | 2 | All Maps","name_short":"frk-2","host":"frk-1.de.uncletopia.com","port":27025,"enabled":true,"region":"eu","cc":"de","latitude":50.110924,"longitude":8.682127,"reserved":0,"last_update":"0001-01-01T00:00:00Z","name_a2s":"Uncletopia | Frankfurt | 2 | All Maps","protocol":17,"map":"koth_harvest_final","folder":"tf","game":"Team Fortress","app_id":440,"player_count":24,"max_players":24,"Bots":0,"server_type":"Dedicated","server_os":"Linux","password":true,"vac":true,"version":"7742253","steam_id":85568392924469990,"keywords":["cp","nocrits","nodmgspread","uncletopia"],"game_id":440,"stv_port":27026,"stv_name":"Uncletopia | Frankfurt | 2 | All Maps | STV","players":[{"user_id":412,"name":"flange","steam_id":76561198040182692,"connected_time":1288000000000,"state":"active","ping":53},{"user_id":424,"name":"Despair","steam_id":76561198259487481,"connected_time":477000000000,"state":"active","ping":66},{"user_id":403,"name":"stun","steam_id":76561198276681691,"connected_time":2273000000000,"state":"active","ping":56},{"user_id":417,"name":"Sneaky boi","steam_id":76561199195985387,"connected_time":923000000000,"state":"active","ping":85},{"user_id":374,"name":"Mr. Dick™","steam_id":76561198047309044,"connected_time":3307000000000,"state":"active","ping":140},{"user_id":397,"name":"ttv.twitch.tv/watchLive","steam_id":76561198047359132,"connected_time":2373000000000,"state":"active","ping":74},{"user_id":383,"name":"Vitamin Weee","steam_id":76561199183937747,"connected_time":2876000000000,"state":"active","ping":67},{"user_id":413,"name":"Jondro","steam_id":76561198044168268,"connected_time":1277000000000,"state":"active","ping":81},{"user_id":385,"name":"lyudmilakh","steam_id":76561198362779878,"connected_time":2804000000000,"state":"active","ping":84},{"user_id":420,"name":"rosepinkyfuzz","steam_id":76561198018546334,"connected_time":783000000000,"state":"active","ping":65},{"user_id":425,"name":"drain chain","steam_id":76561198106652575,"connected_time":27000000000,"state":"active","ping":49},{"user_id":404,"name":"Neron 3","steam_id":76561198906479903,"connected_time":2266000000000,"state":"active","ping":104},{"user_id":409,"name":"Oceanic | tuesday maybe","steam_id":76561197979741827,"connected_time":1995000000000,"state":"active","ping":56},{"user_id":419,"name":"arisu","steam_id":76561199010825303,"connected_time":887000000000,"state":"active","ping":72},{"user_id":426,"name":"Scrumpy (hahaha)","steam_id":76561199090667696,"connected_time":21000000000,"state":"spawning","ping":372},{"user_id":392,"name":"sone","steam_id":76561198002562878,"connected_time":2639000000000,"state":"active","ping":59},{"user_id":411,"name":"Frank","steam_id":76561198086672774,"connected_time":1766000000000,"state":"active","ping":60},{"user_id":393,"name":"Rye","steam_id":76561198058511278,"connected_time":2588000000000,"state":"active","ping":72},{"user_id":416,"name":"kilo","steam_id":76561198015641339,"connected_time":1217000000000,"state":"active","ping":71},{"user_id":422,"name":"FotoKot","steam_id":76561198440620461,"connected_time":523000000000,"state":"active","ping":125},{"user_id":401,"name":"vissa","steam_id":76561198150680224,"connected_time":2305000000000,"state":"active","ping":74},{"user_id":398,"name":"Dodoshka","steam_id":76561198093464840,"connected_time":2360000000000,"state":"active","ping":95},{"user_id":423,"name":"Echo of Abyss","steam_id":76561198981841782,"connected_time":522000000000,"state":"active","ping":77},{"user_id":400,"name":"Jan005","steam_id":76561198410047633,"connected_time":2340000000000,"state":"active","ping":65}]},{"server_id":308,"name":"Uncletopia | Frankfurt | 3 | All Maps","name_short":"frk-3","host":"frk-1.de.uncletopia.com","port":27035,"enabled":true,"region":"eu","cc":"de","latitude":50.110924,"longitude":8.682127,"reserved":0,"last_update":"0001-01-01T00:00:00Z","name_a2s":"Uncletopia | Frankfurt | 3 | All Maps","protocol":17,"map":"koth_cascade","folder":"tf","game":"Team Fortress","app_id":440,"player_count":0,"max_players":24,"Bots":0,"server_type":"Dedicated","server_os":"Linux","password":true,"vac":true,"version":"7742253","steam_id":85568392924504274,"keywords":["cp","nocrits","nodmgspread","uncletopia"],"game_id":440,"stv_port":27036,"stv_name":"Uncletopia | Frankfurt | 3 | All Maps | STV","players":null},{"server_id":309,"name":"Uncletopia | Frankfurt | 4 | All Maps","name_short":"frk-4","host":"frk-1.de.uncletopia.com","port":27045,"enabled":true,"region":"eu","cc":"de","latitude":50.110924,"longitude":8.682127,"reserved":0,"last_update":"0001-01-01T00:00:00Z","name_a2s":"Uncletopia | Frankfurt | 4 | All Maps","protocol":17,"map":"cp_mountainlab","folder":"tf","game":"Team Fortress","app_id":440,"player_count":23,"max_players":24,"Bots":0,"server_type":"Dedicated","server_os":"Linux","password":true,"vac":true,"version":"7742253","steam_id":85568392924504275,"keywords":["cp","nocrits","nodmgspread","uncletopia"],"game_id":440,"stv_port":27046,"stv_name":"Uncletopia | Frankfurt | 4 | All Maps | STV","players":[{"user_id":313,"name":"eww","steam_id":76561198061179194,"connected_time":436000000000,"state":"active","ping":83},{"user_id":318,"name":"Florua","steam_id":76561198182297846,"connected_time":133000000000,"state":"active","ping":63},{"user_id":319,"name":"Rlen","steam_id":76561198132139920,"connected_time":132000000000,"state":"active","ping":84},{"user_id":316,"name":"Narvhalø","steam_id":76561198147495474,"connected_time":299000000000,"state":"active","ping":52},{"user_id":252,"name":"Котлета Бога","steam_id":76561198014808352,"connected_time":3298000000000,"state":"active","ping":74},{"user_id":291,"name":"VioBeeyo ♥","steam_id":76561198066258544,"connected_time":1205000000000,"state":"active","ping":49},{"user_id":307,"name":"gap.next","steam_id":76561198429049290,"connected_time":632000000000,"state":"active","ping":80},{"user_id":289,"name":"Neco-arc Astolfo","steam_id":76561198989682540,"connected_time":1243000000000,"state":"active","ping":48},{"user_id":292,"name":"JoueurFrançais","steam_id":76561198108081068,"connected_time":1203000000000,"state":"active","ping":64},{"user_id":290,"name":"WHO","steam_id":76561198380484033,"connected_time":1223000000000,"state":"active","ping":52},{"user_id":317,"name":"SantiThePug #ReviveTheCaber","steam_id":76561199049615996,"connected_time":299000000000,"state":"active","ping":67},{"user_id":295,"name":"Ax","steam_id":76561199201206556,"connected_time":1134000000000,"state":"active","ping":89},{"user_id":320,"name":"Hentai","steam_id":76561199193669408,"connected_time":111000000000,"state":"active","ping":75},{"user_id":283,"name":"kornetov.vitalya","steam_id":76561199286034833,"connected_time":1379000000000,"state":"active","ping":82},{"user_id":304,"name":"bad 2 za bona","steam_id":76561199065919134,"connected_time":946000000000,"state":"active","ping":60},{"user_id":321,"name":"Gebagemid","steam_id":76561198003684717,"connected_time":76000000000,"state":"active","ping":63},{"user_id":305,"name":"Aphex triplet","steam_id":76561198047725816,"connected_time":797000000000,"state":"active","ping":66},{"user_id":322,"name":"smile","steam_id":76561198108014277,"connected_time":50000000000,"state":"active","ping":74},{"user_id":299,"name":"alleopold","steam_id":76561199055478676,"connected_time":1119000000000,"state":"active","ping":140},{"user_id":300,"name":"NaN","steam_id":76561198071098413,"connected_time":1073000000000,"state":"active","ping":57},{"user_id":323,"name":"historicalpoultry","steam_id":76561198148422688,"connected_time":49000000000,"state":"active","ping":34},{"user_id":286,"name":"Magiccomplex","steam_id":76561199203555188,"connected_time":1304000000000,"state":"active","ping":65},{"user_id":324,"name":"Eskimo","steam_id":76561198154147392,"connected_time":32000000000,"state":"spawning","ping":59}]},{"server_id":310,"name":"Uncletopia | Frankfurt | 5 | All Maps","name_short":"frk-5","host":"frk-1.de.uncletopia.com","port":27055,"enabled":true,"region":"eu","cc":"de","latitude":50.110924,"longitude":8.682127,"reserved":0,"last_update":"0001-01-01T00:00:00Z","name_a2s":"Uncletopia | Frankfurt | 5 | All Maps","protocol":17,"map":"pl_goldrush","folder":"tf","game":"Team Fortress","app_id":440,"player_count":24,"max_players":24,"Bots":0,"server_type":"Dedicated","server_os":"Linux","password":true,"vac":true,"version":"7742253","steam_id":85568392924504277,"keywords":["nocrits","nodmgspread","payload","uncletopia"],"game_id":440,"stv_port":27056,"stv_name":"Uncletopia | Frankfurt | 5 | All Maps | STV","players":[{"user_id":536,"name":"tom","steam_id":76561198202442602,"connected_time":1306000000000,"state":"active","ping":76},{"user_id":547,"name":"Kanapkowicz","steam_id":76561199130597563,"connected_time":367000000000,"state":"active","ping":62},{"user_id":493,"name":"Fart of Doom","steam_id":76561198042593027,"connected_time":3685000000000,"state":"active","ping":83},{"user_id":538,"name":"denji741games","steam_id":76561198067499762,"connected_time":1302000000000,"state":"active","ping":68},{"user_id":551,"name":"AforeKingDwarf","steam_id":76561198043562926,"connected_time":270000000000,"state":"active","ping":50},{"user_id":525,"name":"Jonathan","steam_id":76561198087988880,"connected_time":1685000000000,"state":"active","ping":55},{"user_id":516,"name":"azzy","steam_id":76561198061293740,"connected_time":2672000000000,"state":"active","ping":84},{"user_id":515,"name":"Dark ^^","steam_id":76561198036241064,"connected_time":2690000000000,"state":"active","ping":54},{"user_id":543,"name":"Apollo17","steam_id":76561198886930836,"connected_time":939000000000,"state":"active","ping":76},{"user_id":550,"name":"Goblin (level-5)","steam_id":76561198058211873,"connected_time":275000000000,"state":"active","ping":48},{"user_id":540,"name":"mr Bass","steam_id":76561198199764539,"connected_time":1155000000000,"state":"active","ping":63},{"user_id":552,"name":"eyem","steam_id":76561198169928502,"connected_time":239000000000,"state":"active","ping":89},{"user_id":548,"name":"VES_Typh00n","steam_id":76561198120826847,"connected_time":363000000000,"state":"active","ping":52},{"user_id":545,"name":"MAKENTAKEN","steam_id":76561199127359587,"connected_time":482000000000,"state":"active","ping":91},{"user_id":494,"name":"walking sentry","steam_id":76561199225363633,"connected_time":3682000000000,"state":"active","ping":62},{"user_id":471,"name":"Jacket","steam_id":76561198355798604,"connected_time":4346000000000,"state":"active","ping":97},{"user_id":496,"name":"Anti_Dragon","steam_id":76561198969060607,"connected_time":3614000000000,"state":"active","ping":97},{"user_id":523,"name":"gary","steam_id":76561198051623751,"connected_time":1939000000000,"state":"active","ping":77},{"user_id":549,"name":"3 cats in a trenchcoat","steam_id":76561198334042273,"connected_time":290000000000,"state":"active","ping":94},{"user_id":497,"name":"♥ Cirno ♥","steam_id":76561198834982738,"connected_time":3609000000000,"state":"active","ping":64},{"user_id":498,"name":"Wade Wilson's Spoilt C4","steam_id":76561198013884709,"connected_time":3595000000000,"state":"active","ping":96},{"user_id":544,"name":"Hitori Gotoh","steam_id":76561198101532240,"connected_time":804000000000,"state":"active","ping":62},{"user_id":553,"name":"typicalcrimson","steam_id":76561198295439747,"connected_time":151000000000,"state":"active","ping":84},{"user_id":535,"name":"Lordware","steam_id":76561198022011299,"connected_time":1444000000000,"state":"active","ping":102}]},{"server_id":311,"name":"Uncletopia | Frankfurt | 6 | All Maps","name_short":"frk-6","host":"frk-1.de.uncletopia.com","port":27065,"enabled":true,"region":"eu","cc":"de","latitude":50.110924,"longitude":8.682127,"reserved":0,"last_update":"0001-01-01T00:00:00Z","name_a2s":"Uncletopia | Frankfurt | 6 | All Maps","protocol":17,"map":"pl_thundermountain","folder":"tf","game":"Team Fortress","app_id":440,"player_count":17,"max_players":24,"Bots":0,"server_type":"Dedicated","server_os":"Linux","password":true,"vac":true,"version":"7742253","steam_id":85568392924504278,"keywords":["nocrits","nodmgspread","payload","uncletopia"],"game_id":440,"stv_port":27066,"stv_name":"Uncletopia | Frankfurt | 6 | All Maps | STV","players":[{"user_id":296,"name":"F2P gameing","steam_id":76561198834713682,"connected_time":825000000000,"state":"active","ping":74},{"user_id":293,"name":"テイルス","steam_id":76561198022403271,"connected_time":1734000000000,"state":"active","ping":46},{"user_id":299,"name":"quadr","steam_id":76561198871716755,"connected_time":423000000000,"state":"active","ping":88},{"user_id":300,"name":"FLYING DWARF","steam_id":76561199048614286,"connected_time":344000000000,"state":"active","ping":106},{"user_id":301,"name":"mohammed bin Andrew tate","steam_id":76561198817027590,"connected_time":332000000000,"state":"active","ping":86},{"user_id":110,"name":"YeetusFeetus","steam_id":76561199043598948,"connected_time":14736000000000,"state":"active","ping":113},{"user_id":288,"name":"VEH-DEH-VEH","steam_id":76561198010978989,"connected_time":2274000000000,"state":"active","ping":64},{"user_id":302,"name":"jker","steam_id":76561198816714058,"connected_time":287000000000,"state":"active","ping":111},{"user_id":255,"name":"Ape","steam_id":76561198322703872,"connected_time":4889000000000,"state":"active","ping":56},{"user_id":260,"name":"G6 sherlock","steam_id":76561198802967796,"connected_time":4643000000000,"state":"active","ping":116},{"user_id":305,"name":"Akero","steam_id":76561198857883916,"connected_time":131000000000,"state":"active","ping":79},{"user_id":304,"name":"JIJI","steam_id":76561198137597283,"connected_time":251000000000,"state":"active","ping":100},{"user_id":306,"name":"ronzo123","steam_id":76561198020976496,"connected_time":113000000000,"state":"active","ping":146},{"user_id":284,"name":".quickfast.","steam_id":76561199438900919,"connected_time":2519000000000,"state":"active","ping":66},{"user_id":279,"name":"paradise punch lemonade","steam_id":76561198058012525,"connected_time":3015000000000,"state":"active","ping":76},{"user_id":224,"name":"Coac","steam_id":76561198085265740,"connected_time":7492000000000,"state":"active","ping":65},{"user_id":277,"name":"Dolcelatte","steam_id":76561198038501770,"connected_time":3207000000000,"state":"active","ping":60}]},{"server_id":23,"name":"Uncletopia | Frankfurt | 7 | Stopwatch Beta","name_short":"frk-7","host":"frk-1.de.uncletopia.com","port":27075,"enabled":true,"region":"eu","cc":"de","latitude":50.110924,"longitude":8.682127,"reserved":0,"last_update":"0001-01-01T00:00:00Z","name_a2s":"Uncletopia | Frankfurt | 7 | Stopwatch Beta","protocol":17,"map":"workshop/pl_summercoast_rc8e.ugc1761528829","folder":"tf","game":"Team Fortress","app_id":440,"player_count":0,"max_players":24,"Bots":0,"server_type":"Dedicated","server_os":"Linux","password":true,"vac":true,"version":"7742253","steam_id":85568392924742827,"keywords":["nocrits","nodmgspread","payload","uncletopia"],"game_id":440,"stv_port":27076,"stv_name":"Uncletopia | Frankfurt | 7 | Stopwatch Beta | STV","players":null},{"server_id":24,"name":"Uncletopia | Frankfurt | 8 | Community","name_short":"frk-8","host":"frk-1.de.uncletopia.com","port":27085,"enabled":true,"region":"eu","cc":"de","latitude":50.110924,"longitude":8.682127,"reserved":0,"last_update":"0001-01-01T00:00:00Z","name_a2s":"Uncletopia | Frankfurt | 8 | Community","protocol":17,"map":"workshop/koth_synthetic_rc6a.ugc1549817316","folder":"tf","game":"Team Fortress","app_id":440,"player_count":0,"max_players":24,"Bots":0,"server_type":"Dedicated","server_os":"Linux","password":true,"vac":true,"version":"7742253","steam_id":85568392924742828,"keywords":["cp","nocrits","nodmgspread","uncletopia"],"game_id":440,"stv_port":27086,"stv_name":"Uncletopia | Frankfurt | 8 | Community | STV","players":null},{"server_id":202,"name":"Uncletopia | Hong Kong | 1 | All Maps","name_short":"hgk-1","host":"hgk-1.hk.uncletopia.com","port":27015,"enabled":true,"region":"asia","cc":"hk","latitude":22.302711,"longitude":114.177216,"reserved":0,"last_update":"0001-01-01T00:00:00Z","name_a2s":"Uncletopia | Hong Kong | 1 | All Maps","protocol":17,"map":"cp_dustbowl","folder":"tf","game":"Team Fortress","app_id":440,"player_count":3,"max_players":24,"Bots":0,"server_type":"Dedicated","server_os":"Linux","password":true,"vac":true,"version":"7742253","steam_id":85568392924494504,"keywords":["cp","nocrits","nodmgspread","uncletopia"],"game_id":440,"stv_port":27016,"stv_name":"Uncletopia | Hong Kong | 1 | All Maps | STV","players":[{"user_id":908,"name":"matyas2009frinta","steam_id":76561199465716211,"connected_time":810000000000,"state":"active","ping":271},{"user_id":909,"name":"honza009jaros","steam_id":76561199239788854,"connected_time":808000000000,"state":"active","ping":259},{"user_id":911,"name":"yoshnoesy","steam_id":76561199216710588,"connected_time":85000000000,"state":"active","ping":255}]},{"server_id":1,"name":"Uncletopia | Los Angeles | 1 | All Maps","name_short":"lax-1","host":"lax-1.us.uncletopia.com","port":27015,"enabled":true,"region":"us-west","cc":"us","latitude":33.94279,"longitude":-118.41004,"reserved":0,"last_update":"0001-01-01T00:00:00Z","name_a2s":"Uncletopia | Los Angeles | 1 | All Maps","protocol":17,"map":"cp_mountainlab","folder":"tf","game":"Team Fortress","app_id":440,"player_count":0,"max_players":24,"Bots":0,"server_type":"Dedicated","server_os":"Linux","password":true,"vac":true,"version":"7742253","steam_id":85568392924469991,"keywords":["cp","nocrits","nodmgspread","uncletopia"],"game_id":440,"stv_port":27016,"stv_name":"Uncletopia | Los Angeles | 1 | All Maps | STV","players":null},{"server_id":112,"name":"Uncletopia | Los Angeles | 2 | All Maps","name_short":"lax-2","host":"lax-1.us.uncletopia.com","port":27025,"enabled":true,"region":"us-west","cc":"us","latitude":33.94279,"longitude":-118.41004,"reserved":0,"last_update":"0001-01-01T00:00:00Z","name_a2s":"Uncletopia | Los Angeles | 2 | All Maps","protocol":17,"map":"koth_lakeside_final","folder":"tf","game":"Team Fortress","app_id":440,"player_count":0,"max_players":24,"Bots":0,"server_type":"Dedicated","server_os":"Linux","password":true,"vac":true,"version":"7742253","steam_id":85568392924469992,"keywords":["cp","nocrits","nodmgspread","uncletopia"],"game_id":440,"stv_port":27026,"stv_name":"Uncletopia | Los Angeles | 2 | All Maps | STV","players":null},{"server_id":324,"name":"Uncletopia | Los Angeles | 3 | All Maps","name_short":"lax-3","host":"lax-1.us.uncletopia.com","port":27035,"enabled":true,"region":"us-west","cc":"us","latitude":33.94279,"longitude":-118.41004,"reserved":0,"last_update":"0001-01-01T00:00:00Z","name_a2s":"Uncletopia | Los Angeles | 3 | All Maps","protocol":17,"map":"cp_snakewater_final1","folder":"tf","game":"Team Fortress","app_id":440,"player_count":0,"max_players":24,"Bots":0,"server_type":"Dedicated","server_os":"Linux","password":true,"vac":true,"version":"7742253","steam_id":85568392924510198,"keywords":["cp","nocrits","nodmgspread","uncletopia"],"game_id":440,"stv_port":27036,"stv_name":"Uncletopia | Los Angeles | 3 | All Maps | STV","players":null},{"server_id":25,"name":"Uncletopia | Los Angeles | 4 | Stopwatch Beta","name_short":"lax-4","host":"lax-1.us.uncletopia.com","port":27045,"enabled":true,"region":"us-west","cc":"us","latitude":33.94279,"longitude":-118.41004,"reserved":0,"last_update":"0001-01-01T00:00:00Z","name_a2s":"Uncletopia | Los Angeles | 4 | Stopwatch Beta","protocol":17,"map":"cp_snakewater_final1","folder":"tf","game":"Team Fortress","app_id":440,"player_count":0,"max_players":24,"Bots":0,"server_type":"Dedicated","server_os":"Linux","password":true,"vac":true,"version":"7742253","steam_id":85568392924510199,"keywords":["cp","nocrits","nodmgspread","uncletopia"],"game_id":440,"stv_port":27046,"stv_name":"Uncletopia | Los Angeles | 4 | Stopwatch Beta | STV","players":null},{"server_id":11,"name":"Uncletopia | London | 1 | All Maps","name_short":"lon-1","host":"lon-1.uk.uncletopia.com","port":27015,"enabled":true,"region":"eu","cc":"gb","latitude":51.509865,"longitude":-0.118092,"reserved":0,"last_update":"0001-01-01T00:00:00Z","name_a2s":"Uncletopia | London | 1 | All Maps","protocol":17,"map":"pl_upward","folder":"tf","game":"Team Fortress","app_id":440,"player_count":24,"max_players":24,"Bots":0,"server_type":"Dedicated","server_os":"Linux","password":true,"vac":true,"version":"7742253","steam_id":85568392924367362,"keywords":["nocrits","nodmgspread","payload","uncletopia"],"game_id":440,"stv_port":27016,"stv_name":"Uncletopia | London | 1 | All Maps | STV","players":[{"user_id":416,"name":"JOHN GAMING (based)","steam_id":76561199085822219,"connected_time":2262000000000,"state":"active","ping":84},{"user_id":417,"name":"Max Andrew","steam_id":76561198158955194,"connected_time":2244000000000,"state":"active","ping":54},{"user_id":450,"name":"rulla runt","steam_id":76561198010662796,"connected_time":733000000000,"state":"active","ping":58},{"user_id":451,"name":"install gentoo","steam_id":76561198185257982,"connected_time":730000000000,"state":"active","ping":61},{"user_id":452,"name":"drunk retard","steam_id":76561199042470246,"connected_time":680000000000,"state":"active","ping":63},{"user_id":372,"name":"Mono","steam_id":76561198114569493,"connected_time":4031000000000,"state":"active","ping":43},{"user_id":458,"name":"Keyoo","steam_id":76561198028759242,"connected_time":610000000000,"state":"active","ping":55},{"user_id":463,"name":"Yessirskiii","steam_id":76561198179324075,"connected_time":555000000000,"state":"active","ping":61},{"user_id":422,"name":"purplecan","steam_id":76561199208283508,"connected_time":2079000000000,"state":"active","ping":75},{"user_id":467,"name":"Tryrex","steam_id":76561198157824042,"connected_time":59000000000,"state":"spawning","ping":94},{"user_id":454,"name":"CarBombEnthusiast","steam_id":76561199448185434,"connected_time":677000000000,"state":"active","ping":62},{"user_id":460,"name":"ivanmixo","steam_id":76561198160213989,"connected_time":603000000000,"state":"active","ping":66},{"user_id":455,"name":"pinkerton","steam_id":76561198083103830,"connected_time":673000000000,"state":"active","ping":94},{"user_id":466,"name":"dumpster","steam_id":76561198429917681,"connected_time":155000000000,"state":"active","ping":40},{"user_id":464,"name":"panakid","steam_id":76561198364121077,"connected_time":314000000000,"state":"active","ping":93},{"user_id":465,"name":"cslevi","steam_id":76561198142858923,"connected_time":311000000000,"state":"active","ping":68},{"user_id":429,"name":"Flare","steam_id":76561198039098320,"connected_time":1732000000000,"state":"active","ping":45},{"user_id":366,"name":"dec","steam_id":76561198009660168,"connected_time":4563000000000,"state":"active","ping":45},{"user_id":369,"name":"Morgulan","steam_id":76561198046564543,"connected_time":4480000000000,"state":"active","ping":60},{"user_id":428,"name":"kwasny","steam_id":76561199033981024,"connected_time":1818000000000,"state":"active","ping":60},{"user_id":446,"name":"jona3838","steam_id":76561199097658195,"connected_time":922000000000,"state":"active","ping":105},{"user_id":431,"name":"Areck2","steam_id":76561199041737814,"connected_time":1722000000000,"state":"active","ping":44},{"user_id":439,"name":"kackboon","steam_id":76561198044189114,"connected_time":1398000000000,"state":"active","ping":69},{"user_id":397,"name":"British Disapproval","steam_id":76561198001375260,"connected_time":2956000000000,"state":"active","ping":40}]},{"server_id":114,"name":"Uncletopia | London | 2 | All Maps","name_short":"lon-2","host":"lon-1.uk.uncletopia.com","port":27025,"enabled":true,"region":"eu","cc":"gb","latitude":51.509865,"longitude":-0.118092,"reserved":0,"last_update":"0001-01-01T00:00:00Z","name_a2s":"Uncletopia | London | 2 | All Maps","protocol":17,"map":"koth_cascade","folder":"tf","game":"Team Fortress","app_id":440,"player_count":0,"max_players":24,"Bots":0,"server_type":"Dedicated","server_os":"Linux","password":true,"vac":true,"version":"7742253","steam_id":85568392924470941,"keywords":["cp","nocrits","nodmgspread","uncletopia"],"game_id":440,"stv_port":27026,"stv_name":"Uncletopia | London | 2 | All Maps | STV","players":null},{"server_id":320,"name":"Uncletopia | London | 3 | All Maps","name_short":"lon-3","host":"lon-1.uk.uncletopia.com","port":27035,"enabled":true,"region":"eu","cc":"gb","latitude":51.509865,"longitude":-0.118092,"reserved":0,"last_update":"0001-01-01T00:00:00Z","name_a2s":"Uncletopia | London | 3 | All Maps","protocol":17,"map":"cp_snakewater_final1","folder":"tf","game":"Team Fortress","app_id":440,"player_count":24,"max_players":24,"Bots":0,"server_type":"Dedicated","server_os":"Linux","password":true,"vac":true,"version":"7742253","steam_id":85568392924510192,"keywords":["cp","nocrits","nodmgspread","uncletopia"],"game_id":440,"stv_port":27036,"stv_name":"Uncletopia | London | 3 | All Maps | STV","players":[{"user_id":420,"name":"MSPaintbrush","steam_id":76561198119987705,"connected_time":399000000000,"state":"active","ping":67},{"user_id":423,"name":"Sandvich Gaming","steam_id":76561199079493666,"connected_time":32000000000,"state":"spawning","ping":91},{"user_id":419,"name":"Koli","steam_id":76561197992428783,"connected_time":415000000000,"state":"active","ping":57},{"user_id":412,"name":"✘˵ ˡ ◡ ˡ ˶✘","steam_id":76561198016642281,"connected_time":1633000000000,"state":"active","ping":66},{"user_id":409,"name":"DumbScout","steam_id":76561198059646395,"connected_time":1740000000000,"state":"active","ping":121},{"user_id":398,"name":"gEyfrogsE","steam_id":76561199385772902,"connected_time":2681000000000,"state":"active","ping":56},{"user_id":406,"name":"Palle","steam_id":76561198090101870,"connected_time":1994000000000,"state":"active","ping":64},{"user_id":360,"name":"Bromoneto","steam_id":76561198876695014,"connected_time":5434000000000,"state":"active","ping":97},{"user_id":404,"name":"Rory","steam_id":76561198354037580,"connected_time":2216000000000,"state":"active","ping":43},{"user_id":417,"name":"my name is justin","steam_id":76561198325276848,"connected_time":591000000000,"state":"active","ping":89},{"user_id":422,"name":"Dr. Pootis","steam_id":76561198938319764,"connected_time":107000000000,"state":"active","ping":84},{"user_id":411,"name":"KierUK |","steam_id":76561198119447994,"connected_time":1711000000000,"state":"active","ping":46},{"user_id":413,"name":"Fat Pigeon","steam_id":76561198817940142,"connected_time":1349000000000,"state":"active","ping":45},{"user_id":348,"name":"margera","steam_id":76561198043601838,"connected_time":5932000000000,"state":"active","ping":60},{"user_id":424,"name":"hhheeeyyy42","steam_id":76561199349151112,"connected_time":3000000000,"state":"spawning","ping":108},{"user_id":310,"name":"Borat","steam_id":76561198122226417,"connected_time":9222000000000,"state":"active","ping":43},{"user_id":347,"name":"my m*rge","steam_id":76561198106049954,"connected_time":6028000000000,"state":"active","ping":76},{"user_id":393,"name":"fister","steam_id":76561199273619268,"connected_time":3067000000000,"state":"active","ping":64},{"user_id":380,"name":"TheBeardedM1G","steam_id":76561198040208946,"connected_time":3701000000000,"state":"active","ping":43},{"user_id":402,"name":"dominic :)","steam_id":76561198042663518,"connected_time":2313000000000,"state":"active","ping":45},{"user_id":418,"name":"Spajro","steam_id":76561198257383813,"connected_time":529000000000,"state":"active","ping":60},{"user_id":381,"name":"D-boi","steam_id":76561199001837576,"connected_time":3606000000000,"state":"active","ping":53},{"user_id":414,"name":"NiNYÃ","steam_id":76561197995685294,"connected_time":1187000000000,"state":"active","ping":45},{"user_id":421,"name":"JC","steam_id":76561198029213352,"connected_time":380000000000,"state":"active","ping":34}]},{"server_id":321,"name":"Uncletopia | London | 4 | All Maps","name_short":"lon-4","host":"lon-1.uk.uncletopia.com","port":27045,"enabled":true,"region":"eu","cc":"gb","latitude":51.509865,"longitude":-0.118092,"reserved":0,"last_update":"0001-01-01T00:00:00Z","name_a2s":"Uncletopia | London | 4 | All Maps","protocol":17,"map":"koth_highpass","folder":"tf","game":"Team Fortress","app_id":440,"player_count":0,"max_players":24,"Bots":0,"server_type":"Dedicated","server_os":"Linux","password":true,"vac":true,"version":"7742253","steam_id":85568392924510193,"keywords":["cp","nocrits","nodmgspread","uncletopia"],"game_id":440,"stv_port":27046,"stv_name":"Uncletopia | London | 4 | All Maps | STV","players":null},{"server_id":21,"name":"Uncletopia | London | 5 | All Maps","name_short":"lon-5","host":"lon-1.uk.uncletopia.com","port":27055,"enabled":true,"region":"eu","cc":"gb","latitude":51.509865,"longitude":-0.118092,"reserved":0,"last_update":"0001-01-01T00:00:00Z","name_a2s":"Uncletopia | London | 5 | All Maps","protocol":17,"map":"pl_swiftwater_final1","folder":"tf","game":"Team Fortress","app_id":440,"player_count":23,"max_players":24,"Bots":0,"server_type":"Dedicated","server_os":"Linux","password":true,"vac":true,"version":"7742253","steam_id":85568392924742829,"keywords":["nocrits","nodmgspread","payload","uncletopia"],"game_id":440,"stv_port":27056,"stv_name":"Uncletopia | London | 5 | All Maps | STV","players":[{"user_id":324,"name":"alma","steam_id":76561198857712172,"connected_time":271000000000,"state":"active","ping":56},{"user_id":282,"name":"Daoloth, Render of the Veils","steam_id":76561198115106008,"connected_time":3834000000000,"state":"active","ping":59},{"user_id":309,"name":"silenk","steam_id":76561198367689055,"connected_time":1303000000000,"state":"active","ping":70},{"user_id":299,"name":"the joy of recycling","steam_id":76561198138509827,"connected_time":2471000000000,"state":"active","ping":81},{"user_id":308,"name":"ACG_Dubsy","steam_id":76561198797308565,"connected_time":1331000000000,"state":"active","ping":51},{"user_id":266,"name":"Lunar","steam_id":76561199077495290,"connected_time":4850000000000,"state":"active","ping":69},{"user_id":268,"name":"Hkitchen","steam_id":76561198194779526,"connected_time":4806000000000,"state":"active","ping":38},{"user_id":290,"name":"LoboPaciente","steam_id":76561198088870962,"connected_time":2751000000000,"state":"active","ping":60},{"user_id":319,"name":"Back with the milk","steam_id":76561199020105501,"connected_time":592000000000,"state":"active","ping":113},{"user_id":318,"name":"Gin-Gi","steam_id":76561198108332859,"connected_time":826000000000,"state":"active","ping":52},{"user_id":300,"name":"htraB","steam_id":76561198043122677,"connected_time":2229000000000,"state":"active","ping":60},{"user_id":316,"name":"Humphert","steam_id":76561199008187393,"connected_time":961000000000,"state":"active","ping":45},{"user_id":325,"name":"pyrogaming","steam_id":76561199124905283,"connected_time":204000000000,"state":"active","ping":43},{"user_id":327,"name":"HerrGoldfisch","steam_id":76561198380425595,"connected_time":127000000000,"state":"active","ping":52},{"user_id":321,"name":"PK Blizzard","steam_id":76561198039836567,"connected_time":418000000000,"state":"active","ping":43},{"user_id":323,"name":"stonebum","steam_id":76561198057004606,"connected_time":298000000000,"state":"active","ping":56},{"user_id":312,"name":"Laggy Sniper","steam_id":76561198336862244,"connected_time":1269000000000,"state":"active","ping":44},{"user_id":313,"name":"Renee.The.Elf","steam_id":76561199390285906,"connected_time":1266000000000,"state":"active","ping":45},{"user_id":306,"name":"The Sunnyshot","steam_id":76561198086787499,"connected_time":1723000000000,"state":"active","ping":56},{"user_id":314,"name":"Nex","steam_id":76561199223747483,"connected_time":1230000000000,"state":"active","ping":59},{"user_id":286,"name":"Welder","steam_id":76561198355300561,"connected_time":3439000000000,"state":"active","ping":72},{"user_id":326,"name":"ToxicBlonde","steam_id":76561198136633815,"connected_time":175000000000,"state":"active","ping":52},{"user_id":292,"name":"Raven","steam_id":76561198087296188,"connected_time":2745000000000,"state":"active","ping":59}]},{"server_id":22,"name":"Uncletopia | London | 6 | All Maps","name_short":"lon-6","host":"lon-1.uk.uncletopia.com","port":27065,"enabled":true,"region":"eu","cc":"gb","latitude":51.509865,"longitude":-0.118092,"reserved":0,"last_update":"0001-01-01T00:00:00Z","name_a2s":"Uncletopia | London | 6 | All Maps","protocol":17,"map":"koth_highpass","folder":"tf","game":"Team Fortress","app_id":440,"player_count":0,"max_players":24,"Bots":0,"server_type":"Dedicated","server_os":"Linux","password":true,"vac":true,"version":"7742253","steam_id":85568392924742830,"keywords":["cp","nocrits","nodmgspread","uncletopia"],"game_id":440,"stv_port":27066,"stv_name":"Uncletopia | London | 6 | All Maps | STV","players":null},{"server_id":40,"name":"Uncletopia | London | 7 | No Payload","name_short":"lon-7","host":"lon-1.uk.uncletopia.com","port":27075,"enabled":true,"region":"eu","cc":"gb","latitude":51.509865,"longitude":-0.118092,"reserved":0,"last_update":"0001-01-01T00:00:00Z","name_a2s":"Uncletopia | London | 7 | No Payload","protocol":17,"map":"koth_viaduct","folder":"tf","game":"Team Fortress","app_id":440,"player_count":0,"max_players":24,"Bots":0,"server_type":"Dedicated","server_os":"Linux","password":true,"vac":true,"version":"7742253","steam_id":85568392924964314,"keywords":["cp","nocrits","nodmgspread","uncletopia"],"game_id":440,"stv_port":27076,"stv_name":"Uncletopia | London | 7 | No Payload | STV","players":null},{"server_id":41,"name":"Uncletopia | London | 8 | Community","name_short":"lon-8","host":"lon-1.uk.uncletopia.com","port":27085,"enabled":true,"region":"eu","cc":"gb","latitude":51.509865,"longitude":-0.118092,"reserved":0,"last_update":"0001-01-01T00:00:00Z","name_a2s":"Uncletopia | London | 8 | Community","protocol":17,"map":"cp_altitude","folder":"tf","game":"Team Fortress","app_id":440,"player_count":0,"max_players":24,"Bots":0,"server_type":"Dedicated","server_os":"Linux","password":true,"vac":true,"version":"7742253","steam_id":85568392924964315,"keywords":["cp","nocrits","nodmgspread","uncletopia"],"game_id":440,"stv_port":27086,"stv_name":"Uncletopia | London | 8 | Community | STV","players":null},{"server_id":300,"name":"Uncletopia | Montréal | 1 | All Maps","name_short":"mtl-1","host":"mtl-1.ca.uncletopia.com","port":27015,"enabled":true,"region":"us-east","cc":"ca","latitude":45.50889,"longitude":-73.56167,"reserved":0,"last_update":"0001-01-01T00:00:00Z","name_a2s":"Uncletopia | Montréal | 1 | All Maps","protocol":17,"map":"pl_barnblitz","folder":"tf","game":"Team Fortress","app_id":440,"player_count":0,"max_players":24,"Bots":0,"server_type":"Dedicated","server_os":"Linux","password":true,"vac":true,"version":"7742253","steam_id":85568392924500087,"keywords":["nocrits","nodmgspread","payload","uncletopia"],"game_id":440,"stv_port":27016,"stv_name":"Uncletopia | Montréal | 1 | All Maps | STV","players":null},{"server_id":301,"name":"Uncletopia | Montréal | 2 | All Maps","name_short":"mtl-2","host":"mtl-1.ca.uncletopia.com","port":27025,"enabled":true,"region":"us-east","cc":"ca","latitude":45.50889,"longitude":-73.56167,"reserved":0,"last_update":"0001-01-01T00:00:00Z","name_a2s":"Uncletopia | Montréal | 2 | All Maps","protocol":17,"map":"koth_highpass","folder":"tf","game":"Team Fortress","app_id":440,"player_count":0,"max_players":24,"Bots":0,"server_type":"Dedicated","server_os":"Linux","password":true,"vac":true,"version":"7742253","steam_id":85568392924500088,"keywords":["cp","nocrits","nodmgspread","uncletopia"],"game_id":440,"stv_port":27026,"stv_name":"Uncletopia | Montréal | 2 | All Maps | STV","players":null},{"server_id":302,"name":"Uncletopia | Montréal | 3 | All Maps","name_short":"mtl-3","host":"mtl-1.ca.uncletopia.com","port":27035,"enabled":true,"region":"us-east","cc":"ca","latitude":45.50889,"longitude":-73.56167,"reserved":0,"last_update":"0001-01-01T00:00:00Z","name_a2s":"Uncletopia | Montréal | 3 | All Maps","protocol":17,"map":"cp_snakewater_final1","folder":"tf","game":"Team Fortress","app_id":440,"player_count":0,"max_players":24,"Bots":0,"server_type":"Dedicated","server_os":"Linux","password":true,"vac":true,"version":"7742253","steam_id":85568392924500089,"keywords":["cp","nocrits","nodmgspread","uncletopia"],"game_id":440,"stv_port":27036,"stv_name":"Uncletopia | Montréal | 3 | All Maps | STV","players":null},{"server_id":303,"name":"Uncletopia | Montréal | 4 | No Payload","name_short":"mtl-4","host":"mtl-1.ca.uncletopia.com","port":27045,"enabled":true,"region":"us-east","cc":"ca","latitude":45.50889,"longitude":-73.56167,"reserved":0,"last_update":"0001-01-01T00:00:00Z","name_a2s":"Uncletopia | Montréal | 4 | No Payload","protocol":17,"map":"cp_snakewater_final1","folder":"tf","game":"Team Fortress","app_id":440,"player_count":0,"max_players":24,"Bots":0,"server_type":"Dedicated","server_os":"Linux","password":true,"vac":true,"version":"7742253","steam_id":85568392924500090,"keywords":["cp","nocrits","nodmgspread","uncletopia"],"game_id":440,"stv_port":27046,"stv_name":"Uncletopia | Montréal | 4 | No Payload | STV","players":null},{"server_id":13,"name":"Uncletopia | New York City | 1 | All Maps","name_short":"nyc-1","host":"nyc-1.us.uncletopia.com","port":27015,"enabled":true,"region":"us-east","cc":"us","latitude":40.73061,"longitude":-73.93524,"reserved":0,"last_update":"0001-01-01T00:00:00Z","name_a2s":"Uncletopia | New York City | 1 | All Maps","protocol":17,"map":"pl_swiftwater_final1","folder":"tf","game":"Team Fortress","app_id":440,"player_count":24,"max_players":24,"Bots":0,"server_type":"Dedicated","server_os":"Linux","password":true,"vac":true,"version":"7742253","steam_id":85568392924469993,"keywords":["nocrits","nodmgspread","payload","uncletopia"],"game_id":440,"stv_port":27016,"stv_name":"Uncletopia | New York City | 1 | All Maps | STV","players":[{"user_id":64,"name":"Galemek","steam_id":76561198161410911,"connected_time":2612000000000,"state":"active","ping":82},{"user_id":81,"name":"A Puppy","steam_id":76561198828184456,"connected_time":1063000000000,"state":"active","ping":47},{"user_id":82,"name":"hazel","steam_id":76561198447244031,"connected_time":1049000000000,"state":"active","ping":63},{"user_id":93,"name":"Ryan","steam_id":76561198045137432,"connected_time":425000000000,"state":"active","ping":64},{"user_id":70,"name":"matchstick","steam_id":76561198190100027,"connected_time":2172000000000,"state":"active","ping":55},{"user_id":92,"name":"Nettlebrand","steam_id":76561198057434521,"connected_time":478000000000,"state":"active","ping":71},{"user_id":22,"name":"Saristan","steam_id":76561198093346048,"connected_time":4737000000000,"state":"active","ping":56},{"user_id":61,"name":"Golumpus","steam_id":76561198053549635,"connected_time":2731000000000,"state":"active","ping":70},{"user_id":95,"name":"The Fortress From Team Fortress","steam_id":76561198081422503,"connected_time":300000000000,"state":"active","ping":83},{"user_id":77,"name":"Beanboi","steam_id":76561198977881677,"connected_time":1710000000000,"state":"active","ping":61},{"user_id":96,"name":"deech","steam_id":76561198066429444,"connected_time":256000000000,"state":"active","ping":43},{"user_id":50,"name":"-W3E- grim10465","steam_id":76561198045698581,"connected_time":3543000000000,"state":"active","ping":30},{"user_id":55,"name":"catboy phroliax","steam_id":76561198207075529,"connected_time":3155000000000,"state":"active","ping":91},{"user_id":89,"name":"Gary Budussy","steam_id":76561197969793969,"connected_time":636000000000,"state":"active","ping":94},{"user_id":99,"name":"jmarcian62","steam_id":76561198378981448,"connected_time":129000000000,"state":"active","ping":78},{"user_id":100,"name":"DecayingMage","steam_id":76561199218571859,"connected_time":123000000000,"state":"active","ping":105},{"user_id":85,"name":"LAzar M0Nke","steam_id":76561199083035892,"connected_time":1025000000000,"state":"active","ping":110},{"user_id":94,"name":"RyanDCB [Real]","steam_id":76561198040138739,"connected_time":318000000000,"state":"active","ping":69},{"user_id":62,"name":"b4rry","steam_id":76561198365887154,"connected_time":2713000000000,"state":"active","ping":60},{"user_id":90,"name":"Repo Clam","steam_id":76561198198217573,"connected_time":633000000000,"state":"active","ping":64},{"user_id":37,"name":"bur","steam_id":76561198004231658,"connected_time":4172000000000,"state":"active","ping":62},{"user_id":91,"name":"Dexter","steam_id":76561198050149035,"connected_time":581000000000,"state":"active","ping":46},{"user_id":74,"name":"Myn","steam_id":76561198055438857,"connected_time":1927000000000,"state":"active","ping":57},{"user_id":98,"name":"MrLeftTurn","steam_id":76561198856743969,"connected_time":213000000000,"state":"active","ping":147}]},{"server_id":14,"name":"Uncletopia | New York City | 2 | All Maps","name_short":"nyc-2","host":"nyc-1.us.uncletopia.com","port":27025,"enabled":true,"region":"us-east","cc":"us","latitude":40.73061,"longitude":-73.93524,"reserved":0,"last_update":"0001-01-01T00:00:00Z","name_a2s":"Uncletopia | New York City | 2 | All Maps","protocol":17,"map":"pl_snowycoast","folder":"tf","game":"Team Fortress","app_id":440,"player_count":0,"max_players":24,"Bots":0,"server_type":"Dedicated","server_os":"Linux","password":true,"vac":true,"version":"7742253","steam_id":85568392924469994,"keywords":["nocrits","nodmgspread","payload","uncletopia"],"game_id":440,"stv_port":27026,"stv_name":"Uncletopia | New York City | 2 | All Maps | STV","players":null},{"server_id":15,"name":"Uncletopia | New York City | 3 | Stopwatch Beta","name_short":"nyc-3","host":"nyc-1.us.uncletopia.com","port":27035,"enabled":true,"region":"us-east","cc":"us","latitude":40.73061,"longitude":-73.93524,"reserved":0,"last_update":"0001-01-01T00:00:00Z","name_a2s":"Uncletopia | New York City | 3 | Stopwatch Beta","protocol":17,"map":"pl_pier","folder":"tf","game":"Team Fortress","app_id":440,"player_count":1,"max_players":24,"Bots":0,"server_type":"Dedicated","server_os":"Linux","password":true,"vac":true,"version":"7742253","steam_id":85568392924742820,"keywords":["nocrits","nodmgspread","payload","uncletopia"],"game_id":440,"stv_port":27036,"stv_name":"Uncletopia | New York City | 3 | Stopwatch Beta | STV","players":[{"user_id":18,"name":"Suport-Haxorus","steam_id":76561199229930155,"connected_time":169000000000,"state":"active","ping":46}]},{"server_id":16,"name":"Uncletopia | New York City | 4 | Community","name_short":"nyc-4","host":"nyc-1.us.uncletopia.com","port":27045,"enabled":true,"region":"us-east","cc":"us","latitude":40.73061,"longitude":-73.93524,"reserved":0,"last_update":"0001-01-01T00:00:00Z","name_a2s":"Uncletopia | New York City | 4 | Community","protocol":17,"map":"koth_viaduct","folder":"tf","game":"Team Fortress","app_id":440,"player_count":0,"max_players":24,"Bots":0,"server_type":"Dedicated","server_os":"Linux","password":true,"vac":true,"version":"7742253","steam_id":85568392924742821,"keywords":["cp","nocrits","nodmgspread","uncletopia"],"game_id":440,"stv_port":27046,"stv_name":"Uncletopia | New York City | 4 | Community | STV","players":null},{"server_id":142,"name":"Uncletopia | São Paulo | 1 | All Maps","name_short":"sao-1","host":"sao-1.br.uncletopia.com","port":27015,"enabled":true,"region":"sa","cc":"br","latitude":-23.533773,"longitude":-46.62529,"reserved":0,"last_update":"0001-01-01T00:00:00Z","name_a2s":"Uncletopia | São Paulo | 1 | All Maps","protocol":17,"map":"koth_viaduct","folder":"tf","game":"Team Fortress","app_id":440,"player_count":0,"max_players":24,"Bots":0,"server_type":"Dedicated","server_os":"Linux","password":true,"vac":true,"version":"7742253","steam_id":85568392924469996,"keywords":["cp","nocrits","nodmgspread","uncletopia"],"game_id":440,"stv_port":27016,"stv_name":"Uncletopia | São Paulo | 1 | All Maps | STV","players":null},{"server_id":143,"name":"Uncletopia | São Paulo | 2 | All Maps","name_short":"sao-2","host":"sao-2.br.uncletopia.com","port":27015,"enabled":true,"region":"sa","cc":"br","latitude":-23.533773,"longitude":-46.62529,"reserved":0,"last_update":"0001-01-01T00:00:00Z","name_a2s":"Uncletopia | São Paulo | 2 | All Maps","protocol":17,"map":"koth_harvest_final","folder":"tf","game":"Team Fortress","app_id":440,"player_count":8,"max_players":24,"Bots":0,"server_type":"Dedicated","server_os":"Linux","password":true,"vac":true,"version":"7742253","steam_id":85568392924485349,"keywords":["cp","nocrits","nodmgspread","uncletopia"],"game_id":440,"stv_port":27016,"stv_name":"Uncletopia | São Paulo | 2 | All Maps | STV","players":[{"user_id":25,"name":"eriquesaltos02","steam_id":76561199440339479,"connected_time":1484000000000,"state":"active","ping":54},{"user_id":35,"name":"Anders575","steam_id":76561198220386384,"connected_time":227000000000,"state":"active","ping":48},{"user_id":33,"name":"Vacc_Onne","steam_id":76561199062785077,"connected_time":381000000000,"state":"active","ping":67},{"user_id":14,"name":"algumber","steam_id":76561199429426012,"connected_time":3693000000000,"state":"active","ping":62},{"user_id":28,"name":"Silverback","steam_id":76561198928735294,"connected_time":1197000000000,"state":"active","ping":64},{"user_id":36,"name":"samuelpro2009","steam_id":76561199248502539,"connected_time":181000000000,"state":"spawning","ping":266},{"user_id":21,"name":"bveigapassos","steam_id":76561199236276893,"connected_time":2393000000000,"state":"active","ping":105},{"user_id":32,"name":"Seby","steam_id":76561198141369181,"connected_time":717000000000,"state":"active","ping":35}]},{"server_id":7,"name":"Uncletopia | Seattle | 1 | All Maps","name_short":"sea-1","host":"sea-1.us.uncletopia.com","port":27015,"enabled":true,"region":"us-west","cc":"us","latitude":47.608013,"longitude":-122.33517,"reserved":0,"last_update":"0001-01-01T00:00:00Z","name_a2s":"Uncletopia | Seattle | 1 | All Maps","protocol":17,"map":"cp_snakewater_final1","folder":"tf","game":"Team Fortress","app_id":440,"player_count":0,"max_players":24,"Bots":0,"server_type":"Dedicated","server_os":"Linux","password":true,"vac":true,"version":"7742253","steam_id":85568392924469997,"keywords":["cp","nocrits","nodmgspread","uncletopia"],"game_id":440,"stv_port":27016,"stv_name":"Uncletopia | Seattle | 1 | All Maps | STV","players":null},{"server_id":119,"name":"Uncletopia | Seattle | 2 | All Maps","name_short":"sea-2","host":"sea-1.us.uncletopia.com","port":27025,"enabled":true,"region":"us-west","cc":"us","latitude":47.608013,"longitude":-122.33517,"reserved":0,"last_update":"0001-01-01T00:00:00Z","name_a2s":"Uncletopia | Seattle | 2 | All Maps","protocol":17,"map":"pl_upward","folder":"tf","game":"Team Fortress","app_id":440,"player_count":24,"max_players":24,"Bots":0,"server_type":"Dedicated","server_os":"Linux","password":true,"vac":true,"version":"7742253","steam_id":85568392924469998,"keywords":["nocrits","nodmgspread","payload","uncletopia"],"game_id":440,"stv_port":27026,"stv_name":"Uncletopia | Seattle | 2 | All Maps | STV","players":[{"user_id":124,"name":"Sweets","steam_id":76561198998446307,"connected_time":5572000000000,"state":"active","ping":69},{"user_id":160,"name":"scarfhero","steam_id":76561198257541502,"connected_time":1798000000000,"state":"active","ping":57},{"user_id":161,"name":"wait santa fake?","steam_id":76561198393150085,"connected_time":1787000000000,"state":"active","ping":118},{"user_id":181,"name":"SomeGuyWhoLikesPotatoes","steam_id":76561198110276797,"connected_time":471000000000,"state":"active","ping":48},{"user_id":159,"name":"Uncle Ulysses","steam_id":76561198043929070,"connected_time":1806000000000,"state":"active","ping":73},{"user_id":177,"name":"Buttsteak123","steam_id":76561198166558900,"connected_time":882000000000,"state":"active","ping":94},{"user_id":170,"name":"Honeybunch","steam_id":76561198014850580,"connected_time":1215000000000,"state":"active","ping":44},{"user_id":178,"name":"Cato Sicarius","steam_id":76561198185598330,"connected_time":862000000000,"state":"active","ping":126},{"user_id":165,"name":"CassandraRC7 (She/her)","steam_id":76561198094123940,"connected_time":1616000000000,"state":"active","ping":107},{"user_id":166,"name":"butter churner","steam_id":76561198161824724,"connected_time":1561000000000,"state":"active","ping":120},{"user_id":158,"name":"big bang attack","steam_id":76561198886203540,"connected_time":2339000000000,"state":"active","ping":62},{"user_id":179,"name":"Mak","steam_id":76561198089197922,"connected_time":831000000000,"state":"active","ping":47},{"user_id":182,"name":"SlothWrangler","steam_id":76561198131322716,"connected_time":216000000000,"state":"active","ping":45},{"user_id":184,"name":"cielael","steam_id":76561198043971956,"connected_time":175000000000,"state":"active","ping":80},{"user_id":150,"name":"radicalPolio","steam_id":76561197961561855,"connected_time":3091000000000,"state":"active","ping":93},{"user_id":132,"name":"General Fisticuffs","steam_id":76561198255721392,"connected_time":4514000000000,"state":"active","ping":117},{"user_id":180,"name":"some nerd","steam_id":76561198297272878,"connected_time":663000000000,"state":"active","ping":67},{"user_id":185,"name":"What are you doing?!","steam_id":76561198405248691,"connected_time":150000000000,"state":"active","ping":69},{"user_id":154,"name":"MeatBeater","steam_id":76561198346410032,"connected_time":2850000000000,"state":"active","ping":89},{"user_id":111,"name":"Rusty","steam_id":76561198055585129,"connected_time":6596000000000,"state":"active","ping":45},{"user_id":126,"name":"Squid121","steam_id":76561198038832034,"connected_time":5491000000000,"state":"active","ping":49},{"user_id":148,"name":"[Bandit]","steam_id":76561197986919852,"connected_time":3320000000000,"state":"active","ping":49},{"user_id":149,"name":"lunii","steam_id":76561198406252824,"connected_time":3175000000000,"state":"active","ping":50},{"user_id":175,"name":"en.wikipedia.org/wiki/Nae_Nae","steam_id":76561198418288939,"connected_time":1071000000000,"state":"active","ping":68}]},{"server_id":406,"name":"Uncletopia | Seattle | 3 | Stopwatch Beta","name_short":"sea-3","host":"sea-1.us.uncletopia.com","port":27035,"enabled":true,"region":"us-west","cc":"us","latitude":47.608013,"longitude":-122.33517,"reserved":0,"last_update":"0001-01-01T00:00:00Z","name_a2s":"Uncletopia | Seattle | 3 | Stopwatch Beta","protocol":17,"map":"cp_altitude","folder":"tf","game":"Team Fortress","app_id":440,"player_count":0,"max_players":24,"Bots":0,"server_type":"Dedicated","server_os":"Linux","password":true,"vac":true,"version":"7742253","steam_id":85568392924515217,"keywords":["cp","nocrits","nodmgspread","uncletopia"],"game_id":440,"stv_port":27036,"stv_name":"Uncletopia | Seattle | 3 | Stopwatch Beta | STV","players":null},{"server_id":17,"name":"Uncletopia | San Francisco | 1 | All Maps","name_short":"sfo-1","host":"sfo-1.us.uncletopia.com","port":27015,"enabled":true,"region":"us-west","cc":"us","latitude":37.77397,"longitude":-122.4313,"reserved":0,"last_update":"0001-01-01T00:00:00Z","name_a2s":"Uncletopia | San Francisco | 1 | All Maps","protocol":17,"map":"pl_borneo","folder":"tf","game":"Team Fortress","app_id":440,"player_count":0,"max_players":24,"Bots":0,"server_type":"Dedicated","server_os":"Linux","password":true,"vac":true,"version":"7742253","steam_id":85568392924469999,"keywords":["nocrits","nodmgspread","payload","uncletopia"],"game_id":440,"stv_port":27016,"stv_name":"Uncletopia | San Francisco | 1 | All Maps | STV","players":null},{"server_id":18,"name":"Uncletopia | San Francisco | 2 | All Maps","name_short":"sfo-2","host":"sfo-1.us.uncletopia.com","port":27025,"enabled":true,"region":"us-west","cc":"us","latitude":37.77397,"longitude":-122.4313,"reserved":0,"last_update":"0001-01-01T00:00:00Z","name_a2s":"Uncletopia | San Francisco | 2 | All Maps","protocol":17,"map":"pl_barnblitz","folder":"tf","game":"Team Fortress","app_id":440,"player_count":0,"max_players":24,"Bots":0,"server_type":"Dedicated","server_os":"Linux","password":true,"vac":true,"version":"7742253","steam_id":85568392924470000,"keywords":["nocrits","nodmgspread","payload","uncletopia"],"game_id":440,"stv_port":27026,"stv_name":"Uncletopia | San Francisco | 2 | All Maps | STV","players":null},{"server_id":19,"name":"Uncletopia | San Francisco | 3 | Stopwatch Beta","name_short":"sfo-3","host":"sfo-1.us.uncletopia.com","port":27035,"enabled":true,"region":"us-west","cc":"us","latitude":37.77397,"longitude":-122.4313,"reserved":0,"last_update":"0001-01-01T00:00:00Z","name_a2s":"Uncletopia | San Francisco | 3 | Stopwatch Beta","protocol":17,"map":"cp_sunshine","folder":"tf","game":"Team Fortress","app_id":440,"player_count":0,"max_players":24,"Bots":0,"server_type":"Dedicated","server_os":"Linux","password":true,"vac":true,"version":"7742253","steam_id":85568392924742824,"keywords":["cp","nocrits","nodmgspread","uncletopia"],"game_id":440,"stv_port":27036,"stv_name":"Uncletopia | San Francisco | 3 | Stopwatch Beta | STV","players":null},{"server_id":20,"name":"Uncletopia | San Francisco | 4 | Community","name_short":"sfo-4","host":"sfo-1.us.uncletopia.com","port":27045,"enabled":true,"region":"us-west","cc":"us","latitude":37.77397,"longitude":-122.4313,"reserved":0,"last_update":"0001-01-01T00:00:00Z","name_a2s":"Uncletopia | San Francisco | 4 | Community","protocol":17,"map":"cp_dustbowl","folder":"tf","game":"Team Fortress","app_id":440,"player_count":0,"max_players":24,"Bots":0,"server_type":"Dedicated","server_os":"Linux","password":true,"vac":true,"version":"7742253","steam_id":85568392924742826,"keywords":["cp","nocrits","nodmgspread","uncletopia"],"game_id":440,"stv_port":27046,"stv_name":"Uncletopia | San Francisco | 4 | Community | STV","players":null},{"server_id":141,"name":"Uncletopia | Sydney | 1 | All Maps","name_short":"syd-1","host":"syd-1.au.uncletopia.com","port":27015,"enabled":true,"region":"au","cc":"au","latitude":-33.865143,"longitude":151.2099,"reserved":0,"last_update":"0001-01-01T00:00:00Z","name_a2s":"Uncletopia | Sydney | 1 | All Maps","protocol":17,"map":"koth_lakeside_final","folder":"tf","game":"Team Fortress","app_id":440,"player_count":0,"max_players":24,"Bots":0,"server_type":"Dedicated","server_os":"Linux","password":true,"vac":true,"version":"7742253","steam_id":85568392924470001,"keywords":["cp","nocrits","nodmgspread","uncletopia"],"game_id":440,"stv_port":27016,"stv_name":"Uncletopia | Sydney | 1 | All Maps | STV","players":null},{"server_id":123,"name":"Uncletopia | Sydney | 2 | All Maps","name_short":"syd-2","host":"syd-1.au.uncletopia.com","port":27025,"enabled":true,"region":"au","cc":"au","latitude":-33.865143,"longitude":151.2099,"reserved":0,"last_update":"0001-01-01T00:00:00Z","name_a2s":"Uncletopia | Sydney | 2 | All Maps","protocol":17,"map":"pl_badwater","folder":"tf","game":"Team Fortress","app_id":440,"player_count":0,"max_players":24,"Bots":0,"server_type":"Dedicated","server_os":"Linux","password":true,"vac":true,"version":"7742253","steam_id":85568392924470002,"keywords":["nocrits","nodmgspread","payload","uncletopia"],"game_id":440,"stv_port":27026,"stv_name":"Uncletopia | Sydney | 2 | All Maps | STV","players":null},{"server_id":395,"name":"Uncletopia | Sydney | 3 | All Maps","name_short":"syd-3","host":"syd-1.au.uncletopia.com","port":27035,"enabled":true,"region":"au","cc":"au","latitude":-33.865143,"longitude":151.2099,"reserved":0,"last_update":"0001-01-01T00:00:00Z","name_a2s":"Uncletopia | Sydney | 3 | All Maps","protocol":17,"map":"koth_viaduct","folder":"tf","game":"Team Fortress","app_id":440,"player_count":0,"max_players":24,"Bots":0,"server_type":"Dedicated","server_os":"Linux","password":true,"vac":true,"version":"7742253","steam_id":85568392925194467,"keywords":["cp","nocrits","nodmgspread","uncletopia"],"game_id":440,"stv_port":27036,"stv_name":"Uncletopia | Sydney | 3 | All Maps | STV","players":null},{"server_id":396,"name":"Uncletopia | Sydney | 4 | All Maps","name_short":"syd-4","host":"syd-1.au.uncletopia.com","port":27045,"enabled":true,"region":"au","cc":"au","latitude":-33.865143,"longitude":151.2099,"reserved":0,"last_update":"0001-01-01T00:00:00Z","name_a2s":"Uncletopia | Sydney | 4 | All Maps","protocol":17,"map":"pl_frontier_final","folder":"tf","game":"Team Fortress","app_id":440,"player_count":0,"max_players":24,"Bots":0,"server_type":"Dedicated","server_os":"Linux","password":true,"vac":true,"version":"7742253","steam_id":85568392925397958,"keywords":["nocrits","nodmgspread","payload","uncletopia"],"game_id":440,"stv_port":27046,"stv_name":"Uncletopia | Sydney | 4 | All Maps | STV","players":null},{"server_id":58,"name":"Uncletopia | Sydney | 5 | Stopwatch Beta","name_short":"syd-5","host":"syd-1.au.uncletopia.com","port":27055,"enabled":true,"region":"au","cc":"au","latitude":-33.865143,"longitude":151.2099,"reserved":0,"last_update":"0001-01-01T00:00:00Z","name_a2s":"Uncletopia | Sydney | 5 | Stopwatch Beta","protocol":17,"map":"cp_sunshine","folder":"tf","game":"Team Fortress","app_id":440,"player_count":0,"max_players":24,"Bots":0,"server_type":"Dedicated","server_os":"Linux","password":true,"vac":true,"version":"7742253","steam_id":85568392925397959,"keywords":["cp","nocrits","nodmgspread","uncletopia"],"game_id":440,"stv_port":27056,"stv_name":"Uncletopia | Sydney | 5 | Stopwatch Beta | STV","players":null},{"server_id":59,"name":"Uncletopia | Sydney | 6 | Community","name_short":"syd-6","host":"syd-1.au.uncletopia.com","port":27065,"enabled":true,"region":"au","cc":"au","latitude":-33.865143,"longitude":151.2099,"reserved":0,"last_update":"0001-01-01T00:00:00Z","name_a2s":"Uncletopia | Sydney | 6 | Community","protocol":17,"map":"cp_dustbowl","folder":"tf","game":"Team Fortress","app_id":440,"player_count":0,"max_players":24,"Bots":0,"server_type":"Dedicated","server_os":"Linux","password":true,"vac":true,"version":"7742253","steam_id":85568392925397960,"keywords":["cp","nocrits","nodmgspread","uncletopia"],"game_id":440,"stv_port":27066,"stv_name":"Uncletopia | Sydney | 6 | Community | STV","players":null},{"server_id":49,"name":"Uncletopia | Warsaw | 1 | All Maps","name_short":"waw-1","host":"waw-1.pl.uncletopia.com","port":27015,"enabled":true,"region":"eu","cc":"pl","latitude":52.2297,"longitude":21.017532,"reserved":0,"last_update":"0001-01-01T00:00:00Z","name_a2s":"","protocol":0,"map":"","folder":"","game":"","app_id":0,"player_count":0,"max_players":0,"Bots":0,"server_type":"","server_os":"","password":false,"vac":false,"version":"","steam_id":0,"keywords":null,"game_id":0,"stv_port":0,"stv_name":"","players":null},{"server_id":50,"name":"Uncletopia | Warsaw | 2 | All Maps","name_short":"waw-2","host":"waw-1.pl.uncletopia.com","port":27025,"enabled":true,"region":"eu","cc":"pl","latitude":52.2297,"longitude":21.017532,"reserved":0,"last_update":"0001-01-01T00:00:00Z","name_a2s":"Uncletopia | Warsaw | 2 | All Maps","protocol":17,"map":"koth_highpass","folder":"tf","game":"Team Fortress","app_id":440,"player_count":0,"max_players":24,"Bots":0,"server_type":"Dedicated","server_os":"Linux","password":true,"vac":true,"version":"7742253","steam_id":85568392925397851,"keywords":["cp","nocrits","nodmgspread","uncletopia"],"game_id":440,"stv_port":27026,"stv_name":"Uncletopia | Warsaw | 2 | All Maps | STV","players":null},{"server_id":51,"name":"Uncletopia | Warsaw | 3 | All Maps","name_short":"waw-3","host":"waw-1.pl.uncletopia.com","port":27035,"enabled":true,"region":"eu","cc":"pl","latitude":52.2297,"longitude":21.017532,"reserved":0,"last_update":"0001-01-01T00:00:00Z","name_a2s":"Uncletopia | Warsaw | 3 | All Maps","protocol":17,"map":"koth_harvest_final","folder":"tf","game":"Team Fortress","app_id":440,"player_count":0,"max_players":24,"Bots":0,"server_type":"Dedicated","server_os":"Linux","password":true,"vac":true,"version":"7742253","steam_id":85568392925397852,"keywords":["cp","nocrits","nodmgspread","uncletopia"],"game_id":440,"stv_port":27036,"stv_name":"Uncletopia | Warsaw | 3 | All Maps | STV","players":null},{"server_id":52,"name":"Uncletopia | Warsaw | 4 | All Maps","name_short":"waw-4","host":"waw-1.pl.uncletopia.com","port":27045,"enabled":true,"region":"eu","cc":"pl","latitude":52.2297,"longitude":21.017532,"reserved":0,"last_update":"0001-01-01T00:00:00Z","name_a2s":"Uncletopia | Warsaw | 4 | All Maps","protocol":17,"map":"pl_snowycoast","folder":"tf","game":"Team Fortress","app_id":440,"player_count":0,"max_players":24,"Bots":0,"server_type":"Dedicated","server_os":"Linux","password":true,"vac":true,"version":"7742253","steam_id":85568392925397853,"keywords":["nocrits","nodmgspread","payload","uncletopia"],"game_id":440,"stv_port":27046,"stv_name":"Uncletopia | Warsaw | 4 | All Maps | STV","players":null},{"server_id":53,"name":"Uncletopia | Warsaw | 5 | Stopwatch Beta","name_short":"waw-5","host":"waw-1.pl.uncletopia.com","port":27055,"enabled":true,"region":"eu","cc":"pl","latitude":52.2297,"longitude":21.017532,"reserved":0,"last_update":"0001-01-01T00:00:00Z","name_a2s":"Uncletopia | Warsaw | 5 | Stopwatch Beta","protocol":17,"map":"pl_swiftwater_final1","folder":"tf","game":"Team Fortress","app_id":440,"player_count":0,"max_players":24,"Bots":0,"server_type":"Dedicated","server_os":"Linux","password":true,"vac":true,"version":"7742253","steam_id":85568392925397854,"keywords":["nocrits","nodmgspread","payload","uncletopia"],"game_id":440,"stv_port":27056,"stv_name":"Uncletopia | Warsaw | 5 | Stopwatch Beta | STV","players":null},{"server_id":54,"name":"Uncletopia | Warsaw | 6 | Community","name_short":"waw-6","host":"waw-1.pl.uncletopia.com","port":27065,"enabled":true,"region":"eu","cc":"pl","latitude":52.2297,"longitude":21.017532,"reserved":0,"last_update":"0001-01-01T00:00:00Z","name_a2s":"Uncletopia | Warsaw | 6 | Community","protocol":17,"map":"workshop/koth_slaughter_rc1.ugc1712845210","folder":"tf","game":"Team Fortress","app_id":440,"player_count":0,"max_players":24,"Bots":0,"server_type":"Dedicated","server_os":"Linux","password":true,"vac":true,"version":"7742253","steam_id":85568392925397856,"keywords":["cp","nocrits","nodmgspread","uncletopia"],"game_id":440,"stv_port":27066,"stv_name":"Uncletopia | Warsaw | 6 | Community | STV","players":null}]}