{"status":true,"message":"","result":[{"server_id":9,"name":"Uncletopia | Atlanta | 1 | All Maps","name_short":"atl-1","host":"atl-1.us.uncletopia.com","port":27015,"enabled":true,"region":"us-east","cc":"us","latitude":33.753746,"longitude":-84.38633,"reserved":0,"last_update":"0001-01-01T00:00:00Z","name_a2s":"Uncletopia | Atlanta | 1 | All Maps","protocol":17,"map":"cp_snakewater_final1","folder":"tf","game":"Team Fortress","app_id":440,"player_count":0,"max_players":24,"Bots":0,"server_type":"Dedicated","server_os":"Linux","password":true,"vac":true,"version":"7961495","steam_id":85568392924469982,"keywords":["cp","nocrits","nodmgspread","uncletopia"],"game_id":440,"stv_port":27016,"stv_name":"Uncletopia | Atlanta | 1 | All Maps | STV","players":null},{"server_id":104,"name":"Uncletopia | Atlanta | 2 | All Maps","name_short":"atl-2","host":"atl-1.us.uncletopia.com","port":27025,"enabled":true,"region":"us-east","cc":"us","latitude":33.753746,"longitude":-84.38633,"reserved":0,"last_update":"0001-01-01T00:00:00Z","name_a2s":"Uncletopia | Atlanta | 2 | All Maps","protocol":17,"map":"koth_cascade","folder":"tf","game":"Team Fortress","app_id":440,"player_count":0,"max_players":24,"Bots":0,"server_type":"Dedicated","server_os":"Linux","password":true,"vac":true,"version":"7961495","steam_id":85568392924469983,"keywords":["cp","nocrits","nodmgspread","uncletopia"],"game_id":440,"stv_port":27026,"stv_name":"Uncletopia | Atlanta | 2 | All Maps | STV","players":null},{"server_id":400,"name":"Uncletopia | Atlanta | 3 | All Maps","name_short":"atl-3","host":"atl-1.us.uncletopia.com","port":27035,"enabled":true,"region":"us-east","cc":"us","latitude":33.753746,"longitude":-84.38633,"reserved":0,"last_update":"0001-01-01T00:00:00Z","name_a2s":"Uncletopia | Atlanta | 3 | All Maps","protocol":17,"map":"pl_badwater","folder":"tf","game":"Team Fortress","app_id":440,"player_count":22,"max_players":24,"Bots":0,"server_type":"Dedicated","server_os":"Linux","password":true,"vac":true,"version":"7961495","steam_id":85568392924515187,"keywords":["nocrits","nodmgspread","payload","uncletopia"],"game_id":440,"stv_port":27036,"stv_name":"Uncletopia | Atlanta | 3 | All Maps | STV","players":null},{"server_id":401,"name":"Uncletopia | Atlanta | 4 | Community","name_short":"atl-4","host":"atl-1.us.uncletopia.com","port":27045,"enabled":true,"region":"us-east","cc":"us","latitude":33.753746,"longitude":-84.38633,"reserved":0,"last_update":"0001-01-01T00:00:00Z","name_a2s":"Uncletopia | Atlanta | 4 | Community","protocol":17,"map":"koth_cascade","folder":"tf","game":"Team Fortress","app_id":440,"player_count":0,"max_players":24,"Bots":0,"server_type":"Dedicated","server_os":"Linux","password":true,"vac":true,"version":"7961495","steam_id":85568392924515188,"keywords":["cp","nocrits","nodmgspread","uncletopia"],"game_id":440,"stv_port":27046,"stv_name":"Uncletopia | Atlanta | 4 | Community | STV","players":null},{"server_id":2,"name":"Uncletopia | Chicago | 1 | All Maps","name_short":"chi-1","host":"chi-1.us.uncletopia.com","port":27015,"enabled":true,"region":"us-central","cc":"us","latitude":41.881832,"longitude":-87.62318,"reserved":0,"last_update":"0001-01-01T00:00:00Z","name_a2s":"Uncletopia | Chicago | 1 | All Maps","protocol":17,"map":"pl_frontier_final","folder":"tf","game":"Team Fortress","app_id":440,"player_count":24,"max_players":24,"Bots":0,"server_type":"Dedicated","server_os":"Linux","password":true,"vac":true,"version":"7961495","steam_id":85568392924469984,"keywords":["nocrits","nodmgspread","payload","uncletopia"],"game_id":440,"stv_port":27016,"stv_name":"Uncletopia | Chicago | 1 | All Maps | STV","players":[{"user_id":676,"name":"Draconic Ballad","steam_id":76561198027191515,"connected_time":32000000000,"state":"active","ping":47},{"user_id":649,"name":"Manchurian Bandit","steam_id":76561198072410042,"connected_time":1315000000000,"state":"active","ping":102},{"user_id":669,"name":"El Bozo","steam_id":76561198010370396,"connected_time":662000000000,"state":"active","ping":45},{"user_id":648,"name":"whimsical little creature","steam_id":76561198271710504,"connected_time":1322000000000,"state":"active","ping":56},{"user_id":672,"name":"Stranger in a Strange Land","steam_id":76561198049843671,"connected_time":208000000000,"state":"active","ping":61},{"user_id":639,"name":"AdorableMew","steam_id":76561198186706405,"connected_time":2616000000000,"state":"active","ping":72},{"user_id":670,"name":"Sir Real with Milk","steam_id":76561198090356880,"connected_time":278000000000,"state":"active","ping":42},{"user_id":651,"name":"ã‹› countblanc","steam_id":76561197993171771,"connected_time":1296000000000,"state":"active","ping":57},{"user_id":640,"name":"Lucky","steam_id":76561198418262145,"connected_time":2506000000000,"state":"active","ping":117},{"user_id":646,"name":"workin for snapple","steam_id":76561198013732450,"connected_time":1523000000000,"state":"active","ping":51},{"user_id":666,"name":"wow120000000000000098","steam_id":76561198016826181,"connected_time":1016000000000,"state":"active","ping":68},{"user_id":602,"name":"Preacher","steam_id":76561198022215764,"connected_time":4821000000000,"state":"active","ping":71},{"user_id":664,"name":"mistral","steam_id":76561198883415090,"connected_time":1065000000000,"state":"active","ping":104},{"user_id":660,"name":"Anger","steam_id":76561198206494752,"connected_time":1224000000000,"state":"active","ping":83},{"user_id":671,"name":"Doctor Emerald(real)","steam_id":76561199123003872,"connected_time":275000000000,"state":"active","ping":93},{"user_id":655,"name":"kolbeinnskagfjord","steam_id":76561199270894004,"connected_time":1288000000000,"state":"active","ping":177},{"user_id":603,"name":"Swiftmend","steam_id":76561197995595692,"connected_time":4460000000000,"state":"active","ping":76},{"user_id":656,"name":"windyme","steam_id":76561198193819986,"connected_time":1284000000000,"state":"active","ping":81},{"user_id":674,"name":"rad killl raccoon","steam_id":76561198980975595,"connected_time":173000000000,"state":"active","ping":120},{"user_id":641,"name":"Pattar","steam_id":76561198146276146,"connected_time":2320000000000,"state":"active","ping":60},{"user_id":662,"name":"creal","steam_id":76561198127116199,"connected_time":1182000000000,"state":"active","ping":57},{"user_id":665,"name":"Vegerot","steam_id":76561197997843710,"connected_time":1059000000000,"state":"active","ping":63},{"user_id":663,"name":"chiswola","steam_id":76561198046920142,"connected_time":1180000000000,"state":"active","ping":88},{"user_id":678,"name":"goose","steam_id":76561198367551668,"connected_time":30000000000,"state":"active","ping":60}]},{"server_id":106,"name":"Uncletopia | Chicago | 2 | All Maps","name_short":"chi-2","host":"chi-1.us.uncletopia.com","port":27025,"enabled":true,"region":"us-central","cc":"us","latitude":41.881832,"longitude":-87.62318,"reserved":0,"last_update":"0001-01-01T00:00:00Z","name_a2s":"Uncletopia | Chicago | 2 | All Maps","protocol":17,"map":"koth_lakeside_final","folder":"tf","game":"Team Fortress","app_id":440,"player_count":14,"max_players":24,"Bots":0,"server_type":"Dedicated","server_os":"Linux","password":true,"vac":true,"version":"7961495","steam_id":85568392924469985,"keywords":["cp","nocrits","nodmgspread","uncletopia"],"game_id":440,"stv_port":27026,"stv_name":"Uncletopia | Chicago | 2 | All Maps | STV","players":[{"user_id":22,"name":"i suffer from ligma","steam_id":76561199158496518,"connected_time":824000000000,"state":"active","ping":116},{"user_id":27,"name":"Evaporated_373k","steam_id":76561199435266743,"connected_time":459000000000,"state":"active","ping":90},{"user_id":28,"name":"Furbo","steam_id":76561198035612283,"connected_time":457000000000,"state":"active","ping":82},{"user_id":24,"name":"the epiccgaemar","steam_id":76561198804408996,"connected_time":668000000000,"state":"active","ping":76},{"user_id":40,"name":"phoenix.","steam_id":76561198993853483,"connected_time":15000000000,"state":"active","ping":82},{"user_id":35,"name":"bookreader","steam_id":76561198978568007,"connected_time":205000000000,"state":"active","ping":50},{"user_id":30,"name":"Vizier","steam_id":76561198880503885,"connected_time":413000000000,"state":"active","ping":71},{"user_id":31,"name":"Lord_of_Happy_Death","steam_id":76561198880762204,"connected_time":351000000000,"state":"active","ping":70},{"user_id":33,"name":"homeless pyro gaming (official)","steam_id":76561198870068763,"connected_time":315000000000,"state":"active","ping":78},{"user_id":36,"name":"melvinsaurus56430","steam_id":76561198170276601,"connected_time":184000000000,"state":"active","ping":84},{"user_id":37,"name":"Lawrence Pemberton","steam_id":76561198180863090,"connected_time":161000000000,"state":"active","ping":80},{"user_id":38,"name":"pong_","steam_id":76561198166982558,"connected_time":145000000000,"state":"active","ping":83},{"user_id":39,"name":"eat Pant","steam_id":76561197974965536,"connected_time":41000000000,"state":"active","ping":61},{"user_id":41,"name":"Evenaris","steam_id":76561198087544319,"connected_time":14000000000,"state":"spawning","ping":95}]},{"server_id":402,"name":"Uncletopia | Chicago | 3 | All Maps","name_short":"chi-3","host":"chi-1.us.uncletopia.com","port":27035,"enabled":true,"region":"us-central","cc":"us","latitude":41.881832,"longitude":-87.62318,"reserved":0,"last_update":"0001-01-01T00:00:00Z","name_a2s":"Uncletopia | Chicago | 3 | All Maps","protocol":17,"map":"cp_mountainlab","folder":"tf","game":"Team Fortress","app_id":440,"player_count":23,"max_players":24,"Bots":0,"server_type":"Dedicated","server_os":"Linux","password":true,"vac":true,"version":"7961495","steam_id":85568392924515191,"keywords":["cp","nocrits","nodmgspread","uncletopia"],"game_id":440,"stv_port":27036,"stv_name":"Uncletopia | Chicago | 3 | All Maps | STV","players":[{"user_id":499,"name":"thunderous prophet","steam_id":76561198131166135,"connected_time":247000000000,"state":"active","ping":81},{"user_id":464,"name":"playguy carter","steam_id":76561198080679337,"connected_time":2457000000000,"state":"active","ping":46},{"user_id":455,"name":"Fraglin","steam_id":76561198124964000,"connected_time":3235000000000,"state":"active","ping":66},{"user_id":430,"name":"Word To Your Mothership","steam_id":76561198034329138,"connected_time":5216000000000,"state":"active","ping":93},{"user_id":467,"name":"pinky","steam_id":76561199109784776,"connected_time":2304000000000,"state":"active","ping":55},{"user_id":490,"name":"Toast","steam_id":76561199207957224,"connected_time":606000000000,"state":"active","ping":70},{"user_id":458,"name":"Predicta","steam_id":76561198017630616,"connected_time":2925000000000,"state":"active","ping":46},{"user_id":478,"name":"Fobby #Savetf2","steam_id":76561198047681469,"connected_time":1507000000000,"state":"active","ping":121},{"user_id":466,"name":"Easey","steam_id":76561198230316868,"connected_time":2354000000000,"state":"active","ping":62},{"user_id":485,"name":"disengage","steam_id":76561197992499738,"connected_time":639000000000,"state":"active","ping":64},{"user_id":483,"name":"Blake...","steam_id":76561198064090974,"connected_time":650000000000,"state":"active","ping":86},{"user_id":475,"name":"Saggy Haggis Balls","steam_id":76561198047845399,"connected_time":2239000000000,"state":"active","ping":68},{"user_id":486,"name":"washing machine","steam_id":76561198871594476,"connected_time":633000000000,"state":"active","ping":68},{"user_id":500,"name":"Comfy!","steam_id":76561198008818346,"connected_time":188000000000,"state":"active","ping":63},{"user_id":477,"name":"ameritech","steam_id":76561198064769089,"connected_time":1508000000000,"state":"active","ping":57},{"user_id":488,"name":"Burf","steam_id":76561198019341161,"connected_time":627000000000,"state":"active","ping":65},{"user_id":494,"name":"DinkleBerg","steam_id":76561198891626233,"connected_time":461000000000,"state":"active","ping":62},{"user_id":497,"name":"Soup","steam_id":76561198079000665,"connected_time":310000000000,"state":"active","ping":57},{"user_id":492,"name":"McCambell","steam_id":76561198020194378,"connected_time":590000000000,"state":"active","ping":70},{"user_id":501,"name":"thatguy_luigi","steam_id":76561198968055462,"connected_time":137000000000,"state":"active","ping":131},{"user_id":382,"name":"Lia_Rein","steam_id":76561198151569597,"connected_time":7913000000000,"state":"active","ping":197},{"user_id":495,"name":"Terminally Ill Downie Brownie","steam_id":76561198356484354,"connected_time":403000000000,"state":"active","ping":128},{"user_id":480,"name":"Jatt","steam_id":76561198822011219,"connected_time":1317000000000,"state":"active","ping":76}]},{"server_id":403,"name":"Uncletopia | Chicago | 4 | All Maps","name_short":"chi-4","host":"chi-1.us.uncletopia.com","port":27045,"enabled":true,"region":"us-central","cc":"us","latitude":41.881832,"longitude":-87.62318,"reserved":0,"last_update":"0001-01-01T00:00:00Z","name_a2s":"Uncletopia | Chicago | 4 | All Maps","protocol":17,"map":"koth_lakeside_final","folder":"tf","game":"Team Fortress","app_id":440,"player_count":23,"max_players":24,"Bots":0,"server_type":"Dedicated","server_os":"Linux","password":true,"vac":true,"version":"7961495","steam_id":85568392924515193,"keywords":["cp","nocrits","nodmgspread","uncletopia"],"game_id":440,"stv_port":27046,"stv_name":"Uncletopia | Chicago | 4 | All Maps | STV","players":[{"user_id":348,"name":"$0.18","steam_id":76561198360134800,"connected_time":798000000000,"state":"active","ping":72},{"user_id":361,"name":"nyanyaemon!","steam_id":76561198201365621,"connected_time":163000000000,"state":"active","ping":44},{"user_id":359,"name":"Treeckogeek","steam_id":76561198453328078,"connected_time":330000000000,"state":"active","ping":77},{"user_id":365,"name":"Sovereign","steam_id":76561198018841787,"connected_time":1000000000,"state":"spawning","ping":54},{"user_id":330,"name":"Tax_Collector","steam_id":76561198990505496,"connected_time":3414000000000,"state":"active","ping":92},{"user_id":306,"name":"Adum","steam_id":76561198181162382,"connected_time":4706000000000,"state":"active","ping":58},{"user_id":351,"name":"flwrgrl","steam_id":76561198815644949,"connected_time":786000000000,"state":"active","ping":53},{"user_id":352,"name":"brian damage","steam_id":76561198118455606,"connected_time":780000000000,"state":"active","ping":48},{"user_id":331,"name":"Itichi","steam_id":76561199132533506,"connected_time":3103000000000,"state":"active","ping":69},{"user_id":360,"name":"Mr Nibbles","steam_id":76561198189426870,"connected_time":233000000000,"state":"active","ping":46},{"user_id":346,"name":"Furniture Living Set $299","steam_id":76561198077756206,"connected_time":1839000000000,"state":"active","ping":129},{"user_id":354,"name":"Cusven","steam_id":76561198319658526,"connected_time":777000000000,"state":"active","ping":56},{"user_id":355,"name":"DrNook","steam_id":76561198074626309,"connected_time":763000000000,"state":"active","ping":83},{"user_id":317,"name":"RightWardDust92","steam_id":76561198264763608,"connected_time":4011000000000,"state":"active","ping":93},{"user_id":345,"name":"Not_Douglas","steam_id":76561199024184136,"connected_time":1892000000000,"state":"active","ping":56},{"user_id":356,"name":"aversa","steam_id":76561198840460101,"connected_time":762000000000,"state":"active","ping":84},{"user_id":362,"name":"a table","steam_id":76561198158461279,"connected_time":137000000000,"state":"active","ping":56},{"user_id":357,"name":"Yung Boosie Badazzz","steam_id":76561198079416065,"connected_time":748000000000,"state":"active","ping":70},{"user_id":323,"name":"Trundle","steam_id":76561198005548044,"connected_time":3622000000000,"state":"active","ping":64},{"user_id":337,"name":"Frostwind","steam_id":76561198152611087,"connected_time":2574000000000,"state":"active","ping":112},{"user_id":342,"name":"Am I Good At The Video Game?","steam_id":76561198046053281,"connected_time":2389000000000,"state":"active","ping":68},{"user_id":363,"name":"rwrangler05","steam_id":76561198922899122,"connected_time":73000000000,"state":"active","ping":96},{"user_id":326,"name":"WhiteRabbit","steam_id":76561198027579538,"connected_time":3465000000000,"state":"active","ping":61}]},{"server_id":36,"name":"Uncletopia | Chicago | 5 | All Maps","name_short":"chi-5","host":"chi-2.us.uncletopia.com","port":27015,"enabled":true,"region":"us-central","cc":"us","latitude":41.881832,"longitude":-87.62318,"reserved":0,"last_update":"0001-01-01T00:00:00Z","name_a2s":"Uncletopia | Chicago | 5 | All Maps","protocol":17,"map":"cp_snakewater_final1","folder":"tf","game":"Team Fortress","app_id":440,"player_count":24,"max_players":24,"Bots":0,"server_type":"Dedicated","server_os":"Linux","password":true,"vac":true,"version":"7961495","steam_id":85568392924866362,"keywords":["cp","nocrits","nodmgspread","uncletopia"],"game_id":440,"stv_port":27016,"stv_name":"Uncletopia | Chicago | 5 | All Maps | STV","players":[{"user_id":295,"name":"Dubious Adubio","steam_id":76561198442369067,"connected_time":328000000000,"state":"active","ping":72},{"user_id":272,"name":"RÃ¶ntgen","steam_id":76561197993492325,"connected_time":963000000000,"state":"active","ping":97},{"user_id":273,"name":"Magnifico Giganticus","steam_id":76561197984426746,"connected_time":951000000000,"state":"active","ping":69},{"user_id":274,"name":"joddson63","steam_id":76561198124576125,"connected_time":922000000000,"state":"active","ping":82},{"user_id":290,"name":"El-Chubbo","steam_id":76561198087889236,"connected_time":469000000000,"state":"active","ping":113},{"user_id":282,"name":"RickDaglessMD","steam_id":76561197985875169,"connected_time":585000000000,"state":"active","ping":102},{"user_id":280,"name":"Kaiju","steam_id":76561198035703156,"connected_time":620000000000,"state":"active","ping":52},{"user_id":275,"name":"bearly","steam_id":76561198094077510,"connected_time":896000000000,"state":"active","ping":52},{"user_id":297,"name":"Bird of Paradise","steam_id":76561198891152046,"connected_time":294000000000,"state":"active","ping":103},{"user_id":283,"name":"living in mushroom park","steam_id":76561198097588802,"connected_time":566000000000,"state":"active","ping":45},{"user_id":197,"name":"Hydroxianchaos","steam_id":76561198043786828,"connected_time":6820000000000,"state":"active","ping":64},{"user_id":267,"name":"Ibrahim","steam_id":76561198028320625,"connected_time":1389000000000,"state":"active","ping":70},{"user_id":284,"name":"steve french","steam_id":76561198040737975,"connected_time":559000000000,"state":"active","ping":60},{"user_id":255,"name":"bananalover5","steam_id":76561199143854578,"connected_time":2042000000000,"state":"active","ping":93},{"user_id":285,"name":"darkness consumes","steam_id":76561198048925904,"connected_time":535000000000,"state":"active","ping":117},{"user_id":301,"name":"Missing Minus","steam_id":76561198120822928,"connected_time":179000000000,"state":"active","ping":60},{"user_id":276,"name":"Null","steam_id":76561198062791227,"connected_time":881000000000,"state":"active","ping":75},{"user_id":277,"name":"Van Tastic","steam_id":76561198063855523,"connected_time":809000000000,"state":"active","ping":88},{"user_id":247,"name":"Christian Bonnie","steam_id":76561199194702127,"connected_time":2229000000000,"state":"active","ping":83},{"user_id":298,"name":"primordialheath","steam_id":76561199386942638,"connected_time":268000000000,"state":"active","ping":58},{"user_id":292,"name":"donkey","steam_id":76561198288539461,"connected_time":456000000000,"state":"active","ping":69},{"user_id":299,"name":"cecilcooper","steam_id":76561199486676318,"connected_time":229000000000,"state":"active","ping":65},{"user_id":302,"name":"A_Malebolgia","steam_id":76561198097722818,"connected_time":169000000000,"state":"active","ping":97},{"user_id":270,"name":"tasty","steam_id":76561198083839061,"connected_time":1092000000000,"state":"active","ping":49}]},{"server_id":37,"name":"Uncletopia | Chicago | 6 | All Maps","name_short":"chi-6","host":"chi-2.us.uncletopia.com","port":27025,"enabled":true,"region":"us-central","cc":"us","latitude":41.881832,"longitude":-87.62318,"reserved":0,"last_update":"0001-01-01T00:00:00Z","name_a2s":"Uncletopia | Chicago | 6 | All Maps","protocol":17,"map":"pl_borneo","folder":"tf","game":"Team Fortress","app_id":440,"player_count":24,"max_players":24,"Bots":0,"server_type":"Dedicated","server_os":"Linux","password":true,"vac":true,"version":"7961495","steam_id":85568392924866363,"keywords":["nocrits","nodmgspread","payload","uncletopia"],"game_id":440,"stv_port":27026,"stv_name":"Uncletopia | Chicago | 6 | All Maps | STV","players":[{"user_id":293,"name":"Phaze","steam_id":76561198025267071,"connected_time":2624000000000,"state":"active","ping":63},{"user_id":303,"name":"dirty30","steam_id":76561198021226566,"connected_time":1674000000000,"state":"active","ping":92},{"user_id":308,"name":"Poopisviel Von Einzbern","steam_id":76561198259260433,"connected_time":1383000000000,"state":"active","ping":85},{"user_id":287,"name":"crispylego_","steam_id":76561199453679719,"connected_time":2930000000000,"state":"active","ping":145},{"user_id":288,"name":"Nephi","steam_id":76561198031525122,"connected_time":2919000000000,"state":"active","ping":82},{"user_id":318,"name":"b","steam_id":76561198118211523,"connected_time":507000000000,"state":"active","ping":71},{"user_id":306,"name":"joelMMD","steam_id":76561198855834404,"connected_time":1653000000000,"state":"active","ping":70},{"user_id":246,"name":"LittleFieryOne","steam_id":76561198107463724,"connected_time":4585000000000,"state":"active","ping":59},{"user_id":321,"name":"sansa musa","steam_id":76561198163723555,"connected_time":57000000000,"state":"active","ping":64},{"user_id":270,"name":"frank","steam_id":76561198137777483,"connected_time":3888000000000,"state":"active","ping":61},{"user_id":298,"name":"vareh","steam_id":76561197993190926,"connected_time":2274000000000,"state":"active","ping":115},{"user_id":302,"name":"radicalPolio","steam_id":76561197961561855,"connected_time":1895000000000,"state":"active","ping":63},{"user_id":314,"name":"/HA","steam_id":76561198049901965,"connected_time":564000000000,"state":"active","ping":81},{"user_id":317,"name":"Epha","steam_id":76561198079379951,"connected_time":519000000000,"state":"active","ping":64},{"user_id":319,"name":"Quakedad","steam_id":76561198055811307,"connected_time":506000000000,"state":"active","ping":115},{"user_id":310,"name":"GruntRule","steam_id":76561198039987143,"connected_time":1247000000000,"state":"active","ping":84},{"user_id":260,"name":"dr peppah chug!","steam_id":76561198068835693,"connected_time":4180000000000,"state":"active","ping":99},{"user_id":277,"name":"Haveltherock27","steam_id":76561199219844391,"connected_time":3412000000000,"state":"active","ping":89},{"user_id":299,"name":"corned beef","steam_id":76561199366782761,"connected_time":2274000000000,"state":"active","ping":165},{"user_id":294,"name":"MrDudeMan","steam_id":76561198959351282,"connected_time":2623000000000,"state":"active","ping":74},{"user_id":320,"name":"UNRELIABLE TEAMMATE","steam_id":76561198063526102,"connected_time":482000000000,"state":"active","ping":83},{"user_id":315,"name":"grunting male","steam_id":76561198024657987,"connected_time":550000000000,"state":"active","ping":83},{"user_id":307,"name":"Lucon","steam_id":76561198067147724,"connected_time":1629000000000,"state":"active","ping":69},{"user_id":311,"name":"sophie","steam_id":76561198272979713,"connected_time":1146000000000,"state":"active","ping":71}]},{"server_id":38,"name":"Uncletopia | Chicago | 7 | Stopwatch Beta","name_short":"chi-7","host":"chi-2.us.uncletopia.com","port":27035,"enabled":true,"region":"us-central","cc":"us","latitude":41.881832,"longitude":-87.62318,"reserved":0,"last_update":"0001-01-01T00:00:00Z","name_a2s":"Uncletopia | Chicago | 7 | Stopwatch Beta","protocol":17,"map":"workshop/koth_product_final.ugc454272353","folder":"tf","game":"Team Fortress","app_id":440,"player_count":0,"max_players":24,"Bots":0,"server_type":"Dedicated","server_os":"Linux","password":true,"vac":true,"version":"7961495","steam_id":85568392924866364,"keywords":["cp","nocrits","nodmgspread","uncletopia"],"game_id":440,"stv_port":27036,"stv_name":"Uncletopia | Chicago | 7 | Stopwatch Beta | STV","players":null},{"server_id":39,"name":"Uncletopia | Chicago | 8 | Community","name_short":"chi-8","host":"chi-2.us.uncletopia.com","port":27045,"enabled":true,"region":"us-central","cc":"us","latitude":41.881832,"longitude":-87.62318,"reserved":0,"last_update":"0001-01-01T00:00:00Z","name_a2s":"Uncletopia | Chicago | 8 | Community","protocol":17,"map":"workshop/pl_emerge_rc2.ugc888027758","folder":"tf","game":"Team Fortress","app_id":440,"player_count":24,"max_players":24,"Bots":0,"server_type":"Dedicated","server_os":"Linux","password":true,"vac":true,"version":"7961495","steam_id":85568392924866365,"keywords":["nocrits","nodmgspread","payload","uncletopia"],"game_id":440,"stv_port":27046,"stv_name":"Uncletopia | Chicago | 8 | Community | STV","players":[{"user_id":374,"name":"dalehunter","steam_id":76561199158974920,"connected_time":972000000000,"state":"active","ping":99},{"user_id":244,"name":"Tom CrÃºaich","steam_id":76561197999439911,"connected_time":8625000000000,"state":"active","ping":74},{"user_id":379,"name":"Tenna","steam_id":76561198052020077,"connected_time":449000000000,"state":"active","ping":86},{"user_id":373,"name":"Gaming","steam_id":76561198107080532,"connected_time":980000000000,"state":"active","ping":70},{"user_id":366,"name":"Wiener Hole Paper Cut","steam_id":76561198000808203,"connected_time":1662000000000,"state":"active","ping":77},{"user_id":378,"name":"Gary","steam_id":76561199246023546,"connected_time":503000000000,"state":"active","ping":109},{"user_id":384,"name":"Grify","steam_id":76561198012292317,"connected_time":99000000000,"state":"active","ping":87},{"user_id":309,"name":"ZariaGalaxy","steam_id":76561198089441300,"connected_time":4043000000000,"state":"active","ping":70},{"user_id":383,"name":"Zorlovo","steam_id":76561198006443283,"connected_time":120000000000,"state":"active","ping":78},{"user_id":381,"name":"Wiscipline","steam_id":76561198019206178,"connected_time":231000000000,"state":"active","ping":78},{"user_id":371,"name":"Assitins","steam_id":76561198041572892,"connected_time":1477000000000,"state":"active","ping":76},{"user_id":376,"name":"2spooky","steam_id":76561198094747637,"connected_time":646000000000,"state":"active","ping":100},{"user_id":343,"name":"IAmAProfesonal","steam_id":76561199171858953,"connected_time":2395000000000,"state":"active","ping":48},{"user_id":321,"name":"Aldinach","steam_id":76561198079912615,"connected_time":3557000000000,"state":"active","ping":47},{"user_id":385,"name":"drwwby","steam_id":76561198067741339,"connected_time":61000000000,"state":"active","ping":52},{"user_id":386,"name":"Tony Pizza","steam_id":76561198276513608,"connected_time":60000000000,"state":"active","ping":169},{"user_id":375,"name":"Spicy Within Reason","steam_id":76561198066700370,"connected_time":901000000000,"state":"active","ping":90},{"user_id":387,"name":"Freewave","steam_id":76561198156282541,"connected_time":45000000000,"state":"active","ping":53},{"user_id":352,"name":"Mark","steam_id":76561199092079229,"connected_time":2182000000000,"state":"active","ping":114},{"user_id":363,"name":"Breach","steam_id":76561198045060392,"connected_time":1746000000000,"state":"active","ping":48},{"user_id":377,"name":"(pro) semitic ye","steam_id":76561198068830312,"connected_time":609000000000,"state":"active","ping":46},{"user_id":353,"name":"docâš¸","steam_id":76561197997949711,"connected_time":2156000000000,"state":"active","ping":65},{"user_id":359,"name":"HeavySandpiper","steam_id":76561198132025352,"connected_time":2021000000000,"state":"active","ping":105},{"user_id":364,"name":"conner","steam_id":76561198052911241,"connected_time":1737000000000,"state":"active","ping":77}]},{"server_id":8,"name":"Uncletopia | Dallas | 1 | All Maps","name_short":"dal-1","host":"dal-1.us.uncletopia.com","port":27015,"enabled":true,"region":"us-central","cc":"us","latitude":32.779167,"longitude":-96.80889,"reserved":0,"last_update":"0001-01-01T00:00:00Z","name_a2s":"Uncletopia | Dallas | 1 | All Maps","protocol":17,"map":"pl_frontier_final","folder":"tf","game":"Team Fortress","app_id":440,"player_count":24,"max_players":24,"Bots":0,"server_type":"Dedicated","server_os":"Linux","password":true,"vac":true,"version":"7961495","steam_id":85568392924469986,"keywords":["nocrits","nodmgspread","payload","uncletopia"],"game_id":440,"stv_port":27016,"stv_name":"Uncletopia | Dallas | 1 | All Maps | STV","players":[{"user_id":463,"name":"real worm","steam_id":76561199065645094,"connected_time":592000000000,"state":"active","ping":75},{"user_id":470,"name":"squirtle","steam_id":76561198211451045,"connected_time":473000000000,"state":"active","ping":74},{"user_id":466,"name":"Ä 1 â™¦ Synth","steam_id":76561198058660228,"connected_time":561000000000,"state":"active","ping":47},{"user_id":469,"name":"riSygneD","steam_id":76561198331618687,"connected_time":527000000000,"state":"active","ping":63},{"user_id":475,"name":"Gotta Move That Gear Up","steam_id":76561197993467034,"connected_time":58000000000,"state":"active","ping":75},{"user_id":447,"name":"Crouching Helps","steam_id":76561198011862054,"connected_time":1837000000000,"state":"active","ping":75},{"user_id":462,"name":"NooseNeck","steam_id":76561198202416199,"connected_time":609000000000,"state":"active","ping":51},{"user_id":467,"name":"the toronto dingler","steam_id":76561198337692867,"connected_time":556000000000,"state":"active","ping":102},{"user_id":348,"name":"AMBIENCE","steam_id":76561198442522722,"connected_time":9559000000000,"state":"active","ping":74},{"user_id":404,"name":"Tommy Provolone","steam_id":76561198170062377,"connected_time":4646000000000,"state":"active","ping":69},{"user_id":455,"name":"AudaCD","steam_id":76561198202775853,"connected_time":1146000000000,"state":"active","ping":60},{"user_id":464,"name":"(no monitor) ayylien","steam_id":76561198042127970,"connected_time":590000000000,"state":"active","ping":73},{"user_id":465,"name":"TechnoBear2099","steam_id":76561198238863596,"connected_time":590000000000,"state":"active","ping":49},{"user_id":423,"name":"Odd Life","steam_id":76561198244979998,"connected_time":3545000000000,"state":"active","ping":81},{"user_id":474,"name":"1st year at kindergarden","steam_id":76561199100342013,"connected_time":132000000000,"state":"active","ping":76},{"user_id":468,"name":"thesmilingman654","steam_id":76561199196497254,"connected_time":549000000000,"state":"active","ping":92},{"user_id":460,"name":"Pixler544","steam_id":76561198240575132,"connected_time":705000000000,"state":"active","ping":81},{"user_id":456,"name":"Shadowdrake88","steam_id":76561198113085367,"connected_time":1122000000000,"state":"active","ping":185},{"user_id":472,"name":"Legless Amphibian","steam_id":76561198880476222,"connected_time":408000000000,"state":"active","ping":56},{"user_id":449,"name":"Mugenman88","steam_id":76561198041261388,"connected_time":1829000000000,"state":"active","ping":84},{"user_id":439,"name":"AtomicSexMachine","steam_id":76561198886585159,"connected_time":2192000000000,"state":"active","ping":64},{"user_id":457,"name":"big ol' buford","steam_id":76561198290675957,"connected_time":1121000000000,"state":"active","ping":44},{"user_id":473,"name":"Chimpanzee","steam_id":76561198850387282,"connected_time":334000000000,"state":"active","ping":74},{"user_id":438,"name":"Rodgedan","steam_id":76561198226236524,"connected_time":2293000000000,"state":"active","ping":108}]},{"server_id":108,"name":"Uncletopia | Dallas | 2 | All Maps","name_short":"dal-2","host":"dal-1.us.uncletopia.com","port":27025,"enabled":true,"region":"us-central","cc":"us","latitude":32.779167,"longitude":-96.80889,"reserved":0,"last_update":"0001-01-01T00:00:00Z","name_a2s":"Uncletopia | Dallas | 2 | All Maps","protocol":17,"map":"pl_barnblitz","folder":"tf","game":"Team Fortress","app_id":440,"player_count":24,"max_players":24,"Bots":0,"server_type":"Dedicated","server_os":"Linux","password":true,"vac":true,"version":"7961495","steam_id":85568392924469988,"keywords":["nocrits","nodmgspread","payload","uncletopia"],"game_id":440,"stv_port":27026,"stv_name":"Uncletopia | Dallas | 2 | All Maps | STV","players":[{"user_id":408,"name":"Dr Oshawott","steam_id":76561198042021629,"connected_time":2672000000000,"state":"active","ping":84},{"user_id":422,"name":"cozy","steam_id":76561199044037628,"connected_time":1240000000000,"state":"active","ping":95},{"user_id":410,"name":"GavilÃ¡n","steam_id":76561198285212453,"connected_time":2142000000000,"state":"active","ping":69},{"user_id":402,"name":"timestew 1","steam_id":76561198367583372,"connected_time":2889000000000,"state":"active","ping":89},{"user_id":376,"name":"A Straw","steam_id":76561199367935846,"connected_time":5606000000000,"state":"active","ping":74},{"user_id":425,"name":"432hz","steam_id":76561198202746749,"connected_time":811000000000,"state":"active","ping":98},{"user_id":426,"name":"Bacon","steam_id":76561199078407152,"connected_time":251000000000,"state":"active","ping":79},{"user_id":427,"name":"GibbusGod","steam_id":76561199232436690,"connected_time":234000000000,"state":"active","ping":80},{"user_id":380,"name":"J.G. Klaus","steam_id":76561198001111196,"connected_time":5485000000000,"state":"active","ping":49},{"user_id":395,"name":"Jabroni Kris","steam_id":76561198048736247,"connected_time":3853000000000,"state":"active","ping":112},{"user_id":373,"name":"bubba simp club","steam_id":76561199338554815,"connected_time":6131000000000,"state":"active","ping":82},{"user_id":413,"name":"anton ego","steam_id":76561199019583362,"connected_time":2043000000000,"state":"active","ping":89},{"user_id":366,"name":"truecel philanthropist","steam_id":76561198273568117,"connected_time":6803000000000,"state":"active","ping":68},{"user_id":417,"name":"Hunter","steam_id":76561198050617754,"connected_time":1618000000000,"state":"active","ping":99},{"user_id":397,"name":"SuppressedBarrel","steam_id":76561198032336504,"connected_time":3637000000000,"state":"active","ping":47},{"user_id":398,"name":"LampMan","steam_id":76561198079857527,"connected_time":3329000000000,"state":"active","ping":56},{"user_id":405,"name":"Rhutebeer","steam_id":76561198018302761,"connected_time":2869000000000,"state":"active","ping":84},{"user_id":423,"name":"DistantJragon","steam_id":76561198117563641,"connected_time":979000000000,"state":"active","ping":91},{"user_id":392,"name":"Trashgaming","steam_id":76561199184268442,"connected_time":4134000000000,"state":"active","ping":104},{"user_id":399,"name":"Ping","steam_id":76561199206514106,"connected_time":3115000000000,"state":"active","ping":76},{"user_id":429,"name":"D.E.O","steam_id":76561198096992957,"connected_time":73000000000,"state":"active","ping":130},{"user_id":424,"name":"drdonutman","steam_id":76561197998488821,"connected_time":952000000000,"state":"active","ping":85},{"user_id":411,"name":"Big Yoshi","steam_id":76561199160576376,"connected_time":2114000000000,"state":"active","ping":105},{"user_id":428,"name":"Icefrisbee","steam_id":76561198398032005,"connected_time":232000000000,"state":"active","ping":105}]},{"server_id":404,"name":"Uncletopia | Dallas | 3 | All Maps","name_short":"dal-3","host":"dal-1.us.uncletopia.com","port":27035,"enabled":true,"region":"us-central","cc":"us","latitude":32.779167,"longitude":-96.80889,"reserved":0,"last_update":"0001-01-01T00:00:00Z","name_a2s":"Uncletopia | Dallas | 3 | All Maps","protocol":17,"map":"pl_badwater","folder":"tf","game":"Team Fortress","app_id":440,"player_count":0,"max_players":24,"Bots":0,"server_type":"Dedicated","server_os":"Linux","password":true,"vac":true,"version":"7961495","steam_id":85568392924515219,"keywords":["nocrits","nodmgspread","payload","uncletopia"],"game_id":440,"stv_port":27036,"stv_name":"Uncletopia | Dallas | 3 | All Maps | STV","players":null},{"server_id":405,"name":"Uncletopia | Dallas | 4 | Community","name_short":"dal-4","host":"dal-1.us.uncletopia.com","port":27045,"enabled":true,"region":"us-central","cc":"us","latitude":32.779167,"longitude":-96.80889,"reserved":0,"last_update":"0001-01-01T00:00:00Z","name_a2s":"Uncletopia | Dallas | 4 | Community","protocol":17,"map":"workshop/cp_croissant_final.ugc458840209","folder":"tf","game":"Team Fortress","app_id":440,"player_count":24,"max_players":24,"Bots":0,"server_type":"Dedicated","server_os":"Linux","password":true,"vac":true,"version":"7961495","steam_id":85568392924515220,"keywords":["cp","nocrits","nodmgspread","uncletopia"],"game_id":440,"stv_port":27046,"stv_name":"Uncletopia | Dallas | 4 | Community | STV","players":[{"user_id":300,"name":"mothbrained","steam_id":76561198279680400,"connected_time":95000000000,"state":"active","ping":61},{"user_id":284,"name":"scruhlman","steam_id":76561198212448060,"connected_time":1348000000000,"state":"active","ping":76},{"user_id":293,"name":"chungy boy","steam_id":76561198376483250,"connected_time":1036000000000,"state":"active","ping":78},{"user_id":303,"name":"pvt parts","steam_id":76561199199615102,"connected_time":12000000000,"state":"spawning","ping":142},{"user_id":231,"name":"Bottle","steam_id":76561199057108384,"connected_time":4107000000000,"state":"active","ping":73},{"user_id":297,"name":"grant","steam_id":76561198083266065,"connected_time":846000000000,"state":"active","ping":72},{"user_id":281,"name":"b4rry","steam_id":76561198365887154,"connected_time":1499000000000,"state":"active","ping":90},{"user_id":288,"name":"Jimothy","steam_id":76561198361536109,"connected_time":1170000000000,"state":"active","ping":76},{"user_id":282,"name":"webaline :3","steam_id":76561199052450127,"connected_time":1498000000000,"state":"active","ping":81},{"user_id":260,"name":"North","steam_id":76561198814844969,"connected_time":2541000000000,"state":"active","ping":74},{"user_id":283,"name":"Balloon","steam_id":76561198068498829,"connected_time":1498000000000,"state":"active","ping":76},{"user_id":289,"name":"Broomfrog","steam_id":76561198197932090,"connected_time":1143000000000,"state":"active","ping":58},{"user_id":290,"name":"Vapor Man","steam_id":76561198210173112,"connected_time":1121000000000,"state":"active","ping":134},{"user_id":291,"name":"whats up dog","steam_id":76561198063062263,"connected_time":1112000000000,"state":"active","ping":100},{"user_id":138,"name":"Giselle","steam_id":76561198162593640,"connected_time":11619000000000,"state":"active","ping":100},{"user_id":298,"name":"Palamedes Sextus","steam_id":76561198096306325,"connected_time":136000000000,"state":"active","ping":83},{"user_id":302,"name":"Alientech","steam_id":76561198010018028,"connected_time":19000000000,"state":"spawning","ping":190},{"user_id":258,"name":"alset333","steam_id":76561198405345260,"connected_time":2766000000000,"state":"active","ping":86},{"user_id":294,"name":"dweamy","steam_id":76561198119181880,"connected_time":872000000000,"state":"active","ping":61},{"user_id":268,"name":"Archangel","steam_id":76561198020089542,"connected_time":2195000000000,"state":"active","ping":50},{"user_id":304,"name":"Pepo","steam_id":76561199286546297,"connected_time":9000000000,"state":"spawning","ping":102},{"user_id":267,"name":"Gard","steam_id":76561198015240412,"connected_time":2239000000000,"state":"active","ping":58},{"user_id":241,"name":"Lezabel","steam_id":76561198970753261,"connected_time":3718000000000,"state":"active","ping":72},{"user_id":277,"name":"Calvin?","steam_id":76561198034069587,"connected_time":1813000000000,"state":"active","ping":107}]},{"server_id":5,"name":"Uncletopia | Frankfurt | 1 | All Maps","name_short":"frk-1","host":"frk-1.de.uncletopia.com","port":27015,"enabled":true,"region":"eu","cc":"de","latitude":50.110924,"longitude":8.682127,"reserved":0,"last_update":"0001-01-01T00:00:00Z","name_a2s":"Uncletopia | Frankfurt | 1 | All Maps","protocol":17,"map":"cp_process_final","folder":"tf","game":"Team Fortress","app_id":440,"player_count":0,"max_players":24,"Bots":0,"server_type":"Dedicated","server_os":"Linux","password":true,"vac":true,"version":"7961495","steam_id":85568392924469989,"keywords":["cp","nocrits","nodmgspread","uncletopia"],"game_id":440,"stv_port":27016,"stv_name":"Uncletopia | Frankfurt | 1 | All Maps | STV","players":null},{"server_id":110,"name":"Uncletopia | Frankfurt | 2 | All Maps","name_short":"frk-2","host":"frk-1.de.uncletopia.com","port":27025,"enabled":true,"region":"eu","cc":"de","latitude":50.110924,"longitude":8.682127,"reserved":0,"last_update":"0001-01-01T00:00:00Z","name_a2s":"Uncletopia | Frankfurt | 2 | All Maps","protocol":17,"map":"pl_badwater","folder":"tf","game":"Team Fortress","app_id":440,"player_count":22,"max_players":24,"Bots":0,"server_type":"Dedicated","server_os":"Linux","password":true,"vac":true,"version":"7961495","steam_id":85568392924469990,"keywords":["nocrits","nodmgspread","payload","uncletopia"],"game_id":440,"stv_port":27026,"stv_name":"Uncletopia | Frankfurt | 2 | All Maps | STV","players":[{"user_id":360,"name":"Dawn","steam_id":76561198093189141,"connected_time":165000000000,"state":"active","ping":93},{"user_id":361,"name":"zeredis","steam_id":76561198076596689,"connected_time":136000000000,"state":"active","ping":132},{"user_id":340,"name":"Proto-arc","steam_id":76561198012776747,"connected_time":1859000000000,"state":"active","ping":50},{"user_id":356,"name":"Dizzy","steam_id":76561198010192462,"connected_time":1020000000000,"state":"active","ping":47},{"user_id":328,"name":"Plain Toast","steam_id":76561198451580251,"connected_time":2597000000000,"state":"active","ping":168},{"user_id":341,"name":"Piellino","steam_id":76561198156873276,"connected_time":1845000000000,"state":"active","ping":93},{"user_id":357,"name":"Cdkatpifuzrmeu-uhfffaoysa-","steam_id":76561198185348855,"connected_time":950000000000,"state":"active","ping":65},{"user_id":362,"name":"gangsta","steam_id":76561198403756332,"connected_time":111000000000,"state":"active","ping":87},{"user_id":344,"name":"tone","steam_id":76561197975301462,"connected_time":1641000000000,"state":"active","ping":83},{"user_id":359,"name":"SPEEDOPHILE","steam_id":76561198053400769,"connected_time":444000000000,"state":"active","ping":60},{"user_id":351,"name":"proph","steam_id":76561197998803950,"connected_time":1332000000000,"state":"active","ping":46},{"user_id":364,"name":"Dem","steam_id":76561198421733235,"connected_time":31000000000,"state":"active","ping":93},{"user_id":335,"name":"Vitamin Weee","steam_id":76561199183937747,"connected_time":2249000000000,"state":"active","ping":72},{"user_id":365,"name":"Star in a pond","steam_id":76561198205501279,"connected_time":15000000000,"state":"active","ping":106},{"user_id":347,"name":"zomis","steam_id":76561198217812789,"connected_time":1573000000000,"state":"active","ping":99},{"user_id":348,"name":"LionKing","steam_id":76561198023399545,"connected_time":1565000000000,"state":"active","ping":46},{"user_id":366,"name":"hide on bush","steam_id":76561198149967445,"connected_time":12000000000,"state":"spawning","ping":45},{"user_id":349,"name":"Kabachok Aeronavt","steam_id":76561198123659806,"connected_time":1531000000000,"state":"active","ping":102},{"user_id":261,"name":"God","steam_id":76561199049925843,"connected_time":7273000000000,"state":"active","ping":95},{"user_id":282,"name":"halow","steam_id":76561198061505163,"connected_time":5642000000000,"state":"active","ping":84},{"user_id":316,"name":"Vitun vittu","steam_id":76561198110679463,"connected_time":3499000000000,"state":"active","ping":73},{"user_id":355,"name":"nepztar","steam_id":76561198294892146,"connected_time":1256000000000,"state":"active","ping":69}]},{"server_id":308,"name":"Uncletopia | Frankfurt | 3 | All Maps","name_short":"frk-3","host":"frk-1.de.uncletopia.com","port":27035,"enabled":true,"region":"eu","cc":"de","latitude":50.110924,"longitude":8.682127,"reserved":0,"last_update":"0001-01-01T00:00:00Z","name_a2s":"Uncletopia | Frankfurt | 3 | All Maps","protocol":17,"map":"cp_dustbowl","folder":"tf","game":"Team Fortress","app_id":440,"player_count":0,"max_players":24,"Bots":0,"server_type":"Dedicated","server_os":"Linux","password":true,"vac":true,"version":"7961495","steam_id":85568392924504274,"keywords":["cp","nocrits","nodmgspread","uncletopia"],"game_id":440,"stv_port":27036,"stv_name":"Uncletopia | Frankfurt | 3 | All Maps | STV","players":null},{"server_id":309,"name":"Uncletopia | Frankfurt | 4 | All Maps","name_short":"frk-4","host":"frk-1.de.uncletopia.com","port":27045,"enabled":true,"region":"eu","cc":"de","latitude":50.110924,"longitude":8.682127,"reserved":0,"last_update":"0001-01-01T00:00:00Z","name_a2s":"Uncletopia | Frankfurt | 4 | All Maps","protocol":17,"map":"pl_snowycoast","folder":"tf","game":"Team Fortress","app_id":440,"player_count":23,"max_players":24,"Bots":0,"server_type":"Dedicated","server_os":"Linux","password":true,"vac":true,"version":"7961495","steam_id":85568392924504275,"keywords":["nocrits","nodmgspread","payload","uncletopia"],"game_id":440,"stv_port":27046,"stv_name":"Uncletopia | Frankfurt | 4 | All Maps | STV","players":[{"user_id":581,"name":"Saucy Jack","steam_id":76561198894525288,"connected_time":393000000000,"state":"active","ping":59},{"user_id":574,"name":"Sakari","steam_id":76561197997811299,"connected_time":1199000000000,"state":"active","ping":59},{"user_id":564,"name":"Ch4bby","steam_id":76561198058792875,"connected_time":1496000000000,"state":"active","ping":57},{"user_id":565,"name":"â™¿mooseâ™¿","steam_id":76561198412781998,"connected_time":1472000000000,"state":"active","ping":80},{"user_id":561,"name":"finbar","steam_id":76561198056812396,"connected_time":1826000000000,"state":"active","ping":77},{"user_id":559,"name":"Salih","steam_id":76561198287934839,"connected_time":2034000000000,"state":"active","ping":59},{"user_id":550,"name":"aSpectVEVO | ETF2L KANKER","steam_id":76561198237799694,"connected_time":2407000000000,"state":"active","ping":48},{"user_id":448,"name":"Rimx","steam_id":76561198053034840,"connected_time":7104000000000,"state":"active","ping":86},{"user_id":575,"name":"Ð¸Ð³Ð»Ð°","steam_id":76561198120760515,"connected_time":745000000000,"state":"active","ping":89},{"user_id":449,"name":"Toasty5050","steam_id":76561198073540881,"connected_time":7097000000000,"state":"active","ping":40},{"user_id":451,"name":"Kristianma","steam_id":76561198021772843,"connected_time":6954000000000,"state":"active","ping":61},{"user_id":566,"name":"Bonkie","steam_id":76561198205701441,"connected_time":1466000000000,"state":"active","ping":66},{"user_id":579,"name":"Lightspike","steam_id":76561198176152717,"connected_time":534000000000,"state":"active","ping":53},{"user_id":558,"name":"ChPerette ðŸŽ®","steam_id":76561198060004887,"connected_time":2129000000000,"state":"active","ping":50},{"user_id":580,"name":"milwaukee pasta bandit","steam_id":76561198417793830,"connected_time":433000000000,"state":"active","ping":177},{"user_id":546,"name":"hardy","steam_id":76561198029228735,"connected_time":3242000000000,"state":"active","ping":62},{"user_id":571,"name":"Immobile Sentry","steam_id":76561199138554847,"connected_time":1381000000000,"state":"active","ping":188},{"user_id":582,"name":"randompixel","steam_id":76561198003941207,"connected_time":351000000000,"state":"active","ping":70},{"user_id":584,"name":"Minnie","steam_id":76561198091052019,"connected_time":21000000000,"state":"active","ping":140},{"user_id":556,"name":"Regular","steam_id":76561198135365325,"connected_time":2234000000000,"state":"active","ping":52},{"user_id":569,"name":"Human","steam_id":76561198031697040,"connected_time":1444000000000,"state":"active","ping":162},{"user_id":573,"name":"doodad","steam_id":76561198010323493,"connected_time":1342000000000,"state":"active","ping":46},{"user_id":525,"name":"Michal jordan","steam_id":76561199106262610,"connected_time":4695000000000,"state":"active","ping":65}]},{"server_id":310,"name":"Uncletopia | Frankfurt | 5 | All Maps","name_short":"frk-5","host":"frk-1.de.uncletopia.com","port":27055,"enabled":true,"region":"eu","cc":"de","latitude":50.110924,"longitude":8.682127,"reserved":0,"last_update":"0001-01-01T00:00:00Z","name_a2s":"Uncletopia | Frankfurt | 5 | All Maps","protocol":17,"map":"pl_swiftwater_final1","folder":"tf","game":"Team Fortress","app_id":440,"player_count":0,"max_players":24,"Bots":0,"server_type":"Dedicated","server_os":"Linux","password":true,"vac":true,"version":"7961495","steam_id":85568392924504277,"keywords":["nocrits","nodmgspread","payload","uncletopia"],"game_id":440,"stv_port":27056,"stv_name":"Uncletopia | Frankfurt | 5 | All Maps | STV","players":null},{"server_id":311,"name":"Uncletopia | Frankfurt | 6 | All Maps","name_short":"frk-6","host":"frk-1.de.uncletopia.com","port":27065,"enabled":true,"region":"eu","cc":"de","latitude":50.110924,"longitude":8.682127,"reserved":0,"last_update":"0001-01-01T00:00:00Z","name_a2s":"Uncletopia | Frankfurt | 6 | All Maps","protocol":17,"map":"cp_mountainlab","folder":"tf","game":"Team Fortress","app_id":440,"player_count":0,"max_players":24,"Bots":0,"server_type":"Dedicated","server_os":"Linux","password":true,"vac":true,"version":"7961495","steam_id":85568392924504278,"keywords":["cp","nocrits","nodmgspread","uncletopia"],"game_id":440,"stv_port":27066,"stv_name":"Uncletopia | Frankfurt | 6 | All Maps | STV","players":null},{"server_id":23,"name":"Uncletopia | Frankfurt | 7 | Stopwatch Beta","name_short":"frk-7","host":"frk-1.de.uncletopia.com","port":27075,"enabled":true,"region":"eu","cc":"de","latitude":50.110924,"longitude":8.682127,"reserved":0,"last_update":"0001-01-01T00:00:00Z","name_a2s":"Uncletopia | Frankfurt | 7 | Stopwatch Beta","protocol":17,"map":"workshop/koth_clearcut_b15.ugc2107050255","folder":"tf","game":"Team Fortress","app_id":440,"player_count":0,"max_players":24,"Bots":0,"server_type":"Dedicated","server_os":"Linux","password":true,"vac":true,"version":"7961495","steam_id":85568392924742827,"keywords":["cp","nocrits","nodmgspread","uncletopia"],"game_id":440,"stv_port":27076,"stv_name":"Uncletopia | Frankfurt | 7 | Stopwatch Beta | STV","players":null},{"server_id":24,"name":"Uncletopia | Frankfurt | 8 | Community","name_short":"frk-8","host":"frk-1.de.uncletopia.com","port":27085,"enabled":true,"region":"eu","cc":"de","latitude":50.110924,"longitude":8.682127,"reserved":0,"last_update":"0001-01-01T00:00:00Z","name_a2s":"Uncletopia | Frankfurt | 8 | Community","protocol":17,"map":"workshop/cp_snowbase_b18.ugc2081770490","folder":"tf","game":"Team Fortress","app_id":440,"player_count":0,"max_players":24,"Bots":0,"server_type":"Dedicated","server_os":"Linux","password":true,"vac":true,"version":"7961495","steam_id":85568392924742828,"keywords":["cp","nocrits","nodmgspread","uncletopia"],"game_id":440,"stv_port":27086,"stv_name":"Uncletopia | Frankfurt | 8 | Community | STV","players":null},{"server_id":202,"name":"Uncletopia | Hong Kong | 1 | All Maps","name_short":"hgk-1","host":"hgk-1.hk.uncletopia.com","port":27015,"enabled":true,"region":"asia","cc":"hk","latitude":22.302711,"longitude":114.177216,"reserved":0,"last_update":"0001-01-01T00:00:00Z","name_a2s":"","protocol":0,"map":"","folder":"","game":"","app_id":0,"player_count":0,"max_players":0,"Bots":0,"server_type":"","server_os":"","password":false,"vac":false,"version":"","steam_id":0,"keywords":null,"game_id":0,"stv_port":0,"stv_name":"","players":null},{"server_id":1,"name":"Uncletopia | Los Angeles | 1 | All Maps","name_short":"lax-1","host":"lax-1.us.uncletopia.com","port":27015,"enabled":true,"region":"us-west","cc":"us","latitude":33.94279,"longitude":-118.41004,"reserved":0,"last_update":"0001-01-01T00:00:00Z","name_a2s":"Uncletopia | Los Angeles | 1 | All Maps","protocol":17,"map":"koth_highpass","folder":"tf","game":"Team Fortress","app_id":440,"player_count":24,"max_players":24,"Bots":0,"server_type":"Dedicated","server_os":"Linux","password":true,"vac":true,"version":"7961495","steam_id":85568392924469991,"keywords":["cp","nocrits","nodmgspread","uncletopia"],"game_id":440,"stv_port":27016,"stv_name":"Uncletopia | Los Angeles | 1 | All Maps | STV","players":[{"user_id":83,"name":"DoppelgÃ¤nger","steam_id":76561198036730436,"connected_time":1281000000000,"state":"active","ping":55},{"user_id":99,"name":"Spruce","steam_id":76561198081684676,"connected_time":363000000000,"state":"active","ping":93},{"user_id":50,"name":"mrthugpug1732","steam_id":76561198881200768,"connected_time":2742000000000,"state":"active","ping":56},{"user_id":70,"name":"GlizzLord","steam_id":76561198321010427,"connected_time":1467000000000,"state":"active","ping":67},{"user_id":61,"name":"NewGuy","steam_id":76561198968058652,"connected_time":1644000000000,"state":"active","ping":70},{"user_id":59,"name":"Dimmerswitch","steam_id":76561198034782177,"connected_time":1802000000000,"state":"active","ping":47},{"user_id":101,"name":"!","steam_id":76561199189013920,"connected_time":123000000000,"state":"active","ping":47},{"user_id":102,"name":"HUGE beef | youtube.com/@idiots","steam_id":76561199021242941,"connected_time":123000000000,"state":"active","ping":65},{"user_id":97,"name":"boppetson","steam_id":76561198073529045,"connected_time":507000000000,"state":"active","ping":119},{"user_id":100,"name":"LordKirby","steam_id":76561198006938286,"connected_time":206000000000,"state":"active","ping":75},{"user_id":90,"name":"Spectre","steam_id":76561198025652246,"connected_time":873000000000,"state":"active","ping":97},{"user_id":103,"name":"Endporter","steam_id":76561199088183364,"connected_time":50000000000,"state":"active","ping":51},{"user_id":68,"name":"papi Chulo","steam_id":76561198126274984,"connected_time":1514000000000,"state":"active","ping":101},{"user_id":104,"name":"Spenn","steam_id":76561198348473831,"connected_time":9000000000,"state":"active","ping":50},{"user_id":76,"name":"Mrmemestar","steam_id":76561198799497967,"connected_time":1407000000000,"state":"active","ping":70},{"user_id":94,"name":"Ashton Bruck","steam_id":76561198289063903,"connected_time":566000000000,"state":"active","ping":120},{"user_id":96,"name":"Perry the Platypus","steam_id":76561198273045773,"connected_time":545000000000,"state":"active","ping":67},{"user_id":74,"name":"Dan","steam_id":76561198064012288,"connected_time":1446000000000,"state":"active","ping":75},{"user_id":75,"name":"heavy","steam_id":76561199391478575,"connected_time":1443000000000,"state":"active","ping":96},{"user_id":78,"name":"monkey squirts","steam_id":76561197983101644,"connected_time":1377000000000,"state":"active","ping":43},{"user_id":86,"name":"krypticsan","steam_id":76561198980841723,"connected_time":1063000000000,"state":"active","ping":80},{"user_id":87,"name":"Neocherry","steam_id":76561198137036962,"connected_time":1041000000000,"state":"active","ping":93},{"user_id":88,"name":"DarkWolf","steam_id":76561198392222947,"connected_time":1039000000000,"state":"active","ping":106},{"user_id":89,"name":"Darkspiral","steam_id":76561198080807559,"connected_time":1014000000000,"state":"active","ping":54}]},{"server_id":112,"name":"Uncletopia | Los Angeles | 2 | All Maps","name_short":"lax-2","host":"lax-1.us.uncletopia.com","port":27025,"enabled":true,"region":"us-west","cc":"us","latitude":33.94279,"longitude":-118.41004,"reserved":0,"last_update":"0001-01-01T00:00:00Z","name_a2s":"Uncletopia | Los Angeles | 2 | All Maps","protocol":17,"map":"pl_upward","folder":"tf","game":"Team Fortress","app_id":440,"player_count":24,"max_players":24,"Bots":0,"server_type":"Dedicated","server_os":"Linux","password":true,"vac":true,"version":"7961495","steam_id":85568392924469992,"keywords":["nocrits","nodmgspread","payload","uncletopia"],"game_id":440,"stv_port":27026,"stv_name":"Uncletopia | Los Angeles | 2 | All Maps | STV","players":[{"user_id":246,"name":"Sunkenthree51","steam_id":76561198300781307,"connected_time":3089000000000,"state":"active","ping":57},{"user_id":224,"name":"choodle","steam_id":76561198930608649,"connected_time":3888000000000,"state":"active","ping":31},{"user_id":269,"name":"Nubbo","steam_id":76561198980221190,"connected_time":1552000000000,"state":"active","ping":80},{"user_id":280,"name":"catfish from toontown","steam_id":76561198060070002,"connected_time":646000000000,"state":"active","ping":92},{"user_id":255,"name":"Igrium","steam_id":76561198119549811,"connected_time":2652000000000,"state":"active","ping":64},{"user_id":226,"name":"pinkacrash","steam_id":76561198110723576,"connected_time":3705000000000,"state":"active","ping":36},{"user_id":262,"name":"Amateur Glaswegian","steam_id":76561198030851956,"connected_time":1918000000000,"state":"active","ping":76},{"user_id":227,"name":"Bomber64","steam_id":76561198355519894,"connected_time":3694000000000,"state":"active","ping":129},{"user_id":263,"name":"TÃ¼Cold","steam_id":76561198111278197,"connected_time":1893000000000,"state":"active","ping":59},{"user_id":279,"name":"Grand Piano Tuna","steam_id":76561198135137213,"connected_time":794000000000,"state":"active","ping":76},{"user_id":230,"name":"Fami","steam_id":76561198193580105,"connected_time":3669000000000,"state":"active","ping":56},{"user_id":231,"name":"mAKO","steam_id":76561198166022879,"connected_time":3645000000000,"state":"active","ping":45},{"user_id":272,"name":"frog","steam_id":76561198049258493,"connected_time":1061000000000,"state":"active","ping":86},{"user_id":271,"name":"the fool","steam_id":76561198133933158,"connected_time":1082000000000,"state":"active","ping":48},{"user_id":277,"name":"HeySan","steam_id":76561198184567366,"connected_time":886000000000,"state":"active","ping":45},{"user_id":274,"name":"WaywardHero","steam_id":76561198404043351,"connected_time":1028000000000,"state":"active","ping":82},{"user_id":260,"name":"llahxam","steam_id":76561198151900957,"connected_time":2096000000000,"state":"active","ping":94},{"user_id":281,"name":"Underscorn","steam_id":76561198374209415,"connected_time":490000000000,"state":"active","ping":97},{"user_id":282,"name":"AMONGUS","steam_id":76561199176017593,"connected_time":409000000000,"state":"active","ping":60},{"user_id":275,"name":"Mario","steam_id":76561198321794277,"connected_time":1010000000000,"state":"active","ping":114},{"user_id":251,"name":"NEBULA","steam_id":76561198086878595,"connected_time":2910000000000,"state":"active","ping":62},{"user_id":243,"name":"pt","steam_id":76561198143023330,"connected_time":3288000000000,"state":"active","ping":48},{"user_id":252,"name":"mega","steam_id":76561198089520959,"connected_time":2883000000000,"state":"active","ping":119},{"user_id":265,"name":"De Monki","steam_id":76561198964210411,"connected_time":1817000000000,"state":"active","ping":65}]},{"server_id":324,"name":"Uncletopia | Los Angeles | 3 | All Maps","name_short":"lax-3","host":"lax-1.us.uncletopia.com","port":27035,"enabled":true,"region":"us-west","cc":"us","latitude":33.94279,"longitude":-118.41004,"reserved":0,"last_update":"0001-01-01T00:00:00Z","name_a2s":"Uncletopia | Los Angeles | 3 | All Maps","protocol":17,"map":"pl_upward","folder":"tf","game":"Team Fortress","app_id":440,"player_count":24,"max_players":24,"Bots":0,"server_type":"Dedicated","server_os":"Linux","password":true,"vac":true,"version":"7961495","steam_id":85568392924510198,"keywords":["nocrits","nodmgspread","payload","uncletopia"],"game_id":440,"stv_port":27036,"stv_name":"Uncletopia | Los Angeles | 3 | All Maps | STV","players":[{"user_id":78,"name":"Defragmented","steam_id":76561198854210081,"connected_time":3355000000000,"state":"active","ping":94},{"user_id":100,"name":"moe","steam_id":76561198929586245,"connected_time":1331000000000,"state":"active","ping":48},{"user_id":101,"name":"Shalom","steam_id":76561198410005222,"connected_time":1323000000000,"state":"active","ping":63},{"user_id":93,"name":"DrWilloughby","steam_id":76561198095260357,"connected_time":2351000000000,"state":"active","ping":63},{"user_id":106,"name":"Pemalon","steam_id":76561198389661782,"connected_time":494000000000,"state":"active","ping":55},{"user_id":71,"name":"Ralph Kramden (Slim Charles)","steam_id":76561197981687895,"connected_time":3901000000000,"state":"active","ping":56},{"user_id":107,"name":"It's a Doggydog World","steam_id":76561198018232414,"connected_time":493000000000,"state":"active","ping":67},{"user_id":22,"name":"Ockulus","steam_id":76561199069638460,"connected_time":7351000000000,"state":"active","ping":49},{"user_id":108,"name":"VenANON","steam_id":76561198055676240,"connected_time":406000000000,"state":"active","ping":130},{"user_id":105,"name":"Pvt. Parts","steam_id":76561198149369302,"connected_time":1048000000000,"state":"active","ping":99},{"user_id":113,"name":"Toy Engie","steam_id":76561198329988873,"connected_time":4000000000,"state":"spawning","ping":55},{"user_id":28,"name":"Velgrauder","steam_id":76561198848526938,"connected_time":7089000000000,"state":"active","ping":101},{"user_id":109,"name":"Tyjutsu","steam_id":76561198079951159,"connected_time":372000000000,"state":"active","ping":98},{"user_id":89,"name":"âœª Y V E S","steam_id":76561198299479796,"connected_time":2790000000000,"state":"active","ping":45},{"user_id":111,"name":"Tom","steam_id":76561198139202942,"connected_time":298000000000,"state":"active","ping":118},{"user_id":33,"name":"Lucky","steam_id":76561198828715832,"connected_time":7006000000000,"state":"active","ping":61},{"user_id":104,"name":"guy","steam_id":76561198196443262,"connected_time":1135000000000,"state":"active","ping":40},{"user_id":112,"name":"(1)Lucky","steam_id":76561199108883530,"connected_time":281000000000,"state":"active","ping":72},{"user_id":53,"name":"Frank Accardi","steam_id":76561198017275707,"connected_time":5657000000000,"state":"active","ping":66},{"user_id":84,"name":"Frebresio","steam_id":76561198353493333,"connected_time":3160000000000,"state":"active","ping":64},{"user_id":102,"name":"Agnos","steam_id":76561198241498776,"connected_time":1320000000000,"state":"active","ping":97},{"user_id":87,"name":"Lock'd","steam_id":76561198170108230,"connected_time":3054000000000,"state":"active","ping":45},{"user_id":88,"name":"Tuxedo Terrorist","steam_id":76561199093106628,"connected_time":2844000000000,"state":"active","ping":61},{"user_id":79,"name":"Pvt. Sandvich","steam_id":76561198010317453,"connected_time":3325000000000,"state":"active","ping":54}]},{"server_id":25,"name":"Uncletopia | Los Angeles | 4 | Stopwatch Beta","name_short":"lax-4","host":"lax-1.us.uncletopia.com","port":27045,"enabled":true,"region":"us-west","cc":"us","latitude":33.94279,"longitude":-118.41004,"reserved":0,"last_update":"0001-01-01T00:00:00Z","name_a2s":"Uncletopia | Los Angeles | 4 | Stopwatch Beta","protocol":17,"map":"workshop/koth_ashville_final.ugc2130459942","folder":"tf","game":"Team Fortress","app_id":440,"player_count":9,"max_players":24,"Bots":0,"server_type":"Dedicated","server_os":"Linux","password":true,"vac":true,"version":"7961495","steam_id":85568392924510199,"keywords":["cp","nocrits","nodmgspread","uncletopia"],"game_id":440,"stv_port":27046,"stv_name":"Uncletopia | Los Angeles | 4 | Stopwatch Beta | STV","players":[{"user_id":10,"name":"Demoslow","steam_id":76561198805592656,"connected_time":3605000000000,"state":"active","ping":57},{"user_id":24,"name":"Stormy_RainLemon","steam_id":76561198880916049,"connected_time":222000000000,"state":"active","ping":54},{"user_id":12,"name":"Sgt. Satire","steam_id":76561198104193483,"connected_time":2412000000000,"state":"active","ping":61},{"user_id":13,"name":"crittr","steam_id":76561198014302068,"connected_time":2269000000000,"state":"active","ping":104},{"user_id":14,"name":"Maxmind24","steam_id":76561198859888778,"connected_time":2081000000000,"state":"active","ping":85},{"user_id":25,"name":"Parmleche The Apostle","steam_id":76561198179197774,"connected_time":202000000000,"state":"active","ping":61},{"user_id":21,"name":"bigman_boi556","steam_id":76561199383012156,"connected_time":775000000000,"state":"active","ping":87},{"user_id":26,"name":"yoyothecoolest","steam_id":76561198267779022,"connected_time":194000000000,"state":"active","ping":99},{"user_id":28,"name":"finman","steam_id":76561198127639913,"connected_time":55000000000,"state":"active","ping":45}]},{"server_id":11,"name":"Uncletopia | London | 1 | All Maps","name_short":"lon-1","host":"lon-1.uk.uncletopia.com","port":27015,"enabled":true,"region":"eu","cc":"gb","latitude":51.509865,"longitude":-0.118092,"reserved":0,"last_update":"0001-01-01T00:00:00Z","name_a2s":"Uncletopia | London | 1 | All Maps","protocol":17,"map":"pl_badwater","folder":"tf","game":"Team Fortress","app_id":440,"player_count":24,"max_players":24,"Bots":0,"server_type":"Dedicated","server_os":"Linux","password":true,"vac":true,"version":"7961495","steam_id":85568392924367362,"keywords":["nocrits","nodmgspread","payload","uncletopia"],"game_id":440,"stv_port":27016,"stv_name":"Uncletopia | London | 1 | All Maps | STV","players":[{"user_id":507,"name":"CAMON ENGELAND","steam_id":76561198054301125,"connected_time":1013000000000,"state":"active","ping":89},{"user_id":493,"name":"Golden Boy","steam_id":76561198049072159,"connected_time":2300000000000,"state":"active","ping":57},{"user_id":504,"name":"devlos","steam_id":76561198022211519,"connected_time":1155000000000,"state":"active","ping":70},{"user_id":480,"name":"GoblinGaming","steam_id":76561198360395476,"connected_time":4290000000000,"state":"active","ping":47},{"user_id":491,"name":"TMC","steam_id":76561198077956157,"connected_time":2613000000000,"state":"active","ping":43},{"user_id":502,"name":"NeiroðŸ‘½á—©YY á’ªá—°á—©O","steam_id":76561198046743985,"connected_time":1230000000000,"state":"active","ping":73},{"user_id":510,"name":"flub_","steam_id":76561198337519315,"connected_time":569000000000,"state":"active","ping":45},{"user_id":482,"name":"æ·˜æ°£çš„å°ä¼™å­","steam_id":76561199210404349,"connected_time":4289000000000,"state":"active","ping":46},{"user_id":479,"name":"AWildTamim","steam_id":76561198048060652,"connected_time":4291000000000,"state":"active","ping":37},{"user_id":500,"name":"Colingaffney","steam_id":76561198197984574,"connected_time":1419000000000,"state":"active","ping":70},{"user_id":487,"name":"Flamie","steam_id":76561198150178863,"connected_time":3975000000000,"state":"active","ping":128},{"user_id":483,"name":"meow (they/them)","steam_id":76561198416657815,"connected_time":4288000000000,"state":"active","ping":88},{"user_id":464,"name":"Prome","steam_id":76561199050383942,"connected_time":6280000000000,"state":"active","ping":55},{"user_id":486,"name":"Sixie","steam_id":76561198251675360,"connected_time":4206000000000,"state":"active","ping":53},{"user_id":509,"name":"âœª Danny","steam_id":76561198104483241,"connected_time":955000000000,"state":"active","ping":55},{"user_id":506,"name":"Purps","steam_id":76561198053886680,"connected_time":1114000000000,"state":"active","ping":34},{"user_id":503,"name":"Revolver man","steam_id":76561198133280860,"connected_time":1212000000000,"state":"active","ping":82},{"user_id":489,"name":"beda","steam_id":76561198277943630,"connected_time":3123000000000,"state":"active","ping":73},{"user_id":511,"name":"Mr_Pulse_","steam_id":76561198095001602,"connected_time":540000000000,"state":"active","ping":111},{"user_id":512,"name":"Sabour","steam_id":76561197963965445,"connected_time":524000000000,"state":"active","ping":74},{"user_id":492,"name":"Tortol","steam_id":76561197966821145,"connected_time":2484000000000,"state":"active","ping":83},{"user_id":463,"name":"beebo","steam_id":76561199120277007,"connected_time":6303000000000,"state":"active","ping":50},{"user_id":461,"name":"teddy","steam_id":76561198007436837,"connected_time":6568000000000,"state":"active","ping":44},{"user_id":494,"name":"shooer!","steam_id":76561198110531281,"connected_time":2300000000000,"state":"active","ping":69}]},{"server_id":114,"name":"Uncletopia | London | 2 | All Maps","name_short":"lon-2","host":"lon-1.uk.uncletopia.com","port":27025,"enabled":true,"region":"eu","cc":"gb","latitude":51.509865,"longitude":-0.118092,"reserved":0,"last_update":"0001-01-01T00:00:00Z","name_a2s":"Uncletopia | London | 2 | All Maps","protocol":17,"map":"koth_highpass","folder":"tf","game":"Team Fortress","app_id":440,"player_count":0,"max_players":24,"Bots":0,"server_type":"Dedicated","server_os":"Linux","password":true,"vac":true,"version":"7961495","steam_id":85568392924470941,"keywords":["cp","nocrits","nodmgspread","uncletopia"],"game_id":440,"stv_port":27026,"stv_name":"Uncletopia | London | 2 | All Maps | STV","players":null},{"server_id":320,"name":"Uncletopia | London | 3 | All Maps","name_short":"lon-3","host":"lon-1.uk.uncletopia.com","port":27035,"enabled":true,"region":"eu","cc":"gb","latitude":51.509865,"longitude":-0.118092,"reserved":0,"last_update":"0001-01-01T00:00:00Z","name_a2s":"Uncletopia | London | 3 | All Maps","protocol":17,"map":"koth_lakeside_final","folder":"tf","game":"Team Fortress","app_id":440,"player_count":23,"max_players":24,"Bots":0,"server_type":"Dedicated","server_os":"Linux","password":true,"vac":true,"version":"7961495","steam_id":85568392924510192,"keywords":["cp","nocrits","nodmgspread","uncletopia"],"game_id":440,"stv_port":27036,"stv_name":"Uncletopia | London | 3 | All Maps | STV","players":[{"user_id":370,"name":"Sealboy","steam_id":76561199063067842,"connected_time":3905000000000,"state":"active","ping":153},{"user_id":389,"name":"Dispenser.jsx","steam_id":76561198303429751,"connected_time":886000000000,"state":"active","ping":45},{"user_id":372,"name":"Tx_madmash","steam_id":76561198924656512,"connected_time":2455000000000,"state":"active","ping":116},{"user_id":377,"name":"Mobster Tortoise","steam_id":76561199036837091,"connected_time":1514000000000,"state":"active","ping":87},{"user_id":375,"name":"fence_","steam_id":76561198150386379,"connected_time":2107000000000,"state":"active","ping":45},{"user_id":374,"name":"g unit (gangster unit)","steam_id":76561198059483703,"connected_time":2201000000000,"state":"active","ping":50},{"user_id":378,"name":"yuno appreciator","steam_id":76561198083286511,"connected_time":1505000000000,"state":"active","ping":41},{"user_id":379,"name":"BallinScout","steam_id":76561198152443697,"connected_time":1467000000000,"state":"active","ping":54},{"user_id":380,"name":"Moon","steam_id":76561198808108594,"connected_time":1456000000000,"state":"active","ping":92},{"user_id":402,"name":"SirCyu","steam_id":76561198279703610,"connected_time":532000000000,"state":"active","ping":51},{"user_id":386,"name":"Rrako","steam_id":76561198078708823,"connected_time":984000000000,"state":"active","ping":50},{"user_id":388,"name":"ZiggyStardust","steam_id":76561199121717685,"connected_time":906000000000,"state":"active","ping":66},{"user_id":404,"name":"welseq","steam_id":76561198039018578,"connected_time":500000000000,"state":"active","ping":128},{"user_id":400,"name":"ReenoDaWizard","steam_id":76561198841678291,"connected_time":584000000000,"state":"active","ping":50},{"user_id":392,"name":"Skippie","steam_id":76561198102029146,"connected_time":813000000000,"state":"active","ping":81},{"user_id":393,"name":"SillyPants","steam_id":76561199122040826,"connected_time":779000000000,"state":"active","ping":164},{"user_id":394,"name":"Ash","steam_id":76561198148738525,"connected_time":752000000000,"state":"active","ping":112},{"user_id":413,"name":"Darkmaen","steam_id":76561198060543390,"connected_time":0,"state":"spawning","ping":26},{"user_id":401,"name":"Mr. Fox","steam_id":76561198803610709,"connected_time":566000000000,"state":"active","ping":111},{"user_id":412,"name":"Akkie.","steam_id":76561198017619091,"connected_time":89000000000,"state":"active","ping":65},{"user_id":403,"name":"$crim","steam_id":76561199061511307,"connected_time":519000000000,"state":"active","ping":72},{"user_id":406,"name":"u sux","steam_id":76561198397522328,"connected_time":379000000000,"state":"active","ping":73},{"user_id":410,"name":"Fedor Dvinyatin","steam_id":76561198210886333,"connected_time":222000000000,"state":"active","ping":99}]},{"server_id":321,"name":"Uncletopia | London | 4 | All Maps","name_short":"lon-4","host":"lon-1.uk.uncletopia.com","port":27045,"enabled":true,"region":"eu","cc":"gb","latitude":51.509865,"longitude":-0.118092,"reserved":0,"last_update":"0001-01-01T00:00:00Z","name_a2s":"Uncletopia | London | 4 | All Maps","protocol":17,"map":"cp_mountainlab","folder":"tf","game":"Team Fortress","app_id":440,"player_count":0,"max_players":24,"Bots":0,"server_type":"Dedicated","server_os":"Linux","password":true,"vac":true,"version":"7961495","steam_id":85568392924510193,"keywords":["cp","nocrits","nodmgspread","uncletopia"],"game_id":440,"stv_port":27046,"stv_name":"Uncletopia | London | 4 | All Maps | STV","players":null},{"server_id":21,"name":"Uncletopia | London | 5 | All Maps","name_short":"lon-5","host":"lon-1.uk.uncletopia.com","port":27055,"enabled":true,"region":"eu","cc":"gb","latitude":51.509865,"longitude":-0.118092,"reserved":0,"last_update":"0001-01-01T00:00:00Z","name_a2s":"Uncletopia | London | 5 | All Maps","protocol":17,"map":"pl_borneo","folder":"tf","game":"Team Fortress","app_id":440,"player_count":24,"max_players":24,"Bots":0,"server_type":"Dedicated","server_os":"Linux","password":true,"vac":true,"version":"7961495","steam_id":85568392924742829,"keywords":["nocrits","nodmgspread","payload","uncletopia"],"game_id":440,"stv_port":27056,"stv_name":"Uncletopia | London | 5 | All Maps | STV","players":[{"user_id":447,"name":"Bobo","steam_id":76561198052308399,"connected_time":3162000000000,"state":"active","ping":69},{"user_id":469,"name":"The Traveller","steam_id":76561198105364304,"connected_time":1611000000000,"state":"active","ping":95},{"user_id":417,"name":"shr1mple","steam_id":76561198173537027,"connected_time":4914000000000,"state":"active","ping":54},{"user_id":480,"name":"Grimlock","steam_id":76561198087751260,"connected_time":124000000000,"state":"active","ping":73},{"user_id":427,"name":"KittyKate â¤","steam_id":76561198116340817,"connected_time":4117000000000,"state":"active","ping":60},{"user_id":440,"name":"Lennox","steam_id":76561198069063554,"connected_time":3701000000000,"state":"active","ping":50},{"user_id":429,"name":"BuzzBees â¤","steam_id":76561198101502273,"connected_time":4107000000000,"state":"active","ping":50},{"user_id":441,"name":"Dr Condom","steam_id":76561198378657692,"connected_time":3661000000000,"state":"active","ping":37},{"user_id":479,"name":"Boxtrot","steam_id":76561198026321441,"connected_time":283000000000,"state":"active","ping":70},{"user_id":472,"name":"figfug","steam_id":76561198073383767,"connected_time":1466000000000,"state":"active","ping":48},{"user_id":481,"name":"brad","steam_id":76561198249624676,"connected_time":40000000000,"state":"active","ping":38},{"user_id":477,"name":"DaCZ","steam_id":76561198093301141,"connected_time":670000000000,"state":"active","ping":69},{"user_id":434,"name":"Marquis de Hoto","steam_id":76561198080687708,"connected_time":3981000000000,"state":"active","ping":75},{"user_id":423,"name":"Julio Bashmore","steam_id":76561198257836694,"connected_time":4419000000000,"state":"active","ping":35},{"user_id":476,"name":"GoatLord1","steam_id":76561198157964544,"connected_time":811000000000,"state":"active","ping":52},{"user_id":482,"name":"THEBIDSMAN","steam_id":76561199480867755,"connected_time":31000000000,"state":"active","ping":115},{"user_id":459,"name":"margaret thatcher's girl power","steam_id":76561199401283123,"connected_time":2505000000000,"state":"active","ping":49},{"user_id":465,"name":"Billythefarmer32","steam_id":76561198969286813,"connected_time":1873000000000,"state":"active","ping":70},{"user_id":455,"name":"CEO of VersatchÃ©","steam_id":76561198059371847,"connected_time":2850000000000,"state":"active","ping":84},{"user_id":460,"name":"Christmas Ham","steam_id":76561198119601623,"connected_time":2293000000000,"state":"active","ping":98},{"user_id":462,"name":"Cahl","steam_id":76561198980863125,"connected_time":2255000000000,"state":"active","ping":43},{"user_id":474,"name":"mrbeast109385079350229083479082","steam_id":76561198370687830,"connected_time":1061000000000,"state":"active","ping":125},{"user_id":443,"name":"Whitey","steam_id":76561198001472889,"connected_time":3624000000000,"state":"active","ping":49},{"user_id":450,"name":"DavidGilbertLover268","steam_id":76561198324775476,"connected_time":2918000000000,"state":"active","ping":56}]},{"server_id":22,"name":"Uncletopia | London | 6 | All Maps","name_short":"lon-6","host":"lon-1.uk.uncletopia.com","port":27065,"enabled":true,"region":"eu","cc":"gb","latitude":51.509865,"longitude":-0.118092,"reserved":0,"last_update":"0001-01-01T00:00:00Z","name_a2s":"Uncletopia | London | 6 | All Maps","protocol":17,"map":"koth_highpass","folder":"tf","game":"Team Fortress","app_id":440,"player_count":0,"max_players":24,"Bots":0,"server_type":"Dedicated","server_os":"Linux","password":true,"vac":true,"version":"7961495","steam_id":85568392924742830,"keywords":["cp","nocrits","nodmgspread","uncletopia"],"game_id":440,"stv_port":27066,"stv_name":"Uncletopia | London | 6 | All Maps | STV","players":null},{"server_id":40,"name":"Uncletopia | London | 7 | No Payload","name_short":"lon-7","host":"lon-1.uk.uncletopia.com","port":27075,"enabled":true,"region":"eu","cc":"gb","latitude":51.509865,"longitude":-0.118092,"reserved":0,"last_update":"0001-01-01T00:00:00Z","name_a2s":"Uncletopia | London | 7 | No Payload","protocol":17,"map":"koth_viaduct","folder":"tf","game":"Team Fortress","app_id":440,"player_count":24,"max_players":24,"Bots":0,"server_type":"Dedicated","server_os":"Linux","password":true,"vac":true,"version":"7961495","steam_id":85568392924964314,"keywords":["cp","nocrits","nodmgspread","uncletopia"],"game_id":440,"stv_port":27076,"stv_name":"Uncletopia | London | 7 | No Payload | STV","players":[{"user_id":407,"name":"seigfried","steam_id":76561198047260133,"connected_time":1388000000000,"state":"active","ping":79},{"user_id":409,"name":"Fox","steam_id":76561198052541711,"connected_time":1289000000000,"state":"active","ping":61},{"user_id":369,"name":"Gry","steam_id":76561198053961616,"connected_time":3581000000000,"state":"active","ping":48},{"user_id":423,"name":"Tellme_now","steam_id":76561198847243605,"connected_time":222000000000,"state":"active","ping":88},{"user_id":428,"name":"notpanmanmemes","steam_id":76561199168536547,"connected_time":5000000000,"state":"spawning","ping":118},{"user_id":371,"name":"â™¥Sevenâ™¥","steam_id":76561198107860996,"connected_time":3403000000000,"state":"active","ping":51},{"user_id":403,"name":"Archer","steam_id":76561198132860299,"connected_time":1678000000000,"state":"active","ping":54},{"user_id":394,"name":"b","steam_id":76561198074160877,"connected_time":1970000000000,"state":"active","ping":49},{"user_id":398,"name":"Reets","steam_id":76561199389301257,"connected_time":1765000000000,"state":"active","ping":49},{"user_id":389,"name":"install gentoo","steam_id":76561198185257982,"connected_time":2680000000000,"state":"active","ping":75},{"user_id":380,"name":"mr mufasi","steam_id":76561198068453867,"connected_time":3127000000000,"state":"active","ping":55},{"user_id":426,"name":"Chucko Kokos","steam_id":76561198112553005,"connected_time":76000000000,"state":"active","ping":67},{"user_id":424,"name":"Zaakaroose","steam_id":76561198995514961,"connected_time":171000000000,"state":"active","ping":69},{"user_id":356,"name":"let him cook","steam_id":76561198126762760,"connected_time":4303000000000,"state":"active","ping":58},{"user_id":381,"name":"keepflatandenjoy","steam_id":76561198976062150,"connected_time":3119000000000,"state":"active","ping":52},{"user_id":417,"name":"Zzzz","steam_id":76561198152392309,"connected_time":446000000000,"state":"active","ping":58},{"user_id":359,"name":"Nightmenia","steam_id":76561198010430569,"connected_time":4180000000000,"state":"active","ping":49},{"user_id":388,"name":"zoinks!","steam_id":76561198068645362,"connected_time":2757000000000,"state":"active","ping":44},{"user_id":425,"name":"erapapa","steam_id":76561198835302370,"connected_time":168000000000,"state":"active","ping":84},{"user_id":408,"name":"free parking","steam_id":76561198274631806,"connected_time":1374000000000,"state":"active","ping":46},{"user_id":411,"name":"Scottish Fox","steam_id":76561198052990270,"connected_time":951000000000,"state":"active","ping":52},{"user_id":387,"name":"darkwater","steam_id":76561197986978738,"connected_time":2789000000000,"state":"active","ping":62},{"user_id":422,"name":"order66.exe","steam_id":76561198057558449,"connected_time":266000000000,"state":"active","ping":52},{"user_id":427,"name":"miro","steam_id":76561198196357213,"connected_time":50000000000,"state":"active","ping":86}]},{"server_id":41,"name":"Uncletopia | London | 8 | Community","name_short":"lon-8","host":"lon-1.uk.uncletopia.com","port":27085,"enabled":true,"region":"eu","cc":"gb","latitude":51.509865,"longitude":-0.118092,"reserved":0,"last_update":"0001-01-01T00:00:00Z","name_a2s":"Uncletopia | London | 8 | Community","protocol":17,"map":"workshop/koth_ashville_final.ugc2130459942","folder":"tf","game":"Team Fortress","app_id":440,"player_count":0,"max_players":24,"Bots":0,"server_type":"Dedicated","server_os":"Linux","password":true,"vac":true,"version":"7961495","steam_id":85568392924964315,"keywords":["cp","nocrits","nodmgspread","uncletopia"],"game_id":440,"stv_port":27086,"stv_name":"Uncletopia | London | 8 | Community | STV","players":null},{"server_id":300,"name":"Uncletopia | MontrÃ©al | 1 | All Maps","name_short":"mtl-1","host":"mtl-1.ca.uncletopia.com","port":27015,"enabled":true,"region":"us-east","cc":"ca","latitude":45.50889,"longitude":-73.56167,"reserved":0,"last_update":"0001-01-01T00:00:00Z","name_a2s":"Uncletopia | MontrÃ©al | 1 | All Maps","protocol":17,"map":"pl_swiftwater_final1","folder":"tf","game":"Team Fortress","app_id":440,"player_count":0,"max_players":24,"Bots":0,"server_type":"Dedicated","server_os":"Linux","password":true,"vac":true,"version":"7961495","steam_id":85568392924500087,"keywords":["nocrits","nodmgspread","payload","uncletopia"],"game_id":440,"stv_port":27016,"stv_name":"Uncletopia | MontrÃ©al | 1 | All Maps | STV","players":null},{"server_id":301,"name":"Uncletopia | MontrÃ©al | 2 | All Maps","name_short":"mtl-2","host":"mtl-1.ca.uncletopia.com","port":27025,"enabled":true,"region":"us-east","cc":"ca","latitude":45.50889,"longitude":-73.56167,"reserved":0,"last_update":"0001-01-01T00:00:00Z","name_a2s":"Uncletopia | MontrÃ©al | 2 | All Maps","protocol":17,"map":"cp_dustbowl","folder":"tf","game":"Team Fortress","app_id":440,"player_count":0,"max_players":24,"Bots":0,"server_type":"Dedicated","server_os":"Linux","password":true,"vac":true,"version":"7961495","steam_id":85568392924500088,"keywords":["cp","nocrits","nodmgspread","uncletopia"],"game_id":440,"stv_port":27026,"stv_name":"Uncletopia | MontrÃ©al | 2 | All Maps | STV","players":null},{"server_id":302,"name":"Uncletopia | MontrÃ©al | 3 | All Maps","name_short":"mtl-3","host":"mtl-1.ca.uncletopia.com","port":27035,"enabled":true,"region":"us-east","cc":"ca","latitude":45.50889,"longitude":-73.56167,"reserved":0,"last_update":"0001-01-01T00:00:00Z","name_a2s":"Uncletopia | MontrÃ©al | 3 | All Maps","protocol":17,"map":"koth_cascade","folder":"tf","game":"Team Fortress","app_id":440,"player_count":0,"max_players":24,"Bots":0,"server_type":"Dedicated","server_os":"Linux","password":true,"vac":true,"version":"7961495","steam_id":85568392924500089,"keywords":["cp","nocrits","nodmgspread","uncletopia"],"game_id":440,"stv_port":27036,"stv_name":"Uncletopia | MontrÃ©al | 3 | All Maps | STV","players":null},{"server_id":303,"name":"Uncletopia | MontrÃ©al | 4 | No Payload","name_short":"mtl-4","host":"mtl-1.ca.uncletopia.com","port":27045,"enabled":true,"region":"us-east","cc":"ca","latitude":45.50889,"longitude":-73.56167,"reserved":0,"last_update":"0001-01-01T00:00:00Z","name_a2s":"Uncletopia | MontrÃ©al | 4 | No Payload","protocol":17,"map":"koth_lakeside_final","folder":"tf","game":"Team Fortress","app_id":440,"player_count":0,"max_players":24,"Bots":0,"server_type":"Dedicated","server_os":"Linux","password":true,"vac":true,"version":"7961495","steam_id":85568392924500090,"keywords":["cp","nocrits","nodmgspread","uncletopia"],"game_id":440,"stv_port":27046,"stv_name":"Uncletopia | MontrÃ©al | 4 | No Payload | STV","players":null},{"server_id":13,"name":"Uncletopia | New York City | 1 | All Maps","name_short":"nyc-1","host":"nyc-1.us.uncletopia.com","port":27015,"enabled":true,"region":"us-east","cc":"us","latitude":40.73061,"longitude":-73.93524,"reserved":0,"last_update":"0001-01-01T00:00:00Z","name_a2s":"Uncletopia | New York City | 1 | All Maps","protocol":17,"map":"koth_nucleus","folder":"tf","game":"Team Fortress","app_id":440,"player_count":24,"max_players":24,"Bots":0,"server_type":"Dedicated","server_os":"Linux","password":true,"vac":true,"version":"7961495","steam_id":85568392924469993,"keywords":["cp","nocrits","nodmgspread","uncletopia"],"game_id":440,"stv_port":27016,"stv_name":"Uncletopia | New York City | 1 | All Maps | STV","players":[{"user_id":657,"name":"carrot cake","steam_id":76561198055174915,"connected_time":3549000000000,"state":"active","ping":64},{"user_id":634,"name":"à¹‡Periculosum PhD in Funny","steam_id":76561198123370914,"connected_time":5429000000000,"state":"active","ping":88},{"user_id":698,"name":"Justario","steam_id":76561198016095410,"connected_time":218000000000,"state":"active","ping":44},{"user_id":699,"name":"When","steam_id":76561198807911552,"connected_time":169000000000,"state":"active","ping":147},{"user_id":646,"name":"SLaPPy- oNaSiS","steam_id":76561198009286862,"connected_time":4227000000000,"state":"active","ping":80},{"user_id":697,"name":"NiÎ»iwiÎ»i, â–¼iscount of â–¼io","steam_id":76561198009193777,"connected_time":324000000000,"state":"active","ping":55},{"user_id":689,"name":"laddie","steam_id":76561198063029230,"connected_time":1020000000000,"state":"active","ping":52},{"user_id":690,"name":"tesagi","steam_id":76561198026664629,"connected_time":987000000000,"state":"active","ping":45},{"user_id":535,"name":"Raine","steam_id":76561198055761141,"connected_time":13149000000000,"state":"active","ping":85},{"user_id":675,"name":"lemon from team fortress 2","steam_id":76561199025265182,"connected_time":1941000000000,"state":"active","ping":48},{"user_id":695,"name":"For Sale? (Interlude)","steam_id":76561199050833356,"connected_time":466000000000,"state":"active","ping":72},{"user_id":677,"name":"joe","steam_id":76561199389283507,"connected_time":1818000000000,"state":"active","ping":66},{"user_id":700,"name":"Roket107","steam_id":76561198183851087,"connected_time":165000000000,"state":"active","ping":75},{"user_id":704,"name":"benxdc","steam_id":76561198048279397,"connected_time":20000000000,"state":"active","ping":61},{"user_id":679,"name":"tiananmensquare1989","steam_id":76561199076837870,"connected_time":1727000000000,"state":"active","ping":85},{"user_id":659,"name":"Bee_Pirate","steam_id":76561199000599111,"connected_time":3502000000000,"state":"active","ping":69},{"user_id":701,"name":"king dedede","steam_id":76561198965562679,"connected_time":149000000000,"state":"active","ping":82},{"user_id":656,"name":"breathingtrees","steam_id":76561198118931690,"connected_time":3608000000000,"state":"active","ping":56},{"user_id":673,"name":"5mech","steam_id":76561198979167520,"connected_time":2411000000000,"state":"active","ping":58},{"user_id":653,"name":"Acidic Salt","steam_id":76561199082198609,"connected_time":4066000000000,"state":"active","ping":47},{"user_id":703,"name":"Terraboi3","steam_id":76561199465751949,"connected_time":53000000000,"state":"active","ping":68},{"user_id":635,"name":"googy doogy","steam_id":76561199025852100,"connected_time":5424000000000,"state":"active","ping":49},{"user_id":692,"name":"uhooter","steam_id":76561198007829078,"connected_time":693000000000,"state":"active","ping":61},{"user_id":623,"name":"Biden Blast","steam_id":76561198366729030,"connected_time":6157000000000,"state":"active","ping":120}]},{"server_id":14,"name":"Uncletopia | New York City | 2 | All Maps","name_short":"nyc-2","host":"nyc-1.us.uncletopia.com","port":27025,"enabled":true,"region":"us-east","cc":"us","latitude":40.73061,"longitude":-73.93524,"reserved":0,"last_update":"0001-01-01T00:00:00Z","name_a2s":"Uncletopia | New York City | 2 | All Maps","protocol":17,"map":"cp_dustbowl","folder":"tf","game":"Team Fortress","app_id":440,"player_count":23,"max_players":24,"Bots":0,"server_type":"Dedicated","server_os":"Linux","password":true,"vac":true,"version":"7961495","steam_id":85568392924469994,"keywords":["cp","nocrits","nodmgspread","uncletopia"],"game_id":440,"stv_port":27026,"stv_name":"Uncletopia | New York City | 2 | All Maps | STV","players":[{"user_id":513,"name":"hayes","steam_id":76561198057101042,"connected_time":2147000000000,"state":"active","ping":78},{"user_id":462,"name":"Lord_HoboJo","steam_id":76561198039800002,"connected_time":5013000000000,"state":"active","ping":65},{"user_id":458,"name":"dog","steam_id":76561198263873491,"connected_time":5054000000000,"state":"active","ping":62},{"user_id":537,"name":"Nekotine á—œË¬á—œ","steam_id":76561198375885194,"connected_time":230000000000,"state":"active","ping":65},{"user_id":531,"name":"Tay1Qr","steam_id":76561198082809935,"connected_time":1041000000000,"state":"active","ping":69},{"user_id":541,"name":"Average Dispenser Enjoyer","steam_id":76561198989154975,"connected_time":133000000000,"state":"active","ping":57},{"user_id":526,"name":"Jaxell212","steam_id":76561198307237534,"connected_time":1215000000000,"state":"active","ping":85},{"user_id":538,"name":"Antoine Griezmann","steam_id":76561199491334690,"connected_time":222000000000,"state":"active","ping":31},{"user_id":508,"name":"AlmondMilk","steam_id":76561198151229725,"connected_time":2432000000000,"state":"active","ping":46},{"user_id":503,"name":"Nilantive","steam_id":76561198177565082,"connected_time":2929000000000,"state":"active","ping":44},{"user_id":530,"name":"Baron von Whoopsie","steam_id":76561197996691013,"connected_time":1131000000000,"state":"active","ping":72},{"user_id":534,"name":"Tri_Hunter","steam_id":76561198108176706,"connected_time":710000000000,"state":"active","ping":45},{"user_id":542,"name":"Mecha","steam_id":76561198014927379,"connected_time":19000000000,"state":"spawning","ping":56},{"user_id":528,"name":"nhbiker","steam_id":76561198081277675,"connected_time":1197000000000,"state":"active","ping":45},{"user_id":525,"name":"hxlm.stfu","steam_id":76561199445859311,"connected_time":1553000000000,"state":"active","ping":160},{"user_id":522,"name":"Blood Moon","steam_id":76561197995279133,"connected_time":1857000000000,"state":"active","ping":68},{"user_id":536,"name":"HeavyMettleDick","steam_id":76561198001925087,"connected_time":291000000000,"state":"active","ping":74},{"user_id":521,"name":"Poi","steam_id":76561198176914898,"connected_time":1919000000000,"state":"active","ping":85},{"user_id":532,"name":"Adamantium44","steam_id":76561198266957710,"connected_time":967000000000,"state":"active","ping":93},{"user_id":539,"name":"defect player","steam_id":76561198055855534,"connected_time":174000000000,"state":"active","ping":38},{"user_id":540,"name":"Nobody","steam_id":76561198160544586,"connected_time":171000000000,"state":"active","ping":85},{"user_id":518,"name":"Astrozombeez","steam_id":76561198113754079,"connected_time":2100000000000,"state":"active","ping":86},{"user_id":421,"name":"mytoyo2k2","steam_id":76561199486326945,"connected_time":7997000000000,"state":"active","ping":73}]},{"server_id":15,"name":"Uncletopia | New York City | 3 | Stopwatch Beta","name_short":"nyc-3","host":"nyc-1.us.uncletopia.com","port":27035,"enabled":true,"region":"us-east","cc":"us","latitude":40.73061,"longitude":-73.93524,"reserved":0,"last_update":"0001-01-01T00:00:00Z","name_a2s":"Uncletopia | New York City | 3 | Stopwatch Beta","protocol":17,"map":"workshop/koth_ramjam_rc1.ugc459778887","folder":"tf","game":"Team Fortress","app_id":440,"player_count":0,"max_players":24,"Bots":0,"server_type":"Dedicated","server_os":"Linux","password":true,"vac":true,"version":"7961495","steam_id":85568392924742820,"keywords":["cp","nocrits","nodmgspread","uncletopia"],"game_id":440,"stv_port":27036,"stv_name":"Uncletopia | New York City | 3 | Stopwatch Beta | STV","players":null},{"server_id":16,"name":"Uncletopia | New York City | 4 | Community","name_short":"nyc-4","host":"nyc-1.us.uncletopia.com","port":27045,"enabled":true,"region":"us-east","cc":"us","latitude":40.73061,"longitude":-73.93524,"reserved":0,"last_update":"0001-01-01T00:00:00Z","name_a2s":"Uncletopia | New York City | 4 | Community","protocol":17,"map":"workshop/koth_ashville_final.ugc2130459942","folder":"tf","game":"Team Fortress","app_id":440,"player_count":18,"max_players":24,"Bots":0,"server_type":"Dedicated","server_os":"Linux","password":true,"vac":true,"version":"7961495","steam_id":85568392924742821,"keywords":["cp","nocrits","nodmgspread","uncletopia"],"game_id":440,"stv_port":27046,"stv_name":"Uncletopia | New York City | 4 | Community | STV","players":[{"user_id":314,"name":"A Puppy","steam_id":76561198828184456,"connected_time":4979000000000,"state":"active","ping":45},{"user_id":348,"name":"GiraffeMan","steam_id":76561198042104084,"connected_time":578000000000,"state":"active","ping":61},{"user_id":337,"name":"dnaak","steam_id":76561197960489193,"connected_time":2062000000000,"state":"active","ping":60},{"user_id":349,"name":"Yato","steam_id":76561198084100335,"connected_time":577000000000,"state":"active","ping":72},{"user_id":356,"name":"Gorgon Freeman","steam_id":76561198000367036,"connected_time":14000000000,"state":"active","ping":138},{"user_id":257,"name":"is there anything unfappable?","steam_id":76561198032259680,"connected_time":9512000000000,"state":"active","ping":65},{"user_id":344,"name":"Just washed","steam_id":76561199030160932,"connected_time":1387000000000,"state":"active","ping":76},{"user_id":306,"name":"Major_Mooseman","steam_id":76561198126438141,"connected_time":5403000000000,"state":"active","ping":84},{"user_id":328,"name":"phonedirectory","steam_id":76561198102360911,"connected_time":3349000000000,"state":"active","ping":84},{"user_id":341,"name":"Z3k3R1V3R5","steam_id":76561197989235639,"connected_time":1463000000000,"state":"active","ping":124},{"user_id":340,"name":"l3fty","steam_id":76561198057788958,"connected_time":1650000000000,"state":"active","ping":54},{"user_id":355,"name":"mollusk_obliteration","steam_id":76561198085388962,"connected_time":119000000000,"state":"active","ping":72},{"user_id":259,"name":"kiobu","steam_id":76561198012914428,"connected_time":9439000000000,"state":"active","ping":85},{"user_id":352,"name":"Windup Monkey in a Human Suit","steam_id":76561198119501444,"connected_time":351000000000,"state":"active","ping":84},{"user_id":354,"name":"Silverkeys","steam_id":76561197986012496,"connected_time":296000000000,"state":"active","ping":58},{"user_id":321,"name":"Cookie","steam_id":76561198047736899,"connected_time":3933000000000,"state":"active","ping":35},{"user_id":347,"name":"Chicken Joe","steam_id":76561198077799885,"connected_time":1052000000000,"state":"active","ping":49},{"user_id":339,"name":"littlesack","steam_id":76561197960270526,"connected_time":1916000000000,"state":"active","ping":116}]},{"server_id":142,"name":"Uncletopia | SÃ£o Paulo | 1 | All Maps","name_short":"sao-1","host":"sao-1.br.uncletopia.com","port":27015,"enabled":true,"region":"sa","cc":"br","latitude":-23.533773,"longitude":-46.62529,"reserved":0,"last_update":"0001-01-01T00:00:00Z","name_a2s":"Uncletopia | SÃ£o Paulo | 1 | All Maps","protocol":17,"map":"cp_mountainlab","folder":"tf","game":"Team Fortress","app_id":440,"player_count":0,"max_players":24,"Bots":0,"server_type":"Dedicated","server_os":"Linux","password":true,"vac":true,"version":"7961495","steam_id":85568392924469996,"keywords":["cp","nocrits","nodmgspread","uncletopia"],"game_id":440,"stv_port":27016,"stv_name":"Uncletopia | SÃ£o Paulo | 1 | All Maps | STV","players":null},{"server_id":143,"name":"Uncletopia | SÃ£o Paulo | 2 | Community","name_short":"sao-2","host":"sao-2.br.uncletopia.com","port":27015,"enabled":true,"region":"sa","cc":"br","latitude":-23.533773,"longitude":-46.62529,"reserved":0,"last_update":"0001-01-01T00:00:00Z","name_a2s":"Uncletopia | SÃ£o Paulo | 2 | Community","protocol":17,"map":"workshop/pl_barnblitz_pro7.ugc582280235","folder":"tf","game":"Team Fortress","app_id":440,"player_count":8,"max_players":24,"Bots":0,"server_type":"Dedicated","server_os":"Linux","password":true,"vac":true,"version":"7961495","steam_id":85568392924485349,"keywords":["nocrits","nodmgspread","payload","uncletopia"],"game_id":440,"stv_port":27016,"stv_name":"Uncletopia | SÃ£o Paulo | 2 | Community | STV","players":[{"user_id":57,"name":"La'caca","steam_id":76561199047860229,"connected_time":3921000000000,"state":"active","ping":66},{"user_id":76,"name":"Hercules","steam_id":76561199017999458,"connected_time":1012000000000,"state":"active","ping":76},{"user_id":77,"name":"K. Montozo","steam_id":76561198892462260,"connected_time":974000000000,"state":"active","ping":70},{"user_id":80,"name":"Songalongamon","steam_id":76561198114565169,"connected_time":699000000000,"state":"active","ping":44},{"user_id":86,"name":"Ricardo Ereto","steam_id":76561199022729585,"connected_time":167000000000,"state":"active","ping":47},{"user_id":63,"name":"Fioti","steam_id":76561199001100062,"connected_time":2802000000000,"state":"active","ping":193},{"user_id":83,"name":"kifi","steam_id":76561199069994646,"connected_time":477000000000,"state":"active","ping":90},{"user_id":66,"name":"Null","steam_id":76561199417967452,"connected_time":2521000000000,"state":"active","ping":234}]},{"server_id":7,"name":"Uncletopia | Seattle | 1 | All Maps","name_short":"sea-1","host":"sea-1.us.uncletopia.com","port":27015,"enabled":true,"region":"us-west","cc":"us","latitude":47.608013,"longitude":-122.33517,"reserved":0,"last_update":"0001-01-01T00:00:00Z","name_a2s":"Uncletopia | Seattle | 1 | All Maps","protocol":17,"map":"koth_badlands","folder":"tf","game":"Team Fortress","app_id":440,"player_count":24,"max_players":24,"Bots":0,"server_type":"Dedicated","server_os":"Linux","password":true,"vac":true,"version":"7961495","steam_id":85568392924469997,"keywords":["cp","nocrits","nodmgspread","uncletopia"],"game_id":440,"stv_port":27016,"stv_name":"Uncletopia | Seattle | 1 | All Maps | STV","players":[{"user_id":194,"name":"ejschild745","steam_id":76561199013388867,"connected_time":6704000000000,"state":"active","ping":69},{"user_id":195,"name":"Optimore","steam_id":76561198047662990,"connected_time":6680000000000,"state":"active","ping":70},{"user_id":273,"name":"pigswill","steam_id":76561197999081865,"connected_time":606000000000,"state":"active","ping":120},{"user_id":191,"name":"Gerbias","steam_id":76561198001002427,"connected_time":6823000000000,"state":"active","ping":66},{"user_id":277,"name":"bullet man","steam_id":76561198080058079,"connected_time":57000000000,"state":"spawning","ping":61},{"user_id":237,"name":"no vc no c","steam_id":76561197989503095,"connected_time":3923000000000,"state":"active","ping":153},{"user_id":270,"name":"beep boop","steam_id":76561198095480838,"connected_time":868000000000,"state":"active","ping":49},{"user_id":275,"name":"mooney","steam_id":76561199110622484,"connected_time":268000000000,"state":"active","ping":66},{"user_id":261,"name":"help","steam_id":76561198171840525,"connected_time":1727000000000,"state":"active","ping":48},{"user_id":247,"name":"jacix3 [silly doggie :3]","steam_id":76561198205004165,"connected_time":3151000000000,"state":"active","ping":59},{"user_id":246,"name":"mine diam","steam_id":76561198119123981,"connected_time":3393000000000,"state":"active","ping":46},{"user_id":272,"name":"Alltrex","steam_id":76561198202254225,"connected_time":786000000000,"state":"active","ping":45},{"user_id":274,"name":"forest (minecraft npc)","steam_id":76561198157960257,"connected_time":573000000000,"state":"active","ping":48},{"user_id":241,"name":"greens beans","steam_id":76561198153611491,"connected_time":3723000000000,"state":"active","ping":41},{"user_id":266,"name":"sleepy","steam_id":76561198288663776,"connected_time":882000000000,"state":"active","ping":56},{"user_id":231,"name":"A UsedNom","steam_id":76561198402832756,"connected_time":4162000000000,"state":"active","ping":56},{"user_id":248,"name":"Career","steam_id":76561198028542212,"connected_time":2935000000000,"state":"active","ping":129},{"user_id":271,"name":"thegreatsawyer","steam_id":76561198393604826,"connected_time":852000000000,"state":"active","ping":51},{"user_id":276,"name":"Arsonist Goose","steam_id":76561198147441830,"connected_time":157000000000,"state":"active","ping":68},{"user_id":267,"name":"jayeskae","steam_id":76561198144220801,"connected_time":881000000000,"state":"active","ping":51},{"user_id":220,"name":"Puppygirl full of Estradiol","steam_id":76561198085813708,"connected_time":4797000000000,"state":"active","ping":119},{"user_id":228,"name":"Ayayayayayahuasca","steam_id":76561199002906056,"connected_time":4384000000000,"state":"active","ping":47},{"user_id":268,"name":"MyMonkeyBaby","steam_id":76561198046896670,"connected_time":880000000000,"state":"active","ping":57},{"user_id":257,"name":"Confirmed Bachelor","steam_id":76561198441041496,"connected_time":2364000000000,"state":"active","ping":60}]},{"server_id":119,"name":"Uncletopia | Seattle | 2 | All Maps","name_short":"sea-2","host":"sea-1.us.uncletopia.com","port":27025,"enabled":true,"region":"us-west","cc":"us","latitude":47.608013,"longitude":-122.33517,"reserved":0,"last_update":"0001-01-01T00:00:00Z","name_a2s":"Uncletopia | Seattle | 2 | All Maps","protocol":17,"map":"pl_pier","folder":"tf","game":"Team Fortress","app_id":440,"player_count":24,"max_players":24,"Bots":0,"server_type":"Dedicated","server_os":"Linux","password":true,"vac":true,"version":"7961495","steam_id":85568392924469998,"keywords":["nocrits","nodmgspread","payload","uncletopia"],"game_id":440,"stv_port":27026,"stv_name":"Uncletopia | Seattle | 2 | All Maps | STV","players":[{"user_id":286,"name":"sixshabbyshearedsheepshitting","steam_id":76561197972601902,"connected_time":1287000000000,"state":"active","ping":85},{"user_id":297,"name":"Morse","steam_id":76561198039944542,"connected_time":221000000000,"state":"active","ping":46},{"user_id":296,"name":"Vibrantword3732","steam_id":76561198916638641,"connected_time":232000000000,"state":"active","ping":65},{"user_id":270,"name":"[DATSâž¡] Sugar Meowth","steam_id":76561197995251793,"connected_time":2953000000000,"state":"active","ping":41},{"user_id":310,"name":"lamb cutlet","steam_id":76561199063557758,"connected_time":8000000000,"state":"spawning","ping":72},{"user_id":298,"name":"gangsta necoarc","steam_id":76561199492390896,"connected_time":197000000000,"state":"active","ping":75},{"user_id":299,"name":"krootonitron","steam_id":76561198114113037,"connected_time":192000000000,"state":"active","ping":56},{"user_id":301,"name":"tripz","steam_id":76561198062152308,"connected_time":165000000000,"state":"active","ping":130},{"user_id":302,"name":"Arkus :watermelon:","steam_id":76561199092478198,"connected_time":132000000000,"state":"active","ping":46},{"user_id":303,"name":"Jykle","steam_id":76561198077352807,"connected_time":119000000000,"state":"active","ping":57},{"user_id":275,"name":"Lambchop","steam_id":76561198043900363,"connected_time":2418000000000,"state":"active","ping":77},{"user_id":290,"name":"CashGordon","steam_id":76561197975594096,"connected_time":965000000000,"state":"active","ping":41},{"user_id":259,"name":"SolarusD","steam_id":76561198029279861,"connected_time":3886000000000,"state":"active","ping":68},{"user_id":305,"name":"pybroZer0","steam_id":76561198171093203,"connected_time":65000000000,"state":"active","ping":61},{"user_id":295,"name":"YahYeeterson","steam_id":76561198120480906,"connected_time":236000000000,"state":"active","ping":63},{"user_id":306,"name":"ZaniZ","steam_id":76561198161467000,"connected_time":55000000000,"state":"active","ping":34},{"user_id":287,"name":"michael jordan","steam_id":76561198207881077,"connected_time":1252000000000,"state":"active","ping":105},{"user_id":307,"name":"Bleedin' Action Man","steam_id":76561198045722214,"connected_time":36000000000,"state":"active","ping":83},{"user_id":308,"name":"Robotferret87","steam_id":76561198259837716,"connected_time":33000000000,"state":"active","ping":118},{"user_id":309,"name":"Pyronautica","steam_id":76561198032490218,"connected_time":29000000000,"state":"active","ping":47},{"user_id":291,"name":"Bluedemon","steam_id":76561199212058684,"connected_time":929000000000,"state":"active","ping":80},{"user_id":292,"name":"Gold_S4 #saveTF2","steam_id":76561199082435571,"connected_time":925000000000,"state":"active","ping":113},{"user_id":267,"name":"Pebbles","steam_id":76561197985155770,"connected_time":3292000000000,"state":"active","ping":121},{"user_id":234,"name":"papa big slammer","steam_id":76561198011675372,"connected_time":5256000000000,"state":"active","ping":63}]},{"server_id":406,"name":"Uncletopia | Seattle | 3 | Stopwatch Beta","name_short":"sea-3","host":"sea-1.us.uncletopia.com","port":27035,"enabled":true,"region":"us-west","cc":"us","latitude":47.608013,"longitude":-122.33517,"reserved":0,"last_update":"0001-01-01T00:00:00Z","name_a2s":"Uncletopia | Seattle | 3 | Stopwatch Beta","protocol":17,"map":"workshop/pl_vigil_rc9.ugc1266210012","folder":"tf","game":"Team Fortress","app_id":440,"player_count":0,"max_players":24,"Bots":0,"server_type":"Dedicated","server_os":"Linux","password":true,"vac":true,"version":"7961495","steam_id":85568392924515217,"keywords":["nocrits","nodmgspread","payload","uncletopia"],"game_id":440,"stv_port":27036,"stv_name":"Uncletopia | Seattle | 3 | Stopwatch Beta | STV","players":null},{"server_id":17,"name":"Uncletopia | San Francisco | 1 | All Maps","name_short":"sfo-1","host":"sfo-1.us.uncletopia.com","port":27015,"enabled":true,"region":"us-west","cc":"us","latitude":37.77397,"longitude":-122.4313,"reserved":0,"last_update":"0001-01-01T00:00:00Z","name_a2s":"Uncletopia | San Francisco | 1 | All Maps","protocol":17,"map":"pl_barnblitz","folder":"tf","game":"Team Fortress","app_id":440,"player_count":23,"max_players":24,"Bots":0,"server_type":"Dedicated","server_os":"Linux","password":true,"vac":true,"version":"7961495","steam_id":85568392924469999,"keywords":["nocrits","nodmgspread","payload","uncletopia"],"game_id":440,"stv_port":27016,"stv_name":"Uncletopia | San Francisco | 1 | All Maps | STV","players":[{"user_id":218,"name":"krectum","steam_id":76561198079471747,"connected_time":1737000000000,"state":"active","ping":71},{"user_id":196,"name":"twofour","steam_id":76561197995200743,"connected_time":2987000000000,"state":"active","ping":45},{"user_id":162,"name":"stboncho","steam_id":76561198172275301,"connected_time":5381000000000,"state":"active","ping":62},{"user_id":210,"name":"bobtheninjaman","steam_id":76561198066424544,"connected_time":1924000000000,"state":"active","ping":68},{"user_id":199,"name":"bonk","steam_id":76561198922763623,"connected_time":2549000000000,"state":"active","ping":61},{"user_id":157,"name":"homewurk","steam_id":76561199080327081,"connected_time":5626000000000,"state":"active","ping":64},{"user_id":226,"name":"Lo-Pan","steam_id":76561198085670133,"connected_time":1168000000000,"state":"active","ping":101},{"user_id":173,"name":"SÃ¡bado Gigante","steam_id":76561197994685971,"connected_time":4770000000000,"state":"active","ping":64},{"user_id":195,"name":"kuysterr","steam_id":76561198081337009,"connected_time":3161000000000,"state":"active","ping":80},{"user_id":234,"name":"Dr. PP","steam_id":76561199018184096,"connected_time":795000000000,"state":"active","ping":71},{"user_id":232,"name":"Skreed [G*]","steam_id":76561197998086143,"connected_time":836000000000,"state":"active","ping":104},{"user_id":207,"name":"Ssamjang","steam_id":76561197966891870,"connected_time":2115000000000,"state":"active","ping":74},{"user_id":233,"name":"devamar","steam_id":76561198069115467,"connected_time":825000000000,"state":"active","ping":45},{"user_id":227,"name":"BYS ShadowFenix","steam_id":76561198186807115,"connected_time":1149000000000,"state":"active","ping":32},{"user_id":230,"name":"Black Tiger Sex Machine","steam_id":76561198060078398,"connected_time":1093000000000,"state":"active","ping":83},{"user_id":209,"name":"Irritated Duck","steam_id":76561198247792076,"connected_time":2106000000000,"state":"active","ping":100},{"user_id":228,"name":"NotAWeeb","steam_id":76561198165530739,"connected_time":1119000000000,"state":"active","ping":48},{"user_id":229,"name":"puffer","steam_id":76561199049164456,"connected_time":1115000000000,"state":"active","ping":60},{"user_id":237,"name":"don't get mad","steam_id":76561198064662875,"connected_time":444000000000,"state":"active","ping":48},{"user_id":107,"name":"Ice cream sandwich","steam_id":76561198172748357,"connected_time":7515000000000,"state":"active","ping":49},{"user_id":225,"name":"Kito","steam_id":76561198032401946,"connected_time":1354000000000,"state":"active","ping":66},{"user_id":238,"name":"Amogous Supreme","steam_id":76561198025476774,"connected_time":274000000000,"state":"active","ping":55},{"user_id":202,"name":"crumbles","steam_id":76561198168707036,"connected_time":2400000000000,"state":"active","ping":53}]},{"server_id":18,"name":"Uncletopia | San Francisco | 2 | All Maps","name_short":"sfo-2","host":"sfo-1.us.uncletopia.com","port":27025,"enabled":true,"region":"us-west","cc":"us","latitude":37.77397,"longitude":-122.4313,"reserved":0,"last_update":"0001-01-01T00:00:00Z","name_a2s":"Uncletopia | San Francisco | 2 | All Maps","protocol":17,"map":"cp_mountainlab","folder":"tf","game":"Team Fortress","app_id":440,"player_count":0,"max_players":24,"Bots":0,"server_type":"Dedicated","server_os":"Linux","password":true,"vac":true,"version":"7961495","steam_id":85568392924470000,"keywords":["cp","nocrits","nodmgspread","uncletopia"],"game_id":440,"stv_port":27026,"stv_name":"Uncletopia | San Francisco | 2 | All Maps | STV","players":null},{"server_id":19,"name":"Uncletopia | San Francisco | 3 | Stopwatch Beta","name_short":"sfo-3","host":"sfo-1.us.uncletopia.com","port":27035,"enabled":true,"region":"us-west","cc":"us","latitude":37.77397,"longitude":-122.4313,"reserved":0,"last_update":"0001-01-01T00:00:00Z","name_a2s":"Uncletopia | San Francisco | 3 | Stopwatch Beta","protocol":17,"map":"pl_borneo","folder":"tf","game":"Team Fortress","app_id":440,"player_count":0,"max_players":24,"Bots":0,"server_type":"Dedicated","server_os":"Linux","password":true,"vac":true,"version":"7961495","steam_id":85568392924742824,"keywords":["nocrits","nodmgspread","payload","uncletopia"],"game_id":440,"stv_port":27036,"stv_name":"Uncletopia | San Francisco | 3 | Stopwatch Beta | STV","players":null},{"server_id":20,"name":"Uncletopia | San Francisco | 4 | Community","name_short":"sfo-4","host":"sfo-1.us.uncletopia.com","port":27045,"enabled":true,"region":"us-west","cc":"us","latitude":37.77397,"longitude":-122.4313,"reserved":0,"last_update":"0001-01-01T00:00:00Z","name_a2s":"Uncletopia | San Francisco | 4 | Community","protocol":17,"map":"koth_viaduct","folder":"tf","game":"Team Fortress","app_id":440,"player_count":5,"max_players":24,"Bots":0,"server_type":"Dedicated","server_os":"Linux","password":true,"vac":true,"version":"7961495","steam_id":85568392924742826,"keywords":["cp","nocrits","nodmgspread","uncletopia"],"game_id":440,"stv_port":27046,"stv_name":"Uncletopia | San Francisco | 4 | Community | STV","players":[{"user_id":8,"name":"Skilliton","steam_id":76561198212089960,"connected_time":1610000000000,"state":"active","ping":31},{"user_id":7,"name":"Renz","steam_id":76561198118995036,"connected_time":1851000000000,"state":"active","ping":58},{"user_id":9,"name":"nfseskimo","steam_id":76561198078745666,"connected_time":1548000000000,"state":"active","ping":63},{"user_id":10,"name":"cofferhead","steam_id":76561199191108449,"connected_time":1293000000000,"state":"active","ping":61},{"user_id":12,"name":"Villchip","steam_id":76561198198599982,"connected_time":760000000000,"state":"active","ping":69}]},{"server_id":141,"name":"Uncletopia | Sydney | 1 | All Maps","name_short":"syd-1","host":"syd-1.au.uncletopia.com","port":27015,"enabled":true,"region":"au","cc":"au","latitude":-33.865143,"longitude":151.2099,"reserved":0,"last_update":"0001-01-01T00:00:00Z","name_a2s":"","protocol":0,"map":"","folder":"","game":"","app_id":0,"player_count":0,"max_players":0,"Bots":0,"server_type":"","server_os":"","password":false,"vac":false,"version":"","steam_id":0,"keywords":null,"game_id":0,"stv_port":0,"stv_name":"","players":null},{"server_id":123,"name":"Uncletopia | Sydney | 2 | All Maps","name_short":"syd-2","host":"syd-1.au.uncletopia.com","port":27025,"enabled":true,"region":"au","cc":"au","latitude":-33.865143,"longitude":151.2099,"reserved":0,"last_update":"0001-01-01T00:00:00Z","name_a2s":"","protocol":0,"map":"","folder":"","game":"","app_id":0,"player_count":0,"max_players":0,"Bots":0,"server_type":"","server_os":"","password":false,"vac":false,"version":"","steam_id":0,"keywords":null,"game_id":0,"stv_port":0,"stv_name":"","players":null},{"server_id":395,"name":"Uncletopia | Sydney | 3 | All Maps","name_short":"syd-3","host":"syd-1.au.uncletopia.com","port":27035,"enabled":true,"region":"au","cc":"au","latitude":-33.865143,"longitude":151.2099,"reserved":0,"last_update":"0001-01-01T00:00:00Z","name_a2s":"","protocol":0,"map":"","folder":"","game":"","app_id":0,"player_count":0,"max_players":0,"Bots":0,"server_type":"","server_os":"","password":false,"vac":false,"version":"","steam_id":0,"keywords":null,"game_id":0,"stv_port":0,"stv_name":"","players":null},{"server_id":396,"name":"Uncletopia | Sydney | 4 | All Maps","name_short":"syd-4","host":"syd-1.au.uncletopia.com","port":27045,"enabled":true,"region":"au","cc":"au","latitude":-33.865143,"longitude":151.2099,"reserved":0,"last_update":"0001-01-01T00:00:00Z","name_a2s":"","protocol":0,"map":"","folder":"","game":"","app_id":0,"player_count":0,"max_players":0,"Bots":0,"server_type":"","server_os":"","password":false,"vac":false,"version":"","steam_id":0,"keywords":null,"game_id":0,"stv_port":0,"stv_name":"","players":null},{"server_id":58,"name":"Uncletopia | Sydney | 5 | Stopwatch Beta","name_short":"syd-5","host":"syd-1.au.uncletopia.com","port":27055,"enabled":true,"region":"au","cc":"au","latitude":-33.865143,"longitude":151.2099,"reserved":0,"last_update":"0001-01-01T00:00:00Z","name_a2s":"","protocol":0,"map":"","folder":"","game":"","app_id":0,"player_count":0,"max_players":0,"Bots":0,"server_type":"","server_os":"","password":false,"vac":false,"version":"","steam_id":0,"keywords":null,"game_id":0,"stv_port":0,"stv_name":"","players":null},{"server_id":59,"name":"Uncletopia | Sydney | 6 | Community","name_short":"syd-6","host":"syd-1.au.uncletopia.com","port":27065,"enabled":true,"region":"au","cc":"au","latitude":-33.865143,"longitude":151.2099,"reserved":0,"last_update":"0001-01-01T00:00:00Z","name_a2s":"","protocol":0,"map":"","folder":"","game":"","app_id":0,"player_count":2,"max_players":0,"Bots":0,"server_type":"","server_os":"","password":false,"vac":false,"version":"","steam_id":0,"keywords":null,"game_id":0,"stv_port":0,"stv_name":"","players":[{"user_id":3,"name":"LegEaterHK","steam_id":76561199357838817,"connected_time":1867000000000,"state":"active","ping":78},{"user_id":6,"name":"Q*bert-the42ndwafflefluxtardis","steam_id":76561199152151734,"connected_time":102000000000,"state":"active","ping":68}]},{"server_id":49,"name":"Uncletopia | Warsaw | 1 | All Maps","name_short":"waw-1","host":"waw-1.pl.uncletopia.com","port":27015,"enabled":true,"region":"eu","cc":"pl","latitude":52.2297,"longitude":21.017532,"reserved":0,"last_update":"0001-01-01T00:00:00Z","name_a2s":"","protocol":0,"map":"","folder":"","game":"","app_id":0,"player_count":0,"max_players":0,"Bots":0,"server_type":"","server_os":"","password":false,"vac":false,"version":"","steam_id":0,"keywords":null,"game_id":0,"stv_port":0,"stv_name":"","players":null},{"server_id":50,"name":"Uncletopia | Warsaw | 2 | All Maps","name_short":"waw-2","host":"waw-1.pl.uncletopia.com","port":27025,"enabled":true,"region":"eu","cc":"pl","latitude":52.2297,"longitude":21.017532,"reserved":0,"last_update":"0001-01-01T00:00:00Z","name_a2s":"","protocol":0,"map":"","folder":"","game":"","app_id":0,"player_count":0,"max_players":0,"Bots":0,"server_type":"","server_os":"","password":false,"vac":false,"version":"","steam_id":0,"keywords":null,"game_id":0,"stv_port":0,"stv_name":"","players":null},{"server_id":51,"name":"Uncletopia | Warsaw | 3 | All Maps","name_short":"waw-3","host":"waw-1.pl.uncletopia.com","port":27035,"enabled":true,"region":"eu","cc":"pl","latitude":52.2297,"longitude":21.017532,"reserved":0,"last_update":"0001-01-01T00:00:00Z","name_a2s":"","protocol":0,"map":"","folder":"","game":"","app_id":0,"player_count":0,"max_players":0,"Bots":0,"server_type":"","server_os":"","password":false,"vac":false,"version":"","steam_id":0,"keywords":null,"game_id":0,"stv_port":0,"stv_name":"","players":null},{"server_id":52,"name":"Uncletopia | Warsaw | 4 | All Maps","name_short":"waw-4","host":"waw-1.pl.uncletopia.com","port":27045,"enabled":true,"region":"eu","cc":"pl","latitude":52.2297,"longitude":21.017532,"reserved":0,"last_update":"0001-01-01T00:00:00Z","name_a2s":"","protocol":0,"map":"","folder":"","game":"","app_id":0,"player_count":0,"max_players":0,"Bots":0,"server_type":"","server_os":"","password":false,"vac":false,"version":"","steam_id":0,"keywords":null,"game_id":0,"stv_port":0,"stv_name":"","players":null},{"server_id":53,"name":"Uncletopia | Warsaw | 5 | No Payload","name_short":"waw-5","host":"waw-1.pl.uncletopia.com","port":27055,"enabled":true,"region":"eu","cc":"pl","latitude":52.2297,"longitude":21.017532,"reserved":0,"last_update":"0001-01-01T00:00:00Z","name_a2s":"","protocol":0,"map":"","folder":"","game":"","app_id":0,"player_count":0,"max_players":0,"Bots":0,"server_type":"","server_os":"","password":false,"vac":false,"version":"","steam_id":0,"keywords":null,"game_id":0,"stv_port":0,"stv_name":"","players":null},{"server_id":54,"name":"Uncletopia | Warsaw | 6 | Community","name_short":"waw-6","host":"waw-1.pl.uncletopia.com","port":27065,"enabled":true,"region":"eu","cc":"pl","latitude":52.2297,"longitude":21.017532,"reserved":0,"last_update":"0001-01-01T00:00:00Z","name_a2s":"","protocol":0,"map":"","folder":"","game":"","app_id":0,"player_count":0,"max_players":0,"Bots":0,"server_type":"","server_os":"","password":false,"vac":false,"version":"","steam_id":0,"keywords":null,"game_id":0,"stv_port":0,"stv_name":"","players":null}]}