{"status":true,"message":"","result":[{"server_id":9,"name":"Uncletopia | Atlanta | 1 | All Maps","name_short":"atl-1","host":"atl-1.us.uncletopia.com","port":27015,"enabled":true,"region":"us-east","cc":"us","latitude":33.753746,"longitude":-84.38633,"reserved":0,"last_update":"0001-01-01T00:00:00Z","name_a2s":"Uncletopia | Atlanta | 1 | All Maps","protocol":17,"map":"cp_steel","folder":"tf","game":"Team Fortress","app_id":440,"player_count":24,"max_players":24,"Bots":0,"server_type":"Dedicated","server_os":"Linux","password":true,"vac":true,"version":"7961495","steam_id":85568392924469982,"keywords":["cp","nocrits","nodmgspread","uncletopia"],"game_id":440,"stv_port":27016,"stv_name":"Uncletopia | Atlanta | 1 | All Maps | STV","players":[{"user_id":88,"name":"Just PYE","steam_id":76561199439622967,"connected_time":187000000000,"state":"active","ping":73},{"user_id":84,"name":"Intro Bonito","steam_id":76561198119478838,"connected_time":801000000000,"state":"active","ping":45},{"user_id":32,"name":"Le4n!!!","steam_id":76561198045522596,"connected_time":5540000000000,"state":"active","ping":60},{"user_id":82,"name":"kite","steam_id":76561198346516392,"connected_time":1326000000000,"state":"active","ping":84},{"user_id":69,"name":"why","steam_id":76561199059732212,"connected_time":3398000000000,"state":"active","ping":45},{"user_id":89,"name":"GUTTERBALL","steam_id":76561198927517471,"connected_time":84000000000,"state":"active","ping":65},{"user_id":90,"name":"ATL1 | Woke Bush","steam_id":76561198047994501,"connected_time":43000000000,"state":"active","ping":41},{"user_id":37,"name":"Sanshi","steam_id":76561198145823543,"connected_time":5306000000000,"state":"spawning","ping":125},{"user_id":71,"name":"b4nny sewer spot on process","steam_id":76561198982810452,"connected_time":3365000000000,"state":"active","ping":81},{"user_id":66,"name":"Albino Jellyfish","steam_id":76561198208561097,"connected_time":4102000000000,"state":"active","ping":50},{"user_id":83,"name":"BeastRyder","steam_id":76561198330281584,"connected_time":1188000000000,"state":"active","ping":78},{"user_id":65,"name":"JoJo","steam_id":76561198053768289,"connected_time":4150000000000,"state":"active","ping":114},{"user_id":50,"name":"gretchling","steam_id":76561198046111695,"connected_time":4734000000000,"state":"active","ping":60},{"user_id":74,"name":"Lolxdloldx","steam_id":76561198136887125,"connected_time":2474000000000,"state":"active","ping":119},{"user_id":72,"name":"CRWND","steam_id":76561198329810027,"connected_time":3316000000000,"state":"active","ping":150},{"user_id":46,"name":"marisa kirisame","steam_id":76561198070327681,"connected_time":4939000000000,"state":"active","ping":67},{"user_id":91,"name":"Rat","steam_id":76561198137925582,"connected_time":30000000000,"state":"active","ping":61},{"user_id":76,"name":"Grim","steam_id":76561198225241776,"connected_time":2463000000000,"state":"active","ping":71},{"user_id":87,"name":"Twa","steam_id":76561198295529541,"connected_time":592000000000,"state":"active","ping":70},{"user_id":54,"name":"twitch.tv/axities","steam_id":76561198278008225,"connected_time":4580000000000,"state":"active","ping":63},{"user_id":55,"name":"shnowshner","steam_id":76561198066450438,"connected_time":4569000000000,"state":"active","ping":77},{"user_id":80,"name":"hi","steam_id":76561198809577048,"connected_time":1845000000000,"state":"active","ping":131},{"user_id":57,"name":"Overduecat","steam_id":76561198092452824,"connected_time":4554000000000,"state":"active","ping":84},{"user_id":61,"name":"Nescio","steam_id":76561198119526760,"connected_time":4458000000000,"state":"active","ping":72}]},{"server_id":104,"name":"Uncletopia | Atlanta | 2 | All Maps","name_short":"atl-2","host":"atl-1.us.uncletopia.com","port":27025,"enabled":true,"region":"us-east","cc":"us","latitude":33.753746,"longitude":-84.38633,"reserved":0,"last_update":"0001-01-01T00:00:00Z","name_a2s":"Uncletopia | Atlanta | 2 | All Maps","protocol":17,"map":"koth_cascade","folder":"tf","game":"Team Fortress","app_id":440,"player_count":0,"max_players":24,"Bots":0,"server_type":"Dedicated","server_os":"Linux","password":true,"vac":true,"version":"7961495","steam_id":85568392924469983,"keywords":["cp","nocrits","nodmgspread","uncletopia"],"game_id":440,"stv_port":27026,"stv_name":"Uncletopia | Atlanta | 2 | All Maps | STV","players":null},{"server_id":400,"name":"Uncletopia | Atlanta | 3 | Stopwatch","name_short":"atl-3","host":"atl-1.us.uncletopia.com","port":27035,"enabled":true,"region":"us-east","cc":"us","latitude":33.753746,"longitude":-84.38633,"reserved":0,"last_update":"0001-01-01T00:00:00Z","name_a2s":"Uncletopia | Atlanta | 3 | Stopwatch","protocol":17,"map":"pl_upward","folder":"tf","game":"Team Fortress","app_id":440,"player_count":0,"max_players":24,"Bots":0,"server_type":"Dedicated","server_os":"Linux","password":true,"vac":true,"version":"7961495","steam_id":85568392924515187,"keywords":["nocrits","nodmgspread","payload","uncletopia"],"game_id":440,"stv_port":27036,"stv_name":"Uncletopia | Atlanta | 3 | Stopwatch | STV","players":null},{"server_id":401,"name":"Uncletopia | Atlanta | 4 | Community","name_short":"atl-4","host":"atl-1.us.uncletopia.com","port":27045,"enabled":true,"region":"us-east","cc":"us","latitude":33.753746,"longitude":-84.38633,"reserved":0,"last_update":"0001-01-01T00:00:00Z","name_a2s":"Uncletopia | Atlanta | 4 | Community","protocol":17,"map":"workshop/koth_product_final.ugc454272353","folder":"tf","game":"Team Fortress","app_id":440,"player_count":0,"max_players":24,"Bots":0,"server_type":"Dedicated","server_os":"Linux","password":true,"vac":true,"version":"7961495","steam_id":85568392924515188,"keywords":["cp","nocrits","nodmgspread","uncletopia"],"game_id":440,"stv_port":27046,"stv_name":"Uncletopia | Atlanta | 4 | Community | STV","players":null},{"server_id":2,"name":"Uncletopia | Chicago | 1 | All Maps","name_short":"chi-1","host":"chi-1.us.uncletopia.com","port":27015,"enabled":true,"region":"us-central","cc":"us","latitude":41.881832,"longitude":-87.62318,"reserved":0,"last_update":"0001-01-01T00:00:00Z","name_a2s":"Uncletopia | Chicago | 1 | All Maps","protocol":17,"map":"cp_metalworks","folder":"tf","game":"Team Fortress","app_id":440,"player_count":24,"max_players":24,"Bots":0,"server_type":"Dedicated","server_os":"Linux","password":true,"vac":true,"version":"7961495","steam_id":85568392924469984,"keywords":["cp","nocrits","nodmgspread","uncletopia"],"game_id":440,"stv_port":27016,"stv_name":"Uncletopia | Chicago | 1 | All Maps | STV","players":[{"user_id":227,"name":"ุ","steam_id":76561198170624701,"connected_time":300000000000,"state":"active","ping":72},{"user_id":143,"name":"im from tha mud","steam_id":76561198142756572,"connected_time":7630000000000,"state":"active","ping":68},{"user_id":199,"name":"suicide enjoyer","steam_id":76561198057076267,"connected_time":2921000000000,"state":"active","ping":71},{"user_id":179,"name":"Amari","steam_id":76561198272446730,"connected_time":4437000000000,"state":"active","ping":55},{"user_id":176,"name":"4 life","steam_id":76561198175961598,"connected_time":4662000000000,"state":"active","ping":111},{"user_id":228,"name":"Shrim","steam_id":76561198068455981,"connected_time":292000000000,"state":"active","ping":72},{"user_id":229,"name":"(She/Her)ChaméniTheá","steam_id":76561198114244051,"connected_time":278000000000,"state":"active","ping":80},{"user_id":222,"name":"Op banana","steam_id":76561198303231451,"connected_time":691000000000,"state":"active","ping":70},{"user_id":214,"name":"Snom","steam_id":76561198333827920,"connected_time":1328000000000,"state":"active","ping":119},{"user_id":226,"name":"ED","steam_id":76561198441715445,"connected_time":340000000000,"state":"active","ping":79},{"user_id":230,"name":"Chirp","steam_id":76561198240780230,"connected_time":263000000000,"state":"active","ping":96},{"user_id":219,"name":"ThatGamingKiwi","steam_id":76561199170522237,"connected_time":881000000000,"state":"active","ping":72},{"user_id":234,"name":"Tri-Dot","steam_id":76561199075186597,"connected_time":51000000000,"state":"active","ping":56},{"user_id":196,"name":"Mr. Luggy","steam_id":76561198072723392,"connected_time":3038000000000,"state":"active","ping":91},{"user_id":231,"name":"H3CTiC_BRUiN","steam_id":76561197989221671,"connected_time":259000000000,"state":"active","ping":114},{"user_id":168,"name":"mr, mean","steam_id":76561198095048900,"connected_time":5376000000000,"state":"active","ping":59},{"user_id":131,"name":"Coke Himmy","steam_id":76561198397459211,"connected_time":8313000000000,"state":"active","ping":81},{"user_id":177,"name":"gulch","steam_id":76561199227946025,"connected_time":4651000000000,"state":"active","ping":69},{"user_id":225,"name":"TheGreythreat","steam_id":76561198021995538,"connected_time":535000000000,"state":"active","ping":60},{"user_id":207,"name":"halo","steam_id":76561198311004039,"connected_time":2059000000000,"state":"active","ping":89},{"user_id":232,"name":"Invis","steam_id":76561198084260431,"connected_time":220000000000,"state":"active","ping":84},{"user_id":202,"name":"Beef Wellington","steam_id":76561198049837377,"connected_time":2788000000000,"state":"active","ping":48},{"user_id":233,"name":"qory","steam_id":76561198152064890,"connected_time":218000000000,"state":"active","ping":48},{"user_id":203,"name":"Filthy Acts at Reasonable Price","steam_id":76561198354615890,"connected_time":2765000000000,"state":"active","ping":98}]},{"server_id":106,"name":"Uncletopia | Chicago | 2 | All Maps","name_short":"chi-2","host":"chi-1.us.uncletopia.com","port":27025,"enabled":true,"region":"us-central","cc":"us","latitude":41.881832,"longitude":-87.62318,"reserved":0,"last_update":"0001-01-01T00:00:00Z","name_a2s":"Uncletopia | Chicago | 2 | All Maps","protocol":17,"map":"cp_dustbowl","folder":"tf","game":"Team Fortress","app_id":440,"player_count":15,"max_players":24,"Bots":0,"server_type":"Dedicated","server_os":"Linux","password":true,"vac":true,"version":"7961495","steam_id":85568392924469985,"keywords":["cp","nocrits","nodmgspread","uncletopia"],"game_id":440,"stv_port":27026,"stv_name":"Uncletopia | Chicago | 2 | All Maps | STV","players":[{"user_id":48,"name":"6 feet deep like skeletons","steam_id":76561198138221795,"connected_time":5576000000000,"state":"active","ping":70},{"user_id":106,"name":"darkelaine227","steam_id":76561198097330521,"connected_time":96000000000,"state":"active","ping":150},{"user_id":99,"name":"FlamingManiac","steam_id":76561198361996837,"connected_time":927000000000,"state":"active","ping":70},{"user_id":9,"name":"DivineBanana","steam_id":76561198026529731,"connected_time":7836000000000,"state":"active","ping":89},{"user_id":17,"name":"Luxembird","steam_id":76561198079992107,"connected_time":7287000000000,"state":"active","ping":85},{"user_id":105,"name":"Eden","steam_id":76561198081284664,"connected_time":152000000000,"state":"active","ping":101},{"user_id":73,"name":"peachy","steam_id":76561198028721790,"connected_time":2795000000000,"state":"active","ping":90},{"user_id":100,"name":"VerrucktMedic","steam_id":76561198093144226,"connected_time":836000000000,"state":"active","ping":99},{"user_id":96,"name":"Bim","steam_id":76561198155979811,"connected_time":1129000000000,"state":"active","ping":70},{"user_id":102,"name":"Comic","steam_id":76561198391882145,"connected_time":436000000000,"state":"active","ping":44},{"user_id":80,"name":"brotherinchrist","steam_id":76561198208369443,"connected_time":2106000000000,"state":"active","ping":58},{"user_id":95,"name":"Couldron","steam_id":76561198242842394,"connected_time":1182000000000,"state":"active","ping":75},{"user_id":97,"name":"Draconic Ballad","steam_id":76561198027191515,"connected_time":1074000000000,"state":"active","ping":52},{"user_id":98,"name":"CheesyNacho","steam_id":76561198350445456,"connected_time":1057000000000,"state":"active","ping":68},{"user_id":82,"name":"120 lahmacun","steam_id":76561198152818418,"connected_time":1857000000000,"state":"active","ping":84}]},{"server_id":402,"name":"Uncletopia | Chicago | 3 | All Maps","name_short":"chi-3","host":"chi-1.us.uncletopia.com","port":27035,"enabled":true,"region":"us-central","cc":"us","latitude":41.881832,"longitude":-87.62318,"reserved":0,"last_update":"0001-01-01T00:00:00Z","name_a2s":"Uncletopia | Chicago | 3 | All Maps","protocol":17,"map":"pl_upward","folder":"tf","game":"Team Fortress","app_id":440,"player_count":24,"max_players":24,"Bots":0,"server_type":"Dedicated","server_os":"Linux","password":true,"vac":true,"version":"7961495","steam_id":85568392924515191,"keywords":["nocrits","nodmgspread","payload","uncletopia"],"game_id":440,"stv_port":27036,"stv_name":"Uncletopia | Chicago | 3 | All Maps | STV","players":[{"user_id":24,"name":"Lord Commissar Drac","steam_id":76561198030371218,"connected_time":1808000000000,"state":"active","ping":145},{"user_id":11,"name":"[hoodie]","steam_id":76561198105408624,"connected_time":3200000000000,"state":"active","ping":113},{"user_id":30,"name":"Satori Komeiji","steam_id":76561198158211423,"connected_time":1438000000000,"state":"active","ping":101},{"user_id":18,"name":"gideon nav my beloved","steam_id":76561198259092181,"connected_time":2473000000000,"state":"active","ping":63},{"user_id":31,"name":"Kng","steam_id":76561198993248203,"connected_time":1323000000000,"state":"active","ping":84},{"user_id":15,"name":"your moms car","steam_id":76561199389283507,"connected_time":2815000000000,"state":"active","ping":92},{"user_id":16,"name":"Coach McFish","steam_id":76561198210456405,"connected_time":2640000000000,"state":"active","ping":72},{"user_id":22,"name":"Arhard","steam_id":76561198883304912,"connected_time":1962000000000,"state":"active","ping":151},{"user_id":25,"name":"[NAME-REDACTED]","steam_id":76561198035682975,"connected_time":1784000000000,"state":"active","ping":72},{"user_id":53,"name":"noah","steam_id":76561198173310157,"connected_time":6000000000,"state":"active","ping":191},{"user_id":27,"name":"Open Mailbox","steam_id":76561198051933580,"connected_time":1625000000000,"state":"active","ping":82},{"user_id":32,"name":"D","steam_id":76561198292908619,"connected_time":1207000000000,"state":"active","ping":70},{"user_id":51,"name":"MeatShield 2000","steam_id":76561199375192850,"connected_time":142000000000,"state":"active","ping":76},{"user_id":33,"name":"Neacrock","steam_id":76561199178338856,"connected_time":1207000000000,"state":"active","ping":74},{"user_id":49,"name":"Female Gamer","steam_id":76561199366482682,"connected_time":195000000000,"state":"active","ping":102},{"user_id":35,"name":"Raizen","steam_id":76561199092445367,"connected_time":1185000000000,"state":"active","ping":55},{"user_id":36,"name":"wile","steam_id":76561198125261443,"connected_time":1125000000000,"state":"active","ping":112},{"user_id":50,"name":"Blue Banana","steam_id":76561198100077411,"connected_time":171000000000,"state":"active","ping":90},{"user_id":38,"name":"catrinaisahuman","steam_id":76561198281355729,"connected_time":1052000000000,"state":"active","ping":62},{"user_id":39,"name":"es","steam_id":76561198006892337,"connected_time":1050000000000,"state":"active","ping":125},{"user_id":52,"name":"Cambonieboo","steam_id":76561198139174433,"connected_time":102000000000,"state":"active","ping":90},{"user_id":41,"name":"Joebobio","steam_id":76561198024442760,"connected_time":985000000000,"state":"active","ping":70},{"user_id":42,"name":"Rick Assley","steam_id":76561198365019199,"connected_time":909000000000,"state":"active","ping":63},{"user_id":43,"name":"BigBubble42","steam_id":76561198136286123,"connected_time":894000000000,"state":"active","ping":51}]},{"server_id":403,"name":"Uncletopia | Chicago | 4 | All Maps","name_short":"chi-4","host":"chi-1.us.uncletopia.com","port":27045,"enabled":true,"region":"us-central","cc":"us","latitude":41.881832,"longitude":-87.62318,"reserved":0,"last_update":"0001-01-01T00:00:00Z","name_a2s":"Uncletopia | Chicago | 4 | All Maps","protocol":17,"map":"koth_cascade","folder":"tf","game":"Team Fortress","app_id":440,"player_count":0,"max_players":24,"Bots":0,"server_type":"Dedicated","server_os":"Linux","password":true,"vac":true,"version":"7961495","steam_id":85568392924515193,"keywords":["cp","nocrits","nodmgspread","uncletopia"],"game_id":440,"stv_port":27046,"stv_name":"Uncletopia | Chicago | 4 | All Maps | STV","players":null},{"server_id":36,"name":"Uncletopia | Chicago | 5 | All Maps","name_short":"chi-5","host":"chi-2.us.uncletopia.com","port":27015,"enabled":true,"region":"us-central","cc":"us","latitude":41.881832,"longitude":-87.62318,"reserved":0,"last_update":"0001-01-01T00:00:00Z","name_a2s":"Uncletopia | Chicago | 5 | All Maps","protocol":17,"map":"koth_viaduct","folder":"tf","game":"Team Fortress","app_id":440,"player_count":0,"max_players":24,"Bots":0,"server_type":"Dedicated","server_os":"Linux","password":true,"vac":true,"version":"7961495","steam_id":85568392924866362,"keywords":["cp","nocrits","nodmgspread","uncletopia"],"game_id":440,"stv_port":27016,"stv_name":"Uncletopia | Chicago | 5 | All Maps | STV","players":null},{"server_id":37,"name":"Uncletopia | Chicago | 6 | All Maps","name_short":"chi-6","host":"chi-2.us.uncletopia.com","port":27025,"enabled":true,"region":"us-central","cc":"us","latitude":41.881832,"longitude":-87.62318,"reserved":0,"last_update":"0001-01-01T00:00:00Z","name_a2s":"Uncletopia | Chicago | 6 | All Maps","protocol":17,"map":"koth_highpass","folder":"tf","game":"Team Fortress","app_id":440,"player_count":0,"max_players":24,"Bots":0,"server_type":"Dedicated","server_os":"Linux","password":true,"vac":true,"version":"7961495","steam_id":85568392924866363,"keywords":["cp","nocrits","nodmgspread","uncletopia"],"game_id":440,"stv_port":27026,"stv_name":"Uncletopia | Chicago | 6 | All Maps | STV","players":null},{"server_id":38,"name":"Uncletopia | Chicago | 7 | Stopwatch","name_short":"chi-7","host":"chi-2.us.uncletopia.com","port":27035,"enabled":true,"region":"us-central","cc":"us","latitude":41.881832,"longitude":-87.62318,"reserved":0,"last_update":"0001-01-01T00:00:00Z","name_a2s":"Uncletopia | Chicago | 7 | Stopwatch","protocol":17,"map":"workshop/koth_product_final.ugc454272353","folder":"tf","game":"Team Fortress","app_id":440,"player_count":1,"max_players":24,"Bots":0,"server_type":"Dedicated","server_os":"Linux","password":true,"vac":true,"version":"7961495","steam_id":85568392924866364,"keywords":["cp","nocrits","nodmgspread","uncletopia"],"game_id":440,"stv_port":27036,"stv_name":"Uncletopia | Chicago | 7 | Stopwatch | STV","players":[{"user_id":9,"name":"Dark Karl","steam_id":76561198115714484,"connected_time":81000000000,"state":"active","ping":119}]},{"server_id":39,"name":"Uncletopia | Chicago | 8 | Community","name_short":"chi-8","host":"chi-2.us.uncletopia.com","port":27045,"enabled":true,"region":"us-central","cc":"us","latitude":41.881832,"longitude":-87.62318,"reserved":0,"last_update":"0001-01-01T00:00:00Z","name_a2s":"Uncletopia | Chicago | 8 | Community","protocol":17,"map":"pl_pier","folder":"tf","game":"Team Fortress","app_id":440,"player_count":0,"max_players":24,"Bots":0,"server_type":"Dedicated","server_os":"Linux","password":true,"vac":true,"version":"7961495","steam_id":85568392924866365,"keywords":["nocrits","nodmgspread","payload","uncletopia"],"game_id":440,"stv_port":27046,"stv_name":"Uncletopia | Chicago | 8 | Community | STV","players":null},{"server_id":8,"name":"Uncletopia | Dallas | 1 | All Maps","name_short":"dal-1","host":"dal-1.us.uncletopia.com","port":27015,"enabled":true,"region":"us-central","cc":"us","latitude":32.779167,"longitude":-96.80889,"reserved":0,"last_update":"0001-01-01T00:00:00Z","name_a2s":"Uncletopia | Dallas | 1 | All Maps","protocol":17,"map":"koth_highpass","folder":"tf","game":"Team Fortress","app_id":440,"player_count":0,"max_players":24,"Bots":0,"server_type":"Dedicated","server_os":"Linux","password":true,"vac":true,"version":"7961495","steam_id":85568392924469986,"keywords":["cp","nocrits","nodmgspread","uncletopia"],"game_id":440,"stv_port":27016,"stv_name":"Uncletopia | Dallas | 1 | All Maps | STV","players":null},{"server_id":108,"name":"Uncletopia | Dallas | 2 | All Maps","name_short":"dal-2","host":"dal-1.us.uncletopia.com","port":27025,"enabled":true,"region":"us-central","cc":"us","latitude":32.779167,"longitude":-96.80889,"reserved":0,"last_update":"0001-01-01T00:00:00Z","name_a2s":"Uncletopia | Dallas | 2 | All Maps","protocol":17,"map":"pl_swiftwater_final1","folder":"tf","game":"Team Fortress","app_id":440,"player_count":24,"max_players":24,"Bots":0,"server_type":"Dedicated","server_os":"Linux","password":true,"vac":true,"version":"7961495","steam_id":85568392924469988,"keywords":["nocrits","nodmgspread","payload","uncletopia"],"game_id":440,"stv_port":27026,"stv_name":"Uncletopia | Dallas | 2 | All Maps | STV","players":[{"user_id":344,"name":"Phosu","steam_id":76561198180162801,"connected_time":2398000000000,"state":"active","ping":67},{"user_id":382,"name":"tek lintowe fan","steam_id":76561198206177593,"connected_time":110000000000,"state":"active","ping":75},{"user_id":364,"name":"Mixed Up","steam_id":76561198042570322,"connected_time":1320000000000,"state":"active","ping":77},{"user_id":365,"name":"nao","steam_id":76561198073982533,"connected_time":1312000000000,"state":"active","ping":69},{"user_id":374,"name":"Frank Horrigan","steam_id":76561198066504831,"connected_time":595000000000,"state":"active","ping":87},{"user_id":373,"name":"Sunbather","steam_id":76561197967230865,"connected_time":629000000000,"state":"active","ping":55},{"user_id":381,"name":"LeBron James from Multiversus\ufffd\ufffd","steam_id":76561198316060646,"connected_time":250000000000,"state":"active","ping":127},{"user_id":346,"name":"Xbox 360","steam_id":76561198090419068,"connected_time":2377000000000,"state":"active","ping":121},{"user_id":380,"name":"'mungus","steam_id":76561198022358379,"connected_time":355000000000,"state":"active","ping":82},{"user_id":367,"name":"Cargo","steam_id":76561198065535025,"connected_time":1265000000000,"state":"active","ping":88},{"user_id":372,"name":"bottom pride burger","steam_id":76561198322247602,"connected_time":776000000000,"state":"active","ping":90},{"user_id":355,"name":"Colossal Falafel","steam_id":76561198108086245,"connected_time":2121000000000,"state":"active","ping":85},{"user_id":311,"name":"malarkeyman","steam_id":76561198844473584,"connected_time":5673000000000,"state":"active","ping":62},{"user_id":371,"name":"Dr. Nerd","steam_id":76561198147068374,"connected_time":886000000000,"state":"active","ping":63},{"user_id":326,"name":"hforce11","steam_id":76561198087647130,"connected_time":4315000000000,"state":"active","ping":60},{"user_id":279,"name":"Elias","steam_id":76561198106431732,"connected_time":8533000000000,"state":"active","ping":60},{"user_id":370,"name":"Rob","steam_id":76561199187786660,"connected_time":958000000000,"state":"active","ping":59},{"user_id":360,"name":"Blippy","steam_id":76561198225904600,"connected_time":1728000000000,"state":"active","ping":57},{"user_id":305,"name":"mkl","steam_id":76561197986401685,"connected_time":5925000000000,"state":"active","ping":57},{"user_id":332,"name":"Doctor Emerald(Bison Emperor)","steam_id":76561199123003872,"connected_time":3988000000000,"state":"active","ping":88},{"user_id":377,"name":"Zee✞","steam_id":76561198274550638,"connected_time":556000000000,"state":"active","ping":53},{"user_id":384,"name":"You Don't Nomi.","steam_id":76561197969137836,"connected_time":8000000000,"state":"active","ping":234},{"user_id":378,"name":"har hahj hhahha","steam_id":76561198050149667,"connected_time":546000000000,"state":"active","ping":92},{"user_id":383,"name":"KaijuCowBelle","steam_id":76561198191619439,"connected_time":50000000000,"state":"spawning","ping":61}]},{"server_id":404,"name":"Uncletopia | Dallas | 3 | All Maps","name_short":"dal-3","host":"dal-1.us.uncletopia.com","port":27035,"enabled":true,"region":"us-central","cc":"us","latitude":32.779167,"longitude":-96.80889,"reserved":0,"last_update":"0001-01-01T00:00:00Z","name_a2s":"Uncletopia | Dallas | 3 | All Maps","protocol":17,"map":"pl_upward","folder":"tf","game":"Team Fortress","app_id":440,"player_count":0,"max_players":24,"Bots":0,"server_type":"Dedicated","server_os":"Linux","password":true,"vac":true,"version":"7961495","steam_id":85568392924515219,"keywords":["nocrits","nodmgspread","payload","uncletopia"],"game_id":440,"stv_port":27036,"stv_name":"Uncletopia | Dallas | 3 | All Maps | STV","players":null},{"server_id":405,"name":"Uncletopia | Dallas | 4 | Community","name_short":"dal-4","host":"dal-1.us.uncletopia.com","port":27045,"enabled":true,"region":"us-central","cc":"us","latitude":32.779167,"longitude":-96.80889,"reserved":0,"last_update":"0001-01-01T00:00:00Z","name_a2s":"Uncletopia | Dallas | 4 | Community","protocol":17,"map":"pl_pier","folder":"tf","game":"Team Fortress","app_id":440,"player_count":0,"max_players":24,"Bots":0,"server_type":"Dedicated","server_os":"Linux","password":true,"vac":true,"version":"7961495","steam_id":85568392924515220,"keywords":["nocrits","nodmgspread","payload","uncletopia"],"game_id":440,"stv_port":27046,"stv_name":"Uncletopia | Dallas | 4 | Community | STV","players":null},{"server_id":5,"name":"Uncletopia | Frankfurt | 1 | All Maps","name_short":"frk-1","host":"frk-1.de.uncletopia.com","port":27015,"enabled":true,"region":"eu","cc":"de","latitude":50.110924,"longitude":8.682127,"reserved":0,"last_update":"0001-01-01T00:00:00Z","name_a2s":"Uncletopia | Frankfurt | 1 | All Maps","protocol":17,"map":"cp_process_final","folder":"tf","game":"Team Fortress","app_id":440,"player_count":24,"max_players":24,"Bots":0,"server_type":"Dedicated","server_os":"Linux","password":true,"vac":true,"version":"7961495","steam_id":85568392924469989,"keywords":["cp","nocrits","nodmgspread","uncletopia"],"game_id":440,"stv_port":27016,"stv_name":"Uncletopia | Frankfurt | 1 | All Maps | STV","players":[{"user_id":382,"name":"mr.bertik","steam_id":76561199090893519,"connected_time":530000000000,"state":"active","ping":59},{"user_id":383,"name":"Bleach","steam_id":76561198310571129,"connected_time":511000000000,"state":"active","ping":113},{"user_id":260,"name":"Random","steam_id":76561198291681674,"connected_time":10311000000000,"state":"active","ping":49},{"user_id":384,"name":"mt","steam_id":76561197961319303,"connected_time":466000000000,"state":"active","ping":48},{"user_id":314,"name":"agent_richi","steam_id":76561199218542987,"connected_time":5591000000000,"state":"active","ping":54},{"user_id":385,"name":"kinimon","steam_id":76561198178453270,"connected_time":466000000000,"state":"active","ping":48},{"user_id":375,"name":"dfcv rftgvb ghtb","steam_id":76561198397764042,"connected_time":1241000000000,"state":"active","ping":90},{"user_id":376,"name":"Pilaarius","steam_id":76561198120273212,"connected_time":1238000000000,"state":"active","ping":95},{"user_id":386,"name":"Woman (Real)","steam_id":76561199151823932,"connected_time":429000000000,"state":"active","ping":76},{"user_id":365,"name":"D.T. Katze","steam_id":76561198002280813,"connected_time":2552000000000,"state":"active","ping":145},{"user_id":397,"name":"tenta brella-wielding octopus","steam_id":76561198837919828,"connected_time":8000000000,"state":"spawning","ping":89},{"user_id":379,"name":"xavier","steam_id":76561198076494034,"connected_time":807000000000,"state":"active","ping":53},{"user_id":387,"name":"UnaSimpleBatata","steam_id":76561199008490451,"connected_time":422000000000,"state":"active","ping":97},{"user_id":380,"name":"Bobirulez","steam_id":76561198009125458,"connected_time":794000000000,"state":"active","ping":75},{"user_id":389,"name":"o_o","steam_id":76561198113045011,"connected_time":295000000000,"state":"active","ping":90},{"user_id":377,"name":"Vershal Smershal","steam_id":76561198116223995,"connected_time":1204000000000,"state":"active","ping":60},{"user_id":388,"name":"static","steam_id":76561198836825741,"connected_time":386000000000,"state":"active","ping":60},{"user_id":390,"name":"Richard_HUN","steam_id":76561198299050967,"connected_time":249000000000,"state":"active","ping":94},{"user_id":394,"name":"Koomikko John","steam_id":76561198350647057,"connected_time":168000000000,"state":"active","ping":75},{"user_id":392,"name":"Michael","steam_id":76561198003146906,"connected_time":186000000000,"state":"active","ping":56},{"user_id":335,"name":"endlesshills","steam_id":76561198081908373,"connected_time":4803000000000,"state":"active","ping":57},{"user_id":393,"name":"Solymr ibn Wali Barad","steam_id":76561198044008976,"connected_time":183000000000,"state":"active","ping":75},{"user_id":395,"name":"cister0","steam_id":76561198130195469,"connected_time":116000000000,"state":"active","ping":75},{"user_id":396,"name":"[ALT_F4]dottor_cacabula_m8","steam_id":76561198173192267,"connected_time":71000000000,"state":"active","ping":55}]},{"server_id":110,"name":"Uncletopia | Frankfurt | 2 | All Maps","name_short":"frk-2","host":"frk-1.de.uncletopia.com","port":27025,"enabled":true,"region":"eu","cc":"de","latitude":50.110924,"longitude":8.682127,"reserved":0,"last_update":"0001-01-01T00:00:00Z","name_a2s":"Uncletopia | Frankfurt | 2 | All Maps","protocol":17,"map":"cp_process_final","folder":"tf","game":"Team Fortress","app_id":440,"player_count":19,"max_players":24,"Bots":0,"server_type":"Dedicated","server_os":"Linux","password":true,"vac":true,"version":"7961495","steam_id":85568392924469990,"keywords":["cp","nocrits","nodmgspread","uncletopia"],"game_id":440,"stv_port":27026,"stv_name":"Uncletopia | Frankfurt | 2 | All Maps | STV","players":[{"user_id":206,"name":"Rock..","steam_id":76561198004641963,"connected_time":2394000000000,"state":"active","ping":77},{"user_id":159,"name":"Mr. Mundy","steam_id":76561198132008918,"connected_time":6508000000000,"state":"active","ping":66},{"user_id":152,"name":"Hexagon","steam_id":76561198151205758,"connected_time":6908000000000,"state":"active","ping":44},{"user_id":237,"name":"Štěpán","steam_id":76561198275742101,"connected_time":550000000000,"state":"active","ping":51},{"user_id":228,"name":"tohum","steam_id":76561198089560908,"connected_time":797000000000,"state":"active","ping":88},{"user_id":235,"name":"WrytXander","steam_id":76561198067856323,"connected_time":576000000000,"state":"active","ping":83},{"user_id":233,"name":"sergun","steam_id":76561198086096507,"connected_time":693000000000,"state":"active","ping":77},{"user_id":216,"name":"240km/h.PEEK Mizel","steam_id":76561199226604824,"connected_time":1566000000000,"state":"active","ping":91},{"user_id":221,"name":"Crol","steam_id":76561198158463173,"connected_time":1317000000000,"state":"active","ping":69},{"user_id":239,"name":"MUWEQ","steam_id":76561198107615727,"connected_time":371000000000,"state":"active","ping":70},{"user_id":223,"name":"Dot","steam_id":76561198047299145,"connected_time":1003000000000,"state":"active","ping":73},{"user_id":219,"name":"engineer drip","steam_id":76561198991032570,"connected_time":1409000000000,"state":"active","ping":96},{"user_id":192,"name":"Team Fortress 2","steam_id":76561198190936635,"connected_time":3519000000000,"state":"active","ping":61},{"user_id":243,"name":"i have no enemies","steam_id":76561198130148358,"connected_time":85000000000,"state":"active","ping":107},{"user_id":242,"name":"thundah!","steam_id":76561199159928133,"connected_time":166000000000,"state":"active","ping":143},{"user_id":234,"name":"Weezbeck","steam_id":76561198163487467,"connected_time":688000000000,"state":"active","ping":73},{"user_id":231,"name":"Raymus","steam_id":76561198021330407,"connected_time":733000000000,"state":"active","ping":45},{"user_id":232,"name":"Blacksuit26","steam_id":76561198308415969,"connected_time":712000000000,"state":"active","ping":92},{"user_id":244,"name":"Silver","steam_id":76561198175238807,"connected_time":43000000000,"state":"active","ping":73}]},{"server_id":308,"name":"Uncletopia | Frankfurt | 3 | All Maps","name_short":"frk-3","host":"frk-1.de.uncletopia.com","port":27035,"enabled":true,"region":"eu","cc":"de","latitude":50.110924,"longitude":8.682127,"reserved":0,"last_update":"0001-01-01T00:00:00Z","name_a2s":"Uncletopia | Frankfurt | 3 | All Maps","protocol":17,"map":"pl_barnblitz","folder":"tf","game":"Team Fortress","app_id":440,"player_count":24,"max_players":24,"Bots":0,"server_type":"Dedicated","server_os":"Linux","password":true,"vac":true,"version":"7961495","steam_id":85568392924504274,"keywords":["nocrits","nodmgspread","payload","uncletopia"],"game_id":440,"stv_port":27036,"stv_name":"Uncletopia | Frankfurt | 3 | All Maps | STV","players":[{"user_id":289,"name":"Tortgamer","steam_id":76561198423709756,"connected_time":1232000000000,"state":"active","ping":64},{"user_id":296,"name":"fart (stinky)","steam_id":76561197982485114,"connected_time":587000000000,"state":"active","ping":67},{"user_id":285,"name":"Andy","steam_id":76561198136364381,"connected_time":1798000000000,"state":"active","ping":63},{"user_id":233,"name":"def","steam_id":76561198857396812,"connected_time":4609000000000,"state":"active","ping":45},{"user_id":291,"name":"myth_aaaaaaaaa","steam_id":76561199209322073,"connected_time":981000000000,"state":"active","ping":66},{"user_id":279,"name":"Abyssion","steam_id":76561198040246963,"connected_time":2050000000000,"state":"active","ping":52},{"user_id":276,"name":"s3rg_","steam_id":76561198024043213,"connected_time":2110000000000,"state":"active","ping":60},{"user_id":292,"name":"FoOzTV","steam_id":76561197998636728,"connected_time":962000000000,"state":"active","ping":69},{"user_id":283,"name":"Dolcelatte","steam_id":76561198038501770,"connected_time":1889000000000,"state":"active","ping":50},{"user_id":299,"name":"Groovy","steam_id":76561198008354778,"connected_time":381000000000,"state":"active","ping":50},{"user_id":286,"name":"alfus","steam_id":76561198071003109,"connected_time":1790000000000,"state":"active","ping":63},{"user_id":293,"name":"Endi","steam_id":76561198914938199,"connected_time":961000000000,"state":"active","ping":95},{"user_id":255,"name":"GONE, GONE / THANK YOU","steam_id":76561198257383813,"connected_time":3863000000000,"state":"active","ping":45},{"user_id":300,"name":"✧₊⁎༚","steam_id":76561199441196540,"connected_time":316000000000,"state":"active","ping":61},{"user_id":294,"name":"Frostbite","steam_id":76561198400194633,"connected_time":957000000000,"state":"active","ping":91},{"user_id":240,"name":"M7MD3BD0","steam_id":76561199072750769,"connected_time":4435000000000,"state":"active","ping":91},{"user_id":267,"name":"pepper","steam_id":76561198852650589,"connected_time":3173000000000,"state":"active","ping":89},{"user_id":301,"name":"pizzaboob","steam_id":76561198097507847,"connected_time":73000000000,"state":"active","ping":75},{"user_id":268,"name":"Swaggasouruss","steam_id":76561198285607649,"connected_time":3120000000000,"state":"active","ping":101},{"user_id":295,"name":"rev","steam_id":76561198134512931,"connected_time":949000000000,"state":"active","ping":60},{"user_id":281,"name":"Apina Nautiskelija","steam_id":76561198391622919,"connected_time":2042000000000,"state":"active","ping":80},{"user_id":297,"name":"cazador","steam_id":76561198123096922,"connected_time":494000000000,"state":"active","ping":90},{"user_id":238,"name":"Arsonist","steam_id":76561199087953833,"connected_time":4545000000000,"state":"active","ping":112},{"user_id":282,"name":"Henkat","steam_id":76561199079480352,"connected_time":2036000000000,"state":"active","ping":87}]},{"server_id":309,"name":"Uncletopia | Frankfurt | 4 | All Maps","name_short":"frk-4","host":"frk-1.de.uncletopia.com","port":27045,"enabled":true,"region":"eu","cc":"de","latitude":50.110924,"longitude":8.682127,"reserved":0,"last_update":"0001-01-01T00:00:00Z","name_a2s":"Uncletopia | Frankfurt | 4 | All Maps","protocol":17,"map":"pl_frontier_final","folder":"tf","game":"Team Fortress","app_id":440,"player_count":24,"max_players":24,"Bots":0,"server_type":"Dedicated","server_os":"Linux","password":true,"vac":true,"version":"7961495","steam_id":85568392924504275,"keywords":["nocrits","nodmgspread","payload","uncletopia"],"game_id":440,"stv_port":27046,"stv_name":"Uncletopia | Frankfurt | 4 | All Maps | STV","players":[{"user_id":402,"name":"pinkddpat","steam_id":76561199081912795,"connected_time":4721000000000,"state":"active","ping":87},{"user_id":473,"name":"-RRAZALAS","steam_id":76561198043604364,"connected_time":357000000000,"state":"active","ping":60},{"user_id":455,"name":"Sakefake","steam_id":76561198029594679,"connected_time":1342000000000,"state":"active","ping":45},{"user_id":477,"name":"xstylehardx","steam_id":76561198111203974,"connected_time":27000000000,"state":"active","ping":67},{"user_id":417,"name":"Carry Krypl","steam_id":76561198136938121,"connected_time":3633000000000,"state":"active","ping":60},{"user_id":452,"name":"Armix","steam_id":76561198079373642,"connected_time":1409000000000,"state":"active","ping":71},{"user_id":464,"name":"literallyjasonx","steam_id":76561198835895387,"connected_time":931000000000,"state":"active","ping":77},{"user_id":475,"name":"dr_zee","steam_id":76561197995245562,"connected_time":210000000000,"state":"active","ping":80},{"user_id":470,"name":"Bastard'Nick","steam_id":76561198044044651,"connected_time":699000000000,"state":"active","ping":64},{"user_id":454,"name":"aida","steam_id":76561198311044984,"connected_time":1359000000000,"state":"active","ping":65},{"user_id":467,"name":"s a i","steam_id":76561197970379754,"connected_time":759000000000,"state":"active","ping":56},{"user_id":432,"name":"Maxin","steam_id":76561197999923364,"connected_time":2253000000000,"state":"active","ping":76},{"user_id":354,"name":"Yelowchy","steam_id":76561198199416121,"connected_time":7728000000000,"state":"active","ping":61},{"user_id":476,"name":"Kraid","steam_id":76561198082387192,"connected_time":118000000000,"state":"active","ping":101},{"user_id":459,"name":"Acanda","steam_id":76561198123246537,"connected_time":1287000000000,"state":"active","ping":68},{"user_id":466,"name":"Dude™","steam_id":76561198082099161,"connected_time":869000000000,"state":"active","ping":79},{"user_id":463,"name":"Hey, I´m Andy!","steam_id":76561198060337777,"connected_time":1049000000000,"state":"active","ping":76},{"user_id":413,"name":"Günther","steam_id":76561198333417038,"connected_time":3672000000000,"state":"active","ping":75},{"user_id":422,"name":"The Wolf Leader","steam_id":76561198038007462,"connected_time":3501000000000,"state":"active","ping":74},{"user_id":423,"name":"Seail_M","steam_id":76561198002405605,"connected_time":3500000000000,"state":"active","ping":56},{"user_id":465,"name":"dirty rascal","steam_id":76561198000871038,"connected_time":928000000000,"state":"active","ping":59},{"user_id":457,"name":"putrefied meat","steam_id":76561198280507478,"connected_time":1315000000000,"state":"active","ping":59},{"user_id":472,"name":"I sell exotic parrots","steam_id":76561199192434258,"connected_time":471000000000,"state":"active","ping":81},{"user_id":469,"name":"Bobo","steam_id":76561198052308399,"connected_time":741000000000,"state":"active","ping":62}]},{"server_id":310,"name":"Uncletopia | Frankfurt | 5 | All Maps","name_short":"frk-5","host":"frk-1.de.uncletopia.com","port":27055,"enabled":true,"region":"eu","cc":"de","latitude":50.110924,"longitude":8.682127,"reserved":0,"last_update":"0001-01-01T00:00:00Z","name_a2s":"Uncletopia | Frankfurt | 5 | All Maps","protocol":17,"map":"cp_gravelpit","folder":"tf","game":"Team Fortress","app_id":440,"player_count":23,"max_players":24,"Bots":0,"server_type":"Dedicated","server_os":"Linux","password":true,"vac":true,"version":"7961495","steam_id":85568392924504277,"keywords":["cp","nocrits","nodmgspread","uncletopia"],"game_id":440,"stv_port":27056,"stv_name":"Uncletopia | Frankfurt | 5 | All Maps | STV","players":[{"user_id":585,"name":"CJ_from_Groove","steam_id":76561198889928743,"connected_time":999000000000,"state":"active","ping":98},{"user_id":586,"name":"Silver_Fox","steam_id":76561198278363715,"connected_time":936000000000,"state":"active","ping":98},{"user_id":603,"name":"Ala Pietrzak","steam_id":76561198304495111,"connected_time":188000000000,"state":"active","ping":77},{"user_id":604,"name":"Dill Killem","steam_id":76561199071571354,"connected_time":123000000000,"state":"active","ping":71},{"user_id":577,"name":"milof","steam_id":76561198809199604,"connected_time":1427000000000,"state":"active","ping":78},{"user_id":605,"name":"SomeBody","steam_id":76561199072771199,"connected_time":92000000000,"state":"active","ping":100},{"user_id":591,"name":"why rum gone","steam_id":76561198158484784,"connected_time":492000000000,"state":"active","ping":59},{"user_id":582,"name":"Murovelho","steam_id":76561198835081622,"connected_time":1286000000000,"state":"active","ping":87},{"user_id":593,"name":"Snd","steam_id":76561198010816408,"connected_time":459000000000,"state":"active","ping":119},{"user_id":594,"name":"BigJessen","steam_id":76561198119503211,"connected_time":450000000000,"state":"active","ping":57},{"user_id":500,"name":"640x480","steam_id":76561198304515309,"connected_time":6560000000000,"state":"active","ping":68},{"user_id":602,"name":"Frostlight","steam_id":76561198016360449,"connected_time":298000000000,"state":"active","ping":74},{"user_id":530,"name":"Asocial","steam_id":76561198328594578,"connected_time":5392000000000,"state":"active","ping":104},{"user_id":561,"name":"overman","steam_id":76561198038348301,"connected_time":2582000000000,"state":"active","ping":67},{"user_id":575,"name":"penis scout","steam_id":76561198371527078,"connected_time":1532000000000,"state":"active","ping":82},{"user_id":417,"name":"fifrok","steam_id":76561198799267621,"connected_time":13223000000000,"state":"active","ping":69},{"user_id":606,"name":"Jasu Juntti","steam_id":76561198133631796,"connected_time":51000000000,"state":"active","ping":61},{"user_id":607,"name":"Citromfa","steam_id":76561198427549600,"connected_time":46000000000,"state":"active","ping":73},{"user_id":555,"name":"Lessoz","steam_id":76561199211572036,"connected_time":3932000000000,"state":"active","ping":93},{"user_id":587,"name":"Erection Man","steam_id":76561198021714542,"connected_time":808000000000,"state":"active","ping":62},{"user_id":576,"name":"wut","steam_id":76561198111134021,"connected_time":1513000000000,"state":"active","ping":82},{"user_id":599,"name":"Meh Good Enough","steam_id":76561199012646173,"connected_time":392000000000,"state":"active","ping":76},{"user_id":600,"name":"Donteventrip","steam_id":76561198195333099,"connected_time":380000000000,"state":"active","ping":63}]},{"server_id":311,"name":"Uncletopia | Frankfurt | 6 | All Maps","name_short":"frk-6","host":"frk-1.de.uncletopia.com","port":27065,"enabled":true,"region":"eu","cc":"de","latitude":50.110924,"longitude":8.682127,"reserved":0,"last_update":"0001-01-01T00:00:00Z","name_a2s":"Uncletopia | Frankfurt | 6 | All Maps","protocol":17,"map":"cp_badlands","folder":"tf","game":"Team Fortress","app_id":440,"player_count":22,"max_players":24,"Bots":0,"server_type":"Dedicated","server_os":"Linux","password":true,"vac":true,"version":"7961495","steam_id":85568392924504278,"keywords":["cp","nocrits","nodmgspread","uncletopia"],"game_id":440,"stv_port":27066,"stv_name":"Uncletopia | Frankfurt | 6 | All Maps | STV","players":[{"user_id":177,"name":"Bufnits","steam_id":76561199302548535,"connected_time":4335000000000,"state":"active","ping":111},{"user_id":211,"name":"Spicy raccon","steam_id":76561198408560636,"connected_time":1589000000000,"state":"active","ping":74},{"user_id":212,"name":"BOT","steam_id":76561197993423450,"connected_time":1498000000000,"state":"active","ping":52},{"user_id":188,"name":"Imperial City Guard","steam_id":76561198083355845,"connected_time":3500000000000,"state":"active","ping":54},{"user_id":183,"name":"Yobopan","steam_id":76561198088064860,"connected_time":3939000000000,"state":"active","ping":70},{"user_id":195,"name":"Russenluster","steam_id":76561198118016220,"connected_time":3349000000000,"state":"active","ping":54},{"user_id":204,"name":"Monkey","steam_id":76561199008411791,"connected_time":2835000000000,"state":"active","ping":49},{"user_id":223,"name":"﷽","steam_id":76561198365973345,"connected_time":909000000000,"state":"active","ping":48},{"user_id":216,"name":"Life goes on","steam_id":76561198103978102,"connected_time":1163000000000,"state":"active","ping":79},{"user_id":224,"name":"☭TheDevilsEye☭","steam_id":76561198017379398,"connected_time":895000000000,"state":"active","ping":74},{"user_id":206,"name":"lunchback of notre dame","steam_id":76561199136755064,"connected_time":2546000000000,"state":"active","ping":54},{"user_id":218,"name":"The☆Cops","steam_id":76561198146358073,"connected_time":1128000000000,"state":"active","ping":92},{"user_id":228,"name":"Hagrid the eye","steam_id":76561198106531199,"connected_time":60000000000,"state":"active","ping":65},{"user_id":227,"name":"Bill Clinton","steam_id":76561198060011032,"connected_time":480000000000,"state":"active","ping":64},{"user_id":226,"name":"Futaro","steam_id":76561198084534929,"connected_time":680000000000,"state":"active","ping":64},{"user_id":180,"name":"monocle chicken","steam_id":76561199020106029,"connected_time":4295000000000,"state":"active","ping":83},{"user_id":199,"name":"Limonca","steam_id":76561198079029706,"connected_time":3092000000000,"state":"active","ping":67},{"user_id":222,"name":"CaptiaNNooBS437","steam_id":76561198844010921,"connected_time":1052000000000,"state":"active","ping":64},{"user_id":225,"name":"confusion","steam_id":76561199199499453,"connected_time":894000000000,"state":"active","ping":92},{"user_id":205,"name":"Donki Wonki","steam_id":76561198327761273,"connected_time":2813000000000,"state":"active","ping":81},{"user_id":184,"name":"mary","steam_id":76561198014828037,"connected_time":3938000000000,"state":"active","ping":64},{"user_id":160,"name":"Daan77","steam_id":76561198129940468,"connected_time":5319000000000,"state":"active","ping":76}]},{"server_id":23,"name":"Uncletopia | Frankfurt | 7 | Stopwatch","name_short":"frk-7","host":"frk-1.de.uncletopia.com","port":27075,"enabled":true,"region":"eu","cc":"de","latitude":50.110924,"longitude":8.682127,"reserved":0,"last_update":"0001-01-01T00:00:00Z","name_a2s":"Uncletopia | Frankfurt | 7 | Stopwatch","protocol":17,"map":"pl_swiftwater_final1","folder":"tf","game":"Team Fortress","app_id":440,"player_count":17,"max_players":24,"Bots":0,"server_type":"Dedicated","server_os":"Linux","password":true,"vac":true,"version":"7961495","steam_id":85568392924742827,"keywords":["nocrits","nodmgspread","payload","uncletopia"],"game_id":440,"stv_port":27076,"stv_name":"Uncletopia | Frankfurt | 7 | Stopwatch | STV","players":[{"user_id":32,"name":"elmstJP ₪ F4.exe","steam_id":76561197997909480,"connected_time":4673000000000,"state":"active","ping":69},{"user_id":84,"name":"F4.exe","steam_id":76561198278822807,"connected_time":1816000000000,"state":"active","ping":59},{"user_id":96,"name":"melchere","steam_id":76561199260446356,"connected_time":788000000000,"state":"active","ping":64},{"user_id":100,"name":"Star in a pond","steam_id":76561198205501279,"connected_time":580000000000,"state":"active","ping":90},{"user_id":112,"name":"mesλ","steam_id":76561198324582918,"connected_time":3000000000,"state":"spawning","ping":108},{"user_id":94,"name":"cisgender clown","steam_id":76561199469909295,"connected_time":972000000000,"state":"active","ping":86},{"user_id":105,"name":"Jeffrey Harpen","steam_id":76561199073314677,"connected_time":297000000000,"state":"active","ping":68},{"user_id":98,"name":"cat","steam_id":76561198865643813,"connected_time":680000000000,"state":"active","ping":75},{"user_id":99,"name":"Lauralide","steam_id":76561198291713082,"connected_time":670000000000,"state":"active","ping":83},{"user_id":101,"name":"kornetov.vitalya","steam_id":76561199286034833,"connected_time":549000000000,"state":"active","ping":92},{"user_id":42,"name":"Quartzy","steam_id":76561198313301520,"connected_time":3448000000000,"state":"active","ping":47},{"user_id":110,"name":"SomeBody","steam_id":76561199072771199,"connected_time":121000000000,"state":"connecting","ping":0},{"user_id":106,"name":"Hamen","steam_id":76561198119965663,"connected_time":256000000000,"state":"active","ping":76},{"user_id":108,"name":"ALCEST","steam_id":76561198066187028,"connected_time":233000000000,"state":"active","ping":88},{"user_id":78,"name":"Memper","steam_id":76561198066700614,"connected_time":2292000000000,"state":"active","ping":82},{"user_id":59,"name":"myon","steam_id":76561197992528570,"connected_time":3235000000000,"state":"active","ping":81},{"user_id":90,"name":"Egor Pomidor","steam_id":76561199175688390,"connected_time":1403000000000,"state":"active","ping":75}]},{"server_id":24,"name":"Uncletopia | Frankfurt | 8 | Community","name_short":"frk-8","host":"frk-1.de.uncletopia.com","port":27085,"enabled":true,"region":"eu","cc":"de","latitude":50.110924,"longitude":8.682127,"reserved":0,"last_update":"0001-01-01T00:00:00Z","name_a2s":"Uncletopia | Frankfurt | 8 | Community","protocol":17,"map":"cp_mountainlab","folder":"tf","game":"Team Fortress","app_id":440,"player_count":0,"max_players":24,"Bots":0,"server_type":"Dedicated","server_os":"Linux","password":true,"vac":true,"version":"7961495","steam_id":85568392924742828,"keywords":["cp","nocrits","nodmgspread","uncletopia"],"game_id":440,"stv_port":27086,"stv_name":"Uncletopia | Frankfurt | 8 | Community | STV","players":null},{"server_id":202,"name":"Uncletopia | Hong Kong | 1 | All Maps","name_short":"hgk-1","host":"hgk-1.hk.uncletopia.com","port":27015,"enabled":true,"region":"asia","cc":"hk","latitude":22.302711,"longitude":114.177216,"reserved":0,"last_update":"0001-01-01T00:00:00Z","name_a2s":"Uncletopia | Hong Kong | 1 | All Maps","protocol":17,"map":"koth_lakeside_final","folder":"tf","game":"Team Fortress","app_id":440,"player_count":0,"max_players":24,"Bots":0,"server_type":"Dedicated","server_os":"Linux","password":true,"vac":true,"version":"7961495","steam_id":85568392924494504,"keywords":["cp","nocrits","nodmgspread","uncletopia"],"game_id":440,"stv_port":27016,"stv_name":"Uncletopia | Hong Kong | 1 | All Maps | STV","players":null},{"server_id":1,"name":"Uncletopia | Los Angeles | 1 | All Maps","name_short":"lax-1","host":"lax-1.us.uncletopia.com","port":27015,"enabled":true,"region":"us-west","cc":"us","latitude":33.94279,"longitude":-118.41004,"reserved":0,"last_update":"0001-01-01T00:00:00Z","name_a2s":"Uncletopia | Los Angeles | 1 | All Maps","protocol":17,"map":"pl_snowycoast","folder":"tf","game":"Team Fortress","app_id":440,"player_count":0,"max_players":24,"Bots":0,"server_type":"Dedicated","server_os":"Linux","password":true,"vac":true,"version":"7961495","steam_id":85568392924469991,"keywords":["nocrits","nodmgspread","payload","uncletopia"],"game_id":440,"stv_port":27016,"stv_name":"Uncletopia | Los Angeles | 1 | All Maps | STV","players":null},{"server_id":112,"name":"Uncletopia | Los Angeles | 2 | All Maps","name_short":"lax-2","host":"lax-1.us.uncletopia.com","port":27025,"enabled":true,"region":"us-west","cc":"us","latitude":33.94279,"longitude":-118.41004,"reserved":0,"last_update":"0001-01-01T00:00:00Z","name_a2s":"Uncletopia | Los Angeles | 2 | All Maps","protocol":17,"map":"pl_enclosure_final","folder":"tf","game":"Team Fortress","app_id":440,"player_count":24,"max_players":24,"Bots":0,"server_type":"Dedicated","server_os":"Linux","password":true,"vac":true,"version":"7961495","steam_id":85568392924469992,"keywords":["nocrits","nodmgspread","payload","uncletopia"],"game_id":440,"stv_port":27026,"stv_name":"Uncletopia | Los Angeles | 2 | All Maps | STV","players":[{"user_id":148,"name":"stir-fried human tonsils","steam_id":76561198312126442,"connected_time":1507000000000,"state":"active","ping":83},{"user_id":153,"name":"McSpazatron","steam_id":76561198955942148,"connected_time":684000000000,"state":"active","ping":97},{"user_id":160,"name":"MithStyck","steam_id":76561198071538489,"connected_time":361000000000,"state":"active","ping":76},{"user_id":100,"name":"ninja45","steam_id":76561198150619521,"connected_time":5090000000000,"state":"active","ping":73},{"user_id":161,"name":"Fred","steam_id":76561198042274397,"connected_time":314000000000,"state":"active","ping":75},{"user_id":143,"name":"darren","steam_id":76561199050155136,"connected_time":2224000000000,"state":"active","ping":45},{"user_id":112,"name":"Boxcars","steam_id":76561198120978767,"connected_time":4578000000000,"state":"active","ping":58},{"user_id":147,"name":"Gordon Ramsay","steam_id":76561198123893900,"connected_time":1539000000000,"state":"active","ping":129},{"user_id":141,"name":"roach","steam_id":76561198354811369,"connected_time":2439000000000,"state":"active","ping":47},{"user_id":152,"name":"Gobb","steam_id":76561198028907283,"connected_time":804000000000,"state":"active","ping":41},{"user_id":111,"name":"Indefiable","steam_id":76561198219238953,"connected_time":4700000000000,"state":"active","ping":62},{"user_id":159,"name":"Temujin","steam_id":76561198030936583,"connected_time":405000000000,"state":"active","ping":92},{"user_id":128,"name":":)","steam_id":76561198982415497,"connected_time":3298000000000,"state":"active","ping":70},{"user_id":130,"name":"Youngblood5780","steam_id":76561198113934410,"connected_time":3293000000000,"state":"active","ping":67},{"user_id":98,"name":"wolf_71","steam_id":76561198963570945,"connected_time":5231000000000,"state":"active","ping":79},{"user_id":157,"name":"SanitysEdge","steam_id":76561198130732813,"connected_time":537000000000,"state":"active","ping":48},{"user_id":78,"name":"KlassicLoL","steam_id":76561198081815303,"connected_time":6143000000000,"state":"active","ping":44},{"user_id":154,"name":"Thequirka","steam_id":76561198968058652,"connected_time":662000000000,"state":"active","ping":76},{"user_id":151,"name":"Keamy","steam_id":76561199471434875,"connected_time":922000000000,"state":"active","ping":71},{"user_id":103,"name":"Cael","steam_id":76561198136789464,"connected_time":5076000000000,"state":"active","ping":59},{"user_id":162,"name":"Data_on_Acid","steam_id":76561198017657660,"connected_time":311000000000,"state":"active","ping":68},{"user_id":108,"name":"Stilgar of Sietch Tabr","steam_id":76561198131567365,"connected_time":4866000000000,"state":"active","ping":72},{"user_id":138,"name":"Seshreb","steam_id":76561198846614634,"connected_time":2689000000000,"state":"active","ping":64}]},{"server_id":324,"name":"Uncletopia | Los Angeles | 3 | All Maps","name_short":"lax-3","host":"lax-1.us.uncletopia.com","port":27035,"enabled":true,"region":"us-west","cc":"us","latitude":33.94279,"longitude":-118.41004,"reserved":0,"last_update":"0001-01-01T00:00:00Z","name_a2s":"Uncletopia | Los Angeles | 3 | All Maps","protocol":17,"map":"pl_frontier_final","folder":"tf","game":"Team Fortress","app_id":440,"player_count":0,"max_players":24,"Bots":0,"server_type":"Dedicated","server_os":"Linux","password":true,"vac":true,"version":"7961495","steam_id":85568392924510198,"keywords":["nocrits","nodmgspread","payload","uncletopia"],"game_id":440,"stv_port":27036,"stv_name":"Uncletopia | Los Angeles | 3 | All Maps | STV","players":null},{"server_id":25,"name":"Uncletopia | Los Angeles | 4 | Stopwatch","name_short":"lax-4","host":"lax-1.us.uncletopia.com","port":27045,"enabled":true,"region":"us-west","cc":"us","latitude":33.94279,"longitude":-118.41004,"reserved":0,"last_update":"0001-01-01T00:00:00Z","name_a2s":"Uncletopia | Los Angeles | 4 | Stopwatch","protocol":17,"map":"pl_barnblitz","folder":"tf","game":"Team Fortress","app_id":440,"player_count":0,"max_players":24,"Bots":0,"server_type":"Dedicated","server_os":"Linux","password":true,"vac":true,"version":"7961495","steam_id":85568392924510199,"keywords":["nocrits","nodmgspread","payload","uncletopia"],"game_id":440,"stv_port":27046,"stv_name":"Uncletopia | Los Angeles | 4 | Stopwatch | STV","players":null},{"server_id":11,"name":"Uncletopia | London | 1 | All Maps","name_short":"lon-1","host":"lon-1.uk.uncletopia.com","port":27015,"enabled":true,"region":"eu","cc":"gb","latitude":51.509865,"longitude":-0.118092,"reserved":0,"last_update":"0001-01-01T00:00:00Z","name_a2s":"Uncletopia | London | 1 | All Maps","protocol":17,"map":"pl_snowycoast","folder":"tf","game":"Team Fortress","app_id":440,"player_count":24,"max_players":24,"Bots":0,"server_type":"Dedicated","server_os":"Linux","password":true,"vac":true,"version":"7961495","steam_id":85568392924367362,"keywords":["nocrits","nodmgspread","payload","uncletopia"],"game_id":440,"stv_port":27016,"stv_name":"Uncletopia | London | 1 | All Maps | STV","players":[{"user_id":584,"name":"jimmy bob","steam_id":76561198319583692,"connected_time":435000000000,"state":"active","ping":56},{"user_id":578,"name":"✪ Danny","steam_id":76561198104483241,"connected_time":870000000000,"state":"active","ping":51},{"user_id":580,"name":"lepicah","steam_id":76561198797345502,"connected_time":853000000000,"state":"active","ping":61},{"user_id":572,"name":"Ecton","steam_id":76561198025103720,"connected_time":1358000000000,"state":"active","ping":54},{"user_id":550,"name":"Black Tom","steam_id":76561198335730273,"connected_time":2432000000000,"state":"active","ping":54},{"user_id":520,"name":"Finkaksu Devourer of Sour Candy","steam_id":76561198201389163,"connected_time":5301000000000,"state":"active","ping":70},{"user_id":547,"name":"Lyra","steam_id":76561198043601838,"connected_time":2561000000000,"state":"active","ping":61},{"user_id":574,"name":"sphere","steam_id":76561197971059842,"connected_time":1241000000000,"state":"active","ping":38},{"user_id":570,"name":"Margarito_snake","steam_id":76561198132001394,"connected_time":1499000000000,"state":"active","ping":117},{"user_id":538,"name":"trite","steam_id":76561197983765323,"connected_time":3023000000000,"state":"active","ping":48},{"user_id":567,"name":"Sir Cauterize","steam_id":76561198047079422,"connected_time":1587000000000,"state":"active","ping":55},{"user_id":556,"name":"NitPig","steam_id":76561198212991935,"connected_time":2044000000000,"state":"active","ping":95},{"user_id":569,"name":"CrazyUranium417","steam_id":76561199500702290,"connected_time":1521000000000,"state":"active","ping":34},{"user_id":583,"name":"getpost","steam_id":76561198260064876,"connected_time":805000000000,"state":"active","ping":95},{"user_id":571,"name":"VeLaVeN","steam_id":76561198120278081,"connected_time":1473000000000,"state":"active","ping":90},{"user_id":585,"name":"i hack smart refrigerators","steam_id":76561199265289808,"connected_time":382000000000,"state":"active","ping":117},{"user_id":568,"name":"Ynss","steam_id":76561198021472798,"connected_time":1558000000000,"state":"active","ping":59},{"user_id":527,"name":"map","steam_id":76561198370196400,"connected_time":4279000000000,"state":"active","ping":90},{"user_id":576,"name":"Birgit","steam_id":76561198257471705,"connected_time":1022000000000,"state":"active","ping":76},{"user_id":524,"name":"Clown :o)","steam_id":76561198074657015,"connected_time":4889000000000,"state":"active","ping":56},{"user_id":523,"name":"Tre3","steam_id":76561198054795379,"connected_time":5014000000000,"state":"active","ping":64},{"user_id":526,"name":"chief keef sag so low","steam_id":76561198106049954,"connected_time":4399000000000,"state":"active","ping":80},{"user_id":539,"name":"Prime Minister Rishi Sunak","steam_id":76561198846784757,"connected_time":2718000000000,"state":"active","ping":58},{"user_id":554,"name":"hmscole09","steam_id":76561198811362788,"connected_time":2359000000000,"state":"active","ping":52}]},{"server_id":114,"name":"Uncletopia | London | 2 | All Maps","name_short":"lon-2","host":"lon-1.uk.uncletopia.com","port":27025,"enabled":true,"region":"eu","cc":"gb","latitude":51.509865,"longitude":-0.118092,"reserved":0,"last_update":"0001-01-01T00:00:00Z","name_a2s":"Uncletopia | London | 2 | All Maps","protocol":17,"map":"cp_dustbowl","folder":"tf","game":"Team Fortress","app_id":440,"player_count":24,"max_players":24,"Bots":0,"server_type":"Dedicated","server_os":"Linux","password":true,"vac":true,"version":"7961495","steam_id":85568392924470941,"keywords":["cp","nocrits","nodmgspread","uncletopia"],"game_id":440,"stv_port":27026,"stv_name":"Uncletopia | London | 2 | All Maps | STV","players":[{"user_id":547,"name":"I I | #SaveTF2","steam_id":76561199101935057,"connected_time":116000000000,"state":"active","ping":103},{"user_id":479,"name":"Spinya","steam_id":76561198086653667,"connected_time":4384000000000,"state":"active","ping":58},{"user_id":341,"name":"Luigi","steam_id":76561199194954220,"connected_time":10913000000000,"state":"active","ping":64},{"user_id":548,"name":"2-D (secretly undercover)","steam_id":76561198287344223,"connected_time":101000000000,"state":"active","ping":87},{"user_id":503,"name":"ursus ludens","steam_id":76561198337150763,"connected_time":3092000000000,"state":"active","ping":51},{"user_id":540,"name":"Makłowicz","steam_id":76561198281831506,"connected_time":744000000000,"state":"active","ping":85},{"user_id":521,"name":"Mastenbier","steam_id":76561199067658590,"connected_time":1984000000000,"state":"active","ping":124},{"user_id":543,"name":"MrSoy","steam_id":76561198082960634,"connected_time":585000000000,"state":"active","ping":57},{"user_id":523,"name":"heddwch","steam_id":76561198076097983,"connected_time":1754000000000,"state":"active","ping":82},{"user_id":536,"name":"Swiss_Nostalgia","steam_id":76561199159896259,"connected_time":934000000000,"state":"active","ping":60},{"user_id":533,"name":"Sonnakai","steam_id":76561198051688749,"connected_time":1019000000000,"state":"active","ping":38},{"user_id":518,"name":"Gle_Dusse","steam_id":76561198344645844,"connected_time":2362000000000,"state":"active","ping":108},{"user_id":481,"name":"DudeoftheRock","steam_id":76561198059401865,"connected_time":4359000000000,"state":"active","ping":64},{"user_id":509,"name":"dash.","steam_id":76561198084796149,"connected_time":2904000000000,"state":"active","ping":47},{"user_id":549,"name":"Beanie","steam_id":76561198173882658,"connected_time":26000000000,"state":"active","ping":47},{"user_id":519,"name":"Someone","steam_id":76561199030195879,"connected_time":2232000000000,"state":"active","ping":52},{"user_id":550,"name":"skittish maiden","steam_id":76561198096856475,"connected_time":23000000000,"state":"spawning","ping":62},{"user_id":522,"name":"I Eamt Purbgeon","steam_id":76561198073769916,"connected_time":1812000000000,"state":"active","ping":57},{"user_id":551,"name":"please do not the cat","steam_id":76561198089003514,"connected_time":3000000000,"state":"spawning","ping":59},{"user_id":534,"name":"PUG B","steam_id":76561198075390748,"connected_time":1016000000000,"state":"active","ping":69},{"user_id":552,"name":"asa004","steam_id":76561198160323444,"connected_time":2000000000,"state":"spawning","ping":87},{"user_id":498,"name":"Gir","steam_id":76561198075155374,"connected_time":3714000000000,"state":"active","ping":44},{"user_id":516,"name":"AftiksPL","steam_id":76561198875182686,"connected_time":2811000000000,"state":"active","ping":101},{"user_id":372,"name":"Flying Squirrel","steam_id":76561198005202791,"connected_time":9784000000000,"state":"active","ping":81}]},{"server_id":320,"name":"Uncletopia | London | 3 | All Maps","name_short":"lon-3","host":"lon-1.uk.uncletopia.com","port":27035,"enabled":true,"region":"eu","cc":"gb","latitude":51.509865,"longitude":-0.118092,"reserved":0,"last_update":"0001-01-01T00:00:00Z","name_a2s":"Uncletopia | London | 3 | All Maps","protocol":17,"map":"cp_sunshine","folder":"tf","game":"Team Fortress","app_id":440,"player_count":24,"max_players":24,"Bots":0,"server_type":"Dedicated","server_os":"Linux","password":true,"vac":true,"version":"7961495","steam_id":85568392924510192,"keywords":["cp","nocrits","nodmgspread","uncletopia"],"game_id":440,"stv_port":27036,"stv_name":"Uncletopia | London | 3 | All Maps | STV","players":[{"user_id":248,"name":"R8N - Obismal","steam_id":76561198007482714,"connected_time":8696000000000,"state":"active","ping":76},{"user_id":392,"name":"moglimbo","steam_id":76561198083937378,"connected_time":594000000000,"state":"active","ping":47},{"user_id":377,"name":"Virgineer","steam_id":76561199140814522,"connected_time":1097000000000,"state":"active","ping":98},{"user_id":394,"name":"Bzd","steam_id":76561198204521956,"connected_time":548000000000,"state":"active","ping":75},{"user_id":332,"name":"Reljadin","steam_id":76561198054997553,"connected_time":4130000000000,"state":"active","ping":89},{"user_id":399,"name":"Refleks","steam_id":76561198149489876,"connected_time":412000000000,"state":"active","ping":75},{"user_id":402,"name":"Cillian","steam_id":76561199471571148,"connected_time":199000000000,"state":"active","ping":77},{"user_id":397,"name":"outlaw","steam_id":76561198323805289,"connected_time":511000000000,"state":"active","ping":31},{"user_id":400,"name":"100 hundred bucks","steam_id":76561198126896711,"connected_time":311000000000,"state":"active","ping":82},{"user_id":409,"name":"Crew","steam_id":76561198207659821,"connected_time":23000000000,"state":"active","ping":54},{"user_id":385,"name":"123","steam_id":76561198087565575,"connected_time":736000000000,"state":"active","ping":55},{"user_id":386,"name":"Jahlil D'armequanius Finglenut","steam_id":76561198855897385,"connected_time":721000000000,"state":"active","ping":67},{"user_id":398,"name":"YARrICk.«+»","steam_id":76561197990126485,"connected_time":440000000000,"state":"active","ping":57},{"user_id":396,"name":"Pixel-Jay","steam_id":76561198853840115,"connected_time":524000000000,"state":"active","ping":51},{"user_id":368,"name":"джегеми хэпкингс","steam_id":76561198131531394,"connected_time":2122000000000,"state":"active","ping":105},{"user_id":388,"name":"WEEP","steam_id":76561199499933159,"connected_time":650000000000,"state":"active","ping":70},{"user_id":279,"name":"DHD - Obismal","steam_id":76561198000356530,"connected_time":6724000000000,"state":"active","ping":77},{"user_id":281,"name":"gamerkiddo","steam_id":76561198047380360,"connected_time":6570000000000,"state":"active","ping":49},{"user_id":389,"name":"Olekman","steam_id":76561198035446981,"connected_time":646000000000,"state":"active","ping":67},{"user_id":390,"name":"ThornDrayton","steam_id":76561198141985675,"connected_time":645000000000,"state":"active","ping":63},{"user_id":312,"name":"Macci - Obismal","steam_id":76561198050485404,"connected_time":5250000000000,"state":"active","ping":86},{"user_id":391,"name":"bowchika wowa #SlavaUkraine","steam_id":76561198159564550,"connected_time":598000000000,"state":"active","ping":72},{"user_id":274,"name":"bitkomet","steam_id":76561198058232147,"connected_time":7226000000000,"state":"active","ping":77},{"user_id":393,"name":"jake.july","steam_id":76561199215700530,"connected_time":591000000000,"state":"active","ping":64}]},{"server_id":321,"name":"Uncletopia | London | 4 | All Maps","name_short":"lon-4","host":"lon-1.uk.uncletopia.com","port":27045,"enabled":true,"region":"eu","cc":"gb","latitude":51.509865,"longitude":-0.118092,"reserved":0,"last_update":"0001-01-01T00:00:00Z","name_a2s":"Uncletopia | London | 4 | All Maps","protocol":17,"map":"pl_badwater","folder":"tf","game":"Team Fortress","app_id":440,"player_count":24,"max_players":24,"Bots":0,"server_type":"Dedicated","server_os":"Linux","password":true,"vac":true,"version":"7961495","steam_id":85568392924510193,"keywords":["nocrits","nodmgspread","payload","uncletopia"],"game_id":440,"stv_port":27046,"stv_name":"Uncletopia | London | 4 | All Maps | STV","players":[{"user_id":189,"name":"puffy grapes","steam_id":76561198069649097,"connected_time":183000000000,"state":"active","ping":66},{"user_id":156,"name":"Calsim","steam_id":76561198164877219,"connected_time":2518000000000,"state":"active","ping":39},{"user_id":183,"name":"Delta Flowers ♡","steam_id":76561198434811706,"connected_time":295000000000,"state":"active","ping":53},{"user_id":190,"name":"Big Squibbly","steam_id":76561198101451654,"connected_time":182000000000,"state":"active","ping":47},{"user_id":175,"name":"mohemmedmokhter2005","steam_id":76561199197650506,"connected_time":1641000000000,"state":"active","ping":110},{"user_id":184,"name":"night.s","steam_id":76561198326287823,"connected_time":280000000000,"state":"active","ping":75},{"user_id":185,"name":"Fatmagic Mukbang ASMR","steam_id":76561198063492110,"connected_time":275000000000,"state":"active","ping":86},{"user_id":171,"name":"TSx* Naxer","steam_id":76561198011986779,"connected_time":2232000000000,"state":"active","ping":74},{"user_id":186,"name":"Nurse Hanged","steam_id":76561198207533335,"connected_time":235000000000,"state":"active","ping":59},{"user_id":159,"name":"azzy","steam_id":76561198061293740,"connected_time":2483000000000,"state":"active","ping":80},{"user_id":187,"name":"wal","steam_id":76561198066043883,"connected_time":229000000000,"state":"active","ping":58},{"user_id":195,"name":"Tamer","steam_id":76561199101501051,"connected_time":67000000000,"state":"active","ping":60},{"user_id":192,"name":"Biggest birrrd","steam_id":76561198069066522,"connected_time":175000000000,"state":"active","ping":64},{"user_id":162,"name":"Wobblyboyz","steam_id":76561198289356209,"connected_time":2463000000000,"state":"active","ping":52},{"user_id":165,"name":"UltimateSlayer","steam_id":76561198384109309,"connected_time":2429000000000,"state":"active","ping":56},{"user_id":172,"name":"Fidacha","steam_id":76561198003060881,"connected_time":2171000000000,"state":"active","ping":64},{"user_id":167,"name":"My left foot itches","steam_id":76561198078411001,"connected_time":2407000000000,"state":"active","ping":95},{"user_id":193,"name":"Lyrista","steam_id":76561198136435129,"connected_time":173000000000,"state":"active","ping":66},{"user_id":173,"name":"snert","steam_id":76561198451550309,"connected_time":2152000000000,"state":"active","ping":41},{"user_id":169,"name":"TSx* Osa__PL","steam_id":76561198027016799,"connected_time":2394000000000,"state":"active","ping":78},{"user_id":180,"name":"just gamer gaming","steam_id":76561198053929269,"connected_time":916000000000,"state":"active","ping":93},{"user_id":177,"name":"KermSlinger","steam_id":76561198854027069,"connected_time":1623000000000,"state":"active","ping":71},{"user_id":182,"name":"Bump the Younger","steam_id":76561198036900460,"connected_time":595000000000,"state":"active","ping":67},{"user_id":194,"name":"Skatnaset","steam_id":76561198298457353,"connected_time":168000000000,"state":"active","ping":75}]},{"server_id":21,"name":"Uncletopia | London | 5 | All Maps","name_short":"lon-5","host":"lon-1.uk.uncletopia.com","port":27055,"enabled":true,"region":"eu","cc":"gb","latitude":51.509865,"longitude":-0.118092,"reserved":0,"last_update":"0001-01-01T00:00:00Z","name_a2s":"Uncletopia | London | 5 | All Maps","protocol":17,"map":"pl_snowycoast","folder":"tf","game":"Team Fortress","app_id":440,"player_count":23,"max_players":24,"Bots":0,"server_type":"Dedicated","server_os":"Linux","password":true,"vac":true,"version":"7961495","steam_id":85568392924742829,"keywords":["nocrits","nodmgspread","payload","uncletopia"],"game_id":440,"stv_port":27056,"stv_name":"Uncletopia | London | 5 | All Maps | STV","players":[{"user_id":20,"name":"Vic Rattlehead","steam_id":76561199036837091,"connected_time":3196000000000,"state":"active","ping":91},{"user_id":21,"name":"Moon","steam_id":76561198808108594,"connected_time":3097000000000,"state":"active","ping":99},{"user_id":33,"name":"burritoeater","steam_id":76561199124197813,"connected_time":2195000000000,"state":"active","ping":102},{"user_id":76,"name":"Femboy Thighs","steam_id":76561198115496457,"connected_time":49000000000,"state":"active","ping":45},{"user_id":74,"name":"Ferrariracer5f1","steam_id":76561199229815098,"connected_time":371000000000,"state":"active","ping":72},{"user_id":35,"name":"Lozo","steam_id":76561198091866601,"connected_time":2147000000000,"state":"active","ping":58},{"user_id":60,"name":"Blat","steam_id":76561199013233409,"connected_time":1338000000000,"state":"active","ping":61},{"user_id":59,"name":"Trans Femtress 2","steam_id":76561198014056212,"connected_time":1364000000000,"state":"active","ping":69},{"user_id":36,"name":"LewieLol","steam_id":76561199473523083,"connected_time":2044000000000,"state":"active","ping":77},{"user_id":65,"name":"RLCrazyCat3","steam_id":76561197983757878,"connected_time":874000000000,"state":"active","ping":61},{"user_id":38,"name":"Qror","steam_id":76561198043481431,"connected_time":2023000000000,"state":"active","ping":67},{"user_id":39,"name":"Hogi!","steam_id":76561198167605750,"connected_time":2016000000000,"state":"active","ping":78},{"user_id":40,"name":"Tipsu","steam_id":76561197971982894,"connected_time":1986000000000,"state":"active","ping":102},{"user_id":42,"name":"Nightfury Cosmic Cat ;p","steam_id":76561198118539664,"connected_time":1839000000000,"state":"active","ping":104},{"user_id":61,"name":"Gaarke","steam_id":76561198023099219,"connected_time":1336000000000,"state":"active","ping":75},{"user_id":70,"name":"I jazzed myself","steam_id":76561198203016603,"connected_time":665000000000,"state":"active","ping":46},{"user_id":66,"name":"Plep","steam_id":76561198840259819,"connected_time":862000000000,"state":"active","ping":56},{"user_id":67,"name":"Locke","steam_id":76561198339408300,"connected_time":828000000000,"state":"active","ping":55},{"user_id":75,"name":"Birch","steam_id":76561197998712822,"connected_time":338000000000,"state":"active","ping":45},{"user_id":55,"name":"Xeno","steam_id":76561198975556646,"connected_time":1518000000000,"state":"active","ping":65},{"user_id":51,"name":"Zerfesh","steam_id":76561198117534358,"connected_time":1618000000000,"state":"active","ping":105},{"user_id":57,"name":"hasky","steam_id":76561197986052798,"connected_time":1427000000000,"state":"active","ping":83},{"user_id":69,"name":"Testy","steam_id":76561198169996602,"connected_time":755000000000,"state":"active","ping":58}]},{"server_id":22,"name":"Uncletopia | London | 6 | All Maps","name_short":"lon-6","host":"lon-1.uk.uncletopia.com","port":27065,"enabled":true,"region":"eu","cc":"gb","latitude":51.509865,"longitude":-0.118092,"reserved":0,"last_update":"0001-01-01T00:00:00Z","name_a2s":"Uncletopia | London | 6 | All Maps","protocol":17,"map":"cp_process_final","folder":"tf","game":"Team Fortress","app_id":440,"player_count":19,"max_players":24,"Bots":0,"server_type":"Dedicated","server_os":"Linux","password":true,"vac":true,"version":"7961495","steam_id":85568392924742830,"keywords":["cp","nocrits","nodmgspread","uncletopia"],"game_id":440,"stv_port":27066,"stv_name":"Uncletopia | London | 6 | All Maps | STV","players":[{"user_id":235,"name":"jacio","steam_id":76561199491964000,"connected_time":2549000000000,"state":"active","ping":57},{"user_id":227,"name":"Arecibo","steam_id":76561198014359615,"connected_time":3099000000000,"state":"active","ping":59},{"user_id":259,"name":"Bill_nye_epic","steam_id":76561199216249214,"connected_time":662000000000,"state":"active","ping":143},{"user_id":266,"name":"\u003e\u003c\u003e","steam_id":76561198152392309,"connected_time":81000000000,"state":"active","ping":44},{"user_id":220,"name":"The Jukebox","steam_id":76561199439516375,"connected_time":3421000000000,"state":"active","ping":78},{"user_id":262,"name":"gpupdate","steam_id":76561198154677956,"connected_time":165000000000,"state":"active","ping":77},{"user_id":267,"name":"The worst TF2 player","steam_id":76561199184873889,"connected_time":28000000000,"state":"active","ping":68},{"user_id":240,"name":"lulu","steam_id":76561199147764133,"connected_time":2338000000000,"state":"active","ping":74},{"user_id":268,"name":"Dumk1dz","steam_id":76561199066954336,"connected_time":1000000000,"state":"spawning","ping":38},{"user_id":206,"name":"Colonel Dimanche","steam_id":76561197994792632,"connected_time":4810000000000,"state":"active","ping":55},{"user_id":236,"name":"yush","steam_id":76561198121688934,"connected_time":2541000000000,"state":"active","ping":74},{"user_id":237,"name":"Nag","steam_id":76561197970488206,"connected_time":2538000000000,"state":"active","ping":71},{"user_id":257,"name":"Noob_with_source","steam_id":76561198870362103,"connected_time":1035000000000,"state":"active","ping":58},{"user_id":151,"name":"Just Navlis","steam_id":76561198090479609,"connected_time":9825000000000,"state":"active","ping":57},{"user_id":258,"name":"Space Raccoon","steam_id":76561198038399662,"connected_time":891000000000,"state":"active","ping":87},{"user_id":225,"name":"Jussukka","steam_id":76561198122894683,"connected_time":3201000000000,"state":"active","ping":87},{"user_id":173,"name":"A Shoelace","steam_id":76561198126726364,"connected_time":7873000000000,"state":"active","ping":59},{"user_id":265,"name":"Alpaca","steam_id":76561198029839079,"connected_time":148000000000,"state":"active","ping":57},{"user_id":234,"name":"Slowest hands in the west","steam_id":76561199286764992,"connected_time":2643000000000,"state":"active","ping":85}]},{"server_id":40,"name":"Uncletopia | London | 7 | Stopwatch","name_short":"lon-7","host":"lon-1.uk.uncletopia.com","port":27075,"enabled":true,"region":"eu","cc":"gb","latitude":51.509865,"longitude":-0.118092,"reserved":0,"last_update":"0001-01-01T00:00:00Z","name_a2s":"Uncletopia | London | 7 | Stopwatch","protocol":17,"map":"workshop/koth_product_final.ugc454272353","folder":"tf","game":"Team Fortress","app_id":440,"player_count":0,"max_players":24,"Bots":0,"server_type":"Dedicated","server_os":"Linux","password":true,"vac":true,"version":"7961495","steam_id":85568392924964314,"keywords":["cp","nocrits","nodmgspread","uncletopia"],"game_id":440,"stv_port":27076,"stv_name":"Uncletopia | London | 7 | Stopwatch | STV","players":null},{"server_id":41,"name":"Uncletopia | London | 8 | Community","name_short":"lon-8","host":"lon-1.uk.uncletopia.com","port":27085,"enabled":true,"region":"eu","cc":"gb","latitude":51.509865,"longitude":-0.118092,"reserved":0,"last_update":"0001-01-01T00:00:00Z","name_a2s":"Uncletopia | London | 8 | Community","protocol":17,"map":"workshop/koth_product_final.ugc454272353","folder":"tf","game":"Team Fortress","app_id":440,"player_count":0,"max_players":24,"Bots":0,"server_type":"Dedicated","server_os":"Linux","password":true,"vac":true,"version":"7961495","steam_id":85568392924964315,"keywords":["cp","nocrits","nodmgspread","uncletopia"],"game_id":440,"stv_port":27086,"stv_name":"Uncletopia | London | 8 | Community | STV","players":null},{"server_id":300,"name":"Uncletopia | Montréal | 1 | One Thousand Uncles","name_short":"mtl-1","host":"mtl-1.ca.uncletopia.com","port":27015,"enabled":true,"region":"us-east","cc":"ca","latitude":45.50889,"longitude":-73.56167,"reserved":0,"last_update":"0001-01-01T00:00:00Z","name_a2s":"","protocol":0,"map":"","folder":"","game":"","app_id":0,"player_count":0,"max_players":0,"Bots":0,"server_type":"","server_os":"","password":false,"vac":false,"version":"","steam_id":0,"keywords":null,"game_id":0,"stv_port":0,"stv_name":"","players":null},{"server_id":301,"name":"Uncletopia | Montréal | 2 | One Thousand Uncles","name_short":"mtl-2","host":"mtl-1.ca.uncletopia.com","port":27025,"enabled":true,"region":"us-east","cc":"ca","latitude":45.50889,"longitude":-73.56167,"reserved":0,"last_update":"0001-01-01T00:00:00Z","name_a2s":"","protocol":0,"map":"","folder":"","game":"","app_id":0,"player_count":0,"max_players":0,"Bots":0,"server_type":"","server_os":"","password":false,"vac":false,"version":"","steam_id":0,"keywords":null,"game_id":0,"stv_port":0,"stv_name":"","players":null},{"server_id":302,"name":"Uncletopia | Montréal | 3 | One Thousand Uncles","name_short":"mtl-3","host":"mtl-1.ca.uncletopia.com","port":27035,"enabled":true,"region":"us-east","cc":"ca","latitude":45.50889,"longitude":-73.56167,"reserved":0,"last_update":"0001-01-01T00:00:00Z","name_a2s":"","protocol":0,"map":"","folder":"","game":"","app_id":0,"player_count":3,"max_players":0,"Bots":0,"server_type":"","server_os":"","password":false,"vac":false,"version":"","steam_id":0,"keywords":null,"game_id":0,"stv_port":0,"stv_name":"","players":[{"user_id":2,"name":"AssignedGod","steam_id":76561198020928306,"connected_time":3165000000000,"state":"active","ping":51},{"user_id":22,"name":"✠✠killer174hun✠✠","steam_id":76561198210135897,"connected_time":1718000000000,"state":"active","ping":165},{"user_id":23,"name":"A Terrible Shot","steam_id":76561198045523833,"connected_time":810000000000,"state":"active","ping":74}]},{"server_id":13,"name":"Uncletopia | New York City | 1 | All Maps","name_short":"nyc-1","host":"nyc-1.us.uncletopia.com","port":27015,"enabled":true,"region":"us-east","cc":"us","latitude":40.73061,"longitude":-73.93524,"reserved":0,"last_update":"0001-01-01T00:00:00Z","name_a2s":"Uncletopia | New York City | 1 | All Maps","protocol":17,"map":"cp_dustbowl","folder":"tf","game":"Team Fortress","app_id":440,"player_count":22,"max_players":24,"Bots":0,"server_type":"Dedicated","server_os":"Linux","password":true,"vac":true,"version":"7961495","steam_id":85568392924469993,"keywords":["cp","nocrits","nodmgspread","uncletopia"],"game_id":440,"stv_port":27016,"stv_name":"Uncletopia | New York City | 1 | All Maps | STV","players":[{"user_id":133,"name":"Duck","steam_id":76561198303483056,"connected_time":3919000000000,"state":"active","ping":102},{"user_id":86,"name":"GigaSpin","steam_id":76561198083478846,"connected_time":7179000000000,"state":"active","ping":64},{"user_id":160,"name":"Larry","steam_id":76561198334604124,"connected_time":2002000000000,"state":"active","ping":68},{"user_id":147,"name":"Bald Vegeta","steam_id":76561198844143746,"connected_time":3255000000000,"state":"active","ping":80},{"user_id":130,"name":"Klynol","steam_id":76561198065856098,"connected_time":4118000000000,"state":"active","ping":95},{"user_id":144,"name":"Servaos","steam_id":76561198113244990,"connected_time":3477000000000,"state":"active","ping":59},{"user_id":164,"name":"ThiccKingShadow","steam_id":76561198079588625,"connected_time":879000000000,"state":"active","ping":147},{"user_id":151,"name":"4Lukaska","steam_id":76561198083515060,"connected_time":2984000000000,"state":"active","ping":31},{"user_id":170,"name":"FAKE TAXI PRANKS","steam_id":76561198136746987,"connected_time":310000000000,"state":"active","ping":74},{"user_id":155,"name":"cl","steam_id":76561199436640904,"connected_time":2603000000000,"state":"active","ping":158},{"user_id":152,"name":"BORKA","steam_id":76561198135880720,"connected_time":2972000000000,"state":"active","ping":84},{"user_id":106,"name":"Congcrab","steam_id":76561198078687685,"connected_time":6091000000000,"state":"active","ping":91},{"user_id":171,"name":"Fatass Hennessy Sargent","steam_id":76561198363267009,"connected_time":182000000000,"state":"active","ping":84},{"user_id":88,"name":"GummybearKillr","steam_id":76561198031235750,"connected_time":7146000000000,"state":"active","ping":57},{"user_id":166,"name":"Herdez Hot Salsa","steam_id":76561197991740906,"connected_time":843000000000,"state":"active","ping":66},{"user_id":161,"name":"Fordring","steam_id":76561198141998973,"connected_time":1750000000000,"state":"active","ping":94},{"user_id":149,"name":"Aboxofjuice-jb","steam_id":76561198352129145,"connected_time":3108000000000,"state":"active","ping":51},{"user_id":163,"name":"Niλiwiλi, ▼iscount of ▼io","steam_id":76561198009193777,"connected_time":1138000000000,"state":"active","ping":60},{"user_id":68,"name":"Brawns","steam_id":76561198045190199,"connected_time":9212000000000,"state":"active","ping":68},{"user_id":138,"name":"custodian","steam_id":76561198058793778,"connected_time":3834000000000,"state":"active","ping":55},{"user_id":167,"name":"CartierYT","steam_id":76561199119485917,"connected_time":812000000000,"state":"active","ping":44},{"user_id":169,"name":"GKumo","steam_id":76561198023175868,"connected_time":490000000000,"state":"active","ping":118}]},{"server_id":14,"name":"Uncletopia | New York City | 2 | All Maps","name_short":"nyc-2","host":"nyc-1.us.uncletopia.com","port":27025,"enabled":true,"region":"us-east","cc":"us","latitude":40.73061,"longitude":-73.93524,"reserved":0,"last_update":"0001-01-01T00:00:00Z","name_a2s":"Uncletopia | New York City | 2 | All Maps","protocol":17,"map":"koth_suijin","folder":"tf","game":"Team Fortress","app_id":440,"player_count":22,"max_players":24,"Bots":0,"server_type":"Dedicated","server_os":"Linux","password":true,"vac":true,"version":"7961495","steam_id":85568392924469994,"keywords":["cp","nocrits","nodmgspread","uncletopia"],"game_id":440,"stv_port":27026,"stv_name":"Uncletopia | New York City | 2 | All Maps | STV","players":[{"user_id":8,"name":"thefanchick","steam_id":76561199092414034,"connected_time":4766000000000,"state":"active","ping":51},{"user_id":58,"name":"orphan slayer","steam_id":76561199476198856,"connected_time":329000000000,"state":"active","ping":100},{"user_id":41,"name":"cyberas","steam_id":76561198257092290,"connected_time":2271000000000,"state":"active","ping":65},{"user_id":12,"name":"나무 먹는 사람","steam_id":76561198167893972,"connected_time":3954000000000,"state":"active","ping":72},{"user_id":45,"name":"MilkToast","steam_id":76561198167959226,"connected_time":2029000000000,"state":"active","ping":81},{"user_id":59,"name":"--_Cook_--","steam_id":76561198080855748,"connected_time":297000000000,"state":"active","ping":47},{"user_id":20,"name":"Sizenberg","steam_id":76561198115842661,"connected_time":3065000000000,"state":"active","ping":77},{"user_id":56,"name":"loscemo","steam_id":76561197994884609,"connected_time":696000000000,"state":"active","ping":80},{"user_id":52,"name":"Jolot","steam_id":76561198027776270,"connected_time":1134000000000,"state":"active","ping":72},{"user_id":48,"name":"flappyflap2","steam_id":76561198285048973,"connected_time":1831000000000,"state":"active","ping":44},{"user_id":60,"name":"Inferbruh","steam_id":76561198381636477,"connected_time":267000000000,"state":"active","ping":87},{"user_id":25,"name":"Drake the Pixel","steam_id":76561198131824401,"connected_time":2950000000000,"state":"active","ping":41},{"user_id":26,"name":"Napoleon Dynamite","steam_id":76561198068064706,"connected_time":2897000000000,"state":"active","ping":39},{"user_id":61,"name":"wool","steam_id":76561198869689933,"connected_time":264000000000,"state":"active","ping":56},{"user_id":64,"name":"TATARA","steam_id":76561199098759517,"connected_time":132000000000,"state":"active","ping":123},{"user_id":57,"name":"the pest","steam_id":76561198826298849,"connected_time":477000000000,"state":"active","ping":89},{"user_id":55,"name":"freyja 2","steam_id":76561198249206656,"connected_time":776000000000,"state":"active","ping":222},{"user_id":63,"name":"Freyja","steam_id":76561198207412177,"connected_time":163000000000,"state":"active","ping":86},{"user_id":35,"name":"BoxOfStaples","steam_id":76561198834773017,"connected_time":2664000000000,"state":"active","ping":89},{"user_id":36,"name":"big ol' buford","steam_id":76561198290675957,"connected_time":2624000000000,"state":"active","ping":75},{"user_id":40,"name":"GimliLOTR","steam_id":76561198163746000,"connected_time":2570000000000,"state":"active","ping":61},{"user_id":51,"name":"YourFriendJessie","steam_id":76561198176883097,"connected_time":1159000000000,"state":"active","ping":45}]},{"server_id":15,"name":"Uncletopia | New York City | 3 | Stopwatch","name_short":"nyc-3","host":"nyc-1.us.uncletopia.com","port":27035,"enabled":true,"region":"us-east","cc":"us","latitude":40.73061,"longitude":-73.93524,"reserved":0,"last_update":"0001-01-01T00:00:00Z","name_a2s":"Uncletopia | New York City | 3 | Stopwatch","protocol":17,"map":"workshop/pl_barnblitz_pro7.ugc582280235","folder":"tf","game":"Team Fortress","app_id":440,"player_count":0,"max_players":24,"Bots":0,"server_type":"Dedicated","server_os":"Linux","password":true,"vac":true,"version":"7961495","steam_id":85568392924742820,"keywords":["nocrits","nodmgspread","payload","uncletopia"],"game_id":440,"stv_port":27036,"stv_name":"Uncletopia | New York City | 3 | Stopwatch | STV","players":null},{"server_id":16,"name":"Uncletopia | New York City | 4 | Community","name_short":"nyc-4","host":"nyc-1.us.uncletopia.com","port":27045,"enabled":true,"region":"us-east","cc":"us","latitude":40.73061,"longitude":-73.93524,"reserved":0,"last_update":"0001-01-01T00:00:00Z","name_a2s":"Uncletopia | New York City | 4 | Community","protocol":17,"map":"workshop/cp_overgrown_rc8.ugc503939302","folder":"tf","game":"Team Fortress","app_id":440,"player_count":0,"max_players":24,"Bots":0,"server_type":"Dedicated","server_os":"Linux","password":true,"vac":true,"version":"7961495","steam_id":85568392924742821,"keywords":["cp","nocrits","nodmgspread","uncletopia"],"game_id":440,"stv_port":27046,"stv_name":"Uncletopia | New York City | 4 | Community | STV","players":null},{"server_id":142,"name":"Uncletopia | São Paulo | 1 | All Maps","name_short":"sao-1","host":"sao-1.br.uncletopia.com","port":27015,"enabled":true,"region":"sa","cc":"br","latitude":-23.533773,"longitude":-46.62529,"reserved":0,"last_update":"0001-01-01T00:00:00Z","name_a2s":"Uncletopia | São Paulo | 1 | All Maps","protocol":17,"map":"pl_frontier_final","folder":"tf","game":"Team Fortress","app_id":440,"player_count":0,"max_players":24,"Bots":0,"server_type":"Dedicated","server_os":"Linux","password":true,"vac":true,"version":"7961495","steam_id":85568392924469996,"keywords":["nocrits","nodmgspread","payload","uncletopia"],"game_id":440,"stv_port":27016,"stv_name":"Uncletopia | São Paulo | 1 | All Maps | STV","players":null},{"server_id":143,"name":"Uncletopia | São Paulo | 2 | Community","name_short":"sao-2","host":"sao-2.br.uncletopia.com","port":27015,"enabled":true,"region":"sa","cc":"br","latitude":-23.533773,"longitude":-46.62529,"reserved":0,"last_update":"0001-01-01T00:00:00Z","name_a2s":"Uncletopia | São Paulo | 2 | Community","protocol":17,"map":"workshop/pl_divulgence_b4b.ugc2884808746","folder":"tf","game":"Team Fortress","app_id":440,"player_count":0,"max_players":24,"Bots":0,"server_type":"Dedicated","server_os":"Linux","password":true,"vac":true,"version":"7961495","steam_id":85568392924485349,"keywords":["nocrits","nodmgspread","payload","uncletopia"],"game_id":440,"stv_port":27016,"stv_name":"Uncletopia | São Paulo | 2 | Community | STV","players":null},{"server_id":7,"name":"Uncletopia | Seattle | 1 | All Maps","name_short":"sea-1","host":"sea-1.us.uncletopia.com","port":27015,"enabled":true,"region":"us-west","cc":"us","latitude":47.608013,"longitude":-122.33517,"reserved":0,"last_update":"0001-01-01T00:00:00Z","name_a2s":"Uncletopia | Seattle | 1 | All Maps","protocol":17,"map":"koth_suijin","folder":"tf","game":"Team Fortress","app_id":440,"player_count":8,"max_players":24,"Bots":0,"server_type":"Dedicated","server_os":"Linux","password":true,"vac":true,"version":"7961495","steam_id":85568392924469997,"keywords":["cp","nocrits","nodmgspread","uncletopia"],"game_id":440,"stv_port":27016,"stv_name":"Uncletopia | Seattle | 1 | All Maps | STV","players":[{"user_id":17,"name":"Birdman743","steam_id":76561198799636748,"connected_time":2266000000000,"state":"active","ping":44},{"user_id":22,"name":"[Plotholers] 89 years old","steam_id":76561198036733863,"connected_time":1001000000000,"state":"active","ping":90},{"user_id":26,"name":"collector's pest","steam_id":76561198170402666,"connected_time":615000000000,"state":"active","ping":61},{"user_id":30,"name":"NOM","steam_id":76561198362874591,"connected_time":345000000000,"state":"active","ping":99},{"user_id":27,"name":"Kanye Asada","steam_id":76561198186678831,"connected_time":555000000000,"state":"active","ping":79},{"user_id":33,"name":"UnforeseenCabbages","steam_id":76561198079386608,"connected_time":124000000000,"state":"active","ping":73},{"user_id":32,"name":"dox","steam_id":76561198838245430,"connected_time":287000000000,"state":"active","ping":106},{"user_id":34,"name":"hovietchil","steam_id":76561198880622567,"connected_time":27000000000,"state":"spawning","ping":120}]},{"server_id":119,"name":"Uncletopia | Seattle | 2 | All Maps","name_short":"sea-2","host":"sea-1.us.uncletopia.com","port":27025,"enabled":true,"region":"us-west","cc":"us","latitude":47.608013,"longitude":-122.33517,"reserved":0,"last_update":"0001-01-01T00:00:00Z","name_a2s":"Uncletopia | Seattle | 2 | All Maps","protocol":17,"map":"pl_frontier_final","folder":"tf","game":"Team Fortress","app_id":440,"player_count":0,"max_players":24,"Bots":0,"server_type":"Dedicated","server_os":"Linux","password":true,"vac":true,"version":"7961495","steam_id":85568392924469998,"keywords":["nocrits","nodmgspread","payload","uncletopia"],"game_id":440,"stv_port":27026,"stv_name":"Uncletopia | Seattle | 2 | All Maps | STV","players":null},{"server_id":406,"name":"Uncletopia | Seattle | 3 | Stopwatch","name_short":"sea-3","host":"sea-1.us.uncletopia.com","port":27035,"enabled":true,"region":"us-west","cc":"us","latitude":47.608013,"longitude":-122.33517,"reserved":0,"last_update":"0001-01-01T00:00:00Z","name_a2s":"Uncletopia | Seattle | 3 | Stopwatch","protocol":17,"map":"pl_upward","folder":"tf","game":"Team Fortress","app_id":440,"player_count":0,"max_players":24,"Bots":0,"server_type":"Dedicated","server_os":"Linux","password":true,"vac":true,"version":"7961495","steam_id":85568392924515217,"keywords":["nocrits","nodmgspread","payload","uncletopia"],"game_id":440,"stv_port":27036,"stv_name":"Uncletopia | Seattle | 3 | Stopwatch | STV","players":null},{"server_id":17,"name":"Uncletopia | San Francisco | 1 | All Maps","name_short":"sfo-1","host":"sfo-1.us.uncletopia.com","port":27015,"enabled":true,"region":"us-west","cc":"us","latitude":37.77397,"longitude":-122.4313,"reserved":0,"last_update":"0001-01-01T00:00:00Z","name_a2s":"Uncletopia | San Francisco | 1 | All Maps","protocol":17,"map":"koth_cascade","folder":"tf","game":"Team Fortress","app_id":440,"player_count":0,"max_players":24,"Bots":0,"server_type":"Dedicated","server_os":"Linux","password":true,"vac":true,"version":"7961495","steam_id":85568392924469999,"keywords":["cp","nocrits","nodmgspread","uncletopia"],"game_id":440,"stv_port":27016,"stv_name":"Uncletopia | San Francisco | 1 | All Maps | STV","players":null},{"server_id":18,"name":"Uncletopia | San Francisco | 2 | All Maps","name_short":"sfo-2","host":"sfo-1.us.uncletopia.com","port":27025,"enabled":true,"region":"us-west","cc":"us","latitude":37.77397,"longitude":-122.4313,"reserved":0,"last_update":"0001-01-01T00:00:00Z","name_a2s":"Uncletopia | San Francisco | 2 | All Maps","protocol":17,"map":"pl_frontier_final","folder":"tf","game":"Team Fortress","app_id":440,"player_count":0,"max_players":24,"Bots":0,"server_type":"Dedicated","server_os":"Linux","password":true,"vac":true,"version":"7961495","steam_id":85568392924470000,"keywords":["nocrits","nodmgspread","payload","uncletopia"],"game_id":440,"stv_port":27026,"stv_name":"Uncletopia | San Francisco | 2 | All Maps | STV","players":null},{"server_id":19,"name":"Uncletopia | San Francisco | 3 | Stopwatch","name_short":"sfo-3","host":"sfo-1.us.uncletopia.com","port":27035,"enabled":true,"region":"us-west","cc":"us","latitude":37.77397,"longitude":-122.4313,"reserved":0,"last_update":"0001-01-01T00:00:00Z","name_a2s":"Uncletopia | San Francisco | 3 | Stopwatch","protocol":17,"map":"pl_pier","folder":"tf","game":"Team Fortress","app_id":440,"player_count":0,"max_players":24,"Bots":0,"server_type":"Dedicated","server_os":"Linux","password":true,"vac":true,"version":"7961495","steam_id":85568392924742824,"keywords":["nocrits","nodmgspread","payload","uncletopia"],"game_id":440,"stv_port":27036,"stv_name":"Uncletopia | San Francisco | 3 | Stopwatch | STV","players":null},{"server_id":20,"name":"Uncletopia | San Francisco | 4 | Community","name_short":"sfo-4","host":"sfo-1.us.uncletopia.com","port":27045,"enabled":true,"region":"us-west","cc":"us","latitude":37.77397,"longitude":-122.4313,"reserved":0,"last_update":"0001-01-01T00:00:00Z","name_a2s":"Uncletopia | San Francisco | 4 | Community","protocol":17,"map":"pl_pier","folder":"tf","game":"Team Fortress","app_id":440,"player_count":0,"max_players":24,"Bots":0,"server_type":"Dedicated","server_os":"Linux","password":true,"vac":true,"version":"7961495","steam_id":85568392924742826,"keywords":["nocrits","nodmgspread","payload","uncletopia"],"game_id":440,"stv_port":27046,"stv_name":"Uncletopia | San Francisco | 4 | Community | STV","players":null},{"server_id":141,"name":"Uncletopia | Sydney | 1 | All Maps","name_short":"syd-1","host":"syd-1.au.uncletopia.com","port":27015,"enabled":true,"region":"au","cc":"au","latitude":-33.865143,"longitude":151.2099,"reserved":0,"last_update":"0001-01-01T00:00:00Z","name_a2s":"Uncletopia | Sydney | 1 | All Maps","protocol":17,"map":"pl_pier","folder":"tf","game":"Team Fortress","app_id":440,"player_count":0,"max_players":24,"Bots":0,"server_type":"Dedicated","server_os":"Linux","password":true,"vac":true,"version":"7961495","steam_id":85568392924470001,"keywords":["nocrits","nodmgspread","payload","uncletopia"],"game_id":440,"stv_port":27016,"stv_name":"Uncletopia | Sydney | 1 | All Maps | STV","players":null},{"server_id":123,"name":"Uncletopia | Sydney | 2 | All Maps","name_short":"syd-2","host":"syd-1.au.uncletopia.com","port":27025,"enabled":true,"region":"au","cc":"au","latitude":-33.865143,"longitude":151.2099,"reserved":0,"last_update":"0001-01-01T00:00:00Z","name_a2s":"Uncletopia | Sydney | 2 | All Maps","protocol":17,"map":"pl_pier","folder":"tf","game":"Team Fortress","app_id":440,"player_count":0,"max_players":24,"Bots":0,"server_type":"Dedicated","server_os":"Linux","password":true,"vac":true,"version":"7961495","steam_id":85568392924470002,"keywords":["nocrits","nodmgspread","payload","uncletopia"],"game_id":440,"stv_port":27026,"stv_name":"Uncletopia | Sydney | 2 | All Maps | STV","players":null},{"server_id":395,"name":"Uncletopia | Sydney | 3 | All Maps","name_short":"syd-3","host":"syd-1.au.uncletopia.com","port":27035,"enabled":true,"region":"au","cc":"au","latitude":-33.865143,"longitude":151.2099,"reserved":0,"last_update":"0001-01-01T00:00:00Z","name_a2s":"Uncletopia | Sydney | 3 | All Maps","protocol":17,"map":"cp_process_final","folder":"tf","game":"Team Fortress","app_id":440,"player_count":0,"max_players":24,"Bots":0,"server_type":"Dedicated","server_os":"Linux","password":true,"vac":true,"version":"7961495","steam_id":85568392925194467,"keywords":["cp","nocrits","nodmgspread","uncletopia"],"game_id":440,"stv_port":27036,"stv_name":"Uncletopia | Sydney | 3 | All Maps | STV","players":null},{"server_id":396,"name":"Uncletopia | Sydney | 4 | All Maps","name_short":"syd-4","host":"syd-1.au.uncletopia.com","port":27045,"enabled":true,"region":"au","cc":"au","latitude":-33.865143,"longitude":151.2099,"reserved":0,"last_update":"0001-01-01T00:00:00Z","name_a2s":"Uncletopia | Sydney | 4 | All Maps","protocol":17,"map":"cp_altitude","folder":"tf","game":"Team Fortress","app_id":440,"player_count":0,"max_players":24,"Bots":0,"server_type":"Dedicated","server_os":"Linux","password":true,"vac":true,"version":"7961495","steam_id":85568392925397958,"keywords":["cp","nocrits","nodmgspread","uncletopia"],"game_id":440,"stv_port":27046,"stv_name":"Uncletopia | Sydney | 4 | All Maps | STV","players":null},{"server_id":58,"name":"Uncletopia | Sydney | 5 | Stopwatch","name_short":"syd-5","host":"syd-1.au.uncletopia.com","port":27055,"enabled":true,"region":"au","cc":"au","latitude":-33.865143,"longitude":151.2099,"reserved":0,"last_update":"0001-01-01T00:00:00Z","name_a2s":"Uncletopia | Sydney | 5 | Stopwatch","protocol":17,"map":"cp_gullywash_final1","folder":"tf","game":"Team Fortress","app_id":440,"player_count":0,"max_players":24,"Bots":0,"server_type":"Dedicated","server_os":"Linux","password":true,"vac":true,"version":"7961495","steam_id":85568392925397959,"keywords":["cp","nocrits","nodmgspread","uncletopia"],"game_id":440,"stv_port":27056,"stv_name":"Uncletopia | Sydney | 5 | Stopwatch | STV","players":null},{"server_id":59,"name":"Uncletopia | Sydney | 6 | Community","name_short":"syd-6","host":"syd-1.au.uncletopia.com","port":27065,"enabled":true,"region":"au","cc":"au","latitude":-33.865143,"longitude":151.2099,"reserved":0,"last_update":"0001-01-01T00:00:00Z","name_a2s":"Uncletopia | Sydney | 6 | Community","protocol":17,"map":"cp_sunshine","folder":"tf","game":"Team Fortress","app_id":440,"player_count":0,"max_players":24,"Bots":0,"server_type":"Dedicated","server_os":"Linux","password":true,"vac":true,"version":"7961495","steam_id":85568392925397960,"keywords":["cp","nocrits","nodmgspread","uncletopia"],"game_id":440,"stv_port":27066,"stv_name":"Uncletopia | Sydney | 6 | Community | STV","players":null},{"server_id":49,"name":"Uncletopia | Warsaw | 1 | One Thousand Uncles","name_short":"waw-1","host":"waw-1.pl.uncletopia.com","port":27015,"enabled":true,"region":"eu","cc":"pl","latitude":52.2297,"longitude":21.017532,"reserved":0,"last_update":"0001-01-01T00:00:00Z","name_a2s":"Uncletopia | Warsaw | 1 | One Thousand Uncles","protocol":17,"map":"cp_mossrock","folder":"tf","game":"Team Fortress","app_id":440,"player_count":20,"max_players":32,"Bots":16,"server_type":"Dedicated","server_os":"Linux","password":true,"vac":true,"version":"7961495","steam_id":85568392925397850,"keywords":["alltalk","bots","cp","danepve","increased_maxplayers","nocrits","norespawntime","uncletopia"],"game_id":440,"stv_port":0,"stv_name":"","players":[{"user_id":390,"name":"EL SHEPARDOOO32","steam_id":76561198121574523,"connected_time":1720000000000,"state":"active","ping":36},{"user_id":407,"name":"Piesel","steam_id":76561198985453063,"connected_time":1541000000000,"state":"active","ping":34},{"user_id":408,"name":"Enter69","steam_id":76561199049440719,"connected_time":763000000000,"state":"active","ping":95},{"user_id":409,"name":"tomgru2009","steam_id":76561199466136608,"connected_time":233000000000,"state":"active","ping":45}]},{"server_id":50,"name":"Uncletopia | Warsaw | 2 | One Thousand Uncles","name_short":"waw-2","host":"waw-1.pl.uncletopia.com","port":27025,"enabled":true,"region":"eu","cc":"pl","latitude":52.2297,"longitude":21.017532,"reserved":0,"last_update":"0001-01-01T00:00:00Z","name_a2s":"Uncletopia | Warsaw | 2 | One Thousand Uncles","protocol":17,"map":"pl_hoodoo_final","folder":"tf","game":"Team Fortress","app_id":440,"player_count":25,"max_players":32,"Bots":16,"server_type":"Dedicated","server_os":"Linux","password":true,"vac":true,"version":"7961495","steam_id":85568392925397851,"keywords":["alltalk","bots","danepve","increased_maxplayers","nocrits","norespawntime","payload","uncletopia"],"game_id":440,"stv_port":0,"stv_name":"","players":[{"user_id":593,"name":"DDL","steam_id":76561199222895088,"connected_time":1041000000000,"state":"active","ping":47},{"user_id":577,"name":"Techm32","steam_id":76561198317134994,"connected_time":1806000000000,"state":"active","ping":71},{"user_id":541,"name":"CrudeMaster","steam_id":76561199117559043,"connected_time":3445000000000,"state":"active","ping":55},{"user_id":598,"name":"Claw","steam_id":76561198060985181,"connected_time":471000000000,"state":"active","ping":90},{"user_id":585,"name":"dude m8","steam_id":76561198155649280,"connected_time":1367000000000,"state":"active","ping":88},{"user_id":588,"name":"XenoLV","steam_id":76561198317367805,"connected_time":1247000000000,"state":"active","ping":74},{"user_id":583,"name":"Max Power","steam_id":76561198019269089,"connected_time":1419000000000,"state":"active","ping":60},{"user_id":580,"name":"Lydde","steam_id":76561198034040842,"connected_time":1654000000000,"state":"active","ping":73},{"user_id":530,"name":"kakash","steam_id":76561199420637314,"connected_time":4226000000000,"state":"active","ping":77}]},{"server_id":51,"name":"Uncletopia | Warsaw | 3 | All Maps","name_short":"waw-3","host":"waw-1.pl.uncletopia.com","port":27035,"enabled":true,"region":"eu","cc":"pl","latitude":52.2297,"longitude":21.017532,"reserved":0,"last_update":"0001-01-01T00:00:00Z","name_a2s":"Uncletopia | Warsaw | 3 | All Maps","protocol":17,"map":"plr_pipeline","folder":"tf","game":"Team Fortress","app_id":440,"player_count":0,"max_players":24,"Bots":0,"server_type":"Dedicated","server_os":"Linux","password":true,"vac":true,"version":"7961495","steam_id":85568392925397852,"keywords":["nocrits","nodmgspread","payload","uncletopia"],"game_id":440,"stv_port":27036,"stv_name":"Uncletopia | Warsaw | 3 | All Maps | STV","players":null},{"server_id":52,"name":"Uncletopia | Warsaw | 4 | All Maps","name_short":"waw-4","host":"waw-1.pl.uncletopia.com","port":27045,"enabled":true,"region":"eu","cc":"pl","latitude":52.2297,"longitude":21.017532,"reserved":0,"last_update":"0001-01-01T00:00:00Z","name_a2s":"Uncletopia | Warsaw | 4 | All Maps","protocol":17,"map":"koth_highpass","folder":"tf","game":"Team Fortress","app_id":440,"player_count":0,"max_players":24,"Bots":0,"server_type":"Dedicated","server_os":"Linux","password":true,"vac":true,"version":"7961495","steam_id":85568392925397853,"keywords":["cp","nocrits","nodmgspread","uncletopia"],"game_id":440,"stv_port":27046,"stv_name":"Uncletopia | Warsaw | 4 | All Maps | STV","players":null},{"server_id":53,"name":"Uncletopia | Warsaw | 5 | Stopwatch","name_short":"waw-5","host":"waw-1.pl.uncletopia.com","port":27055,"enabled":true,"region":"eu","cc":"pl","latitude":52.2297,"longitude":21.017532,"reserved":0,"last_update":"0001-01-01T00:00:00Z","name_a2s":"Uncletopia | Warsaw | 5 | Stopwatch","protocol":17,"map":"workshop/koth_ramjam_rc1.ugc459778887","folder":"tf","game":"Team Fortress","app_id":440,"player_count":0,"max_players":24,"Bots":0,"server_type":"Dedicated","server_os":"Linux","password":true,"vac":true,"version":"7961495","steam_id":85568392925397854,"keywords":["cp","nocrits","nodmgspread","uncletopia"],"game_id":440,"stv_port":27056,"stv_name":"Uncletopia | Warsaw | 5 | Stopwatch | STV","players":null},{"server_id":54,"name":"Uncletopia | Warsaw | 6 | Community","name_short":"waw-6","host":"waw-1.pl.uncletopia.com","port":27065,"enabled":true,"region":"eu","cc":"pl","latitude":52.2297,"longitude":21.017532,"reserved":0,"last_update":"0001-01-01T00:00:00Z","name_a2s":"Uncletopia | Warsaw | 6 | Community","protocol":17,"map":"workshop/pl_badwater_pro_v12.ugc2142942074","folder":"tf","game":"Team Fortress","app_id":440,"player_count":3,"max_players":24,"Bots":0,"server_type":"Dedicated","server_os":"Linux","password":true,"vac":true,"version":"7961495","steam_id":85568392925397856,"keywords":["nocrits","nodmgspread","payload","uncletopia"],"game_id":440,"stv_port":27066,"stv_name":"Uncletopia | Warsaw | 6 | Community | STV","players":[{"user_id":11,"name":"T.O.C. 606 \"void'","steam_id":76561199210683614,"connected_time":926000000000,"state":"active","ping":71},{"user_id":7,"name":"Ondřej ✌","steam_id":76561198115905637,"connected_time":1470000000000,"state":"active","ping":56},{"user_id":8,"name":"Rez","steam_id":76561198410598772,"connected_time":1460000000000,"state":"active","ping":60}]}]}