{"status":true,"message":"","result":[{"server_id":9,"name":"Uncletopia | Atlanta | 1 | All Maps","name_short":"atl-1","host":"atl-1.us.uncletopia.com","port":27015,"enabled":true,"region":"us-east","cc":"us","latitude":33.753746,"longitude":-84.38633,"reserved":0,"last_update":"0001-01-01T00:00:00Z","name_a2s":"Uncletopia | Atlanta | 1 | All Maps","protocol":17,"map":"pl_badwater","folder":"tf","game":"Team Fortress","app_id":440,"player_count":0,"max_players":24,"Bots":0,"server_type":"Dedicated","server_os":"Linux","password":true,"vac":true,"version":"7757534","steam_id":85568392924469982,"keywords":["nocrits","nodmgspread","payload","uncletopia"],"game_id":440,"stv_port":27016,"stv_name":"Uncletopia | Atlanta | 1 | All Maps | STV","players":null},{"server_id":400,"name":"Uncletopia | Atlanta | 3 | Community","name_short":"atl-3","host":"atl-1.us.uncletopia.com","port":27035,"enabled":true,"region":"us-east","cc":"us","latitude":33.753746,"longitude":-84.38633,"reserved":0,"last_update":"0001-01-01T00:00:00Z","name_a2s":"Uncletopia | Atlanta | 3 | Community","protocol":17,"map":"pl_swiftwater_final1","folder":"tf","game":"Team Fortress","app_id":440,"player_count":0,"max_players":32,"Bots":0,"server_type":"Dedicated","server_os":"Linux","password":true,"vac":true,"version":"7757534","steam_id":85568392924515187,"keywords":["increased_maxplayers","nocrits","nodmgspread","payload","uncletopia"],"game_id":440,"stv_port":27036,"stv_name":"Uncletopia | Atlanta | 3 | Community | STV","players":null},{"server_id":401,"name":"Uncletopia | Atlanta | 4 | No Payload","name_short":"atl-4","host":"atl-1.us.uncletopia.com","port":27045,"enabled":true,"region":"us-east","cc":"us","latitude":33.753746,"longitude":-84.38633,"reserved":0,"last_update":"0001-01-01T00:00:00Z","name_a2s":"","protocol":0,"map":"","folder":"","game":"","app_id":0,"player_count":0,"max_players":0,"Bots":0,"server_type":"","server_os":"","password":false,"vac":false,"version":"","steam_id":0,"keywords":null,"game_id":0,"stv_port":0,"stv_name":"","players":null},{"server_id":2,"name":"Uncletopia | Chicago | 1 | All Maps","name_short":"chi-1","host":"chi-1.us.uncletopia.com","port":27015,"enabled":true,"region":"us-central","cc":"us","latitude":41.881832,"longitude":-87.62318,"reserved":0,"last_update":"0001-01-01T00:00:00Z","name_a2s":"Uncletopia | Chicago | 1 | All Maps","protocol":17,"map":"cp_process_final","folder":"tf","game":"Team Fortress","app_id":440,"player_count":0,"max_players":24,"Bots":0,"server_type":"Dedicated","server_os":"Linux","password":true,"vac":true,"version":"7757534","steam_id":85568392924469984,"keywords":["cp","nocrits","nodmgspread","uncletopia"],"game_id":440,"stv_port":27016,"stv_name":"Uncletopia | Chicago | 1 | All Maps | STV","players":null},{"server_id":106,"name":"Uncletopia | Chicago | 2 | All Maps","name_short":"chi-2","host":"chi-1.us.uncletopia.com","port":27025,"enabled":true,"region":"us-central","cc":"us","latitude":41.881832,"longitude":-87.62318,"reserved":0,"last_update":"0001-01-01T00:00:00Z","name_a2s":"Uncletopia | Chicago | 2 | All Maps","protocol":17,"map":"cp_altitude","folder":"tf","game":"Team Fortress","app_id":440,"player_count":24,"max_players":24,"Bots":0,"server_type":"Dedicated","server_os":"Linux","password":true,"vac":true,"version":"7757534","steam_id":85568392924469985,"keywords":["cp","nocrits","nodmgspread","uncletopia"],"game_id":440,"stv_port":27026,"stv_name":"Uncletopia | Chicago | 2 | All Maps | STV","players":[{"user_id":46,"name":"fetus deletus","steam_id":76561199064259693,"connected_time":1899000000000,"state":"active","ping":88},{"user_id":4,"name":"TheGreatDong","steam_id":76561198000634178,"connected_time":3250000000000,"state":"active","ping":104},{"user_id":5,"name":"The Professor","steam_id":76561198113760863,"connected_time":3249000000000,"state":"active","ping":58},{"user_id":6,"name":"Hindmost","steam_id":76561199081837220,"connected_time":3240000000000,"state":"active","ping":81},{"user_id":58,"name":"Judge Judy","steam_id":76561198133736963,"connected_time":1171000000000,"state":"active","ping":52},{"user_id":68,"name":"desperateCrab","steam_id":76561198100113058,"connected_time":363000000000,"state":"active","ping":68},{"user_id":54,"name":"SomeRandomPerson (f2p)","steam_id":76561198977045933,"connected_time":1385000000000,"state":"active","ping":103},{"user_id":69,"name":"Menace to Sobriety","steam_id":76561198245103000,"connected_time":357000000000,"state":"active","ping":66},{"user_id":70,"name":"Eggman Fan 235 | Youtube","steam_id":76561198978586066,"connected_time":339000000000,"state":"active","ping":79},{"user_id":50,"name":"brea?","steam_id":76561198025130409,"connected_time":1622000000000,"state":"active","ping":69},{"user_id":15,"name":"High Medic","steam_id":76561198082405984,"connected_time":3151000000000,"state":"active","ping":60},{"user_id":72,"name":"FuzzyWuzzyVonBear","steam_id":76561198273020482,"connected_time":238000000000,"state":"active","ping":49},{"user_id":73,"name":"The BeamNG Mattress","steam_id":76561198026640869,"connected_time":227000000000,"state":"active","ping":84},{"user_id":25,"name":"Lotad","steam_id":76561199049331265,"connected_time":2694000000000,"state":"active","ping":75},{"user_id":61,"name":"uwutang clan","steam_id":76561198361326855,"connected_time":1130000000000,"state":"active","ping":60},{"user_id":74,"name":"Dr. Enforcicle (real)","steam_id":76561198964471859,"connected_time":205000000000,"state":"active","ping":78},{"user_id":38,"name":"broos","steam_id":76561198061648271,"connected_time":2239000000000,"state":"active","ping":99},{"user_id":51,"name":"Certified Creamer™","steam_id":76561198013308693,"connected_time":1597000000000,"state":"active","ping":67},{"user_id":75,"name":"12 INCH TGIRL SCHLONG","steam_id":76561198122059018,"connected_time":186000000000,"state":"active","ping":57},{"user_id":67,"name":"Tyler\u0026Fingers","steam_id":76561198085154485,"connected_time":529000000000,"state":"active","ping":74},{"user_id":40,"name":"TaBunnie","steam_id":76561198197894178,"connected_time":2174000000000,"state":"active","ping":65},{"user_id":63,"name":"AMANG","steam_id":76561198082830143,"connected_time":1125000000000,"state":"active","ping":60},{"user_id":42,"name":"Pog Mudfish","steam_id":76561198133727997,"connected_time":2135000000000,"state":"active","ping":86},{"user_id":43,"name":"kiseek","steam_id":76561198075474088,"connected_time":2119000000000,"state":"active","ping":81}]},{"server_id":402,"name":"Uncletopia | Chicago | 3 | All Maps","name_short":"chi-3","host":"chi-1.us.uncletopia.com","port":27035,"enabled":true,"region":"us-central","cc":"us","latitude":41.881832,"longitude":-87.62318,"reserved":0,"last_update":"0001-01-01T00:00:00Z","name_a2s":"Uncletopia | Chicago | 3 | All Maps","protocol":17,"map":"koth_lakeside_final","folder":"tf","game":"Team Fortress","app_id":440,"player_count":0,"max_players":24,"Bots":0,"server_type":"Dedicated","server_os":"Linux","password":true,"vac":true,"version":"7757534","steam_id":85568392924515191,"keywords":["cp","nocrits","nodmgspread","uncletopia"],"game_id":440,"stv_port":27036,"stv_name":"Uncletopia | Chicago | 3 | All Maps | STV","players":null},{"server_id":403,"name":"Uncletopia | Chicago | 4 | All Maps","name_short":"chi-4","host":"chi-1.us.uncletopia.com","port":27045,"enabled":true,"region":"us-central","cc":"us","latitude":41.881832,"longitude":-87.62318,"reserved":0,"last_update":"0001-01-01T00:00:00Z","name_a2s":"Uncletopia | Chicago | 4 | All Maps","protocol":17,"map":"pl_badwater","folder":"tf","game":"Team Fortress","app_id":440,"player_count":0,"max_players":24,"Bots":0,"server_type":"Dedicated","server_os":"Linux","password":true,"vac":true,"version":"7757534","steam_id":85568392924515193,"keywords":["nocrits","nodmgspread","payload","uncletopia"],"game_id":440,"stv_port":27046,"stv_name":"Uncletopia | Chicago | 4 | All Maps | STV","players":null},{"server_id":36,"name":"Uncletopia | Chicago | 5 | All Maps","name_short":"chi-5","host":"chi-2.us.uncletopia.com","port":27015,"enabled":true,"region":"us-central","cc":"us","latitude":41.881832,"longitude":-87.62318,"reserved":0,"last_update":"0001-01-01T00:00:00Z","name_a2s":"Uncletopia | Chicago | 5 | All Maps","protocol":17,"map":"koth_cascade","folder":"tf","game":"Team Fortress","app_id":440,"player_count":0,"max_players":24,"Bots":0,"server_type":"Dedicated","server_os":"Linux","password":true,"vac":true,"version":"7757534","steam_id":85568392924866362,"keywords":["cp","nocrits","nodmgspread","uncletopia"],"game_id":440,"stv_port":27016,"stv_name":"Uncletopia | Chicago | 5 | All Maps | STV","players":null},{"server_id":37,"name":"Uncletopia | Chicago | 6 | All Maps","name_short":"chi-6","host":"chi-2.us.uncletopia.com","port":27025,"enabled":true,"region":"us-central","cc":"us","latitude":41.881832,"longitude":-87.62318,"reserved":0,"last_update":"0001-01-01T00:00:00Z","name_a2s":"Uncletopia | Chicago | 6 | All Maps","protocol":17,"map":"koth_cascade","folder":"tf","game":"Team Fortress","app_id":440,"player_count":0,"max_players":24,"Bots":0,"server_type":"Dedicated","server_os":"Linux","password":true,"vac":true,"version":"7757534","steam_id":85568392924866363,"keywords":["cp","nocrits","nodmgspread","uncletopia"],"game_id":440,"stv_port":27026,"stv_name":"Uncletopia | Chicago | 6 | All Maps | STV","players":null},{"server_id":38,"name":"Uncletopia | Chicago | 7 | Stopwatch Beta","name_short":"chi-7","host":"chi-2.us.uncletopia.com","port":27035,"enabled":true,"region":"us-central","cc":"us","latitude":41.881832,"longitude":-87.62318,"reserved":0,"last_update":"0001-01-01T00:00:00Z","name_a2s":"Uncletopia | Chicago | 7 | Stopwatch Beta","protocol":17,"map":"pl_upward","folder":"tf","game":"Team Fortress","app_id":440,"player_count":0,"max_players":24,"Bots":0,"server_type":"Dedicated","server_os":"Linux","password":true,"vac":true,"version":"7757534","steam_id":85568392924866364,"keywords":["nocrits","nodmgspread","payload","uncletopia"],"game_id":440,"stv_port":27036,"stv_name":"Uncletopia | Chicago | 7 | Stopwatch Beta | STV","players":null},{"server_id":39,"name":"Uncletopia | Chicago | 8 | Community","name_short":"chi-8","host":"chi-2.us.uncletopia.com","port":27045,"enabled":true,"region":"us-central","cc":"us","latitude":41.881832,"longitude":-87.62318,"reserved":0,"last_update":"0001-01-01T00:00:00Z","name_a2s":"Uncletopia | Chicago | 8 | Community","protocol":17,"map":"pl_barnblitz","folder":"tf","game":"Team Fortress","app_id":440,"player_count":0,"max_players":24,"Bots":0,"server_type":"Dedicated","server_os":"Linux","password":true,"vac":true,"version":"7757534","steam_id":85568392924866365,"keywords":["nocrits","nodmgspread","payload","uncletopia"],"game_id":440,"stv_port":27046,"stv_name":"Uncletopia | Chicago | 8 | Community | STV","players":null},{"server_id":8,"name":"Uncletopia | Dallas | 1 | All Maps","name_short":"dal-1","host":"dal-1.us.uncletopia.com","port":27015,"enabled":true,"region":"us-central","cc":"us","latitude":32.779167,"longitude":-96.80889,"reserved":0,"last_update":"0001-01-01T00:00:00Z","name_a2s":"Uncletopia | Dallas | 1 | All Maps","protocol":17,"map":"koth_cascade","folder":"tf","game":"Team Fortress","app_id":440,"player_count":0,"max_players":24,"Bots":0,"server_type":"Dedicated","server_os":"Linux","password":true,"vac":true,"version":"7757534","steam_id":85568392924469986,"keywords":["cp","nocrits","nodmgspread","uncletopia"],"game_id":440,"stv_port":27016,"stv_name":"Uncletopia | Dallas | 1 | All Maps | STV","players":null},{"server_id":108,"name":"Uncletopia | Dallas | 2 | All Maps","name_short":"dal-2","host":"dal-1.us.uncletopia.com","port":27025,"enabled":true,"region":"us-central","cc":"us","latitude":32.779167,"longitude":-96.80889,"reserved":0,"last_update":"0001-01-01T00:00:00Z","name_a2s":"Uncletopia | Dallas | 2 | All Maps","protocol":17,"map":"cp_altitude","folder":"tf","game":"Team Fortress","app_id":440,"player_count":0,"max_players":24,"Bots":0,"server_type":"Dedicated","server_os":"Linux","password":true,"vac":true,"version":"7757534","steam_id":85568392924469988,"keywords":["cp","nocrits","nodmgspread","uncletopia"],"game_id":440,"stv_port":27026,"stv_name":"Uncletopia | Dallas | 2 | All Maps | STV","players":null},{"server_id":5,"name":"Uncletopia | Frankfurt | 1 | All Maps","name_short":"frk-1","host":"frk-1.de.uncletopia.com","port":27015,"enabled":true,"region":"eu","cc":"de","latitude":50.110924,"longitude":8.682127,"reserved":0,"last_update":"0001-01-01T00:00:00Z","name_a2s":"Uncletopia | Frankfurt | 1 | All Maps","protocol":17,"map":"pl_upward","folder":"tf","game":"Team Fortress","app_id":440,"player_count":24,"max_players":24,"Bots":0,"server_type":"Dedicated","server_os":"Linux","password":true,"vac":true,"version":"7757534","steam_id":85568392924469989,"keywords":["nocrits","nodmgspread","payload","uncletopia"],"game_id":440,"stv_port":27016,"stv_name":"Uncletopia | Frankfurt | 1 | All Maps | STV","players":[{"user_id":164,"name":"BΣNZOIC","steam_id":76561198875665995,"connected_time":4762000000000,"state":"active","ping":95},{"user_id":209,"name":"DeCypher","steam_id":76561198171992619,"connected_time":847000000000,"state":"active","ping":71},{"user_id":225,"name":"SODA!!!!!!!","steam_id":76561198107362485,"connected_time":459000000000,"state":"active","ping":60},{"user_id":195,"name":"Fran","steam_id":76561199070516960,"connected_time":2075000000000,"state":"active","ping":63},{"user_id":215,"name":"Zippo","steam_id":76561198056773656,"connected_time":798000000000,"state":"active","ping":66},{"user_id":207,"name":"sork","steam_id":76561198082446459,"connected_time":1105000000000,"state":"active","ping":67},{"user_id":210,"name":"Senator Armstrong","steam_id":76561198984346408,"connected_time":834000000000,"state":"active","ping":71},{"user_id":181,"name":"Ataraxia","steam_id":76561198086654069,"connected_time":3147000000000,"state":"active","ping":74},{"user_id":216,"name":"bANji","steam_id":76561198108898161,"connected_time":753000000000,"state":"active","ping":44},{"user_id":228,"name":"Yessirskiii","steam_id":76561198179324075,"connected_time":247000000000,"state":"active","ping":70},{"user_id":229,"name":"supermen5000","steam_id":76561198006700849,"connected_time":227000000000,"state":"active","ping":111},{"user_id":227,"name":"Landsknecht","steam_id":76561199293036742,"connected_time":345000000000,"state":"active","ping":45},{"user_id":219,"name":"fregaropa","steam_id":76561198150806166,"connected_time":658000000000,"state":"active","ping":77},{"user_id":205,"name":"The2PLAYZ","steam_id":76561198352720404,"connected_time":1566000000000,"state":"active","ping":81},{"user_id":212,"name":"lun4tic","steam_id":76561198850496647,"connected_time":825000000000,"state":"active","ping":57},{"user_id":201,"name":"balanced diet","steam_id":76561198240320806,"connected_time":1901000000000,"state":"active","ping":71},{"user_id":224,"name":"Churaq Cyril","steam_id":76561198125381319,"connected_time":509000000000,"state":"active","ping":89},{"user_id":132,"name":"Pico","steam_id":76561198063552545,"connected_time":7140000000000,"state":"active","ping":101},{"user_id":158,"name":"Truegr","steam_id":76561198811912339,"connected_time":4804000000000,"state":"active","ping":65},{"user_id":213,"name":"MisterBanana1902","steam_id":76561198179526013,"connected_time":817000000000,"state":"active","ping":74},{"user_id":223,"name":"Jara.","steam_id":76561197992207165,"connected_time":553000000000,"state":"active","ping":103},{"user_id":188,"name":"Text Input","steam_id":76561198970787795,"connected_time":3058000000000,"state":"active","ping":54},{"user_id":198,"name":"Cuthbert","steam_id":76561198204649481,"connected_time":2021000000000,"state":"active","ping":100},{"user_id":214,"name":"Syringe Gun","steam_id":76561198097789669,"connected_time":815000000000,"state":"active","ping":60}]},{"server_id":110,"name":"Uncletopia | Frankfurt | 2 | All Maps","name_short":"frk-2","host":"frk-1.de.uncletopia.com","port":27025,"enabled":true,"region":"eu","cc":"de","latitude":50.110924,"longitude":8.682127,"reserved":0,"last_update":"0001-01-01T00:00:00Z","name_a2s":"Uncletopia | Frankfurt | 2 | All Maps","protocol":17,"map":"pl_pier","folder":"tf","game":"Team Fortress","app_id":440,"player_count":24,"max_players":24,"Bots":0,"server_type":"Dedicated","server_os":"Linux","password":true,"vac":true,"version":"7757534","steam_id":85568392924469990,"keywords":["nocrits","nodmgspread","payload","uncletopia"],"game_id":440,"stv_port":27026,"stv_name":"Uncletopia | Frankfurt | 2 | All Maps | STV","players":[{"user_id":194,"name":"Dovakin","steam_id":76561198103265377,"connected_time":241000000000,"state":"active","ping":101},{"user_id":132,"name":"Lateguy","steam_id":76561198069446079,"connected_time":5629000000000,"state":"active","ping":131},{"user_id":187,"name":"scoog","steam_id":76561198046249173,"connected_time":898000000000,"state":"active","ping":73},{"user_id":181,"name":"toe eater","steam_id":76561199272782484,"connected_time":1287000000000,"state":"active","ping":73},{"user_id":195,"name":"ViktorYoshi","steam_id":76561199157555246,"connected_time":241000000000,"state":"active","ping":55},{"user_id":192,"name":"Flint","steam_id":76561197995920776,"connected_time":255000000000,"state":"active","ping":43},{"user_id":193,"name":"asdf","steam_id":76561198039575197,"connected_time":252000000000,"state":"active","ping":166},{"user_id":172,"name":"Pls.do.it!","steam_id":76561198211638119,"connected_time":1731000000000,"state":"active","ping":78},{"user_id":134,"name":"tekt","steam_id":76561198044554387,"connected_time":5337000000000,"state":"active","ping":95},{"user_id":147,"name":"Coca162","steam_id":76561198230656540,"connected_time":4987000000000,"state":"active","ping":63},{"user_id":163,"name":"hud_saytext_time 0","steam_id":76561198010327228,"connected_time":3214000000000,"state":"active","ping":67},{"user_id":183,"name":"(wm) Das Fleisch","steam_id":76561198001250715,"connected_time":1180000000000,"state":"active","ping":55},{"user_id":178,"name":"Prism","steam_id":76561198075538312,"connected_time":1599000000000,"state":"active","ping":34},{"user_id":175,"name":"Dedeil","steam_id":76561198254839532,"connected_time":1719000000000,"state":"active","ping":56},{"user_id":169,"name":"[VCBC] PsychoAlex","steam_id":76561197989053849,"connected_time":2343000000000,"state":"active","ping":70},{"user_id":188,"name":"Osmo","steam_id":76561199286764992,"connected_time":680000000000,"state":"active","ping":76},{"user_id":199,"name":"Anzu","steam_id":76561198043953503,"connected_time":176000000000,"state":"active","ping":75},{"user_id":200,"name":"holykyckling","steam_id":76561198040661615,"connected_time":3000000000,"state":"spawning","ping":72},{"user_id":148,"name":"yyny","steam_id":76561198066287297,"connected_time":4982000000000,"state":"active","ping":46},{"user_id":123,"name":"AYE","steam_id":76561198181368101,"connected_time":6500000000000,"state":"active","ping":46},{"user_id":176,"name":"cat","steam_id":76561199045736884,"connected_time":1713000000000,"state":"active","ping":60},{"user_id":197,"name":"Boki","steam_id":76561198044553351,"connected_time":215000000000,"state":"active","ping":89},{"user_id":198,"name":"776","steam_id":76561199042470246,"connected_time":208000000000,"state":"active","ping":58},{"user_id":186,"name":"NiKoRo","steam_id":76561197963686614,"connected_time":1032000000000,"state":"active","ping":100}]},{"server_id":308,"name":"Uncletopia | Frankfurt | 3 | All Maps","name_short":"frk-3","host":"frk-1.de.uncletopia.com","port":27035,"enabled":true,"region":"eu","cc":"de","latitude":50.110924,"longitude":8.682127,"reserved":0,"last_update":"0001-01-01T00:00:00Z","name_a2s":"Uncletopia | Frankfurt | 3 | All Maps","protocol":17,"map":"pl_badwater","folder":"tf","game":"Team Fortress","app_id":440,"player_count":24,"max_players":24,"Bots":0,"server_type":"Dedicated","server_os":"Linux","password":true,"vac":true,"version":"7757534","steam_id":85568392924504274,"keywords":["nocrits","nodmgspread","payload","uncletopia"],"game_id":440,"stv_port":27036,"stv_name":"Uncletopia | Frankfurt | 3 | All Maps | STV","players":[{"user_id":73,"name":"Sentry gun","steam_id":76561198163362186,"connected_time":394000000000,"state":"active","ping":158},{"user_id":53,"name":"dotdotdot","steam_id":76561198057628751,"connected_time":1779000000000,"state":"active","ping":60},{"user_id":47,"name":"CalThePal","steam_id":76561198084842126,"connected_time":2167000000000,"state":"active","ping":80},{"user_id":45,"name":"Professor Peppermint","steam_id":76561198184017082,"connected_time":2172000000000,"state":"active","ping":167},{"user_id":48,"name":"r06u3","steam_id":76561198254099253,"connected_time":2139000000000,"state":"active","ping":173},{"user_id":27,"name":"Sotviing","steam_id":76561198154311159,"connected_time":2591000000000,"state":"active","ping":76},{"user_id":81,"name":"Zach #SaveTF2","steam_id":76561198336885684,"connected_time":53000000000,"state":"active","ping":70},{"user_id":79,"name":"VEH-DEH-VEH","steam_id":76561198010978989,"connected_time":110000000000,"state":"active","ping":61},{"user_id":49,"name":"Adam","steam_id":76561198045660732,"connected_time":2137000000000,"state":"active","ping":65},{"user_id":43,"name":"LAMC","steam_id":76561199066888917,"connected_time":2231000000000,"state":"active","ping":61},{"user_id":72,"name":"anairat","steam_id":76561198863788240,"connected_time":493000000000,"state":"active","ping":76},{"user_id":57,"name":"SʟɪᴘEɴOʀ","steam_id":76561197967931911,"connected_time":1498000000000,"state":"active","ping":103},{"user_id":33,"name":"petrutrares1991","steam_id":76561199228732234,"connected_time":2379000000000,"state":"active","ping":85},{"user_id":69,"name":"Majami","steam_id":76561198054365738,"connected_time":1067000000000,"state":"active","ping":81},{"user_id":65,"name":"grant'd","steam_id":76561198056152479,"connected_time":1086000000000,"state":"active","ping":59},{"user_id":67,"name":"akakez","steam_id":76561198095432821,"connected_time":1071000000000,"state":"active","ping":112},{"user_id":75,"name":"Tort","steam_id":76561198329646769,"connected_time":340000000000,"state":"active","ping":73},{"user_id":64,"name":"Flex","steam_id":76561197970482191,"connected_time":1110000000000,"state":"active","ping":57},{"user_id":78,"name":"makiverem","steam_id":76561198425866216,"connected_time":165000000000,"state":"active","ping":82},{"user_id":38,"name":"Sambimbow","steam_id":76561198186900119,"connected_time":2290000000000,"state":"active","ping":75},{"user_id":70,"name":"Muffin Queen","steam_id":76561198057836492,"connected_time":1047000000000,"state":"active","ping":69},{"user_id":40,"name":"Wario","steam_id":76561198356089255,"connected_time":2279000000000,"state":"active","ping":61},{"user_id":42,"name":"Not Friends","steam_id":76561198043775605,"connected_time":2255000000000,"state":"active","ping":75},{"user_id":76,"name":"Nesquik","steam_id":76561198064748535,"connected_time":308000000000,"state":"active","ping":68}]},{"server_id":309,"name":"Uncletopia | Frankfurt | 4 | All Maps","name_short":"frk-4","host":"frk-1.de.uncletopia.com","port":27045,"enabled":true,"region":"eu","cc":"de","latitude":50.110924,"longitude":8.682127,"reserved":0,"last_update":"0001-01-01T00:00:00Z","name_a2s":"Uncletopia | Frankfurt | 4 | All Maps","protocol":17,"map":"cp_altitude","folder":"tf","game":"Team Fortress","app_id":440,"player_count":0,"max_players":24,"Bots":0,"server_type":"Dedicated","server_os":"Linux","password":true,"vac":true,"version":"7757534","steam_id":85568392924504275,"keywords":["cp","nocrits","nodmgspread","uncletopia"],"game_id":440,"stv_port":27046,"stv_name":"Uncletopia | Frankfurt | 4 | All Maps | STV","players":null},{"server_id":310,"name":"Uncletopia | Frankfurt | 5 | All Maps","name_short":"frk-5","host":"frk-1.de.uncletopia.com","port":27055,"enabled":true,"region":"eu","cc":"de","latitude":50.110924,"longitude":8.682127,"reserved":0,"last_update":"0001-01-01T00:00:00Z","name_a2s":"Uncletopia | Frankfurt | 5 | All Maps","protocol":17,"map":"pl_barnblitz","folder":"tf","game":"Team Fortress","app_id":440,"player_count":24,"max_players":24,"Bots":0,"server_type":"Dedicated","server_os":"Linux","password":true,"vac":true,"version":"7757534","steam_id":85568392924504277,"keywords":["nocrits","nodmgspread","payload","uncletopia"],"game_id":440,"stv_port":27056,"stv_name":"Uncletopia | Frankfurt | 5 | All Maps | STV","players":[{"user_id":76,"name":"aura","steam_id":76561197991687793,"connected_time":5048000000000,"state":"active","ping":69},{"user_id":124,"name":"Nuuskis","steam_id":76561198084042012,"connected_time":1023000000000,"state":"active","ping":105},{"user_id":89,"name":"MaKo","steam_id":76561199013535305,"connected_time":3833000000000,"state":"active","ping":67},{"user_id":108,"name":"[CC]Nyafka","steam_id":76561198289878090,"connected_time":2596000000000,"state":"active","ping":123},{"user_id":121,"name":"jerf","steam_id":76561199213901239,"connected_time":1041000000000,"state":"active","ping":65},{"user_id":115,"name":"Connor McFilip","steam_id":76561198107965067,"connected_time":1792000000000,"state":"active","ping":59},{"user_id":125,"name":"Daenny","steam_id":76561198053088822,"connected_time":1023000000000,"state":"active","ping":45},{"user_id":100,"name":"goktwoxd","steam_id":76561198065114415,"connected_time":2843000000000,"state":"active","ping":75},{"user_id":117,"name":"subway vergil","steam_id":76561199110064166,"connected_time":1461000000000,"state":"active","ping":80},{"user_id":110,"name":"bloock","steam_id":76561199012373884,"connected_time":2487000000000,"state":"active","ping":135},{"user_id":111,"name":"Äärik ♣","steam_id":76561198131871737,"connected_time":2378000000000,"state":"active","ping":50},{"user_id":118,"name":"mezzo","steam_id":76561198059887260,"connected_time":1056000000000,"state":"active","ping":47},{"user_id":90,"name":"JunketsGM","steam_id":76561199122728626,"connected_time":3831000000000,"state":"active","ping":73},{"user_id":98,"name":"Cars","steam_id":76561198173329977,"connected_time":2873000000000,"state":"active","ping":75},{"user_id":126,"name":"erobrine2","steam_id":76561198173218318,"connected_time":1018000000000,"state":"active","ping":58},{"user_id":133,"name":"I LOVE THE HIGH GROUND","steam_id":76561198989449047,"connected_time":9000000000,"state":"spawning","ping":132},{"user_id":103,"name":"Techm32","steam_id":76561198317134994,"connected_time":2831000000000,"state":"active","ping":64},{"user_id":82,"name":"AsuX","steam_id":76561197990333289,"connected_time":4449000000000,"state":"active","ping":60},{"user_id":105,"name":"Medic","steam_id":76561198010977697,"connected_time":2679000000000,"state":"active","ping":88},{"user_id":127,"name":"nachtraaf","steam_id":76561197960473205,"connected_time":988000000000,"state":"active","ping":60},{"user_id":129,"name":"Prismoo","steam_id":76561198320524819,"connected_time":828000000000,"state":"active","ping":97},{"user_id":132,"name":"Hegyi tahó F2P","steam_id":76561199219150356,"connected_time":334000000000,"state":"active","ping":84},{"user_id":120,"name":"Ladybug","steam_id":76561198259885007,"connected_time":1050000000000,"state":"active","ping":55},{"user_id":106,"name":"Destinys","steam_id":76561198056132894,"connected_time":2677000000000,"state":"active","ping":62}]},{"server_id":311,"name":"Uncletopia | Frankfurt | 6 | All Maps","name_short":"frk-6","host":"frk-1.de.uncletopia.com","port":27065,"enabled":true,"region":"eu","cc":"de","latitude":50.110924,"longitude":8.682127,"reserved":0,"last_update":"0001-01-01T00:00:00Z","name_a2s":"Uncletopia | Frankfurt | 6 | All Maps","protocol":17,"map":"cp_dustbowl","folder":"tf","game":"Team Fortress","app_id":440,"player_count":0,"max_players":24,"Bots":0,"server_type":"Dedicated","server_os":"Linux","password":true,"vac":true,"version":"7757534","steam_id":85568392924504278,"keywords":["cp","nocrits","nodmgspread","uncletopia"],"game_id":440,"stv_port":27066,"stv_name":"Uncletopia | Frankfurt | 6 | All Maps | STV","players":null},{"server_id":23,"name":"Uncletopia | Frankfurt | 7 | Stopwatch Beta","name_short":"frk-7","host":"frk-1.de.uncletopia.com","port":27075,"enabled":true,"region":"eu","cc":"de","latitude":50.110924,"longitude":8.682127,"reserved":0,"last_update":"0001-01-01T00:00:00Z","name_a2s":"Uncletopia | Frankfurt | 7 | Stopwatch Beta","protocol":17,"map":"pl_frontier_final","folder":"tf","game":"Team Fortress","app_id":440,"player_count":0,"max_players":24,"Bots":0,"server_type":"Dedicated","server_os":"Linux","password":true,"vac":true,"version":"7757534","steam_id":85568392924742827,"keywords":["nocrits","nodmgspread","payload","uncletopia"],"game_id":440,"stv_port":27076,"stv_name":"Uncletopia | Frankfurt | 7 | Stopwatch Beta | STV","players":null},{"server_id":24,"name":"Uncletopia | Frankfurt | 8 | Community","name_short":"frk-8","host":"frk-1.de.uncletopia.com","port":27085,"enabled":true,"region":"eu","cc":"de","latitude":50.110924,"longitude":8.682127,"reserved":0,"last_update":"0001-01-01T00:00:00Z","name_a2s":"Uncletopia | Frankfurt | 8 | Community","protocol":17,"map":"workshop/koth_bagel_rc5.ugc2514036946","folder":"tf","game":"Team Fortress","app_id":440,"player_count":0,"max_players":24,"Bots":0,"server_type":"Dedicated","server_os":"Linux","password":true,"vac":true,"version":"7757534","steam_id":85568392924742828,"keywords":["cp","nocrits","nodmgspread","uncletopia"],"game_id":440,"stv_port":27086,"stv_name":"Uncletopia | Frankfurt | 8 | Community | STV","players":null},{"server_id":202,"name":"Uncletopia | Hong Kong | 1 | All Maps","name_short":"hgk-1","host":"hgk-1.hk.uncletopia.com","port":27015,"enabled":true,"region":"asia","cc":"hk","latitude":22.302711,"longitude":114.177216,"reserved":0,"last_update":"0001-01-01T00:00:00Z","name_a2s":"Uncletopia | Hong Kong | 1 | All Maps","protocol":17,"map":"pl_swiftwater_final1","folder":"tf","game":"Team Fortress","app_id":440,"player_count":20,"max_players":24,"Bots":0,"server_type":"Dedicated","server_os":"Linux","password":true,"vac":true,"version":"7757534","steam_id":85568392924494504,"keywords":["nocrits","nodmgspread","payload","uncletopia"],"game_id":440,"stv_port":27016,"stv_name":"Uncletopia | Hong Kong | 1 | All Maps | STV","players":[{"user_id":475,"name":"moguizhong","steam_id":76561198152588681,"connected_time":687000000000,"state":"active","ping":82},{"user_id":303,"name":"silverhouse7","steam_id":76561198349634906,"connected_time":12438000000000,"state":"active","ping":66},{"user_id":476,"name":"Pillboi","steam_id":76561198011172886,"connected_time":685000000000,"state":"active","ping":44},{"user_id":395,"name":"gunshpee","steam_id":76561198834445483,"connected_time":6336000000000,"state":"active","ping":60},{"user_id":482,"name":"loreley","steam_id":76561198230213828,"connected_time":342000000000,"state":"active","ping":60},{"user_id":465,"name":"moron","steam_id":76561198324008555,"connected_time":2155000000000,"state":"active","ping":52},{"user_id":479,"name":"Aiko Kanata Zhenco","steam_id":76561199262955185,"connected_time":671000000000,"state":"active","ping":134},{"user_id":483,"name":"cinderacefan500","steam_id":76561198981987710,"connected_time":338000000000,"state":"active","ping":99},{"user_id":344,"name":"timmy.1366","steam_id":76561199065433547,"connected_time":9769000000000,"state":"active","ping":80},{"user_id":402,"name":"Male Detected!","steam_id":76561199082459598,"connected_time":5815000000000,"state":"active","ping":87},{"user_id":378,"name":"sloth of the fragment clan","steam_id":76561198214192048,"connected_time":7475000000000,"state":"active","ping":98},{"user_id":380,"name":"Shinobimono","steam_id":76561198343322788,"connected_time":7366000000000,"state":"active","ping":130},{"user_id":467,"name":"zsb","steam_id":76561198073857914,"connected_time":2103000000000,"state":"active","ping":73},{"user_id":468,"name":"sterzun","steam_id":76561198300004922,"connected_time":2064000000000,"state":"active","ping":116},{"user_id":477,"name":"Polyester","steam_id":76561198400698408,"connected_time":685000000000,"state":"active","ping":93},{"user_id":456,"name":"Arch-Knee","steam_id":76561198019645810,"connected_time":2683000000000,"state":"active","ping":100},{"user_id":478,"name":"Corhix","steam_id":76561198968706355,"connected_time":684000000000,"state":"active","ping":54},{"user_id":451,"name":"Taisho","steam_id":76561198334229197,"connected_time":3347000000000,"state":"active","ping":65},{"user_id":473,"name":"laptopgaming2003","steam_id":76561198796036009,"connected_time":1547000000000,"state":"active","ping":95},{"user_id":458,"name":"Kirov airship","steam_id":76561199024960087,"connected_time":2660000000000,"state":"active","ping":56}]},{"server_id":1,"name":"Uncletopia | Los Angeles | 1 | All Maps","name_short":"lax-1","host":"lax-1.us.uncletopia.com","port":27015,"enabled":true,"region":"us-west","cc":"us","latitude":33.94279,"longitude":-118.41004,"reserved":0,"last_update":"0001-01-01T00:00:00Z","name_a2s":"Uncletopia | Los Angeles | 1 | All Maps","protocol":17,"map":"cp_altitude","folder":"tf","game":"Team Fortress","app_id":440,"player_count":0,"max_players":24,"Bots":0,"server_type":"Dedicated","server_os":"Linux","password":true,"vac":true,"version":"7757534","steam_id":85568392924469991,"keywords":["cp","nocrits","nodmgspread","uncletopia"],"game_id":440,"stv_port":27016,"stv_name":"Uncletopia | Los Angeles | 1 | All Maps | STV","players":null},{"server_id":112,"name":"Uncletopia | Los Angeles | 2 | All Maps","name_short":"lax-2","host":"lax-1.us.uncletopia.com","port":27025,"enabled":true,"region":"us-west","cc":"us","latitude":33.94279,"longitude":-118.41004,"reserved":0,"last_update":"0001-01-01T00:00:00Z","name_a2s":"Uncletopia | Los Angeles | 2 | All Maps","protocol":17,"map":"koth_cascade","folder":"tf","game":"Team Fortress","app_id":440,"player_count":0,"max_players":24,"Bots":0,"server_type":"Dedicated","server_os":"Linux","password":true,"vac":true,"version":"7757534","steam_id":85568392924469992,"keywords":["cp","nocrits","nodmgspread","uncletopia"],"game_id":440,"stv_port":27026,"stv_name":"Uncletopia | Los Angeles | 2 | All Maps | STV","players":null},{"server_id":324,"name":"Uncletopia | Los Angeles | 3 | All Maps","name_short":"lax-3","host":"lax-1.us.uncletopia.com","port":27035,"enabled":true,"region":"us-west","cc":"us","latitude":33.94279,"longitude":-118.41004,"reserved":0,"last_update":"0001-01-01T00:00:00Z","name_a2s":"Uncletopia | Los Angeles | 3 | All Maps","protocol":17,"map":"koth_highpass","folder":"tf","game":"Team Fortress","app_id":440,"player_count":0,"max_players":24,"Bots":0,"server_type":"Dedicated","server_os":"Linux","password":true,"vac":true,"version":"7757534","steam_id":85568392924510198,"keywords":["cp","nocrits","nodmgspread","uncletopia"],"game_id":440,"stv_port":27036,"stv_name":"Uncletopia | Los Angeles | 3 | All Maps | STV","players":null},{"server_id":25,"name":"Uncletopia | Los Angeles | 4 | Stopwatch Beta","name_short":"lax-4","host":"lax-1.us.uncletopia.com","port":27045,"enabled":true,"region":"us-west","cc":"us","latitude":33.94279,"longitude":-118.41004,"reserved":0,"last_update":"0001-01-01T00:00:00Z","name_a2s":"Uncletopia | Los Angeles | 4 | Stopwatch Beta","protocol":17,"map":"pl_frontier_final","folder":"tf","game":"Team Fortress","app_id":440,"player_count":0,"max_players":24,"Bots":0,"server_type":"Dedicated","server_os":"Linux","password":true,"vac":true,"version":"7757534","steam_id":85568392924510199,"keywords":["nocrits","nodmgspread","payload","uncletopia"],"game_id":440,"stv_port":27046,"stv_name":"Uncletopia | Los Angeles | 4 | Stopwatch Beta | STV","players":null},{"server_id":11,"name":"Uncletopia | London | 1 | All Maps","name_short":"lon-1","host":"lon-1.uk.uncletopia.com","port":27015,"enabled":true,"region":"eu","cc":"gb","latitude":51.509865,"longitude":-0.118092,"reserved":0,"last_update":"0001-01-01T00:00:00Z","name_a2s":"Uncletopia | London | 1 | All Maps","protocol":17,"map":"pl_borneo","folder":"tf","game":"Team Fortress","app_id":440,"player_count":24,"max_players":24,"Bots":0,"server_type":"Dedicated","server_os":"Linux","password":true,"vac":true,"version":"7757534","steam_id":85568392924367362,"keywords":["nocrits","nodmgspread","payload","uncletopia"],"game_id":440,"stv_port":27016,"stv_name":"Uncletopia | London | 1 | All Maps | STV","players":[{"user_id":174,"name":"Sylbar","steam_id":76561198065379590,"connected_time":6835000000000,"state":"active","ping":77},{"user_id":235,"name":"Ghilo","steam_id":76561198010112441,"connected_time":753000000000,"state":"active","ping":122},{"user_id":236,"name":"dafydd","steam_id":76561198052200325,"connected_time":649000000000,"state":"active","ping":97},{"user_id":239,"name":"lant420","steam_id":76561198206673920,"connected_time":632000000000,"state":"active","ping":100},{"user_id":204,"name":"ɹǝuʍo sɥɓıɥ⊥","steam_id":76561198986703944,"connected_time":3925000000000,"state":"active","ping":77},{"user_id":205,"name":"AnonTron","steam_id":76561199031895493,"connected_time":3910000000000,"state":"active","ping":170},{"user_id":249,"name":"BigBustyBiden","steam_id":76561198155187233,"connected_time":393000000000,"state":"active","ping":63},{"user_id":237,"name":"Mint","steam_id":76561198105502303,"connected_time":646000000000,"state":"active","ping":31},{"user_id":252,"name":"marco / s /","steam_id":76561198300120382,"connected_time":32000000000,"state":"active","ping":74},{"user_id":244,"name":"Commander DM","steam_id":76561198059236770,"connected_time":563000000000,"state":"active","ping":84},{"user_id":242,"name":"Cypher","steam_id":76561197996967254,"connected_time":603000000000,"state":"active","ping":60},{"user_id":220,"name":"Fishum","steam_id":76561198148556559,"connected_time":2101000000000,"state":"active","ping":51},{"user_id":232,"name":"Greenmaker","steam_id":76561198060466591,"connected_time":972000000000,"state":"active","ping":94},{"user_id":238,"name":"JohnTraveltime","steam_id":76561199244281754,"connected_time":639000000000,"state":"active","ping":80},{"user_id":234,"name":"BONK-TEC!","steam_id":76561198272667029,"connected_time":885000000000,"state":"active","ping":52},{"user_id":245,"name":"-makina","steam_id":76561198273042780,"connected_time":539000000000,"state":"active","ping":75},{"user_id":166,"name":"963 frequency of gods","steam_id":76561199088506542,"connected_time":7698000000000,"state":"active","ping":68},{"user_id":241,"name":"PyrocynicalVEVO","steam_id":76561198799647907,"connected_time":622000000000,"state":"active","ping":54},{"user_id":246,"name":"󠀡󠀡HELE","steam_id":76561198886612260,"connected_time":518000000000,"state":"active","ping":69},{"user_id":193,"name":"Sneaky boi","steam_id":76561199195985387,"connected_time":5045000000000,"state":"active","ping":90},{"user_id":214,"name":"Bumpin'Scrunts","steam_id":76561198069641252,"connected_time":2535000000000,"state":"active","ping":46},{"user_id":228,"name":"JonTurn","steam_id":76561198128323383,"connected_time":1138000000000,"state":"active","ping":108},{"user_id":243,"name":"Rambi","steam_id":76561199058078505,"connected_time":600000000000,"state":"active","ping":172},{"user_id":248,"name":"Køsmï","steam_id":76561198074938275,"connected_time":427000000000,"state":"active","ping":77}]},{"server_id":114,"name":"Uncletopia | London | 2 | All Maps","name_short":"lon-2","host":"lon-1.uk.uncletopia.com","port":27025,"enabled":true,"region":"eu","cc":"gb","latitude":51.509865,"longitude":-0.118092,"reserved":0,"last_update":"0001-01-01T00:00:00Z","name_a2s":"Uncletopia | London | 2 | All Maps","protocol":17,"map":"pl_barnblitz","folder":"tf","game":"Team Fortress","app_id":440,"player_count":24,"max_players":24,"Bots":0,"server_type":"Dedicated","server_os":"Linux","password":true,"vac":true,"version":"7757534","steam_id":85568392924470941,"keywords":["nocrits","nodmgspread","payload","uncletopia"],"game_id":440,"stv_port":27026,"stv_name":"Uncletopia | London | 2 | All Maps | STV","players":[{"user_id":213,"name":"Spy Mander","steam_id":76561198323192216,"connected_time":9000000000,"state":"spawning","ping":375},{"user_id":212,"name":"biofun's pussy wagon","steam_id":76561198170609049,"connected_time":121000000000,"state":"active","ping":60},{"user_id":204,"name":"T1 (ted1)","steam_id":76561199229022826,"connected_time":192000000000,"state":"active","ping":106},{"user_id":198,"name":"Sniffz_2","steam_id":76561199433459491,"connected_time":256000000000,"state":"active","ping":82},{"user_id":185,"name":"on1on (pickled)","steam_id":76561197995304137,"connected_time":1855000000000,"state":"active","ping":76},{"user_id":200,"name":"Joe12000","steam_id":76561198160817969,"connected_time":231000000000,"state":"active","ping":79},{"user_id":199,"name":"ratoshin","steam_id":76561198194433657,"connected_time":251000000000,"state":"active","ping":61},{"user_id":196,"name":"fmdi","steam_id":76561199433879329,"connected_time":401000000000,"state":"active","ping":83},{"user_id":167,"name":"Purple Panda","steam_id":76561198092231980,"connected_time":2760000000000,"state":"active","ping":50},{"user_id":205,"name":"MixailSend","steam_id":76561198992531145,"connected_time":191000000000,"state":"active","ping":100},{"user_id":207,"name":"chocolate flavoured femboy","steam_id":76561198819353867,"connected_time":168000000000,"state":"active","ping":38},{"user_id":208,"name":"e-gol","steam_id":76561198009118338,"connected_time":168000000000,"state":"active","ping":82},{"user_id":179,"name":"Kremete","steam_id":76561198047984096,"connected_time":2191000000000,"state":"active","ping":56},{"user_id":177,"name":"Anri Okita's Massive Milkers","steam_id":76561199186352720,"connected_time":2224000000000,"state":"active","ping":67},{"user_id":187,"name":"Reiyo","steam_id":76561198155092485,"connected_time":1570000000000,"state":"active","ping":60},{"user_id":171,"name":"generic alias","steam_id":76561198271607226,"connected_time":2566000000000,"state":"active","ping":94},{"user_id":139,"name":"Sgreff","steam_id":76561198036304365,"connected_time":4805000000000,"state":"active","ping":44},{"user_id":145,"name":"dairy","steam_id":76561198117033273,"connected_time":4578000000000,"state":"active","ping":51},{"user_id":201,"name":"Kahvi","steam_id":76561198723244199,"connected_time":229000000000,"state":"active","ping":75},{"user_id":193,"name":"Femboy Lilli","steam_id":76561198090146457,"connected_time":503000000000,"state":"active","ping":41},{"user_id":209,"name":"Bones","steam_id":76561198065081225,"connected_time":162000000000,"state":"active","ping":37},{"user_id":189,"name":"StabbyKnife","steam_id":76561198094010004,"connected_time":1313000000000,"state":"active","ping":94},{"user_id":211,"name":"Huan MEDIC","steam_id":76561198012922308,"connected_time":134000000000,"state":"active","ping":94},{"user_id":159,"name":"doodgie","steam_id":76561198264934115,"connected_time":3574000000000,"state":"active","ping":56}]},{"server_id":320,"name":"Uncletopia | London | 3 | All Maps","name_short":"lon-3","host":"lon-1.uk.uncletopia.com","port":27035,"enabled":true,"region":"eu","cc":"gb","latitude":51.509865,"longitude":-0.118092,"reserved":0,"last_update":"0001-01-01T00:00:00Z","name_a2s":"Uncletopia | London | 3 | All Maps","protocol":17,"map":"pl_swiftwater_final1","folder":"tf","game":"Team Fortress","app_id":440,"player_count":0,"max_players":24,"Bots":0,"server_type":"Dedicated","server_os":"Linux","password":true,"vac":true,"version":"7757534","steam_id":85568392924510192,"keywords":["nocrits","nodmgspread","payload","uncletopia"],"game_id":440,"stv_port":27036,"stv_name":"Uncletopia | London | 3 | All Maps | STV","players":null},{"server_id":321,"name":"Uncletopia | London | 4 | All Maps","name_short":"lon-4","host":"lon-1.uk.uncletopia.com","port":27045,"enabled":true,"region":"eu","cc":"gb","latitude":51.509865,"longitude":-0.118092,"reserved":0,"last_update":"0001-01-01T00:00:00Z","name_a2s":"Uncletopia | London | 4 | All Maps","protocol":17,"map":"koth_viaduct","folder":"tf","game":"Team Fortress","app_id":440,"player_count":0,"max_players":24,"Bots":0,"server_type":"Dedicated","server_os":"Linux","password":true,"vac":true,"version":"7757534","steam_id":85568392924510193,"keywords":["cp","nocrits","nodmgspread","uncletopia"],"game_id":440,"stv_port":27046,"stv_name":"Uncletopia | London | 4 | All Maps | STV","players":null},{"server_id":21,"name":"Uncletopia | London | 5 | All Maps","name_short":"lon-5","host":"lon-1.uk.uncletopia.com","port":27055,"enabled":true,"region":"eu","cc":"gb","latitude":51.509865,"longitude":-0.118092,"reserved":0,"last_update":"0001-01-01T00:00:00Z","name_a2s":"Uncletopia | London | 5 | All Maps","protocol":17,"map":"pl_snowycoast","folder":"tf","game":"Team Fortress","app_id":440,"player_count":0,"max_players":24,"Bots":0,"server_type":"Dedicated","server_os":"Linux","password":true,"vac":true,"version":"7757534","steam_id":85568392924742829,"keywords":["nocrits","nodmgspread","payload","uncletopia"],"game_id":440,"stv_port":27056,"stv_name":"Uncletopia | London | 5 | All Maps | STV","players":null},{"server_id":22,"name":"Uncletopia | London | 6 | All Maps","name_short":"lon-6","host":"lon-1.uk.uncletopia.com","port":27065,"enabled":true,"region":"eu","cc":"gb","latitude":51.509865,"longitude":-0.118092,"reserved":0,"last_update":"0001-01-01T00:00:00Z","name_a2s":"Uncletopia | London | 6 | All Maps","protocol":17,"map":"koth_cascade","folder":"tf","game":"Team Fortress","app_id":440,"player_count":4,"max_players":24,"Bots":0,"server_type":"Dedicated","server_os":"Linux","password":true,"vac":true,"version":"7757534","steam_id":85568392924742830,"keywords":["cp","nocrits","nodmgspread","uncletopia"],"game_id":440,"stv_port":27066,"stv_name":"Uncletopia | London | 6 | All Maps | STV","players":[{"user_id":11,"name":"Feudal lord","steam_id":76561198301837827,"connected_time":254000000000,"state":"active","ping":127},{"user_id":9,"name":"Tea guy","steam_id":76561198797847641,"connected_time":614000000000,"state":"active","ping":55},{"user_id":10,"name":"Fit Crow mark","steam_id":76561198309246388,"connected_time":288000000000,"state":"active","ping":60},{"user_id":12,"name":"Bread 0f Box","steam_id":76561198165594721,"connected_time":219000000000,"state":"active","ping":55}]},{"server_id":40,"name":"Uncletopia | London | 7 | No Payload","name_short":"lon-7","host":"lon-1.uk.uncletopia.com","port":27075,"enabled":true,"region":"eu","cc":"gb","latitude":51.509865,"longitude":-0.118092,"reserved":0,"last_update":"0001-01-01T00:00:00Z","name_a2s":"Uncletopia | London | 7 | No Payload","protocol":17,"map":"koth_sawmill","folder":"tf","game":"Team Fortress","app_id":440,"player_count":22,"max_players":24,"Bots":0,"server_type":"Dedicated","server_os":"Linux","password":true,"vac":true,"version":"7757534","steam_id":85568392924964314,"keywords":["cp","nocrits","nodmgspread","uncletopia"],"game_id":440,"stv_port":27076,"stv_name":"Uncletopia | London | 7 | No Payload | STV","players":[{"user_id":92,"name":"Dark Wizart","steam_id":76561198377689439,"connected_time":1405000000000,"state":"active","ping":80},{"user_id":104,"name":"Dangerousbros","steam_id":76561198088952519,"connected_time":716000000000,"state":"active","ping":35},{"user_id":109,"name":"Oxitocin","steam_id":76561198119542899,"connected_time":225000000000,"state":"active","ping":75},{"user_id":89,"name":"Aspartus","steam_id":76561198101385763,"connected_time":1589000000000,"state":"active","ping":46},{"user_id":11,"name":"Swedde","steam_id":76561198297296440,"connected_time":4693000000000,"state":"active","ping":64},{"user_id":110,"name":"I'm A Real Human Being","steam_id":76561199471571148,"connected_time":208000000000,"state":"active","ping":68},{"user_id":87,"name":"Ward","steam_id":76561198001500324,"connected_time":1847000000000,"state":"active","ping":106},{"user_id":88,"name":"Ray Lilith","steam_id":76561198133946866,"connected_time":1805000000000,"state":"active","ping":70},{"user_id":78,"name":"Retrograde_","steam_id":76561198155371354,"connected_time":2473000000000,"state":"active","ping":45},{"user_id":96,"name":"crusader","steam_id":76561198884458537,"connected_time":1191000000000,"state":"active","ping":42},{"user_id":105,"name":"I AM DOT","steam_id":76561198354118090,"connected_time":447000000000,"state":"active","ping":90},{"user_id":23,"name":"Денис Базука","steam_id":76561198835849082,"connected_time":4217000000000,"state":"active","ping":98},{"user_id":95,"name":"♥Stormii♥","steam_id":76561199441703051,"connected_time":1221000000000,"state":"active","ping":100},{"user_id":91,"name":"NitPig","steam_id":76561198212991935,"connected_time":1423000000000,"state":"active","ping":93},{"user_id":26,"name":"Garden Freeman","steam_id":76561199073314677,"connected_time":4081000000000,"state":"active","ping":84},{"user_id":108,"name":"Laru","steam_id":76561197998838438,"connected_time":237000000000,"state":"active","ping":76},{"user_id":41,"name":"fume.","steam_id":76561197960476801,"connected_time":3613000000000,"state":"active","ping":57},{"user_id":106,"name":"TonTon","steam_id":76561198145468895,"connected_time":311000000000,"state":"active","ping":65},{"user_id":58,"name":"zaleek69","steam_id":76561198058877595,"connected_time":3170000000000,"state":"active","ping":78},{"user_id":33,"name":"lomse_","steam_id":76561198146939162,"connected_time":3895000000000,"state":"active","ping":49},{"user_id":113,"name":"Preacher Carl","steam_id":76561197994713485,"connected_time":186000000000,"state":"active","ping":69},{"user_id":107,"name":"Welder","steam_id":76561198355300561,"connected_time":306000000000,"state":"active","ping":76}]},{"server_id":41,"name":"Uncletopia | London | 8 | Community","name_short":"lon-8","host":"lon-1.uk.uncletopia.com","port":27085,"enabled":true,"region":"eu","cc":"gb","latitude":51.509865,"longitude":-0.118092,"reserved":0,"last_update":"0001-01-01T00:00:00Z","name_a2s":"Uncletopia | London | 8 | Community","protocol":17,"map":"workshop/pl_highwood_b13.ugc1769496557","folder":"tf","game":"Team Fortress","app_id":440,"player_count":0,"max_players":24,"Bots":0,"server_type":"Dedicated","server_os":"Linux","password":true,"vac":true,"version":"7757534","steam_id":85568392924964315,"keywords":["nocrits","nodmgspread","payload","uncletopia"],"game_id":440,"stv_port":27086,"stv_name":"Uncletopia | London | 8 | Community | STV","players":null},{"server_id":300,"name":"Uncletopia | Montréal | 1 | All Maps","name_short":"mtl-1","host":"mtl-1.ca.uncletopia.com","port":27015,"enabled":true,"region":"us-east","cc":"ca","latitude":45.50889,"longitude":-73.56167,"reserved":0,"last_update":"0001-01-01T00:00:00Z","name_a2s":"Uncletopia | Montréal | 1 | All Maps","protocol":17,"map":"pl_snowycoast","folder":"tf","game":"Team Fortress","app_id":440,"player_count":0,"max_players":24,"Bots":0,"server_type":"Dedicated","server_os":"Linux","password":true,"vac":true,"version":"7757534","steam_id":85568392924500087,"keywords":["nocrits","nodmgspread","payload","uncletopia"],"game_id":440,"stv_port":27016,"stv_name":"Uncletopia | Montréal | 1 | All Maps | STV","players":null},{"server_id":301,"name":"Uncletopia | Montréal | 2 | All Maps","name_short":"mtl-2","host":"mtl-1.ca.uncletopia.com","port":27025,"enabled":true,"region":"us-east","cc":"ca","latitude":45.50889,"longitude":-73.56167,"reserved":0,"last_update":"0001-01-01T00:00:00Z","name_a2s":"Uncletopia | Montréal | 2 | All Maps","protocol":17,"map":"pl_snowycoast","folder":"tf","game":"Team Fortress","app_id":440,"player_count":0,"max_players":24,"Bots":0,"server_type":"Dedicated","server_os":"Linux","password":true,"vac":true,"version":"7757534","steam_id":85568392924500088,"keywords":["nocrits","nodmgspread","payload","uncletopia"],"game_id":440,"stv_port":27026,"stv_name":"Uncletopia | Montréal | 2 | All Maps | STV","players":null},{"server_id":302,"name":"Uncletopia | Montréal | 3 | All Maps","name_short":"mtl-3","host":"mtl-1.ca.uncletopia.com","port":27035,"enabled":true,"region":"us-east","cc":"ca","latitude":45.50889,"longitude":-73.56167,"reserved":0,"last_update":"0001-01-01T00:00:00Z","name_a2s":"Uncletopia | Montréal | 3 | All Maps","protocol":17,"map":"cp_dustbowl","folder":"tf","game":"Team Fortress","app_id":440,"player_count":0,"max_players":24,"Bots":0,"server_type":"Dedicated","server_os":"Linux","password":true,"vac":true,"version":"7757534","steam_id":85568392924500089,"keywords":["cp","nocrits","nodmgspread","uncletopia"],"game_id":440,"stv_port":27036,"stv_name":"Uncletopia | Montréal | 3 | All Maps | STV","players":null},{"server_id":303,"name":"Uncletopia | Montréal | 4 | No Payload","name_short":"mtl-4","host":"mtl-1.ca.uncletopia.com","port":27045,"enabled":true,"region":"us-east","cc":"ca","latitude":45.50889,"longitude":-73.56167,"reserved":0,"last_update":"0001-01-01T00:00:00Z","name_a2s":"Uncletopia | Montréal | 4 | No Payload","protocol":17,"map":"pl_borneo","folder":"tf","game":"Team Fortress","app_id":440,"player_count":0,"max_players":24,"Bots":0,"server_type":"Dedicated","server_os":"Linux","password":true,"vac":true,"version":"7757534","steam_id":85568392924500090,"keywords":["nocrits","nodmgspread","payload","uncletopia"],"game_id":440,"stv_port":27046,"stv_name":"Uncletopia | Montréal | 4 | No Payload | STV","players":null},{"server_id":13,"name":"Uncletopia | New York City | 1 | All Maps","name_short":"nyc-1","host":"nyc-1.us.uncletopia.com","port":27015,"enabled":true,"region":"us-east","cc":"us","latitude":40.73061,"longitude":-73.93524,"reserved":0,"last_update":"0001-01-01T00:00:00Z","name_a2s":"Uncletopia | New York City | 1 | All Maps","protocol":17,"map":"koth_cascade","folder":"tf","game":"Team Fortress","app_id":440,"player_count":0,"max_players":24,"Bots":0,"server_type":"Dedicated","server_os":"Linux","password":true,"vac":true,"version":"7757534","steam_id":85568392924469993,"keywords":["cp","nocrits","nodmgspread","uncletopia"],"game_id":440,"stv_port":27016,"stv_name":"Uncletopia | New York City | 1 | All Maps | STV","players":null},{"server_id":14,"name":"Uncletopia | New York City | 2 | All Maps","name_short":"nyc-2","host":"nyc-1.us.uncletopia.com","port":27025,"enabled":true,"region":"us-east","cc":"us","latitude":40.73061,"longitude":-73.93524,"reserved":0,"last_update":"0001-01-01T00:00:00Z","name_a2s":"Uncletopia | New York City | 2 | All Maps","protocol":17,"map":"pl_pier","folder":"tf","game":"Team Fortress","app_id":440,"player_count":0,"max_players":24,"Bots":0,"server_type":"Dedicated","server_os":"Linux","password":true,"vac":true,"version":"7757534","steam_id":85568392924469994,"keywords":["nocrits","nodmgspread","payload","uncletopia"],"game_id":440,"stv_port":27026,"stv_name":"Uncletopia | New York City | 2 | All Maps | STV","players":null},{"server_id":15,"name":"Uncletopia | New York City | 3 | Stopwatch Beta","name_short":"nyc-3","host":"nyc-1.us.uncletopia.com","port":27035,"enabled":true,"region":"us-east","cc":"us","latitude":40.73061,"longitude":-73.93524,"reserved":0,"last_update":"0001-01-01T00:00:00Z","name_a2s":"Uncletopia | New York City | 3 | Stopwatch Beta","protocol":17,"map":"cp_mountainlab","folder":"tf","game":"Team Fortress","app_id":440,"player_count":0,"max_players":24,"Bots":0,"server_type":"Dedicated","server_os":"Linux","password":true,"vac":true,"version":"7757534","steam_id":85568392924742820,"keywords":["cp","nocrits","nodmgspread","uncletopia"],"game_id":440,"stv_port":27036,"stv_name":"Uncletopia | New York City | 3 | Stopwatch Beta | STV","players":null},{"server_id":16,"name":"Uncletopia | New York City | 4 | Community","name_short":"nyc-4","host":"nyc-1.us.uncletopia.com","port":27045,"enabled":true,"region":"us-east","cc":"us","latitude":40.73061,"longitude":-73.93524,"reserved":0,"last_update":"0001-01-01T00:00:00Z","name_a2s":"Uncletopia | New York City | 4 | Community","protocol":17,"map":"pl_borneo","folder":"tf","game":"Team Fortress","app_id":440,"player_count":0,"max_players":24,"Bots":0,"server_type":"Dedicated","server_os":"Linux","password":true,"vac":true,"version":"7757534","steam_id":85568392924742821,"keywords":["nocrits","nodmgspread","payload","uncletopia"],"game_id":440,"stv_port":27046,"stv_name":"Uncletopia | New York City | 4 | Community | STV","players":null},{"server_id":142,"name":"Uncletopia | São Paulo | 1 | All Maps","name_short":"sao-1","host":"sao-1.br.uncletopia.com","port":27015,"enabled":true,"region":"sa","cc":"br","latitude":-23.533773,"longitude":-46.62529,"reserved":0,"last_update":"0001-01-01T00:00:00Z","name_a2s":"Uncletopia | São Paulo | 1 | All Maps","protocol":17,"map":"pl_badwater","folder":"tf","game":"Team Fortress","app_id":440,"player_count":0,"max_players":24,"Bots":0,"server_type":"Dedicated","server_os":"Linux","password":true,"vac":true,"version":"7757534","steam_id":85568392924469996,"keywords":["nocrits","nodmgspread","payload","uncletopia"],"game_id":440,"stv_port":27016,"stv_name":"Uncletopia | São Paulo | 1 | All Maps | STV","players":null},{"server_id":143,"name":"Uncletopia | São Paulo | 2 | All Maps","name_short":"sao-2","host":"sao-2.br.uncletopia.com","port":27015,"enabled":true,"region":"sa","cc":"br","latitude":-23.533773,"longitude":-46.62529,"reserved":0,"last_update":"0001-01-01T00:00:00Z","name_a2s":"Uncletopia | São Paulo | 2 | All Maps","protocol":17,"map":"pl_borneo","folder":"tf","game":"Team Fortress","app_id":440,"player_count":0,"max_players":24,"Bots":0,"server_type":"Dedicated","server_os":"Linux","password":true,"vac":true,"version":"7757534","steam_id":85568392924485349,"keywords":["nocrits","nodmgspread","payload","uncletopia"],"game_id":440,"stv_port":27016,"stv_name":"Uncletopia | São Paulo | 2 | All Maps | STV","players":null},{"server_id":7,"name":"Uncletopia | Seattle | 1 | All Maps","name_short":"sea-1","host":"sea-1.us.uncletopia.com","port":27015,"enabled":true,"region":"us-west","cc":"us","latitude":47.608013,"longitude":-122.33517,"reserved":0,"last_update":"0001-01-01T00:00:00Z","name_a2s":"Uncletopia | Seattle | 1 | All Maps","protocol":17,"map":"cp_powerhouse","folder":"tf","game":"Team Fortress","app_id":440,"player_count":17,"max_players":24,"Bots":0,"server_type":"Dedicated","server_os":"Linux","password":true,"vac":true,"version":"7757534","steam_id":85568392924469997,"keywords":["cp","nocrits","nodmgspread","uncletopia"],"game_id":440,"stv_port":27016,"stv_name":"Uncletopia | Seattle | 1 | All Maps | STV","players":[{"user_id":995,"name":"sloth","steam_id":76561198196797807,"connected_time":38000000000,"state":"active","ping":74},{"user_id":935,"name":"Lamy","steam_id":76561198348354629,"connected_time":5259000000000,"state":"active","ping":61},{"user_id":961,"name":"'A'ole wahine?","steam_id":76561199134730784,"connected_time":2936000000000,"state":"active","ping":134},{"user_id":967,"name":"Vailat","steam_id":76561199208904949,"connected_time":2667000000000,"state":"active","ping":125},{"user_id":991,"name":"so-and-so","steam_id":76561198325306660,"connected_time":998000000000,"state":"active","ping":53},{"user_id":978,"name":"jrmadmallard","steam_id":76561198275994616,"connected_time":2023000000000,"state":"active","ping":55},{"user_id":937,"name":"fishystick gaming","steam_id":76561198000744865,"connected_time":5231000000000,"state":"active","ping":45},{"user_id":986,"name":"Banzai Blitz","steam_id":76561198196503877,"connected_time":1735000000000,"state":"active","ping":44},{"user_id":966,"name":"Cynicalrage #TF2Center","steam_id":76561198085805532,"connected_time":2690000000000,"state":"active","ping":86},{"user_id":990,"name":"Tiny Microwave Quiches :3","steam_id":76561198025463423,"connected_time":1428000000000,"state":"active","ping":84},{"user_id":938,"name":"pickle","steam_id":76561198115269587,"connected_time":5118000000000,"state":"active","ping":119},{"user_id":974,"name":"tannerjacobs2010","steam_id":76561198269253587,"connected_time":2256000000000,"state":"active","ping":61},{"user_id":958,"name":"Chemo","steam_id":76561197961308370,"connected_time":3132000000000,"state":"active","ping":116},{"user_id":980,"name":"Barthurs","steam_id":76561197993776122,"connected_time":1976000000000,"state":"active","ping":100},{"user_id":975,"name":"Kuma","steam_id":76561199100813140,"connected_time":2225000000000,"state":"active","ping":87},{"user_id":981,"name":"Backside540","steam_id":76561197960602545,"connected_time":1965000000000,"state":"active","ping":100},{"user_id":993,"name":"yomommasabitch","steam_id":76561198323217150,"connected_time":901000000000,"state":"active","ping":89}]},{"server_id":119,"name":"Uncletopia | Seattle | 2 | All Maps","name_short":"sea-2","host":"sea-1.us.uncletopia.com","port":27025,"enabled":true,"region":"us-west","cc":"us","latitude":47.608013,"longitude":-122.33517,"reserved":0,"last_update":"0001-01-01T00:00:00Z","name_a2s":"Uncletopia | Seattle | 2 | All Maps","protocol":17,"map":"koth_viaduct","folder":"tf","game":"Team Fortress","app_id":440,"player_count":20,"max_players":24,"Bots":0,"server_type":"Dedicated","server_os":"Linux","password":true,"vac":true,"version":"7757534","steam_id":85568392924469998,"keywords":["cp","nocrits","nodmgspread","uncletopia"],"game_id":440,"stv_port":27026,"stv_name":"Uncletopia | Seattle | 2 | All Maps | STV","players":[{"user_id":944,"name":"laskobr","steam_id":76561198858912567,"connected_time":277000000000,"state":"active","ping":103},{"user_id":941,"name":"mommy","steam_id":76561198129195009,"connected_time":500000000000,"state":"active","ping":62},{"user_id":924,"name":"qt wavyz","steam_id":76561199060668138,"connected_time":1124000000000,"state":"active","ping":112},{"user_id":903,"name":"maiden hell","steam_id":76561198968958854,"connected_time":2624000000000,"state":"active","ping":49},{"user_id":945,"name":"Chris","steam_id":76561198180625579,"connected_time":260000000000,"state":"active","ping":98},{"user_id":926,"name":"spimtmot733","steam_id":76561199029189825,"connected_time":1036000000000,"state":"active","ping":127},{"user_id":907,"name":"♔тeнριиeαρρℓe♚","steam_id":76561198079939127,"connected_time":2104000000000,"state":"active","ping":67},{"user_id":946,"name":"Little Linguine","steam_id":76561198816986370,"connected_time":238000000000,"state":"active","ping":101},{"user_id":934,"name":"Cynder","steam_id":76561197998414027,"connected_time":688000000000,"state":"active","ping":101},{"user_id":927,"name":"https://en.wikipedia.org","steam_id":76561198261326806,"connected_time":1009000000000,"state":"active","ping":57},{"user_id":928,"name":"Akers","steam_id":76561198181793815,"connected_time":914000000000,"state":"active","ping":139},{"user_id":947,"name":"marcie","steam_id":76561198068972567,"connected_time":124000000000,"state":"active","ping":44},{"user_id":929,"name":"HankTheLazy","steam_id":76561199093836052,"connected_time":900000000000,"state":"active","ping":126},{"user_id":930,"name":"cinamin.kake","steam_id":76561199003171233,"connected_time":869000000000,"state":"active","ping":112},{"user_id":948,"name":"KC","steam_id":76561198088935545,"connected_time":100000000000,"state":"active","ping":88},{"user_id":932,"name":"DawnNannas","steam_id":76561198042915117,"connected_time":827000000000,"state":"active","ping":93},{"user_id":949,"name":"the splotchiest splotcher","steam_id":76561198419896433,"connected_time":89000000000,"state":"active","ping":44},{"user_id":938,"name":"Larry","steam_id":76561198005056455,"connected_time":546000000000,"state":"active","ping":75},{"user_id":939,"name":"huh","steam_id":76561198102265073,"connected_time":542000000000,"state":"active","ping":74},{"user_id":940,"name":"whoowee","steam_id":76561198257241799,"connected_time":531000000000,"state":"active","ping":97}]},{"server_id":406,"name":"Uncletopia | Seattle | 3 | Stopwatch Beta","name_short":"sea-3","host":"sea-1.us.uncletopia.com","port":27035,"enabled":true,"region":"us-west","cc":"us","latitude":47.608013,"longitude":-122.33517,"reserved":0,"last_update":"0001-01-01T00:00:00Z","name_a2s":"Uncletopia | Seattle | 3 | Stopwatch Beta","protocol":17,"map":"workshop/koth_product_final.ugc454272353","folder":"tf","game":"Team Fortress","app_id":440,"player_count":0,"max_players":24,"Bots":0,"server_type":"Dedicated","server_os":"Linux","password":true,"vac":true,"version":"7757534","steam_id":85568392924515217,"keywords":["cp","nocrits","nodmgspread","uncletopia"],"game_id":440,"stv_port":27036,"stv_name":"Uncletopia | Seattle | 3 | Stopwatch Beta | STV","players":null},{"server_id":17,"name":"Uncletopia | San Francisco | 1 | All Maps","name_short":"sfo-1","host":"sfo-1.us.uncletopia.com","port":27015,"enabled":true,"region":"us-west","cc":"us","latitude":37.77397,"longitude":-122.4313,"reserved":0,"last_update":"0001-01-01T00:00:00Z","name_a2s":"Uncletopia | San Francisco | 1 | All Maps","protocol":17,"map":"koth_cascade","folder":"tf","game":"Team Fortress","app_id":440,"player_count":0,"max_players":24,"Bots":0,"server_type":"Dedicated","server_os":"Linux","password":true,"vac":true,"version":"7757534","steam_id":85568392924469999,"keywords":["cp","nocrits","nodmgspread","uncletopia"],"game_id":440,"stv_port":27016,"stv_name":"Uncletopia | San Francisco | 1 | All Maps | STV","players":null},{"server_id":18,"name":"Uncletopia | San Francisco | 2 | All Maps","name_short":"sfo-2","host":"sfo-1.us.uncletopia.com","port":27025,"enabled":true,"region":"us-west","cc":"us","latitude":37.77397,"longitude":-122.4313,"reserved":0,"last_update":"0001-01-01T00:00:00Z","name_a2s":"Uncletopia | San Francisco | 2 | All Maps","protocol":17,"map":"cp_dustbowl","folder":"tf","game":"Team Fortress","app_id":440,"player_count":0,"max_players":24,"Bots":0,"server_type":"Dedicated","server_os":"Linux","password":true,"vac":true,"version":"7757534","steam_id":85568392924470000,"keywords":["cp","nocrits","nodmgspread","uncletopia"],"game_id":440,"stv_port":27026,"stv_name":"Uncletopia | San Francisco | 2 | All Maps | STV","players":null},{"server_id":19,"name":"Uncletopia | San Francisco | 3 | Stopwatch Beta","name_short":"sfo-3","host":"sfo-1.us.uncletopia.com","port":27035,"enabled":true,"region":"us-west","cc":"us","latitude":37.77397,"longitude":-122.4313,"reserved":0,"last_update":"0001-01-01T00:00:00Z","name_a2s":"Uncletopia | San Francisco | 3 | Stopwatch Beta","protocol":17,"map":"pl_borneo","folder":"tf","game":"Team Fortress","app_id":440,"player_count":0,"max_players":24,"Bots":0,"server_type":"Dedicated","server_os":"Linux","password":true,"vac":true,"version":"7757534","steam_id":85568392924742824,"keywords":["nocrits","nodmgspread","payload","uncletopia"],"game_id":440,"stv_port":27036,"stv_name":"Uncletopia | San Francisco | 3 | Stopwatch Beta | STV","players":null},{"server_id":20,"name":"Uncletopia | San Francisco | 4 | Community","name_short":"sfo-4","host":"sfo-1.us.uncletopia.com","port":27045,"enabled":true,"region":"us-west","cc":"us","latitude":37.77397,"longitude":-122.4313,"reserved":0,"last_update":"0001-01-01T00:00:00Z","name_a2s":"Uncletopia | San Francisco | 4 | Community","protocol":17,"map":"workshop/koth_bagel_rc5.ugc2514036946","folder":"tf","game":"Team Fortress","app_id":440,"player_count":0,"max_players":24,"Bots":0,"server_type":"Dedicated","server_os":"Linux","password":true,"vac":true,"version":"7757534","steam_id":85568392924742826,"keywords":["cp","nocrits","nodmgspread","uncletopia"],"game_id":440,"stv_port":27046,"stv_name":"Uncletopia | San Francisco | 4 | Community | STV","players":null},{"server_id":141,"name":"Uncletopia | Sydney | 1 | All Maps","name_short":"syd-1","host":"syd-1.au.uncletopia.com","port":27015,"enabled":true,"region":"au","cc":"au","latitude":-33.865143,"longitude":151.2099,"reserved":0,"last_update":"0001-01-01T00:00:00Z","name_a2s":"Uncletopia | Sydney | 1 | All Maps","protocol":17,"map":"cp_mountainlab","folder":"tf","game":"Team Fortress","app_id":440,"player_count":0,"max_players":24,"Bots":0,"server_type":"Dedicated","server_os":"Linux","password":true,"vac":true,"version":"7757534","steam_id":85568392924470001,"keywords":["cp","nocrits","nodmgspread","uncletopia"],"game_id":440,"stv_port":27016,"stv_name":"Uncletopia | Sydney | 1 | All Maps | STV","players":null},{"server_id":123,"name":"Uncletopia | Sydney | 2 | All Maps","name_short":"syd-2","host":"syd-1.au.uncletopia.com","port":27025,"enabled":true,"region":"au","cc":"au","latitude":-33.865143,"longitude":151.2099,"reserved":0,"last_update":"0001-01-01T00:00:00Z","name_a2s":"Uncletopia | Sydney | 2 | All Maps","protocol":17,"map":"pl_snowycoast","folder":"tf","game":"Team Fortress","app_id":440,"player_count":20,"max_players":24,"Bots":0,"server_type":"Dedicated","server_os":"Linux","password":true,"vac":true,"version":"7757534","steam_id":85568392924470002,"keywords":["nocrits","nodmgspread","payload","uncletopia"],"game_id":440,"stv_port":27026,"stv_name":"Uncletopia | Sydney | 2 | All Maps | STV","players":[{"user_id":368,"name":"nov 01","steam_id":76561198072238116,"connected_time":252000000000,"state":"active","ping":53},{"user_id":364,"name":"CouldBeKarlos","steam_id":76561198956180767,"connected_time":351000000000,"state":"active","ping":52},{"user_id":367,"name":"Distracted Chibi","steam_id":76561198033546650,"connected_time":321000000000,"state":"active","ping":44},{"user_id":360,"name":"ben","steam_id":76561198223331996,"connected_time":1677000000000,"state":"active","ping":71},{"user_id":365,"name":"RHOMBLE","steam_id":76561198797890384,"connected_time":342000000000,"state":"active","ping":63},{"user_id":369,"name":"Isotope","steam_id":76561198182437450,"connected_time":249000000000,"state":"active","ping":99},{"user_id":347,"name":"Crab","steam_id":76561198121717806,"connected_time":2822000000000,"state":"active","ping":79},{"user_id":359,"name":"wombraider","steam_id":76561199375834537,"connected_time":1881000000000,"state":"active","ping":123},{"user_id":323,"name":"LightningBlock","steam_id":76561198289997742,"connected_time":4446000000000,"state":"active","ping":30},{"user_id":351,"name":"Monad (Trans-Girl Arc)","steam_id":76561198895999428,"connected_time":2504000000000,"state":"active","ping":46},{"user_id":370,"name":"Mr.Deathclaw","steam_id":76561198025419320,"connected_time":59000000000,"state":"active","ping":103},{"user_id":293,"name":"RoverTw0","steam_id":76561198025416071,"connected_time":6466000000000,"state":"active","ping":47},{"user_id":362,"name":"( ͡° ͜ʖ ͡°)","steam_id":76561199262196710,"connected_time":1191000000000,"state":"active","ping":37},{"user_id":352,"name":"Crimson Aurora","steam_id":76561198157492747,"connected_time":2429000000000,"state":"active","ping":109},{"user_id":353,"name":"Oranch","steam_id":76561198134730206,"connected_time":2332000000000,"state":"active","ping":53},{"user_id":354,"name":"Lincoln2603","steam_id":76561198170236666,"connected_time":2305000000000,"state":"active","ping":40},{"user_id":363,"name":"O'rangutan","steam_id":76561198095916681,"connected_time":951000000000,"state":"active","ping":45},{"user_id":366,"name":"Ponderosa","steam_id":76561199436707447,"connected_time":342000000000,"state":"active","ping":59},{"user_id":329,"name":"Bin","steam_id":76561199117653318,"connected_time":4173000000000,"state":"active","ping":70},{"user_id":361,"name":"KillerBlow","steam_id":76561198930232832,"connected_time":1653000000000,"state":"active","ping":99}]},{"server_id":395,"name":"Uncletopia | Sydney | 3 | All Maps","name_short":"syd-3","host":"syd-1.au.uncletopia.com","port":27035,"enabled":true,"region":"au","cc":"au","latitude":-33.865143,"longitude":151.2099,"reserved":0,"last_update":"0001-01-01T00:00:00Z","name_a2s":"Uncletopia | Sydney | 3 | All Maps","protocol":17,"map":"pl_barnblitz","folder":"tf","game":"Team Fortress","app_id":440,"player_count":0,"max_players":24,"Bots":0,"server_type":"Dedicated","server_os":"Linux","password":true,"vac":true,"version":"7757534","steam_id":85568392925194467,"keywords":["nocrits","nodmgspread","payload","uncletopia"],"game_id":440,"stv_port":27036,"stv_name":"Uncletopia | Sydney | 3 | All Maps | STV","players":null},{"server_id":396,"name":"Uncletopia | Sydney | 4 | All Maps","name_short":"syd-4","host":"syd-1.au.uncletopia.com","port":27045,"enabled":true,"region":"au","cc":"au","latitude":-33.865143,"longitude":151.2099,"reserved":0,"last_update":"0001-01-01T00:00:00Z","name_a2s":"Uncletopia | Sydney | 4 | All Maps","protocol":17,"map":"koth_viaduct","folder":"tf","game":"Team Fortress","app_id":440,"player_count":0,"max_players":24,"Bots":0,"server_type":"Dedicated","server_os":"Linux","password":true,"vac":true,"version":"7757534","steam_id":85568392925397958,"keywords":["cp","nocrits","nodmgspread","uncletopia"],"game_id":440,"stv_port":27046,"stv_name":"Uncletopia | Sydney | 4 | All Maps | STV","players":null},{"server_id":58,"name":"Uncletopia | Sydney | 5 | Stopwatch Beta","name_short":"syd-5","host":"syd-1.au.uncletopia.com","port":27055,"enabled":true,"region":"au","cc":"au","latitude":-33.865143,"longitude":151.2099,"reserved":0,"last_update":"0001-01-01T00:00:00Z","name_a2s":"Uncletopia | Sydney | 5 | Stopwatch Beta","protocol":17,"map":"workshop/koth_ramjam_rc1.ugc459778887","folder":"tf","game":"Team Fortress","app_id":440,"player_count":0,"max_players":24,"Bots":0,"server_type":"Dedicated","server_os":"Linux","password":true,"vac":true,"version":"7757534","steam_id":85568392925397959,"keywords":["cp","nocrits","nodmgspread","uncletopia"],"game_id":440,"stv_port":27056,"stv_name":"Uncletopia | Sydney | 5 | Stopwatch Beta | STV","players":null},{"server_id":59,"name":"Uncletopia | Sydney | 6 | Community","name_short":"syd-6","host":"syd-1.au.uncletopia.com","port":27065,"enabled":true,"region":"au","cc":"au","latitude":-33.865143,"longitude":151.2099,"reserved":0,"last_update":"0001-01-01T00:00:00Z","name_a2s":"Uncletopia | Sydney | 6 | Community","protocol":17,"map":"cp_sunshine","folder":"tf","game":"Team Fortress","app_id":440,"player_count":0,"max_players":24,"Bots":0,"server_type":"Dedicated","server_os":"Linux","password":true,"vac":true,"version":"7757534","steam_id":85568392925397960,"keywords":["cp","nocrits","nodmgspread","uncletopia"],"game_id":440,"stv_port":27066,"stv_name":"Uncletopia | Sydney | 6 | Community | STV","players":null},{"server_id":49,"name":"Uncletopia | Warsaw | 1 | All Maps","name_short":"waw-1","host":"waw-1.pl.uncletopia.com","port":27015,"enabled":true,"region":"eu","cc":"pl","latitude":52.2297,"longitude":21.017532,"reserved":0,"last_update":"0001-01-01T00:00:00Z","name_a2s":"","protocol":0,"map":"","folder":"","game":"","app_id":0,"player_count":0,"max_players":0,"Bots":0,"server_type":"","server_os":"","password":false,"vac":false,"version":"","steam_id":0,"keywords":null,"game_id":0,"stv_port":0,"stv_name":"","players":null},{"server_id":50,"name":"Uncletopia | Warsaw | 2 | All Maps","name_short":"waw-2","host":"waw-1.pl.uncletopia.com","port":27025,"enabled":true,"region":"eu","cc":"pl","latitude":52.2297,"longitude":21.017532,"reserved":0,"last_update":"0001-01-01T00:00:00Z","name_a2s":"Uncletopia | Warsaw | 2 | All Maps","protocol":17,"map":"koth_viaduct","folder":"tf","game":"Team Fortress","app_id":440,"player_count":0,"max_players":24,"Bots":0,"server_type":"Dedicated","server_os":"Linux","password":true,"vac":true,"version":"7757534","steam_id":85568392925397851,"keywords":["cp","nocrits","nodmgspread","uncletopia"],"game_id":440,"stv_port":27026,"stv_name":"Uncletopia | Warsaw | 2 | All Maps | STV","players":null},{"server_id":51,"name":"Uncletopia | Warsaw | 3 | All Maps","name_short":"waw-3","host":"waw-1.pl.uncletopia.com","port":27035,"enabled":true,"region":"eu","cc":"pl","latitude":52.2297,"longitude":21.017532,"reserved":0,"last_update":"0001-01-01T00:00:00Z","name_a2s":"Uncletopia | Warsaw | 3 | All Maps","protocol":17,"map":"pl_barnblitz","folder":"tf","game":"Team Fortress","app_id":440,"player_count":0,"max_players":24,"Bots":0,"server_type":"Dedicated","server_os":"Linux","password":true,"vac":true,"version":"7757534","steam_id":85568392925397852,"keywords":["nocrits","nodmgspread","payload","uncletopia"],"game_id":440,"stv_port":27036,"stv_name":"Uncletopia | Warsaw | 3 | All Maps | STV","players":null},{"server_id":52,"name":"Uncletopia | Warsaw | 4 | All Maps","name_short":"waw-4","host":"waw-1.pl.uncletopia.com","port":27045,"enabled":true,"region":"eu","cc":"pl","latitude":52.2297,"longitude":21.017532,"reserved":0,"last_update":"0001-01-01T00:00:00Z","name_a2s":"Uncletopia | Warsaw | 4 | All Maps","protocol":17,"map":"pl_snowycoast","folder":"tf","game":"Team Fortress","app_id":440,"player_count":0,"max_players":24,"Bots":0,"server_type":"Dedicated","server_os":"Linux","password":true,"vac":true,"version":"7757534","steam_id":85568392925397853,"keywords":["nocrits","nodmgspread","payload","uncletopia"],"game_id":440,"stv_port":27046,"stv_name":"Uncletopia | Warsaw | 4 | All Maps | STV","players":null},{"server_id":53,"name":"Uncletopia | Warsaw | 5 | Stopwatch Beta","name_short":"waw-5","host":"waw-1.pl.uncletopia.com","port":27055,"enabled":true,"region":"eu","cc":"pl","latitude":52.2297,"longitude":21.017532,"reserved":0,"last_update":"0001-01-01T00:00:00Z","name_a2s":"Uncletopia | Warsaw | 5 | Stopwatch Beta","protocol":17,"map":"pl_barnblitz","folder":"tf","game":"Team Fortress","app_id":440,"player_count":0,"max_players":24,"Bots":0,"server_type":"Dedicated","server_os":"Linux","password":true,"vac":true,"version":"7757534","steam_id":85568392925397854,"keywords":["nocrits","nodmgspread","payload","uncletopia"],"game_id":440,"stv_port":27056,"stv_name":"Uncletopia | Warsaw | 5 | Stopwatch Beta | STV","players":null},{"server_id":54,"name":"Uncletopia | Warsaw | 6 | Community","name_short":"waw-6","host":"waw-1.pl.uncletopia.com","port":27065,"enabled":true,"region":"eu","cc":"pl","latitude":52.2297,"longitude":21.017532,"reserved":0,"last_update":"0001-01-01T00:00:00Z","name_a2s":"Uncletopia | Warsaw | 6 | Community","protocol":17,"map":"pl_swiftwater_final1","folder":"tf","game":"Team Fortress","app_id":440,"player_count":0,"max_players":24,"Bots":0,"server_type":"Dedicated","server_os":"Linux","password":true,"vac":true,"version":"7757534","steam_id":85568392925397856,"keywords":["nocrits","nodmgspread","payload","uncletopia"],"game_id":440,"stv_port":27066,"stv_name":"Uncletopia | Warsaw | 6 | Community | STV","players":null}]}