{"status":true,"message":"","result":[{"server_id":9,"name":"Uncletopia | Atlanta | 1 | All Maps","name_short":"atl-1","host":"atl-1.us.uncletopia.com","port":27015,"enabled":true,"region":"us-east","cc":"us","latitude":33.753746,"longitude":-84.38633,"reserved":0,"last_update":"0001-01-01T00:00:00Z","name_a2s":"Uncletopia | Atlanta | 1 | All Maps","protocol":17,"map":"cp_dustbowl","folder":"tf","game":"Team Fortress","app_id":440,"player_count":0,"max_players":24,"Bots":0,"server_type":"Dedicated","server_os":"Linux","password":true,"vac":true,"version":"7757534","steam_id":85568392924469982,"keywords":["cp","nocrits","nodmgspread","uncletopia"],"game_id":440,"stv_port":27016,"stv_name":"Uncletopia | Atlanta | 1 | All Maps | STV","players":null},{"server_id":400,"name":"Uncletopia | Atlanta | 3 | Stopwatch Beta","name_short":"atl-3","host":"atl-1.us.uncletopia.com","port":27035,"enabled":true,"region":"us-east","cc":"us","latitude":33.753746,"longitude":-84.38633,"reserved":0,"last_update":"0001-01-01T00:00:00Z","name_a2s":"Uncletopia | Atlanta | 3 | Stopwatch Beta","protocol":17,"map":"pl_upward","folder":"tf","game":"Team Fortress","app_id":440,"player_count":0,"max_players":24,"Bots":0,"server_type":"Dedicated","server_os":"Linux","password":true,"vac":true,"version":"7757534","steam_id":85568392924515187,"keywords":["nocrits","nodmgspread","payload","uncletopia"],"game_id":440,"stv_port":27036,"stv_name":"Uncletopia | Atlanta | 3 | Stopwatch Beta | STV","players":null},{"server_id":401,"name":"Uncletopia | Atlanta | 4 | No Payload","name_short":"atl-4","host":"atl-1.us.uncletopia.com","port":27045,"enabled":true,"region":"us-east","cc":"us","latitude":33.753746,"longitude":-84.38633,"reserved":0,"last_update":"0001-01-01T00:00:00Z","name_a2s":"Uncletopia | Atlanta | 4 | No Payload","protocol":17,"map":"pl_pier","folder":"tf","game":"Team Fortress","app_id":440,"player_count":0,"max_players":24,"Bots":0,"server_type":"Dedicated","server_os":"Linux","password":true,"vac":true,"version":"7723704","steam_id":85568392924515188,"keywords":["nocrits","nodmgspread","payload","uncletopia"],"game_id":440,"stv_port":27046,"stv_name":"Uncletopia | Atlanta | 4 | No Payload | STV","players":null},{"server_id":2,"name":"Uncletopia | Chicago | 1 | All Maps","name_short":"chi-1","host":"chi-1.us.uncletopia.com","port":27015,"enabled":true,"region":"us-central","cc":"us","latitude":41.881832,"longitude":-87.62318,"reserved":0,"last_update":"0001-01-01T00:00:00Z","name_a2s":"Uncletopia | Chicago | 1 | All Maps","protocol":17,"map":"pl_badwater","folder":"tf","game":"Team Fortress","app_id":440,"player_count":0,"max_players":24,"Bots":0,"server_type":"Dedicated","server_os":"Linux","password":true,"vac":true,"version":"7757534","steam_id":85568392924469984,"keywords":["nocrits","nodmgspread","payload","uncletopia"],"game_id":440,"stv_port":27016,"stv_name":"Uncletopia | Chicago | 1 | All Maps | STV","players":null},{"server_id":106,"name":"Uncletopia | Chicago | 2 | All Maps","name_short":"chi-2","host":"chi-1.us.uncletopia.com","port":27025,"enabled":true,"region":"us-central","cc":"us","latitude":41.881832,"longitude":-87.62318,"reserved":0,"last_update":"0001-01-01T00:00:00Z","name_a2s":"Uncletopia | Chicago | 2 | All Maps","protocol":17,"map":"koth_harvest_final","folder":"tf","game":"Team Fortress","app_id":440,"player_count":24,"max_players":24,"Bots":0,"server_type":"Dedicated","server_os":"Linux","password":true,"vac":true,"version":"7757534","steam_id":85568392924469985,"keywords":["cp","nocrits","nodmgspread","uncletopia"],"game_id":440,"stv_port":27026,"stv_name":"Uncletopia | Chicago | 2 | All Maps | STV","players":[{"user_id":160,"name":"TehLolz","steam_id":76561198091782065,"connected_time":607000000000,"state":"active","ping":92},{"user_id":152,"name":"SkyLark","steam_id":76561198303618132,"connected_time":989000000000,"state":"active","ping":105},{"user_id":139,"name":"remilia","steam_id":76561198069180543,"connected_time":1844000000000,"state":"active","ping":96},{"user_id":170,"name":"luxin","steam_id":76561198399383047,"connected_time":271000000000,"state":"active","ping":59},{"user_id":96,"name":"V3GA01","steam_id":76561199214699875,"connected_time":5310000000000,"state":"active","ping":55},{"user_id":154,"name":"potty trained","steam_id":76561198141557766,"connected_time":937000000000,"state":"active","ping":78},{"user_id":158,"name":"waltuh...","steam_id":76561198085571748,"connected_time":741000000000,"state":"active","ping":44},{"user_id":151,"name":"limegrass619","steam_id":76561198167789909,"connected_time":1038000000000,"state":"active","ping":114},{"user_id":133,"name":"shaderoses","steam_id":76561198070800500,"connected_time":2682000000000,"state":"active","ping":68},{"user_id":167,"name":"Holo\u003c3","steam_id":76561199375876373,"connected_time":357000000000,"state":"active","ping":168},{"user_id":165,"name":"Tiny Fisto","steam_id":76561198446888505,"connected_time":404000000000,"state":"active","ping":67},{"user_id":145,"name":"Literally Me","steam_id":76561198269487635,"connected_time":1462000000000,"state":"active","ping":48},{"user_id":172,"name":"CroMaLaka","steam_id":76561198380926090,"connected_time":45000000000,"state":"active","ping":49},{"user_id":157,"name":"‚úß micca ","steam_id":76561197975540289,"connected_time":873000000000,"state":"active","ping":53},{"user_id":153,"name":"Regi","steam_id":76561198271508598,"connected_time":971000000000,"state":"active","ping":59},{"user_id":166,"name":"Âåó (Hoku)","steam_id":76561198156541138,"connected_time":386000000000,"state":"active","ping":61},{"user_id":156,"name":"Quatts","steam_id":76561198051482153,"connected_time":893000000000,"state":"active","ping":59},{"user_id":173,"name":"Potato","steam_id":76561198883934935,"connected_time":31000000000,"state":"spawning","ping":155},{"user_id":55,"name":"VixianUwU","steam_id":76561198948815060,"connected_time":8484000000000,"state":"active","ping":82},{"user_id":150,"name":"Lennu","steam_id":76561198060730154,"connected_time":1099000000000,"state":"active","ping":72},{"user_id":164,"name":"Trans Donald Trump Jr.","steam_id":76561198061591743,"connected_time":455000000000,"state":"active","ping":65},{"user_id":171,"name":"BLU1 l Epifiny","steam_id":76561198027958086,"connected_time":257000000000,"state":"active","ping":70},{"user_id":91,"name":"Terrazzle","steam_id":76561197999850393,"connected_time":6217000000000,"state":"active","ping":82},{"user_id":117,"name":"Senior_Pablo","steam_id":76561199254031480,"connected_time":3876000000000,"state":"active","ping":147}]},{"server_id":402,"name":"Uncletopia | Chicago | 3 | All Maps","name_short":"chi-3","host":"chi-1.us.uncletopia.com","port":27035,"enabled":true,"region":"us-central","cc":"us","latitude":41.881832,"longitude":-87.62318,"reserved":0,"last_update":"0001-01-01T00:00:00Z","name_a2s":"Uncletopia | Chicago | 3 | All Maps","protocol":17,"map":"cp_mountainlab","folder":"tf","game":"Team Fortress","app_id":440,"player_count":0,"max_players":24,"Bots":0,"server_type":"Dedicated","server_os":"Linux","password":true,"vac":true,"version":"7757534","steam_id":85568392924515191,"keywords":["cp","nocrits","nodmgspread","uncletopia"],"game_id":440,"stv_port":27036,"stv_name":"Uncletopia | Chicago | 3 | All Maps | STV","players":null},{"server_id":403,"name":"Uncletopia | Chicago | 4 | All Maps","name_short":"chi-4","host":"chi-1.us.uncletopia.com","port":27045,"enabled":true,"region":"us-central","cc":"us","latitude":41.881832,"longitude":-87.62318,"reserved":0,"last_update":"0001-01-01T00:00:00Z","name_a2s":"Uncletopia | Chicago | 4 | All Maps","protocol":17,"map":"cp_altitude","folder":"tf","game":"Team Fortress","app_id":440,"player_count":0,"max_players":24,"Bots":0,"server_type":"Dedicated","server_os":"Linux","password":true,"vac":true,"version":"7757534","steam_id":85568392924515193,"keywords":["cp","nocrits","nodmgspread","uncletopia"],"game_id":440,"stv_port":27046,"stv_name":"Uncletopia | Chicago | 4 | All Maps | STV","players":null},{"server_id":36,"name":"Uncletopia | Chicago | 5 | All Maps","name_short":"chi-5","host":"chi-2.us.uncletopia.com","port":27015,"enabled":true,"region":"us-central","cc":"us","latitude":41.881832,"longitude":-87.62318,"reserved":0,"last_update":"0001-01-01T00:00:00Z","name_a2s":"Uncletopia | Chicago | 5 | All Maps","protocol":17,"map":"koth_cascade","folder":"tf","game":"Team Fortress","app_id":440,"player_count":0,"max_players":24,"Bots":0,"server_type":"Dedicated","server_os":"Linux","password":true,"vac":true,"version":"7757534","steam_id":85568392924866362,"keywords":["cp","nocrits","nodmgspread","uncletopia"],"game_id":440,"stv_port":27016,"stv_name":"Uncletopia | Chicago | 5 | All Maps | STV","players":null},{"server_id":37,"name":"Uncletopia | Chicago | 6 | All Maps","name_short":"chi-6","host":"chi-2.us.uncletopia.com","port":27025,"enabled":true,"region":"us-central","cc":"us","latitude":41.881832,"longitude":-87.62318,"reserved":0,"last_update":"0001-01-01T00:00:00Z","name_a2s":"Uncletopia | Chicago | 6 | All Maps","protocol":17,"map":"cp_mountainlab","folder":"tf","game":"Team Fortress","app_id":440,"player_count":0,"max_players":24,"Bots":0,"server_type":"Dedicated","server_os":"Linux","password":true,"vac":true,"version":"7757534","steam_id":85568392924866363,"keywords":["cp","nocrits","nodmgspread","uncletopia"],"game_id":440,"stv_port":27026,"stv_name":"Uncletopia | Chicago | 6 | All Maps | STV","players":null},{"server_id":38,"name":"Uncletopia | Chicago | 7 | Stopwatch Beta","name_short":"chi-7","host":"chi-2.us.uncletopia.com","port":27035,"enabled":true,"region":"us-central","cc":"us","latitude":41.881832,"longitude":-87.62318,"reserved":0,"last_update":"0001-01-01T00:00:00Z","name_a2s":"Uncletopia | Chicago | 7 | Stopwatch Beta","protocol":17,"map":"cp_sunshine","folder":"tf","game":"Team Fortress","app_id":440,"player_count":0,"max_players":24,"Bots":0,"server_type":"Dedicated","server_os":"Linux","password":true,"vac":true,"version":"7757534","steam_id":85568392924866364,"keywords":["cp","nocrits","nodmgspread","uncletopia"],"game_id":440,"stv_port":27036,"stv_name":"Uncletopia | Chicago | 7 | Stopwatch Beta | STV","players":null},{"server_id":39,"name":"Uncletopia | Chicago | 8 | Community","name_short":"chi-8","host":"chi-2.us.uncletopia.com","port":27045,"enabled":true,"region":"us-central","cc":"us","latitude":41.881832,"longitude":-87.62318,"reserved":0,"last_update":"0001-01-01T00:00:00Z","name_a2s":"Uncletopia | Chicago | 8 | Community","protocol":17,"map":"pl_pier","folder":"tf","game":"Team Fortress","app_id":440,"player_count":0,"max_players":24,"Bots":0,"server_type":"Dedicated","server_os":"Linux","password":true,"vac":true,"version":"7757534","steam_id":85568392924866365,"keywords":["nocrits","nodmgspread","payload","uncletopia"],"game_id":440,"stv_port":27046,"stv_name":"Uncletopia | Chicago | 8 | Community | STV","players":null},{"server_id":8,"name":"Uncletopia | Dallas | 1 | All Maps","name_short":"dal-1","host":"dal-1.us.uncletopia.com","port":27015,"enabled":true,"region":"us-central","cc":"us","latitude":32.779167,"longitude":-96.80889,"reserved":0,"last_update":"0001-01-01T00:00:00Z","name_a2s":"Uncletopia | Dallas | 1 | All Maps","protocol":17,"map":"pl_badwater","folder":"tf","game":"Team Fortress","app_id":440,"player_count":2,"max_players":24,"Bots":0,"server_type":"Dedicated","server_os":"Linux","password":true,"vac":true,"version":"7757534","steam_id":85568392924469986,"keywords":["nocrits","nodmgspread","payload","uncletopia"],"game_id":440,"stv_port":27016,"stv_name":"Uncletopia | Dallas | 1 | All Maps | STV","players":[{"user_id":3,"name":"A Gamer [F2P]","steam_id":76561198138712892,"connected_time":670000000000,"state":"active","ping":44},{"user_id":4,"name":"Mask","steam_id":76561198877649728,"connected_time":443000000000,"state":"active","ping":130}]},{"server_id":108,"name":"Uncletopia | Dallas | 2 | All Maps","name_short":"dal-2","host":"dal-1.us.uncletopia.com","port":27025,"enabled":true,"region":"us-central","cc":"us","latitude":32.779167,"longitude":-96.80889,"reserved":0,"last_update":"0001-01-01T00:00:00Z","name_a2s":"Uncletopia | Dallas | 2 | All Maps","protocol":17,"map":"koth_highpass","folder":"tf","game":"Team Fortress","app_id":440,"player_count":0,"max_players":24,"Bots":0,"server_type":"Dedicated","server_os":"Linux","password":true,"vac":true,"version":"7757534","steam_id":85568392924469988,"keywords":["cp","nocrits","nodmgspread","uncletopia"],"game_id":440,"stv_port":27026,"stv_name":"Uncletopia | Dallas | 2 | All Maps | STV","players":null},{"server_id":5,"name":"Uncletopia | Frankfurt | 1 | All Maps","name_short":"frk-1","host":"frk-1.de.uncletopia.com","port":27015,"enabled":true,"region":"eu","cc":"de","latitude":50.110924,"longitude":8.682127,"reserved":0,"last_update":"0001-01-01T00:00:00Z","name_a2s":"Uncletopia | Frankfurt | 1 | All Maps","protocol":17,"map":"cp_dustbowl","folder":"tf","game":"Team Fortress","app_id":440,"player_count":23,"max_players":24,"Bots":0,"server_type":"Dedicated","server_os":"Linux","password":true,"vac":true,"version":"7757534","steam_id":85568392924469989,"keywords":["cp","nocrits","nodmgspread","uncletopia"],"game_id":440,"stv_port":27016,"stv_name":"Uncletopia | Frankfurt | 1 | All Maps | STV","players":[{"user_id":143,"name":"Reclaf","steam_id":76561198107170684,"connected_time":39000000000,"state":"connecting","ping":139},{"user_id":132,"name":"Luuk","steam_id":76561198088266026,"connected_time":870000000000,"state":"spawning","ping":34},{"user_id":127,"name":"Poodle","steam_id":76561198015483504,"connected_time":975000000000,"state":"spawning","ping":64},{"user_id":148,"name":"Echo of Abyss","steam_id":76561198981841782,"connected_time":13000000000,"state":"spawning","ping":98},{"user_id":128,"name":"drew","steam_id":76561198012304706,"connected_time":967000000000,"state":"active","ping":95},{"user_id":120,"name":"wxyz kapƒ±cƒ± izzet","steam_id":76561198241873438,"connected_time":1610000000000,"state":"spawning","ping":86},{"user_id":67,"name":"Dolcelatte","steam_id":76561198038501770,"connected_time":5742000000000,"state":"active","ping":161},{"user_id":94,"name":"Germ√≠√©:","steam_id":76561198092452479,"connected_time":3674000000000,"state":"active","ping":51},{"user_id":134,"name":"√•tem","steam_id":76561198148681931,"connected_time":849000000000,"state":"active","ping":96},{"user_id":130,"name":"Divi","steam_id":76561198043812097,"connected_time":905000000000,"state":"spawning","ping":59},{"user_id":98,"name":"Bruschetta","steam_id":76561198251927162,"connected_time":2993000000000,"state":"spawning","ping":47},{"user_id":142,"name":"DeCypher","steam_id":76561198171992619,"connected_time":48000000000,"state":"active","ping":111},{"user_id":121,"name":"eeeeee","steam_id":76561198427092596,"connected_time":1312000000000,"state":"spawning","ping":148},{"user_id":131,"name":"Mingo","steam_id":76561199191245650,"connected_time":905000000000,"state":"spawning","ping":85},{"user_id":147,"name":"Bowd3n","steam_id":76561198195602342,"connected_time":26000000000,"state":"spawning","ping":62},{"user_id":137,"name":"thefatcontroller","steam_id":76561199332965146,"connected_time":799000000000,"state":"active","ping":111},{"user_id":54,"name":"„É†GeRmAn |√óUA√ó„É†","steam_id":76561199044754898,"connected_time":6731000000000,"state":"active","ping":94},{"user_id":123,"name":"MAKENTAKEN","steam_id":76561199127359587,"connected_time":1281000000000,"state":"active","ping":135},{"user_id":149,"name":"important photo","steam_id":76561199042045774,"connected_time":10000000000,"state":"active","ping":64},{"user_id":102,"name":"Penis Contortionist","steam_id":76561198073663784,"connected_time":2889000000000,"state":"spawning","ping":55},{"user_id":139,"name":"HeroGuy","steam_id":76561199078628119,"connected_time":578000000000,"state":"spawning","ping":47},{"user_id":145,"name":"Big Noot","steam_id":76561198057707263,"connected_time":37000000000,"state":"spawning","ping":55},{"user_id":141,"name":"Vikud","steam_id":76561199110575856,"connected_time":246000000000,"state":"spawning","ping":110}]},{"server_id":110,"name":"Uncletopia | Frankfurt | 2 | All Maps","name_short":"frk-2","host":"frk-1.de.uncletopia.com","port":27025,"enabled":true,"region":"eu","cc":"de","latitude":50.110924,"longitude":8.682127,"reserved":0,"last_update":"0001-01-01T00:00:00Z","name_a2s":"Uncletopia | Frankfurt | 2 | All Maps","protocol":17,"map":"cp_sunshine","folder":"tf","game":"Team Fortress","app_id":440,"player_count":24,"max_players":24,"Bots":0,"server_type":"Dedicated","server_os":"Linux","password":true,"vac":true,"version":"7757534","steam_id":85568392924469990,"keywords":["cp","nocrits","nodmgspread","uncletopia"],"game_id":440,"stv_port":27026,"stv_name":"Uncletopia | Frankfurt | 2 | All Maps | STV","players":[{"user_id":12,"name":"Arnjack","steam_id":76561198040748956,"connected_time":2495000000000,"state":"active","ping":69},{"user_id":13,"name":"bob","steam_id":76561198274383839,"connected_time":2462000000000,"state":"active","ping":45},{"user_id":57,"name":"Konswil","steam_id":76561198107019657,"connected_time":817000000000,"state":"active","ping":106},{"user_id":19,"name":"Badrock 1","steam_id":76561198368513115,"connected_time":1922000000000,"state":"active","ping":112},{"user_id":63,"name":"KoldKat","steam_id":76561198172117826,"connected_time":625000000000,"state":"active","ping":175},{"user_id":64,"name":"where is my egg?","steam_id":76561198172542535,"connected_time":478000000000,"state":"active","ping":66},{"user_id":69,"name":"VERS","steam_id":76561198884232373,"connected_time":122000000000,"state":"active","ping":47},{"user_id":23,"name":"Jesse Fatcoc","steam_id":76561199004942770,"connected_time":1882000000000,"state":"active","ping":67},{"user_id":24,"name":"im red","steam_id":76561199087284519,"connected_time":1875000000000,"state":"active","ping":66},{"user_id":38,"name":"Scacery","steam_id":76561198382668057,"connected_time":1621000000000,"state":"active","ping":83},{"user_id":26,"name":"Digio","steam_id":76561199065101964,"connected_time":1863000000000,"state":"active","ping":99},{"user_id":41,"name":"Mr. Mundy","steam_id":76561198132008918,"connected_time":1565000000000,"state":"active","ping":74},{"user_id":40,"name":"FUKAYU","steam_id":76561198380484033,"connected_time":1590000000000,"state":"active","ping":53},{"user_id":53,"name":"i5","steam_id":76561198212702751,"connected_time":1018000000000,"state":"active","ping":82},{"user_id":59,"name":"Maximus","steam_id":76561198032472655,"connected_time":809000000000,"state":"active","ping":49},{"user_id":32,"name":"Kapuska","steam_id":76561198038679283,"connected_time":1742000000000,"state":"active","ping":76},{"user_id":51,"name":"Rz!","steam_id":76561198364380889,"connected_time":1044000000000,"state":"active","ping":132},{"user_id":67,"name":"Dragon","steam_id":76561198163255365,"connected_time":326000000000,"state":"active","ping":101},{"user_id":47,"name":"blue","steam_id":76561198216200092,"connected_time":1365000000000,"state":"active","ping":65},{"user_id":68,"name":"tea for two","steam_id":76561198133532980,"connected_time":188000000000,"state":"active","ping":60},{"user_id":43,"name":"Bilaterial Newt","steam_id":76561198074655679,"connected_time":1555000000000,"state":"active","ping":79},{"user_id":65,"name":"Hexagon","steam_id":76561198151205758,"connected_time":468000000000,"state":"active","ping":49},{"user_id":50,"name":"Koda","steam_id":76561198142696299,"connected_time":1129000000000,"state":"active","ping":60},{"user_id":52,"name":"banrab","steam_id":76561198083615367,"connected_time":1031000000000,"state":"active","ping":53}]},{"server_id":308,"name":"Uncletopia | Frankfurt | 3 | All Maps","name_short":"frk-3","host":"frk-1.de.uncletopia.com","port":27035,"enabled":true,"region":"eu","cc":"de","latitude":50.110924,"longitude":8.682127,"reserved":0,"last_update":"0001-01-01T00:00:00Z","name_a2s":"Uncletopia | Frankfurt | 3 | All Maps","protocol":17,"map":"koth_viaduct","folder":"tf","game":"Team Fortress","app_id":440,"player_count":8,"max_players":24,"Bots":0,"server_type":"Dedicated","server_os":"Linux","password":true,"vac":true,"version":"7757534","steam_id":85568392924504274,"keywords":["cp","nocrits","nodmgspread","uncletopia"],"game_id":440,"stv_port":27036,"stv_name":"Uncletopia | Frankfurt | 3 | All Maps | STV","players":[{"user_id":8,"name":"KajaStorm","steam_id":76561199215842872,"connected_time":605000000000,"state":"active","ping":133},{"user_id":9,"name":"‚òÜ(stephano)pootis CO.‚òÜ","steam_id":76561199084131361,"connected_time":385000000000,"state":"active","ping":170},{"user_id":10,"name":"cloud","steam_id":76561198179768931,"connected_time":377000000000,"state":"active","ping":47},{"user_id":11,"name":"Fus in Boots","steam_id":76561198053897722,"connected_time":371000000000,"state":"active","ping":58},{"user_id":12,"name":"Na'vi Misato (by popular demand","steam_id":76561198130860698,"connected_time":189000000000,"state":"active","ping":57},{"user_id":14,"name":"OTP DynamoDM","steam_id":76561198150755391,"connected_time":134000000000,"state":"active","ping":46},{"user_id":15,"name":"Lordware","steam_id":76561198022011299,"connected_time":109000000000,"state":"active","ping":71},{"user_id":16,"name":"Mr. Panny","steam_id":76561198412524704,"connected_time":92000000000,"state":"active","ping":53}]},{"server_id":309,"name":"Uncletopia | Frankfurt | 4 | All Maps","name_short":"frk-4","host":"frk-1.de.uncletopia.com","port":27045,"enabled":true,"region":"eu","cc":"de","latitude":50.110924,"longitude":8.682127,"reserved":0,"last_update":"0001-01-01T00:00:00Z","name_a2s":"Uncletopia | Frankfurt | 4 | All Maps","protocol":17,"map":"cp_process_final","folder":"tf","game":"Team Fortress","app_id":440,"player_count":0,"max_players":24,"Bots":0,"server_type":"Dedicated","server_os":"Linux","password":true,"vac":true,"version":"7757534","steam_id":85568392924504275,"keywords":["cp","nocrits","nodmgspread","uncletopia"],"game_id":440,"stv_port":27046,"stv_name":"Uncletopia | Frankfurt | 4 | All Maps | STV","players":null},{"server_id":310,"name":"Uncletopia | Frankfurt | 5 | All Maps","name_short":"frk-5","host":"frk-1.de.uncletopia.com","port":27055,"enabled":true,"region":"eu","cc":"de","latitude":50.110924,"longitude":8.682127,"reserved":0,"last_update":"0001-01-01T00:00:00Z","name_a2s":"Uncletopia | Frankfurt | 5 | All Maps","protocol":17,"map":"cp_altitude","folder":"tf","game":"Team Fortress","app_id":440,"player_count":0,"max_players":24,"Bots":0,"server_type":"Dedicated","server_os":"Linux","password":true,"vac":true,"version":"7757534","steam_id":85568392924504277,"keywords":["cp","nocrits","nodmgspread","uncletopia"],"game_id":440,"stv_port":27056,"stv_name":"Uncletopia | Frankfurt | 5 | All Maps | STV","players":null},{"server_id":311,"name":"Uncletopia | Frankfurt | 6 | All Maps","name_short":"frk-6","host":"frk-1.de.uncletopia.com","port":27065,"enabled":true,"region":"eu","cc":"de","latitude":50.110924,"longitude":8.682127,"reserved":0,"last_update":"0001-01-01T00:00:00Z","name_a2s":"Uncletopia | Frankfurt | 6 | All Maps","protocol":17,"map":"koth_highpass","folder":"tf","game":"Team Fortress","app_id":440,"player_count":2,"max_players":24,"Bots":0,"server_type":"Dedicated","server_os":"Linux","password":true,"vac":true,"version":"7757534","steam_id":85568392924504278,"keywords":["cp","nocrits","nodmgspread","uncletopia"],"game_id":440,"stv_port":27066,"stv_name":"Uncletopia | Frankfurt | 6 | All Maps | STV","players":[{"user_id":5,"name":"kiekeboe","steam_id":76561198269265946,"connected_time":369000000000,"state":"active","ping":73},{"user_id":6,"name":"j100j","steam_id":76561198338726444,"connected_time":326000000000,"state":"active","ping":90}]},{"server_id":23,"name":"Uncletopia | Frankfurt | 7 | Stopwatch Beta","name_short":"frk-7","host":"frk-1.de.uncletopia.com","port":27075,"enabled":true,"region":"eu","cc":"de","latitude":50.110924,"longitude":8.682127,"reserved":0,"last_update":"0001-01-01T00:00:00Z","name_a2s":"Uncletopia | Frankfurt | 7 | Stopwatch Beta","protocol":17,"map":"pl_borneo","folder":"tf","game":"Team Fortress","app_id":440,"player_count":0,"max_players":24,"Bots":0,"server_type":"Dedicated","server_os":"Linux","password":true,"vac":true,"version":"7757534","steam_id":85568392924742827,"keywords":["nocrits","nodmgspread","payload","uncletopia"],"game_id":440,"stv_port":27076,"stv_name":"Uncletopia | Frankfurt | 7 | Stopwatch Beta | STV","players":null},{"server_id":24,"name":"Uncletopia | Frankfurt | 8 | Community","name_short":"frk-8","host":"frk-1.de.uncletopia.com","port":27085,"enabled":true,"region":"eu","cc":"de","latitude":50.110924,"longitude":8.682127,"reserved":0,"last_update":"0001-01-01T00:00:00Z","name_a2s":"Uncletopia | Frankfurt | 8 | Community","protocol":17,"map":"koth_cascade","folder":"tf","game":"Team Fortress","app_id":440,"player_count":0,"max_players":24,"Bots":0,"server_type":"Dedicated","server_os":"Linux","password":true,"vac":true,"version":"7757534","steam_id":85568392924742828,"keywords":["cp","nocrits","nodmgspread","uncletopia"],"game_id":440,"stv_port":27086,"stv_name":"Uncletopia | Frankfurt | 8 | Community | STV","players":null},{"server_id":202,"name":"Uncletopia | Hong Kong | 1 | All Maps","name_short":"hgk-1","host":"hgk-1.hk.uncletopia.com","port":27015,"enabled":true,"region":"asia","cc":"hk","latitude":22.302711,"longitude":114.177216,"reserved":0,"last_update":"0001-01-01T00:00:00Z","name_a2s":"Uncletopia | Hong Kong | 1 | All Maps","protocol":17,"map":"pl_barnblitz","folder":"tf","game":"Team Fortress","app_id":440,"player_count":18,"max_players":24,"Bots":0,"server_type":"Dedicated","server_os":"Linux","password":true,"vac":true,"version":"7757534","steam_id":85568392924494504,"keywords":["nocrits","nodmgspread","payload","uncletopia"],"game_id":440,"stv_port":27016,"stv_name":"Uncletopia | Hong Kong | 1 | All Maps | STV","players":[{"user_id":251,"name":"Nice","steam_id":76561199180653046,"connected_time":3266000000000,"state":"active","ping":128},{"user_id":162,"name":"Bertengkar","steam_id":76561198213031155,"connected_time":11247000000000,"state":"active","ping":93},{"user_id":230,"name":"aaaaaaaaa uwu","steam_id":76561198012721342,"connected_time":5337000000000,"state":"active","ping":41},{"user_id":294,"name":"Kiwi","steam_id":76561198294647922,"connected_time":146000000000,"state":"active","ping":70},{"user_id":245,"name":"lettuce at 58p","steam_id":76561199401283123,"connected_time":3666000000000,"state":"active","ping":94},{"user_id":296,"name":"atk","steam_id":76561198022653448,"connected_time":99000000000,"state":"active","ping":87},{"user_id":276,"name":"Ïø†ÌÇ§","steam_id":76561197997220367,"connected_time":2227000000000,"state":"active","ping":51},{"user_id":295,"name":"·É¶ Maeve.","steam_id":76561198275846469,"connected_time":122000000000,"state":"active","ping":75},{"user_id":282,"name":"juan233","steam_id":76561198867566247,"connected_time":1512000000000,"state":"active","ping":117},{"user_id":297,"name":"Beanie","steam_id":76561198810626200,"connected_time":58000000000,"state":"active","ping":254},{"user_id":281,"name":"conq","steam_id":76561199110124835,"connected_time":1648000000000,"state":"active","ping":99},{"user_id":289,"name":"Nobita Nobi [f2p]","steam_id":76561197996787560,"connected_time":920000000000,"state":"active","ping":44},{"user_id":293,"name":"Batbob","steam_id":76561198999413123,"connected_time":427000000000,"state":"active","ping":85},{"user_id":161,"name":"ÁÖôÊµ∑ | Enkai","steam_id":76561198050460825,"connected_time":11290000000000,"state":"active","ping":74},{"user_id":256,"name":"tiden2000","steam_id":76561198092969425,"connected_time":3161000000000,"state":"active","ping":101},{"user_id":260,"name":"ÊØç„ÅÆËÇâÂõ£Â≠ê","steam_id":76561198069561896,"connected_time":2963000000000,"state":"active","ping":35},{"user_id":287,"name":"Bonald Brump","steam_id":76561198013228760,"connected_time":968000000000,"state":"active","ping":121},{"user_id":292,"name":"Bollocks","steam_id":76561198978868701,"connected_time":632000000000,"state":"active","ping":196}]},{"server_id":1,"name":"Uncletopia | Los Angeles | 1 | All Maps","name_short":"lax-1","host":"lax-1.us.uncletopia.com","port":27015,"enabled":true,"region":"us-west","cc":"us","latitude":33.94279,"longitude":-118.41004,"reserved":0,"last_update":"0001-01-01T00:00:00Z","name_a2s":"Uncletopia | Los Angeles | 1 | All Maps","protocol":17,"map":"cp_process_final","folder":"tf","game":"Team Fortress","app_id":440,"player_count":0,"max_players":24,"Bots":0,"server_type":"Dedicated","server_os":"Linux","password":true,"vac":true,"version":"7757534","steam_id":85568392924469991,"keywords":["cp","nocrits","nodmgspread","uncletopia"],"game_id":440,"stv_port":27016,"stv_name":"Uncletopia | Los Angeles | 1 | All Maps | STV","players":null},{"server_id":112,"name":"Uncletopia | Los Angeles | 2 | All Maps","name_short":"lax-2","host":"lax-1.us.uncletopia.com","port":27025,"enabled":true,"region":"us-west","cc":"us","latitude":33.94279,"longitude":-118.41004,"reserved":0,"last_update":"0001-01-01T00:00:00Z","name_a2s":"Uncletopia | Los Angeles | 2 | All Maps","protocol":17,"map":"cp_mountainlab","folder":"tf","game":"Team Fortress","app_id":440,"player_count":0,"max_players":24,"Bots":0,"server_type":"Dedicated","server_os":"Linux","password":true,"vac":true,"version":"7757534","steam_id":85568392924469992,"keywords":["cp","nocrits","nodmgspread","uncletopia"],"game_id":440,"stv_port":27026,"stv_name":"Uncletopia | Los Angeles | 2 | All Maps | STV","players":null},{"server_id":324,"name":"Uncletopia | Los Angeles | 3 | All Maps","name_short":"lax-3","host":"lax-1.us.uncletopia.com","port":27035,"enabled":true,"region":"us-west","cc":"us","latitude":33.94279,"longitude":-118.41004,"reserved":0,"last_update":"0001-01-01T00:00:00Z","name_a2s":"Uncletopia | Los Angeles | 3 | All Maps","protocol":17,"map":"pl_frontier_final","folder":"tf","game":"Team Fortress","app_id":440,"player_count":2,"max_players":24,"Bots":0,"server_type":"Dedicated","server_os":"Linux","password":true,"vac":true,"version":"7757534","steam_id":85568392924510198,"keywords":["nocrits","nodmgspread","payload","uncletopia"],"game_id":440,"stv_port":27036,"stv_name":"Uncletopia | Los Angeles | 3 | All Maps | STV","players":[{"user_id":6,"name":"chimpbrain1269","steam_id":76561199455515783,"connected_time":32000000000,"state":"active","ping":106},{"user_id":4,"name":"WHAALLEE","steam_id":76561199452819866,"connected_time":58000000000,"state":"spawning","ping":185}]},{"server_id":25,"name":"Uncletopia | Los Angeles | 4 | Stopwatch Beta","name_short":"lax-4","host":"lax-1.us.uncletopia.com","port":27045,"enabled":true,"region":"us-west","cc":"us","latitude":33.94279,"longitude":-118.41004,"reserved":0,"last_update":"0001-01-01T00:00:00Z","name_a2s":"Uncletopia | Los Angeles | 4 | Stopwatch Beta","protocol":17,"map":"koth_viaduct","folder":"tf","game":"Team Fortress","app_id":440,"player_count":0,"max_players":24,"Bots":0,"server_type":"Dedicated","server_os":"Linux","password":true,"vac":true,"version":"7757534","steam_id":85568392924510199,"keywords":["cp","nocrits","nodmgspread","uncletopia"],"game_id":440,"stv_port":27046,"stv_name":"Uncletopia | Los Angeles | 4 | Stopwatch Beta | STV","players":null},{"server_id":11,"name":"Uncletopia | London | 1 | All Maps","name_short":"lon-1","host":"lon-1.uk.uncletopia.com","port":27015,"enabled":true,"region":"eu","cc":"gb","latitude":51.509865,"longitude":-0.118092,"reserved":0,"last_update":"0001-01-01T00:00:00Z","name_a2s":"Uncletopia | London | 1 | All Maps","protocol":17,"map":"pl_borneo","folder":"tf","game":"Team Fortress","app_id":440,"player_count":0,"max_players":24,"Bots":0,"server_type":"Dedicated","server_os":"Linux","password":true,"vac":true,"version":"7757534","steam_id":85568392924367362,"keywords":["nocrits","nodmgspread","payload","uncletopia"],"game_id":440,"stv_port":27016,"stv_name":"Uncletopia | London | 1 | All Maps | STV","players":null},{"server_id":114,"name":"Uncletopia | London | 2 | All Maps","name_short":"lon-2","host":"lon-1.uk.uncletopia.com","port":27025,"enabled":true,"region":"eu","cc":"gb","latitude":51.509865,"longitude":-0.118092,"reserved":0,"last_update":"0001-01-01T00:00:00Z","name_a2s":"Uncletopia | London | 2 | All Maps","protocol":17,"map":"pl_badwater","folder":"tf","game":"Team Fortress","app_id":440,"player_count":23,"max_players":24,"Bots":0,"server_type":"Dedicated","server_os":"Linux","password":true,"vac":true,"version":"7757534","steam_id":85568392924470941,"keywords":["nocrits","nodmgspread","payload","uncletopia"],"game_id":440,"stv_port":27026,"stv_name":"Uncletopia | London | 2 | All Maps | STV","players":[{"user_id":8,"name":"Hydro","steam_id":76561199081791855,"connected_time":1750000000000,"state":"active","ping":54},{"user_id":16,"name":"MelvinIsANiceBoy","steam_id":76561198178415634,"connected_time":880000000000,"state":"active","ping":60},{"user_id":43,"name":"alvinulv","steam_id":76561198024487177,"connected_time":29000000000,"state":"active","ping":55},{"user_id":14,"name":"Funky Dude","steam_id":76561198271837212,"connected_time":987000000000,"state":"active","ping":59},{"user_id":45,"name":"jovi_","steam_id":76561198449280552,"connected_time":14000000000,"state":"active","ping":45},{"user_id":13,"name":"tiktok vasectomy","steam_id":76561198260363522,"connected_time":1039000000000,"state":"active","ping":83},{"user_id":15,"name":"Whoopi Goldberg","steam_id":76561199378865926,"connected_time":979000000000,"state":"active","ping":82},{"user_id":20,"name":"Mor'du","steam_id":76561198274105878,"connected_time":741000000000,"state":"active","ping":87},{"user_id":42,"name":"naleksi","steam_id":76561198018391055,"connected_time":63000000000,"state":"active","ping":87},{"user_id":39,"name":"outlaw","steam_id":76561198323805289,"connected_time":246000000000,"state":"active","ping":32},{"user_id":22,"name":"DonD","steam_id":76561198061496731,"connected_time":697000000000,"state":"active","ping":60},{"user_id":23,"name":"Dr. Uberschwein","steam_id":76561198111367431,"connected_time":693000000000,"state":"active","ping":81},{"user_id":27,"name":"CommanderX","steam_id":76561197991425069,"connected_time":553000000000,"state":"active","ping":59},{"user_id":31,"name":"Wtka N√∏SS (Nazar Co.)","steam_id":76561198804931016,"connected_time":506000000000,"state":"active","ping":84},{"user_id":28,"name":"The.Convoy","steam_id":76561198206525464,"connected_time":546000000000,"state":"active","ping":51},{"user_id":29,"name":"skille","steam_id":76561198005794325,"connected_time":542000000000,"state":"active","ping":67},{"user_id":32,"name":"‚ù§ Sparx ‚ù§","steam_id":76561198095009261,"connected_time":494000000000,"state":"active","ping":66},{"user_id":33,"name":"SausageRoll","steam_id":76561197994072622,"connected_time":491000000000,"state":"active","ping":26},{"user_id":38,"name":"mo","steam_id":76561198029399151,"connected_time":350000000000,"state":"active","ping":59},{"user_id":35,"name":"Yoshikage Kira","steam_id":76561199051752886,"connected_time":476000000000,"state":"active","ping":79},{"user_id":36,"name":"Ducky[WADZ]üê§","steam_id":76561198060341245,"connected_time":472000000000,"state":"active","ping":70},{"user_id":37,"name":"LOBZIK","steam_id":76561198114830120,"connected_time":469000000000,"state":"active","ping":77},{"user_id":40,"name":"dafydd","steam_id":76561198052200325,"connected_time":245000000000,"state":"active","ping":82}]},{"server_id":320,"name":"Uncletopia | London | 3 | All Maps","name_short":"lon-3","host":"lon-1.uk.uncletopia.com","port":27035,"enabled":true,"region":"eu","cc":"gb","latitude":51.509865,"longitude":-0.118092,"reserved":0,"last_update":"0001-01-01T00:00:00Z","name_a2s":"Uncletopia | London | 3 | All Maps","protocol":17,"map":"koth_viaduct","folder":"tf","game":"Team Fortress","app_id":440,"player_count":0,"max_players":24,"Bots":0,"server_type":"Dedicated","server_os":"Linux","password":true,"vac":true,"version":"7757534","steam_id":85568392924510192,"keywords":["cp","nocrits","nodmgspread","uncletopia"],"game_id":440,"stv_port":27036,"stv_name":"Uncletopia | London | 3 | All Maps | STV","players":null},{"server_id":321,"name":"Uncletopia | London | 4 | All Maps","name_short":"lon-4","host":"lon-1.uk.uncletopia.com","port":27045,"enabled":true,"region":"eu","cc":"gb","latitude":51.509865,"longitude":-0.118092,"reserved":0,"last_update":"0001-01-01T00:00:00Z","name_a2s":"Uncletopia | London | 4 | All Maps","protocol":17,"map":"pl_borneo","folder":"tf","game":"Team Fortress","app_id":440,"player_count":24,"max_players":24,"Bots":0,"server_type":"Dedicated","server_os":"Linux","password":true,"vac":true,"version":"7757534","steam_id":85568392924510193,"keywords":["nocrits","nodmgspread","payload","uncletopia"],"game_id":440,"stv_port":27046,"stv_name":"Uncletopia | London | 4 | All Maps | STV","players":[{"user_id":387,"name":"minecrafter","steam_id":76561198797989834,"connected_time":126000000000,"state":"active","ping":53},{"user_id":389,"name":"Plstense","steam_id":76561198209026463,"connected_time":113000000000,"state":"spawning","ping":67},{"user_id":355,"name":"Ged","steam_id":76561198079288943,"connected_time":3349000000000,"state":"active","ping":143},{"user_id":380,"name":":)","steam_id":76561199169459145,"connected_time":1592000000000,"state":"active","ping":98},{"user_id":390,"name":"domingamin","steam_id":76561198846466054,"connected_time":83000000000,"state":"active","ping":104},{"user_id":325,"name":"ChesseKnight","steam_id":76561198102476339,"connected_time":5623000000000,"state":"active","ping":89},{"user_id":358,"name":"Cavalier","steam_id":76561198077283980,"connected_time":2623000000000,"state":"active","ping":62},{"user_id":382,"name":"000","steam_id":76561198360009237,"connected_time":921000000000,"state":"active","ping":45},{"user_id":391,"name":"K√© L'Yor Selph","steam_id":76561198256704286,"connected_time":70000000000,"state":"active","ping":64},{"user_id":388,"name":"—Ñ—É—Ä—Ä–∏–º–∞–ª—å—á–∏–∫","steam_id":76561199433913089,"connected_time":122000000000,"state":"active","ping":78},{"user_id":371,"name":"E","steam_id":76561198166340115,"connected_time":1977000000000,"state":"active","ping":62},{"user_id":285,"name":"Miczu555PL","steam_id":76561198058500895,"connected_time":9069000000000,"state":"active","ping":70},{"user_id":392,"name":"Star in a pond","steam_id":76561198205501279,"connected_time":54000000000,"state":"active","ping":92},{"user_id":386,"name":"LSKi","steam_id":76561198215470228,"connected_time":147000000000,"state":"active","ping":55},{"user_id":364,"name":"tactical783","steam_id":76561199051688560,"connected_time":2034000000000,"state":"active","ping":68},{"user_id":372,"name":"AiRBiscuiT","steam_id":76561198348655114,"connected_time":1976000000000,"state":"active","ping":53},{"user_id":397,"name":"The chumbler","steam_id":76561198999161827,"connected_time":11000000000,"state":"active","ping":87},{"user_id":373,"name":"Joe","steam_id":76561198061717026,"connected_time":1950000000000,"state":"active","ping":45},{"user_id":376,"name":"bAdmon","steam_id":76561197961785793,"connected_time":1774000000000,"state":"active","ping":46},{"user_id":395,"name":"kiki","steam_id":76561198838277022,"connected_time":37000000000,"state":"active","ping":71},{"user_id":396,"name":"k","steam_id":76561198818452217,"connected_time":27000000000,"state":"active","ping":78},{"user_id":348,"name":"borokpop","steam_id":76561199163530777,"connected_time":3989000000000,"state":"active","ping":68},{"user_id":385,"name":"MyamE","steam_id":76561198133278462,"connected_time":453000000000,"state":"active","ping":159},{"user_id":384,"name":"asyptic","steam_id":76561198271649697,"connected_time":569000000000,"state":"active","ping":45}]},{"server_id":21,"name":"Uncletopia | London | 5 | All Maps","name_short":"lon-5","host":"lon-1.uk.uncletopia.com","port":27055,"enabled":true,"region":"eu","cc":"gb","latitude":51.509865,"longitude":-0.118092,"reserved":0,"last_update":"0001-01-01T00:00:00Z","name_a2s":"Uncletopia | London | 5 | All Maps","protocol":17,"map":"pl_swiftwater_final1","folder":"tf","game":"Team Fortress","app_id":440,"player_count":24,"max_players":24,"Bots":0,"server_type":"Dedicated","server_os":"Linux","password":true,"vac":true,"version":"7757534","steam_id":85568392924742829,"keywords":["nocrits","nodmgspread","payload","uncletopia"],"game_id":440,"stv_port":27056,"stv_name":"Uncletopia | London | 5 | All Maps | STV","players":[{"user_id":436,"name":"SoupER","steam_id":76561198063056668,"connected_time":1666000000000,"state":"active","ping":43},{"user_id":440,"name":"HoppeSigurd","steam_id":76561198115235919,"connected_time":1486000000000,"state":"active","ping":60},{"user_id":437,"name":"Melon","steam_id":76561198150893860,"connected_time":1652000000000,"state":"active","ping":87},{"user_id":404,"name":"Searching...","steam_id":76561198191078771,"connected_time":3308000000000,"state":"active","ping":75},{"user_id":450,"name":"UltimateSlayer","steam_id":76561198384109309,"connected_time":807000000000,"state":"active","ping":58},{"user_id":445,"name":"peshay studio set 1996","steam_id":76561199026097466,"connected_time":1078000000000,"state":"active","ping":76},{"user_id":446,"name":"gnarly business","steam_id":76561198832688767,"connected_time":1021000000000,"state":"active","ping":51},{"user_id":448,"name":"Cryo","steam_id":76561198324132940,"connected_time":904000000000,"state":"active","ping":50},{"user_id":451,"name":"Pain in a Box","steam_id":76561197990777173,"connected_time":784000000000,"state":"active","ping":80},{"user_id":456,"name":"‚ú™ Danny","steam_id":76561198104483241,"connected_time":155000000000,"state":"active","ping":54},{"user_id":454,"name":"tosti_tower","steam_id":76561198153445364,"connected_time":513000000000,"state":"active","ping":68},{"user_id":410,"name":"Feelin' Supersonic","steam_id":76561198005738407,"connected_time":3177000000000,"state":"active","ping":95},{"user_id":447,"name":"Udinese Dion","steam_id":76561198067931573,"connected_time":1016000000000,"state":"active","ping":54},{"user_id":433,"name":"plaier123457","steam_id":76561198993969194,"connected_time":1994000000000,"state":"active","ping":97},{"user_id":364,"name":"Flare","steam_id":76561198039098320,"connected_time":5754000000000,"state":"active","ping":46},{"user_id":441,"name":"Rolprev","steam_id":76561198047275939,"connected_time":1416000000000,"state":"active","ping":74},{"user_id":452,"name":"GJ35","steam_id":76561198343812413,"connected_time":714000000000,"state":"active","ping":68},{"user_id":382,"name":"G/3","steam_id":76561198234844188,"connected_time":4376000000000,"state":"active","ping":53},{"user_id":443,"name":"Palex","steam_id":76561198093219465,"connected_time":1387000000000,"state":"active","ping":45},{"user_id":419,"name":"Z4p4d","steam_id":76561198011755675,"connected_time":2782000000000,"state":"active","ping":76},{"user_id":444,"name":"ufomaster1111111","steam_id":76561198837347666,"connected_time":1187000000000,"state":"active","ping":47},{"user_id":412,"name":"SPONGE","steam_id":76561198040933472,"connected_time":3043000000000,"state":"active","ping":68},{"user_id":435,"name":"Zerfesh","steam_id":76561198117534358,"connected_time":1804000000000,"state":"active","ping":92},{"user_id":455,"name":"estrogen deliver","steam_id":76561198190259726,"connected_time":257000000000,"state":"active","ping":86}]},{"server_id":22,"name":"Uncletopia | London | 6 | All Maps","name_short":"lon-6","host":"lon-1.uk.uncletopia.com","port":27065,"enabled":true,"region":"eu","cc":"gb","latitude":51.509865,"longitude":-0.118092,"reserved":0,"last_update":"0001-01-01T00:00:00Z","name_a2s":"Uncletopia | London | 6 | All Maps","protocol":17,"map":"pl_snowycoast","folder":"tf","game":"Team Fortress","app_id":440,"player_count":0,"max_players":24,"Bots":0,"server_type":"Dedicated","server_os":"Linux","password":true,"vac":true,"version":"7757534","steam_id":85568392924742830,"keywords":["nocrits","nodmgspread","payload","uncletopia"],"game_id":440,"stv_port":27066,"stv_name":"Uncletopia | London | 6 | All Maps | STV","players":null},{"server_id":40,"name":"Uncletopia | London | 7 | No Payload","name_short":"lon-7","host":"lon-1.uk.uncletopia.com","port":27075,"enabled":true,"region":"eu","cc":"gb","latitude":51.509865,"longitude":-0.118092,"reserved":0,"last_update":"0001-01-01T00:00:00Z","name_a2s":"Uncletopia | London | 7 | No Payload","protocol":17,"map":"pl_upward","folder":"tf","game":"Team Fortress","app_id":440,"player_count":0,"max_players":24,"Bots":0,"server_type":"Dedicated","server_os":"Linux","password":true,"vac":true,"version":"7757534","steam_id":85568392924964314,"keywords":["nocrits","nodmgspread","payload","uncletopia"],"game_id":440,"stv_port":27076,"stv_name":"Uncletopia | London | 7 | No Payload | STV","players":null},{"server_id":41,"name":"Uncletopia | London | 8 | Community","name_short":"lon-8","host":"lon-1.uk.uncletopia.com","port":27085,"enabled":true,"region":"eu","cc":"gb","latitude":51.509865,"longitude":-0.118092,"reserved":0,"last_update":"0001-01-01T00:00:00Z","name_a2s":"Uncletopia | London | 8 | Community","protocol":17,"map":"workshop/pl_vigil_rc9.ugc1266210012","folder":"tf","game":"Team Fortress","app_id":440,"player_count":0,"max_players":24,"Bots":0,"server_type":"Dedicated","server_os":"Linux","password":true,"vac":true,"version":"7757534","steam_id":85568392924964315,"keywords":["nocrits","nodmgspread","payload","uncletopia"],"game_id":440,"stv_port":27086,"stv_name":"Uncletopia | London | 8 | Community | STV","players":null},{"server_id":300,"name":"Uncletopia | Montr√©al | 1 | All Maps","name_short":"mtl-1","host":"mtl-1.ca.uncletopia.com","port":27015,"enabled":true,"region":"us-east","cc":"ca","latitude":45.50889,"longitude":-73.56167,"reserved":0,"last_update":"0001-01-01T00:00:00Z","name_a2s":"Uncletopia | Montr√©al | 1 | All Maps","protocol":17,"map":"koth_cascade","folder":"tf","game":"Team Fortress","app_id":440,"player_count":0,"max_players":24,"Bots":0,"server_type":"Dedicated","server_os":"Linux","password":true,"vac":true,"version":"7757534","steam_id":85568392924500087,"keywords":["cp","nocrits","nodmgspread","uncletopia"],"game_id":440,"stv_port":27016,"stv_name":"Uncletopia | Montr√©al | 1 | All Maps | STV","players":null},{"server_id":301,"name":"Uncletopia | Montr√©al | 2 | All Maps","name_short":"mtl-2","host":"mtl-1.ca.uncletopia.com","port":27025,"enabled":true,"region":"us-east","cc":"ca","latitude":45.50889,"longitude":-73.56167,"reserved":0,"last_update":"0001-01-01T00:00:00Z","name_a2s":"Uncletopia | Montr√©al | 2 | All Maps","protocol":17,"map":"pl_borneo","folder":"tf","game":"Team Fortress","app_id":440,"player_count":0,"max_players":24,"Bots":0,"server_type":"Dedicated","server_os":"Linux","password":true,"vac":true,"version":"7757534","steam_id":85568392924500088,"keywords":["nocrits","nodmgspread","payload","uncletopia"],"game_id":440,"stv_port":27026,"stv_name":"Uncletopia | Montr√©al | 2 | All Maps | STV","players":null},{"server_id":302,"name":"Uncletopia | Montr√©al | 3 | All Maps","name_short":"mtl-3","host":"mtl-1.ca.uncletopia.com","port":27035,"enabled":true,"region":"us-east","cc":"ca","latitude":45.50889,"longitude":-73.56167,"reserved":0,"last_update":"0001-01-01T00:00:00Z","name_a2s":"Uncletopia | Montr√©al | 3 | All Maps","protocol":17,"map":"cp_sunshine","folder":"tf","game":"Team Fortress","app_id":440,"player_count":0,"max_players":24,"Bots":0,"server_type":"Dedicated","server_os":"Linux","password":true,"vac":true,"version":"7757534","steam_id":85568392924500089,"keywords":["cp","nocrits","nodmgspread","uncletopia"],"game_id":440,"stv_port":27036,"stv_name":"Uncletopia | Montr√©al | 3 | All Maps | STV","players":null},{"server_id":303,"name":"Uncletopia | Montr√©al | 4 | No Payload","name_short":"mtl-4","host":"mtl-1.ca.uncletopia.com","port":27045,"enabled":true,"region":"us-east","cc":"ca","latitude":45.50889,"longitude":-73.56167,"reserved":0,"last_update":"0001-01-01T00:00:00Z","name_a2s":"Uncletopia | Montr√©al | 4 | No Payload","protocol":17,"map":"koth_lakeside_final","folder":"tf","game":"Team Fortress","app_id":440,"player_count":0,"max_players":24,"Bots":0,"server_type":"Dedicated","server_os":"Linux","password":true,"vac":true,"version":"7757534","steam_id":85568392924500090,"keywords":["cp","nocrits","nodmgspread","uncletopia"],"game_id":440,"stv_port":27046,"stv_name":"Uncletopia | Montr√©al | 4 | No Payload | STV","players":null},{"server_id":13,"name":"Uncletopia | New York City | 1 | All Maps","name_short":"nyc-1","host":"nyc-1.us.uncletopia.com","port":27015,"enabled":true,"region":"us-east","cc":"us","latitude":40.73061,"longitude":-73.93524,"reserved":0,"last_update":"0001-01-01T00:00:00Z","name_a2s":"Uncletopia | New York City | 1 | All Maps","protocol":17,"map":"pl_borneo","folder":"tf","game":"Team Fortress","app_id":440,"player_count":0,"max_players":24,"Bots":0,"server_type":"Dedicated","server_os":"Linux","password":true,"vac":true,"version":"7757534","steam_id":85568392924469993,"keywords":["nocrits","nodmgspread","payload","uncletopia"],"game_id":440,"stv_port":27016,"stv_name":"Uncletopia | New York City | 1 | All Maps | STV","players":null},{"server_id":14,"name":"Uncletopia | New York City | 2 | All Maps","name_short":"nyc-2","host":"nyc-1.us.uncletopia.com","port":27025,"enabled":true,"region":"us-east","cc":"us","latitude":40.73061,"longitude":-73.93524,"reserved":0,"last_update":"0001-01-01T00:00:00Z","name_a2s":"Uncletopia | New York City | 2 | All Maps","protocol":17,"map":"cp_mountainlab","folder":"tf","game":"Team Fortress","app_id":440,"player_count":0,"max_players":24,"Bots":0,"server_type":"Dedicated","server_os":"Linux","password":true,"vac":true,"version":"7757534","steam_id":85568392924469994,"keywords":["cp","nocrits","nodmgspread","uncletopia"],"game_id":440,"stv_port":27026,"stv_name":"Uncletopia | New York City | 2 | All Maps | STV","players":null},{"server_id":15,"name":"Uncletopia | New York City | 3 | Stopwatch Beta","name_short":"nyc-3","host":"nyc-1.us.uncletopia.com","port":27035,"enabled":true,"region":"us-east","cc":"us","latitude":40.73061,"longitude":-73.93524,"reserved":0,"last_update":"0001-01-01T00:00:00Z","name_a2s":"Uncletopia | New York City | 3 | Stopwatch Beta","protocol":17,"map":"koth_lakeside_final","folder":"tf","game":"Team Fortress","app_id":440,"player_count":0,"max_players":24,"Bots":0,"server_type":"Dedicated","server_os":"Linux","password":true,"vac":true,"version":"7757534","steam_id":85568392924742820,"keywords":["cp","nocrits","nodmgspread","uncletopia"],"game_id":440,"stv_port":27036,"stv_name":"Uncletopia | New York City | 3 | Stopwatch Beta | STV","players":null},{"server_id":16,"name":"Uncletopia | New York City | 4 | Community","name_short":"nyc-4","host":"nyc-1.us.uncletopia.com","port":27045,"enabled":true,"region":"us-east","cc":"us","latitude":40.73061,"longitude":-73.93524,"reserved":0,"last_update":"0001-01-01T00:00:00Z","name_a2s":"Uncletopia | New York City | 4 | Community","protocol":17,"map":"pl_borneo","folder":"tf","game":"Team Fortress","app_id":440,"player_count":0,"max_players":24,"Bots":0,"server_type":"Dedicated","server_os":"Linux","password":true,"vac":true,"version":"7757534","steam_id":85568392924742821,"keywords":["nocrits","nodmgspread","payload","uncletopia"],"game_id":440,"stv_port":27046,"stv_name":"Uncletopia | New York City | 4 | Community | STV","players":null},{"server_id":142,"name":"Uncletopia | S√£o Paulo | 1 | All Maps","name_short":"sao-1","host":"sao-1.br.uncletopia.com","port":27015,"enabled":true,"region":"sa","cc":"br","latitude":-23.533773,"longitude":-46.62529,"reserved":0,"last_update":"0001-01-01T00:00:00Z","name_a2s":"Uncletopia | S√£o Paulo | 1 | All Maps","protocol":17,"map":"pl_snowycoast","folder":"tf","game":"Team Fortress","app_id":440,"player_count":17,"max_players":24,"Bots":0,"server_type":"Dedicated","server_os":"Linux","password":true,"vac":true,"version":"7757534","steam_id":85568392924469996,"keywords":["nocrits","nodmgspread","payload","uncletopia"],"game_id":440,"stv_port":27016,"stv_name":"Uncletopia | S√£o Paulo | 1 | All Maps | STV","players":[{"user_id":3,"name":"daisy","steam_id":76561198801487875,"connected_time":1654000000000,"state":"active","ping":59},{"user_id":4,"name":"ghile","steam_id":76561198154367370,"connected_time":1634000000000,"state":"active","ping":60},{"user_id":6,"name":"olhoduro","steam_id":76561198172428219,"connected_time":1555000000000,"state":"active","ping":55},{"user_id":8,"name":"thiago","steam_id":76561198218914455,"connected_time":1548000000000,"state":"active","ping":44},{"user_id":9,"name":"Mealy","steam_id":76561198120438379,"connected_time":1545000000000,"state":"active","ping":55},{"user_id":15,"name":"NivE","steam_id":76561198247922848,"connected_time":1392000000000,"state":"active","ping":80},{"user_id":11,"name":"crayzzer","steam_id":76561198371255728,"connected_time":1499000000000,"state":"active","ping":48},{"user_id":24,"name":"RodigroW","steam_id":76561198096317483,"connected_time":665000000000,"state":"active","ping":59},{"user_id":13,"name":"Bytter","steam_id":76561198318968990,"connected_time":1492000000000,"state":"active","ping":55},{"user_id":19,"name":"raw","steam_id":76561199067810791,"connected_time":1045000000000,"state":"active","ping":45},{"user_id":20,"name":"Escarios","steam_id":76561198118017809,"connected_time":1028000000000,"state":"active","ping":84},{"user_id":18,"name":"pipa maneira","steam_id":76561198170394914,"connected_time":1120000000000,"state":"active","ping":54},{"user_id":30,"name":"Liniker","steam_id":76561198948736406,"connected_time":472000000000,"state":"active","ping":49},{"user_id":23,"name":"zelancerzelancerzelancerzelance","steam_id":76561198432077087,"connected_time":679000000000,"state":"active","ping":51},{"user_id":25,"name":"GM","steam_id":76561199227647684,"connected_time":630000000000,"state":"active","ping":46},{"user_id":31,"name":"ex presidiario","steam_id":76561198822971925,"connected_time":456000000000,"state":"active","ping":46},{"user_id":33,"name":"BREAD","steam_id":76561199170496310,"connected_time":63000000000,"state":"active","ping":183}]},{"server_id":143,"name":"Uncletopia | S√£o Paulo | 2 | All Maps","name_short":"sao-2","host":"sao-2.br.uncletopia.com","port":27015,"enabled":true,"region":"sa","cc":"br","latitude":-23.533773,"longitude":-46.62529,"reserved":0,"last_update":"0001-01-01T00:00:00Z","name_a2s":"Uncletopia | S√£o Paulo | 2 | All Maps","protocol":17,"map":"cp_mountainlab","folder":"tf","game":"Team Fortress","app_id":440,"player_count":6,"max_players":24,"Bots":0,"server_type":"Dedicated","server_os":"Linux","password":true,"vac":true,"version":"7757534","steam_id":85568392924485349,"keywords":["cp","nocrits","nodmgspread","uncletopia"],"game_id":440,"stv_port":27016,"stv_name":"Uncletopia | S√£o Paulo | 2 | All Maps | STV","players":[{"user_id":33,"name":"please dont uber me","steam_id":76561199258606361,"connected_time":520000000000,"state":"active","ping":40},{"user_id":34,"name":"Erro Dimensional","steam_id":76561199011242952,"connected_time":262000000000,"state":"active","ping":33},{"user_id":12,"name":"gbrl73828","steam_id":76561198964660090,"connected_time":2855000000000,"state":"active","ping":31},{"user_id":35,"name":"pee man","steam_id":76561199243684443,"connected_time":173000000000,"state":"active","ping":80},{"user_id":17,"name":"LaMira","steam_id":76561198965538287,"connected_time":2669000000000,"state":"active","ping":46},{"user_id":21,"name":"jr_rusty","steam_id":76561198313937899,"connected_time":2403000000000,"state":"active","ping":44}]},{"server_id":7,"name":"Uncletopia | Seattle | 1 | All Maps","name_short":"sea-1","host":"sea-1.us.uncletopia.com","port":27015,"enabled":true,"region":"us-west","cc":"us","latitude":47.608013,"longitude":-122.33517,"reserved":0,"last_update":"0001-01-01T00:00:00Z","name_a2s":"Uncletopia | Seattle | 1 | All Maps","protocol":17,"map":"pl_frontier_final","folder":"tf","game":"Team Fortress","app_id":440,"player_count":7,"max_players":24,"Bots":0,"server_type":"Dedicated","server_os":"Linux","password":true,"vac":true,"version":"7757534","steam_id":85568392924469997,"keywords":["nocrits","nodmgspread","payload","uncletopia"],"game_id":440,"stv_port":27016,"stv_name":"Uncletopia | Seattle | 1 | All Maps | STV","players":[{"user_id":25,"name":"FaultierHeart11","steam_id":76561199447172677,"connected_time":877000000000,"state":"active","ping":99},{"user_id":26,"name":"Patio","steam_id":76561197986082608,"connected_time":604000000000,"state":"active","ping":54},{"user_id":9,"name":"Kopenich","steam_id":76561198066205245,"connected_time":2924000000000,"state":"active","ping":83},{"user_id":27,"name":"DerangedHorse","steam_id":76561198447659922,"connected_time":434000000000,"state":"active","ping":290},{"user_id":20,"name":"Lilac Lulamoon","steam_id":76561198111402757,"connected_time":1625000000000,"state":"active","ping":105},{"user_id":16,"name":"magicbeetle","steam_id":76561199160422863,"connected_time":2271000000000,"state":"active","ping":174},{"user_id":24,"name":"Wigion1","steam_id":76561198899108901,"connected_time":1102000000000,"state":"active","ping":165}]},{"server_id":119,"name":"Uncletopia | Seattle | 2 | All Maps","name_short":"sea-2","host":"sea-1.us.uncletopia.com","port":27025,"enabled":true,"region":"us-west","cc":"us","latitude":47.608013,"longitude":-122.33517,"reserved":0,"last_update":"0001-01-01T00:00:00Z","name_a2s":"Uncletopia | Seattle | 2 | All Maps","protocol":17,"map":"cp_process_final","folder":"tf","game":"Team Fortress","app_id":440,"player_count":0,"max_players":24,"Bots":0,"server_type":"Dedicated","server_os":"Linux","password":true,"vac":true,"version":"7757534","steam_id":85568392924469998,"keywords":["cp","nocrits","nodmgspread","uncletopia"],"game_id":440,"stv_port":27026,"stv_name":"Uncletopia | Seattle | 2 | All Maps | STV","players":null},{"server_id":406,"name":"Uncletopia | Seattle | 3 | Stopwatch Beta","name_short":"sea-3","host":"sea-1.us.uncletopia.com","port":27035,"enabled":true,"region":"us-west","cc":"us","latitude":47.608013,"longitude":-122.33517,"reserved":0,"last_update":"0001-01-01T00:00:00Z","name_a2s":"Uncletopia | Seattle | 3 | Stopwatch Beta","protocol":17,"map":"cp_sunshine","folder":"tf","game":"Team Fortress","app_id":440,"player_count":0,"max_players":24,"Bots":0,"server_type":"Dedicated","server_os":"Linux","password":true,"vac":true,"version":"7757534","steam_id":85568392924515217,"keywords":["cp","nocrits","nodmgspread","uncletopia"],"game_id":440,"stv_port":27036,"stv_name":"Uncletopia | Seattle | 3 | Stopwatch Beta | STV","players":null},{"server_id":17,"name":"Uncletopia | San Francisco | 1 | All Maps","name_short":"sfo-1","host":"sfo-1.us.uncletopia.com","port":27015,"enabled":true,"region":"us-west","cc":"us","latitude":37.77397,"longitude":-122.4313,"reserved":0,"last_update":"0001-01-01T00:00:00Z","name_a2s":"Uncletopia | San Francisco | 1 | All Maps","protocol":17,"map":"pl_pier","folder":"tf","game":"Team Fortress","app_id":440,"player_count":0,"max_players":24,"Bots":0,"server_type":"Dedicated","server_os":"Linux","password":true,"vac":true,"version":"7757534","steam_id":85568392924469999,"keywords":["nocrits","nodmgspread","payload","uncletopia"],"game_id":440,"stv_port":27016,"stv_name":"Uncletopia | San Francisco | 1 | All Maps | STV","players":null},{"server_id":18,"name":"Uncletopia | San Francisco | 2 | All Maps","name_short":"sfo-2","host":"sfo-1.us.uncletopia.com","port":27025,"enabled":true,"region":"us-west","cc":"us","latitude":37.77397,"longitude":-122.4313,"reserved":0,"last_update":"0001-01-01T00:00:00Z","name_a2s":"Uncletopia | San Francisco | 2 | All Maps","protocol":17,"map":"cp_mountainlab","folder":"tf","game":"Team Fortress","app_id":440,"player_count":0,"max_players":24,"Bots":0,"server_type":"Dedicated","server_os":"Linux","password":true,"vac":true,"version":"7757534","steam_id":85568392924470000,"keywords":["cp","nocrits","nodmgspread","uncletopia"],"game_id":440,"stv_port":27026,"stv_name":"Uncletopia | San Francisco | 2 | All Maps | STV","players":null},{"server_id":19,"name":"Uncletopia | San Francisco | 3 | Stopwatch Beta","name_short":"sfo-3","host":"sfo-1.us.uncletopia.com","port":27035,"enabled":true,"region":"us-west","cc":"us","latitude":37.77397,"longitude":-122.4313,"reserved":0,"last_update":"0001-01-01T00:00:00Z","name_a2s":"Uncletopia | San Francisco | 3 | Stopwatch Beta","protocol":17,"map":"koth_viaduct","folder":"tf","game":"Team Fortress","app_id":440,"player_count":0,"max_players":24,"Bots":0,"server_type":"Dedicated","server_os":"Linux","password":true,"vac":true,"version":"7757534","steam_id":85568392924742824,"keywords":["cp","nocrits","nodmgspread","uncletopia"],"game_id":440,"stv_port":27036,"stv_name":"Uncletopia | San Francisco | 3 | Stopwatch Beta | STV","players":null},{"server_id":20,"name":"Uncletopia | San Francisco | 4 | Community","name_short":"sfo-4","host":"sfo-1.us.uncletopia.com","port":27045,"enabled":true,"region":"us-west","cc":"us","latitude":37.77397,"longitude":-122.4313,"reserved":0,"last_update":"0001-01-01T00:00:00Z","name_a2s":"Uncletopia | San Francisco | 4 | Community","protocol":17,"map":"pl_borneo","folder":"tf","game":"Team Fortress","app_id":440,"player_count":0,"max_players":24,"Bots":0,"server_type":"Dedicated","server_os":"Linux","password":true,"vac":true,"version":"7757534","steam_id":85568392924742826,"keywords":["nocrits","nodmgspread","payload","uncletopia"],"game_id":440,"stv_port":27046,"stv_name":"Uncletopia | San Francisco | 4 | Community | STV","players":null},{"server_id":141,"name":"Uncletopia | Sydney | 1 | All Maps","name_short":"syd-1","host":"syd-1.au.uncletopia.com","port":27015,"enabled":true,"region":"au","cc":"au","latitude":-33.865143,"longitude":151.2099,"reserved":0,"last_update":"0001-01-01T00:00:00Z","name_a2s":"Uncletopia | Sydney | 1 | All Maps","protocol":17,"map":"cp_dustbowl","folder":"tf","game":"Team Fortress","app_id":440,"player_count":0,"max_players":24,"Bots":0,"server_type":"Dedicated","server_os":"Linux","password":true,"vac":true,"version":"7757534","steam_id":85568392924470001,"keywords":["cp","nocrits","nodmgspread","uncletopia"],"game_id":440,"stv_port":27016,"stv_name":"Uncletopia | Sydney | 1 | All Maps | STV","players":null},{"server_id":123,"name":"Uncletopia | Sydney | 2 | All Maps","name_short":"syd-2","host":"syd-1.au.uncletopia.com","port":27025,"enabled":true,"region":"au","cc":"au","latitude":-33.865143,"longitude":151.2099,"reserved":0,"last_update":"0001-01-01T00:00:00Z","name_a2s":"Uncletopia | Sydney | 2 | All Maps","protocol":17,"map":"pl_upward","folder":"tf","game":"Team Fortress","app_id":440,"player_count":13,"max_players":24,"Bots":0,"server_type":"Dedicated","server_os":"Linux","password":true,"vac":true,"version":"7757534","steam_id":85568392924470002,"keywords":["nocrits","nodmgspread","payload","uncletopia"],"game_id":440,"stv_port":27026,"stv_name":"Uncletopia | Sydney | 2 | All Maps | STV","players":[{"user_id":368,"name":"Soru","steam_id":76561198010844786,"connected_time":5480000000000,"state":"active","ping":65},{"user_id":430,"name":"MeatBag","steam_id":76561198010204565,"connected_time":52000000000,"state":"active","ping":270},{"user_id":403,"name":"Head empt, no thought","steam_id":76561199146076607,"connected_time":2402000000000,"state":"active","ping":100},{"user_id":402,"name":"LightningBlock","steam_id":76561198289997742,"connected_time":2434000000000,"state":"active","ping":42},{"user_id":419,"name":"pecunia","steam_id":76561198334403232,"connected_time":1202000000000,"state":"active","ping":50},{"user_id":400,"name":"Doctor Estonia","steam_id":76561198057365089,"connected_time":2435000000000,"state":"active","ping":72},{"user_id":318,"name":"Hardcase","steam_id":76561198124442611,"connected_time":9077000000000,"state":"active","ping":78},{"user_id":394,"name":"The Cake Is A Pie","steam_id":76561198043068402,"connected_time":3828000000000,"state":"active","ping":81},{"user_id":375,"name":"covenofbats","steam_id":76561198152117315,"connected_time":4817000000000,"state":"active","ping":39},{"user_id":422,"name":"Various Horses {GaS}","steam_id":76561198046406081,"connected_time":949000000000,"state":"active","ping":40},{"user_id":378,"name":"Hooray!","steam_id":76561198066726621,"connected_time":4587000000000,"state":"active","ping":45},{"user_id":401,"name":"calm","steam_id":76561198079512004,"connected_time":2435000000000,"state":"active","ping":59},{"user_id":379,"name":"and Rotate","steam_id":76561198102362578,"connected_time":4568000000000,"state":"active","ping":85}]},{"server_id":395,"name":"Uncletopia | Sydney | 3 | All Maps","name_short":"syd-3","host":"syd-1.au.uncletopia.com","port":27035,"enabled":true,"region":"au","cc":"au","latitude":-33.865143,"longitude":151.2099,"reserved":0,"last_update":"0001-01-01T00:00:00Z","name_a2s":"Uncletopia | Sydney | 3 | All Maps","protocol":17,"map":"koth_cascade","folder":"tf","game":"Team Fortress","app_id":440,"player_count":0,"max_players":24,"Bots":0,"server_type":"Dedicated","server_os":"Linux","password":true,"vac":true,"version":"7757534","steam_id":85568392925194467,"keywords":["cp","nocrits","nodmgspread","uncletopia"],"game_id":440,"stv_port":27036,"stv_name":"Uncletopia | Sydney | 3 | All Maps | STV","players":null},{"server_id":396,"name":"Uncletopia | Sydney | 4 | All Maps","name_short":"syd-4","host":"syd-1.au.uncletopia.com","port":27045,"enabled":true,"region":"au","cc":"au","latitude":-33.865143,"longitude":151.2099,"reserved":0,"last_update":"0001-01-01T00:00:00Z","name_a2s":"Uncletopia | Sydney | 4 | All Maps","protocol":17,"map":"koth_cascade","folder":"tf","game":"Team Fortress","app_id":440,"player_count":0,"max_players":24,"Bots":0,"server_type":"Dedicated","server_os":"Linux","password":true,"vac":true,"version":"7757534","steam_id":85568392925397958,"keywords":["cp","nocrits","nodmgspread","uncletopia"],"game_id":440,"stv_port":27046,"stv_name":"Uncletopia | Sydney | 4 | All Maps | STV","players":null},{"server_id":58,"name":"Uncletopia | Sydney | 5 | Stopwatch Beta","name_short":"syd-5","host":"syd-1.au.uncletopia.com","port":27055,"enabled":true,"region":"au","cc":"au","latitude":-33.865143,"longitude":151.2099,"reserved":0,"last_update":"0001-01-01T00:00:00Z","name_a2s":"Uncletopia | Sydney | 5 | Stopwatch Beta","protocol":17,"map":"pl_barnblitz","folder":"tf","game":"Team Fortress","app_id":440,"player_count":0,"max_players":24,"Bots":0,"server_type":"Dedicated","server_os":"Linux","password":true,"vac":true,"version":"7757534","steam_id":85568392925397959,"keywords":["nocrits","nodmgspread","payload","uncletopia"],"game_id":440,"stv_port":27056,"stv_name":"Uncletopia | Sydney | 5 | Stopwatch Beta | STV","players":null},{"server_id":59,"name":"Uncletopia | Sydney | 6 | Community","name_short":"syd-6","host":"syd-1.au.uncletopia.com","port":27065,"enabled":true,"region":"au","cc":"au","latitude":-33.865143,"longitude":151.2099,"reserved":0,"last_update":"0001-01-01T00:00:00Z","name_a2s":"Uncletopia | Sydney | 6 | Community","protocol":17,"map":"workshop/koth_ramjam_rc1.ugc459778887","folder":"tf","game":"Team Fortress","app_id":440,"player_count":0,"max_players":24,"Bots":0,"server_type":"Dedicated","server_os":"Linux","password":true,"vac":true,"version":"7757534","steam_id":85568392925397960,"keywords":["cp","nocrits","nodmgspread","uncletopia"],"game_id":440,"stv_port":27066,"stv_name":"Uncletopia | Sydney | 6 | Community | STV","players":null},{"server_id":49,"name":"Uncletopia | Warsaw | 1 | All Maps","name_short":"waw-1","host":"waw-1.pl.uncletopia.com","port":27015,"enabled":true,"region":"eu","cc":"pl","latitude":52.2297,"longitude":21.017532,"reserved":0,"last_update":"0001-01-01T00:00:00Z","name_a2s":"","protocol":0,"map":"","folder":"","game":"","app_id":0,"player_count":0,"max_players":0,"Bots":0,"server_type":"","server_os":"","password":false,"vac":false,"version":"","steam_id":0,"keywords":null,"game_id":0,"stv_port":0,"stv_name":"","players":null},{"server_id":50,"name":"Uncletopia | Warsaw | 2 | All Maps","name_short":"waw-2","host":"waw-1.pl.uncletopia.com","port":27025,"enabled":true,"region":"eu","cc":"pl","latitude":52.2297,"longitude":21.017532,"reserved":0,"last_update":"0001-01-01T00:00:00Z","name_a2s":"Uncletopia | Warsaw | 2 | All Maps","protocol":17,"map":"cp_snakewater_final1","folder":"tf","game":"Team Fortress","app_id":440,"player_count":0,"max_players":24,"Bots":0,"server_type":"Dedicated","server_os":"Linux","password":true,"vac":true,"version":"7757534","steam_id":85568392925397851,"keywords":["cp","nocrits","nodmgspread","uncletopia"],"game_id":440,"stv_port":27026,"stv_name":"Uncletopia | Warsaw | 2 | All Maps | STV","players":null},{"server_id":51,"name":"Uncletopia | Warsaw | 3 | All Maps","name_short":"waw-3","host":"waw-1.pl.uncletopia.com","port":27035,"enabled":true,"region":"eu","cc":"pl","latitude":52.2297,"longitude":21.017532,"reserved":0,"last_update":"0001-01-01T00:00:00Z","name_a2s":"Uncletopia | Warsaw | 3 | All Maps","protocol":17,"map":"cp_process_final","folder":"tf","game":"Team Fortress","app_id":440,"player_count":18,"max_players":24,"Bots":0,"server_type":"Dedicated","server_os":"Linux","password":true,"vac":true,"version":"7757534","steam_id":85568392925397852,"keywords":["cp","nocrits","nodmgspread","uncletopia"],"game_id":440,"stv_port":27036,"stv_name":"Uncletopia | Warsaw | 3 | All Maps | STV","players":[{"user_id":233,"name":"Gordon Ramsay","steam_id":76561198123893900,"connected_time":461000000000,"state":"active","ping":180},{"user_id":221,"name":"LuckyStar","steam_id":76561198126840092,"connected_time":1234000000000,"state":"active","ping":115},{"user_id":82,"name":"poliakov.noam","steam_id":76561199259322961,"connected_time":11749000000000,"state":"active","ping":174},{"user_id":223,"name":"The Command Prompt","steam_id":76561198154677956,"connected_time":1177000000000,"state":"active","ping":81},{"user_id":217,"name":"Aimbob","steam_id":76561198276682591,"connected_time":1333000000000,"state":"active","ping":31},{"user_id":197,"name":"Ninkazai Learning stick","steam_id":76561198297107931,"connected_time":3267000000000,"state":"active","ping":54},{"user_id":222,"name":"Lopata","steam_id":76561198820264239,"connected_time":1227000000000,"state":"active","ping":61},{"user_id":202,"name":"Ruhappy9","steam_id":76561198109420850,"connected_time":3110000000000,"state":"active","ping":86},{"user_id":236,"name":"Castle of Glass","steam_id":76561198312517562,"connected_time":106000000000,"state":"spawning","ping":72},{"user_id":226,"name":"/hm/","steam_id":76561199213268288,"connected_time":1120000000000,"state":"active","ping":60},{"user_id":227,"name":"Sam","steam_id":76561199348730108,"connected_time":1096000000000,"state":"active","ping":101},{"user_id":232,"name":"Fat Pigeon","steam_id":76561198817940142,"connected_time":716000000000,"state":"active","ping":60},{"user_id":234,"name":"Dextro","steam_id":76561198349648942,"connected_time":372000000000,"state":"active","ping":91},{"user_id":211,"name":"Autonomous movement","steam_id":76561198087800030,"connected_time":2401000000000,"state":"active","ping":69},{"user_id":179,"name":"GameEndAllBrits","steam_id":76561198170733921,"connected_time":4664000000000,"state":"active","ping":81},{"user_id":212,"name":"–¢–æ—Ä—á","steam_id":76561198213991196,"connected_time":2141000000000,"state":"active","ping":92},{"user_id":230,"name":"Jay.k","steam_id":76561198079387590,"connected_time":1025000000000,"state":"active","ping":88},{"user_id":209,"name":"Crab","steam_id":76561198366797226,"connected_time":2676000000000,"state":"active","ping":68}]},{"server_id":52,"name":"Uncletopia | Warsaw | 4 | All Maps","name_short":"waw-4","host":"waw-1.pl.uncletopia.com","port":27045,"enabled":true,"region":"eu","cc":"pl","latitude":52.2297,"longitude":21.017532,"reserved":0,"last_update":"0001-01-01T00:00:00Z","name_a2s":"Uncletopia | Warsaw | 4 | All Maps","protocol":17,"map":"koth_lakeside_final","folder":"tf","game":"Team Fortress","app_id":440,"player_count":1,"max_players":24,"Bots":0,"server_type":"Dedicated","server_os":"Linux","password":true,"vac":true,"version":"7757534","steam_id":85568392925397853,"keywords":["cp","nocrits","nodmgspread","uncletopia"],"game_id":440,"stv_port":27046,"stv_name":"Uncletopia | Warsaw | 4 | All Maps | STV","players":[{"user_id":4,"name":"Denialman (Muted)","steam_id":76561198309182092,"connected_time":70000000000,"state":"active","ping":85}]},{"server_id":53,"name":"Uncletopia | Warsaw | 5 | Stopwatch Beta","name_short":"waw-5","host":"waw-1.pl.uncletopia.com","port":27055,"enabled":true,"region":"eu","cc":"pl","latitude":52.2297,"longitude":21.017532,"reserved":0,"last_update":"0001-01-01T00:00:00Z","name_a2s":"Uncletopia | Warsaw | 5 | Stopwatch Beta","protocol":17,"map":"pl_upward","folder":"tf","game":"Team Fortress","app_id":440,"player_count":0,"max_players":24,"Bots":0,"server_type":"Dedicated","server_os":"Linux","password":true,"vac":true,"version":"7757534","steam_id":85568392925397854,"keywords":["nocrits","nodmgspread","payload","uncletopia"],"game_id":440,"stv_port":27056,"stv_name":"Uncletopia | Warsaw | 5 | Stopwatch Beta | STV","players":null},{"server_id":54,"name":"Uncletopia | Warsaw | 6 | Community","name_short":"waw-6","host":"waw-1.pl.uncletopia.com","port":27065,"enabled":true,"region":"eu","cc":"pl","latitude":52.2297,"longitude":21.017532,"reserved":0,"last_update":"0001-01-01T00:00:00Z","name_a2s":"Uncletopia | Warsaw | 6 | Community","protocol":17,"map":"pl_barnblitz","folder":"tf","game":"Team Fortress","app_id":440,"player_count":0,"max_players":24,"Bots":0,"server_type":"Dedicated","server_os":"Linux","password":true,"vac":true,"version":"7757534","steam_id":85568392925397856,"keywords":["nocrits","nodmgspread","payload","uncletopia"],"game_id":440,"stv_port":27066,"stv_name":"Uncletopia | Warsaw | 6 | Community | STV","players":null}]}