{"status":true,"message":"","result":[{"server_id":9,"name":"Uncletopia | Atlanta | 1 | All Maps","name_short":"atl-1","host":"atl-1.us.uncletopia.com","port":27015,"enabled":true,"region":"us-east","cc":"us","latitude":33.753746,"longitude":-84.38633,"reserved":0,"last_update":"0001-01-01T00:00:00Z","name_a2s":"Uncletopia | Atlanta | 1 | All Maps","protocol":17,"map":"cp_snakewater_final1","folder":"tf","game":"Team Fortress","app_id":440,"player_count":0,"max_players":24,"Bots":0,"server_type":"Dedicated","server_os":"Linux","password":false,"vac":true,"version":"7961495","steam_id":85568392924469982,"keywords":["cp","nocrits","nodmgspread","uncletopia"],"game_id":440,"stv_port":27016,"stv_name":"Uncletopia | Atlanta | 1 | All Maps | STV","players":null},{"server_id":104,"name":"Uncletopia | Atlanta | 2 | All Maps","name_short":"atl-2","host":"atl-1.us.uncletopia.com","port":27025,"enabled":true,"region":"us-east","cc":"us","latitude":33.753746,"longitude":-84.38633,"reserved":0,"last_update":"0001-01-01T00:00:00Z","name_a2s":"Uncletopia | Atlanta | 2 | All Maps","protocol":17,"map":"cp_mountainlab","folder":"tf","game":"Team Fortress","app_id":440,"player_count":0,"max_players":24,"Bots":0,"server_type":"Dedicated","server_os":"Linux","password":false,"vac":true,"version":"7961495","steam_id":85568392924469983,"keywords":["cp","nocrits","nodmgspread","uncletopia"],"game_id":440,"stv_port":27026,"stv_name":"Uncletopia | Atlanta | 2 | All Maps | STV","players":null},{"server_id":400,"name":"Uncletopia | Atlanta | 3 | All Maps","name_short":"atl-3","host":"atl-1.us.uncletopia.com","port":27035,"enabled":true,"region":"us-east","cc":"us","latitude":33.753746,"longitude":-84.38633,"reserved":0,"last_update":"0001-01-01T00:00:00Z","name_a2s":"Uncletopia | Atlanta | 3 | All Maps","protocol":17,"map":"cp_process_final","folder":"tf","game":"Team Fortress","app_id":440,"player_count":0,"max_players":24,"Bots":0,"server_type":"Dedicated","server_os":"Linux","password":false,"vac":true,"version":"7961495","steam_id":85568392924515187,"keywords":["cp","nocrits","nodmgspread","uncletopia"],"game_id":440,"stv_port":27036,"stv_name":"Uncletopia | Atlanta | 3 | All Maps | STV","players":null},{"server_id":401,"name":"Uncletopia | Atlanta | 4 | Community","name_short":"atl-4","host":"atl-1.us.uncletopia.com","port":27045,"enabled":true,"region":"us-east","cc":"us","latitude":33.753746,"longitude":-84.38633,"reserved":0,"last_update":"0001-01-01T00:00:00Z","name_a2s":"Uncletopia | Atlanta | 4 | Community","protocol":17,"map":"koth_lakeside_final","folder":"tf","game":"Team Fortress","app_id":440,"player_count":0,"max_players":24,"Bots":0,"server_type":"Dedicated","server_os":"Linux","password":false,"vac":true,"version":"7961495","steam_id":85568392924515188,"keywords":["cp","nocrits","nodmgspread","uncletopia"],"game_id":440,"stv_port":27046,"stv_name":"Uncletopia | Atlanta | 4 | Community | STV","players":null},{"server_id":2,"name":"Uncletopia | Chicago | 1 | All Maps","name_short":"chi-1","host":"chi-1.us.uncletopia.com","port":27015,"enabled":true,"region":"us-central","cc":"us","latitude":41.881832,"longitude":-87.62318,"reserved":0,"last_update":"0001-01-01T00:00:00Z","name_a2s":"Uncletopia | Chicago | 1 | All Maps","protocol":17,"map":"pl_upward","folder":"tf","game":"Team Fortress","app_id":440,"player_count":24,"max_players":24,"Bots":0,"server_type":"Dedicated","server_os":"Linux","password":true,"vac":true,"version":"7961495","steam_id":85568392924469984,"keywords":["nocrits","nodmgspread","payload","uncletopia"],"game_id":440,"stv_port":27016,"stv_name":"Uncletopia | Chicago | 1 | All Maps | STV","players":[{"user_id":59,"name":"Maverick","steam_id":76561198322829814,"connected_time":9447000000000,"state":"active","ping":79},{"user_id":195,"name":"GAMEGAMING","steam_id":76561199222119901,"connected_time":196000000000,"state":"active","ping":99},{"user_id":180,"name":"fruitpunch","steam_id":76561198156516161,"connected_time":810000000000,"state":"active","ping":74},{"user_id":149,"name":"MikeLovesRabbit","steam_id":76561197997742625,"connected_time":2879000000000,"state":"active","ping":63},{"user_id":194,"name":"Jonah Hill from 21 Jump Street","steam_id":76561198811130843,"connected_time":228000000000,"state":"active","ping":75},{"user_id":103,"name":"Obelisk","steam_id":76561198049416866,"connected_time":6915000000000,"state":"active","ping":77},{"user_id":169,"name":"Flippin Egg","steam_id":76561198056382822,"connected_time":1543000000000,"state":"active","ping":63},{"user_id":192,"name":"Teddy","steam_id":76561198048106221,"connected_time":344000000000,"state":"active","ping":90},{"user_id":154,"name":"Somebodyp36","steam_id":76561198850961948,"connected_time":2315000000000,"state":"active","ping":75},{"user_id":176,"name":"Laventhey","steam_id":76561198977523626,"connected_time":1171000000000,"state":"active","ping":70},{"user_id":196,"name":"_hoschi","steam_id":76561197960386570,"connected_time":194000000000,"state":"active","ping":150},{"user_id":155,"name":"Toblerone","steam_id":76561198057374871,"connected_time":2306000000000,"state":"active","ping":60},{"user_id":181,"name":"maS","steam_id":76561198033846407,"connected_time":807000000000,"state":"active","ping":50},{"user_id":197,"name":"Jango","steam_id":76561198084589742,"connected_time":119000000000,"state":"active","ping":79},{"user_id":175,"name":"D3C0y","steam_id":76561197961194579,"connected_time":1216000000000,"state":"active","ping":84},{"user_id":150,"name":"Bunt","steam_id":76561198124477567,"connected_time":2747000000000,"state":"active","ping":66},{"user_id":185,"name":"Bear Force One","steam_id":76561198067994868,"connected_time":766000000000,"state":"active","ping":68},{"user_id":183,"name":"The Wave","steam_id":76561198268225109,"connected_time":801000000000,"state":"active","ping":87},{"user_id":184,"name":"The Hoagie Hero","steam_id":76561198057569298,"connected_time":797000000000,"state":"active","ping":80},{"user_id":171,"name":"Lia_Rein","steam_id":76561198151569597,"connected_time":1428000000000,"state":"active","ping":147},{"user_id":186,"name":"Festive Panda","steam_id":76561198025758017,"connected_time":755000000000,"state":"active","ping":57},{"user_id":187,"name":"Banks","steam_id":76561198276505537,"connected_time":701000000000,"state":"active","ping":74},{"user_id":189,"name":"meowfang","steam_id":76561198123056791,"connected_time":512000000000,"state":"active","ping":72},{"user_id":168,"name":"earl muck","steam_id":76561198057086233,"connected_time":1569000000000,"state":"active","ping":87}]},{"server_id":106,"name":"Uncletopia | Chicago | 2 | All Maps","name_short":"chi-2","host":"chi-1.us.uncletopia.com","port":27025,"enabled":true,"region":"us-central","cc":"us","latitude":41.881832,"longitude":-87.62318,"reserved":0,"last_update":"0001-01-01T00:00:00Z","name_a2s":"Uncletopia | Chicago | 2 | All Maps","protocol":17,"map":"cp_steel","folder":"tf","game":"Team Fortress","app_id":440,"player_count":24,"max_players":24,"Bots":0,"server_type":"Dedicated","server_os":"Linux","password":true,"vac":true,"version":"7961495","steam_id":85568392924469985,"keywords":["cp","nocrits","nodmgspread","uncletopia"],"game_id":440,"stv_port":27026,"stv_name":"Uncletopia | Chicago | 2 | All Maps | STV","players":[{"user_id":335,"name":"你好","steam_id":76561198873043242,"connected_time":980000000000,"state":"active","ping":146},{"user_id":253,"name":"Mr. Cheesey","steam_id":76561198153462183,"connected_time":6763000000000,"state":"active","ping":70},{"user_id":279,"name":"[NAME-REDACTED]","steam_id":76561198035682975,"connected_time":5965000000000,"state":"active","ping":65},{"user_id":332,"name":"Clean Lines","steam_id":76561197960691518,"connected_time":1394000000000,"state":"active","ping":53},{"user_id":330,"name":"Owl Daddy","steam_id":76561198006250352,"connected_time":1425000000000,"state":"active","ping":61},{"user_id":337,"name":"Ghoulenoir","steam_id":76561198074314573,"connected_time":910000000000,"state":"active","ping":54},{"user_id":326,"name":"Kindagoodplayer","steam_id":76561198814625843,"connected_time":1692000000000,"state":"active","ping":80},{"user_id":323,"name":"berserker_tf2 yt","steam_id":76561198303464488,"connected_time":1838000000000,"state":"active","ping":60},{"user_id":327,"name":"KFC Rat","steam_id":76561198135128086,"connected_time":1633000000000,"state":"active","ping":115},{"user_id":336,"name":"eat Pant","steam_id":76561197974965536,"connected_time":974000000000,"state":"active","ping":58},{"user_id":328,"name":"intelligent explosive solutions","steam_id":76561198057076267,"connected_time":1599000000000,"state":"active","ping":71},{"user_id":284,"name":"Nibelsnarf","steam_id":76561198137642054,"connected_time":5635000000000,"state":"active","ping":59},{"user_id":329,"name":"Zomboboi_","steam_id":76561198139401380,"connected_time":1575000000000,"state":"active","ping":72},{"user_id":324,"name":"Gamba","steam_id":76561198069264650,"connected_time":1832000000000,"state":"active","ping":59},{"user_id":331,"name":"skaska4","steam_id":76561198080606141,"connected_time":1411000000000,"state":"active","ping":75},{"user_id":321,"name":"vv","steam_id":76561198134813102,"connected_time":1930000000000,"state":"active","ping":64},{"user_id":283,"name":"Aster","steam_id":76561198037920420,"connected_time":5776000000000,"state":"active","ping":73},{"user_id":344,"name":"profe","steam_id":76561199187949462,"connected_time":724000000000,"state":"active","ping":87},{"user_id":334,"name":"Darakrish","steam_id":76561198133126686,"connected_time":1298000000000,"state":"active","ping":65},{"user_id":325,"name":"Critscare","steam_id":76561198087712508,"connected_time":1744000000000,"state":"active","ping":45},{"user_id":305,"name":"Sucsubot","steam_id":76561198106456128,"connected_time":4072000000000,"state":"active","ping":71},{"user_id":299,"name":"ameritech","steam_id":76561198064769089,"connected_time":4892000000000,"state":"active","ping":59},{"user_id":318,"name":"Shenanigan","steam_id":76561198941203517,"connected_time":2077000000000,"state":"active","ping":148},{"user_id":314,"name":"bojack from the show bojack hor","steam_id":76561198053006712,"connected_time":2147000000000,"state":"active","ping":62}]},{"server_id":402,"name":"Uncletopia | Chicago | 3 | All Maps","name_short":"chi-3","host":"chi-1.us.uncletopia.com","port":27035,"enabled":true,"region":"us-central","cc":"us","latitude":41.881832,"longitude":-87.62318,"reserved":0,"last_update":"0001-01-01T00:00:00Z","name_a2s":"Uncletopia | Chicago | 3 | All Maps","protocol":17,"map":"pl_badwater","folder":"tf","game":"Team Fortress","app_id":440,"player_count":24,"max_players":24,"Bots":0,"server_type":"Dedicated","server_os":"Linux","password":true,"vac":true,"version":"7961495","steam_id":85568392924515191,"keywords":["nocrits","nodmgspread","payload","uncletopia"],"game_id":440,"stv_port":27036,"stv_name":"Uncletopia | Chicago | 3 | All Maps | STV","players":[{"user_id":669,"name":"Autogyro","steam_id":76561198047943679,"connected_time":518000000000,"state":"active","ping":52},{"user_id":641,"name":"No Chance of Pearly Gates","steam_id":76561198042570322,"connected_time":2593000000000,"state":"active","ping":51},{"user_id":505,"name":"Kritzburgh","steam_id":76561198149466938,"connected_time":4934000000000,"state":"active","ping":63},{"user_id":668,"name":"dr peppah chug!","steam_id":76561198068835693,"connected_time":530000000000,"state":"active","ping":92},{"user_id":671,"name":"Shield12","steam_id":76561198857193675,"connected_time":447000000000,"state":"active","ping":45},{"user_id":670,"name":"Puke Skyfucker","steam_id":76561198012846213,"connected_time":450000000000,"state":"active","ping":89},{"user_id":646,"name":"A damien","steam_id":76561198174767478,"connected_time":1914000000000,"state":"active","ping":88},{"user_id":634,"name":"Clark","steam_id":76561198874839936,"connected_time":2646000000000,"state":"active","ping":95},{"user_id":478,"name":"I have no idea what I am doing?","steam_id":76561198093152207,"connected_time":5495000000000,"state":"active","ping":73},{"user_id":632,"name":"Makina","steam_id":76561198057475567,"connected_time":2657000000000,"state":"active","ping":69},{"user_id":676,"name":"Lazy_Vex","steam_id":76561198287661985,"connected_time":235000000000,"state":"active","ping":143},{"user_id":672,"name":"Yukon Cornelius","steam_id":76561198261512781,"connected_time":303000000000,"state":"active","ping":66},{"user_id":659,"name":"TheComrade","steam_id":76561198885877773,"connected_time":948000000000,"state":"active","ping":88},{"user_id":633,"name":"LordOfTheNoobs","steam_id":76561197962697523,"connected_time":2657000000000,"state":"active","ping":69},{"user_id":637,"name":"Brisket Cali","steam_id":76561198025549450,"connected_time":2628000000000,"state":"active","ping":67},{"user_id":664,"name":"rawburt","steam_id":76561197993860970,"connected_time":744000000000,"state":"active","ping":71},{"user_id":654,"name":"TheSecretNewbie","steam_id":76561198194671218,"connected_time":1470000000000,"state":"active","ping":45},{"user_id":673,"name":"Biscipline","steam_id":76561198019206178,"connected_time":302000000000,"state":"active","ping":75},{"user_id":665,"name":"cisberg2.0","steam_id":76561199444091241,"connected_time":631000000000,"state":"active","ping":60},{"user_id":677,"name":"neet","steam_id":76561197968115168,"connected_time":71000000000,"state":"active","ping":45},{"user_id":674,"name":"paetho YT (new TF2 vid!)","steam_id":76561198152690003,"connected_time":291000000000,"state":"active","ping":52},{"user_id":675,"name":"Zeroast","steam_id":76561198314750115,"connected_time":283000000000,"state":"active","ping":64},{"user_id":667,"name":"Oni","steam_id":76561198112066584,"connected_time":588000000000,"state":"active","ping":62},{"user_id":466,"name":"josh","steam_id":76561198077902438,"connected_time":5839000000000,"state":"active","ping":75}]},{"server_id":403,"name":"Uncletopia | Chicago | 4 | All Maps","name_short":"chi-4","host":"chi-1.us.uncletopia.com","port":27045,"enabled":true,"region":"us-central","cc":"us","latitude":41.881832,"longitude":-87.62318,"reserved":0,"last_update":"0001-01-01T00:00:00Z","name_a2s":"Uncletopia | Chicago | 4 | All Maps","protocol":17,"map":"cp_dustbowl","folder":"tf","game":"Team Fortress","app_id":440,"player_count":24,"max_players":24,"Bots":0,"server_type":"Dedicated","server_os":"Linux","password":true,"vac":true,"version":"7961495","steam_id":85568392924515193,"keywords":["cp","nocrits","nodmgspread","uncletopia"],"game_id":440,"stv_port":27046,"stv_name":"Uncletopia | Chicago | 4 | All Maps | STV","players":[{"user_id":550,"name":"Venk","steam_id":76561198251131422,"connected_time":2130000000000,"state":"active","ping":69},{"user_id":591,"name":"Braspooky","steam_id":76561198275170070,"connected_time":77000000000,"state":"active","ping":65},{"user_id":567,"name":"mega knight","steam_id":76561199176211866,"connected_time":1115000000000,"state":"active","ping":85},{"user_id":524,"name":"vriska serket","steam_id":76561199345823430,"connected_time":3859000000000,"state":"active","ping":59},{"user_id":589,"name":"Joe Biden","steam_id":76561198238699798,"connected_time":349000000000,"state":"active","ping":89},{"user_id":581,"name":"Zeek","steam_id":76561197987204351,"connected_time":694000000000,"state":"active","ping":60},{"user_id":588,"name":"NUt","steam_id":76561198031007966,"connected_time":413000000000,"state":"active","ping":75},{"user_id":548,"name":"jxh300","steam_id":76561199196579894,"connected_time":2427000000000,"state":"active","ping":71},{"user_id":557,"name":"blanch","steam_id":76561198850629951,"connected_time":1851000000000,"state":"active","ping":76},{"user_id":538,"name":"bobbymcbobington","steam_id":76561199089411172,"connected_time":3261000000000,"state":"active","ping":114},{"user_id":590,"name":"Adum","steam_id":76561198181162382,"connected_time":237000000000,"state":"active","ping":61},{"user_id":583,"name":"wolf_71","steam_id":76561198963570945,"connected_time":652000000000,"state":"active","ping":66},{"user_id":584,"name":"Skulgan","steam_id":76561198150261397,"connected_time":640000000000,"state":"active","ping":70},{"user_id":569,"name":"BLOBFISH","steam_id":76561199092113913,"connected_time":1105000000000,"state":"active","ping":65},{"user_id":585,"name":"Rix FPV","steam_id":76561198299320893,"connected_time":599000000000,"state":"active","ping":56},{"user_id":558,"name":"crabapples","steam_id":76561198075818655,"connected_time":1702000000000,"state":"active","ping":60},{"user_id":580,"name":"msay","steam_id":76561198170888029,"connected_time":779000000000,"state":"active","ping":96},{"user_id":587,"name":"Darkmaen","steam_id":76561198060543390,"connected_time":572000000000,"state":"active","ping":135},{"user_id":546,"name":"$0.18","steam_id":76561198360134800,"connected_time":2560000000000,"state":"active","ping":73},{"user_id":562,"name":"Sanity Impaired Toast Man","steam_id":76561198057654265,"connected_time":1484000000000,"state":"active","ping":124},{"user_id":575,"name":"Apetometrist","steam_id":76561198045391635,"connected_time":944000000000,"state":"active","ping":65},{"user_id":572,"name":"a guy 131 + fish paste","steam_id":76561199226994384,"connected_time":1046000000000,"state":"active","ping":92},{"user_id":576,"name":"Chris P. Bacon","steam_id":76561198000851038,"connected_time":939000000000,"state":"active","ping":77},{"user_id":577,"name":"Alfonso Molestro","steam_id":76561197998677099,"connected_time":898000000000,"state":"active","ping":83}]},{"server_id":36,"name":"Uncletopia | Chicago | 5 | All Maps","name_short":"chi-5","host":"chi-2.us.uncletopia.com","port":27015,"enabled":true,"region":"us-central","cc":"us","latitude":41.881832,"longitude":-87.62318,"reserved":0,"last_update":"0001-01-01T00:00:00Z","name_a2s":"Uncletopia | Chicago | 5 | All Maps","protocol":17,"map":"pl_borneo","folder":"tf","game":"Team Fortress","app_id":440,"player_count":23,"max_players":24,"Bots":0,"server_type":"Dedicated","server_os":"Linux","password":true,"vac":true,"version":"7961495","steam_id":85568392924866362,"keywords":["nocrits","nodmgspread","payload","uncletopia"],"game_id":440,"stv_port":27016,"stv_name":"Uncletopia | Chicago | 5 | All Maps | STV","players":[{"user_id":59,"name":"Scorcho","steam_id":76561198071413833,"connected_time":2251000000000,"state":"active","ping":100},{"user_id":65,"name":"Elevator","steam_id":76561198974286387,"connected_time":1729000000000,"state":"active","ping":68},{"user_id":69,"name":"Rhutebeer","steam_id":76561198018302761,"connected_time":1672000000000,"state":"active","ping":99},{"user_id":11,"name":"Mkwhackertracker","steam_id":76561198128343704,"connected_time":4817000000000,"state":"active","ping":62},{"user_id":83,"name":"Neacrock","steam_id":76561199178338856,"connected_time":505000000000,"state":"active","ping":72},{"user_id":89,"name":"Bamboozler","steam_id":76561198010860383,"connected_time":98000000000,"state":"active","ping":76},{"user_id":75,"name":"BEES","steam_id":76561198811545874,"connected_time":1121000000000,"state":"active","ping":62},{"user_id":84,"name":"TTV Hunter","steam_id":76561198115812405,"connected_time":487000000000,"state":"active","ping":78},{"user_id":52,"name":"corned beef","steam_id":76561199366782761,"connected_time":2735000000000,"state":"active","ping":163},{"user_id":30,"name":"Wilhelmktx","steam_id":76561198158102295,"connected_time":4338000000000,"state":"active","ping":39},{"user_id":64,"name":"Jane Doe (50B)","steam_id":76561199096964288,"connected_time":1757000000000,"state":"active","ping":35},{"user_id":85,"name":"Mr. Friendly","steam_id":76561198002552981,"connected_time":474000000000,"state":"active","ping":79},{"user_id":40,"name":"CoffeeZombee","steam_id":76561198172708053,"connected_time":4192000000000,"state":"active","ping":109},{"user_id":63,"name":"jorjor wells","steam_id":76561199073429082,"connected_time":1770000000000,"state":"active","ping":61},{"user_id":31,"name":"Triple-Edged","steam_id":76561198308472155,"connected_time":4330000000000,"state":"active","ping":56},{"user_id":80,"name":"pizzaroger2003","steam_id":76561198179785873,"connected_time":774000000000,"state":"active","ping":67},{"user_id":33,"name":"Extro","steam_id":76561198178908694,"connected_time":4293000000000,"state":"active","ping":65},{"user_id":86,"name":"Joe Family guy","steam_id":76561198065327106,"connected_time":460000000000,"state":"active","ping":71},{"user_id":87,"name":"Coup de Grass","steam_id":76561198011643226,"connected_time":396000000000,"state":"active","ping":78},{"user_id":71,"name":"Disco Fever","steam_id":76561198069532215,"connected_time":1613000000000,"state":"active","ping":71},{"user_id":73,"name":"Johnny Lawrence #JohnnyMaxxing","steam_id":76561199367141671,"connected_time":1456000000000,"state":"active","ping":74},{"user_id":88,"name":"wooner.","steam_id":76561198227657840,"connected_time":161000000000,"state":"active","ping":59},{"user_id":82,"name":"NinjassauroJr","steam_id":76561198262555693,"connected_time":668000000000,"state":"active","ping":156}]},{"server_id":37,"name":"Uncletopia | Chicago | 6 | All Maps","name_short":"chi-6","host":"chi-2.us.uncletopia.com","port":27025,"enabled":true,"region":"us-central","cc":"us","latitude":41.881832,"longitude":-87.62318,"reserved":0,"last_update":"0001-01-01T00:00:00Z","name_a2s":"Uncletopia | Chicago | 6 | All Maps","protocol":17,"map":"koth_cascade","folder":"tf","game":"Team Fortress","app_id":440,"player_count":3,"max_players":24,"Bots":0,"server_type":"Dedicated","server_os":"Linux","password":true,"vac":true,"version":"7961495","steam_id":85568392924866363,"keywords":["cp","nocrits","nodmgspread","uncletopia"],"game_id":440,"stv_port":27026,"stv_name":"Uncletopia | Chicago | 6 | All Maps | STV","players":[{"user_id":19,"name":"jerma enthusiast","steam_id":76561198359466264,"connected_time":225000000000,"state":"active","ping":67},{"user_id":20,"name":"El1asNotElias","steam_id":76561199198139080,"connected_time":211000000000,"state":"active","ping":71},{"user_id":21,"name":"Sparkle_Boy_Man2020","steam_id":76561199060383910,"connected_time":4000000000,"state":"spawning","ping":61}]},{"server_id":38,"name":"Uncletopia | Chicago | 7 | Stopwatch Beta","name_short":"chi-7","host":"chi-2.us.uncletopia.com","port":27035,"enabled":true,"region":"us-central","cc":"us","latitude":41.881832,"longitude":-87.62318,"reserved":0,"last_update":"0001-01-01T00:00:00Z","name_a2s":"Uncletopia | Chicago | 7 | Stopwatch Beta","protocol":17,"map":"pl_badwater","folder":"tf","game":"Team Fortress","app_id":440,"player_count":0,"max_players":24,"Bots":0,"server_type":"Dedicated","server_os":"Linux","password":true,"vac":true,"version":"7961495","steam_id":85568392924866364,"keywords":["nocrits","nodmgspread","payload","uncletopia"],"game_id":440,"stv_port":27036,"stv_name":"Uncletopia | Chicago | 7 | Stopwatch Beta | STV","players":null},{"server_id":39,"name":"Uncletopia | Chicago | 8 | Community","name_short":"chi-8","host":"chi-2.us.uncletopia.com","port":27045,"enabled":true,"region":"us-central","cc":"us","latitude":41.881832,"longitude":-87.62318,"reserved":0,"last_update":"0001-01-01T00:00:00Z","name_a2s":"Uncletopia | Chicago | 8 | Community","protocol":17,"map":"workshop/pl_cashworks_final1.ugc2904065412","folder":"tf","game":"Team Fortress","app_id":440,"player_count":22,"max_players":24,"Bots":0,"server_type":"Dedicated","server_os":"Linux","password":true,"vac":true,"version":"7961495","steam_id":85568392924866365,"keywords":["nocrits","nodmgspread","payload","uncletopia"],"game_id":440,"stv_port":27046,"stv_name":"Uncletopia | Chicago | 8 | Community | STV","players":[{"user_id":131,"name":"Generator","steam_id":76561198011762257,"connected_time":17000000000,"state":"spawning","ping":244},{"user_id":118,"name":"Whompert","steam_id":76561198042939624,"connected_time":1645000000000,"state":"active","ping":92},{"user_id":105,"name":"wawa","steam_id":76561198115556074,"connected_time":2667000000000,"state":"active","ping":60},{"user_id":109,"name":"kloada","steam_id":76561198082113271,"connected_time":2142000000000,"state":"active","ping":166},{"user_id":116,"name":"gulch","steam_id":76561199227946025,"connected_time":1687000000000,"state":"active","ping":72},{"user_id":101,"name":"TheGrassMan (He/Him)","steam_id":76561198118984048,"connected_time":2847000000000,"state":"active","ping":71},{"user_id":98,"name":"Mr.AAPN","steam_id":76561198073763769,"connected_time":2939000000000,"state":"active","ping":136},{"user_id":126,"name":"Guardian","steam_id":76561199008367158,"connected_time":1107000000000,"state":"active","ping":88},{"user_id":130,"name":"i46","steam_id":76561198031675881,"connected_time":208000000000,"state":"active","ping":44},{"user_id":119,"name":"Breach","steam_id":76561198045060392,"connected_time":1591000000000,"state":"active","ping":49},{"user_id":92,"name":"Copland OS","steam_id":76561198041800378,"connected_time":3300000000000,"state":"active","ping":78},{"user_id":63,"name":"Astrozombeez","steam_id":76561198113754079,"connected_time":4537000000000,"state":"active","ping":103},{"user_id":103,"name":"Sollyz","steam_id":76561198081110786,"connected_time":2767000000000,"state":"active","ping":102},{"user_id":96,"name":"primordialheath","steam_id":76561199386942638,"connected_time":3133000000000,"state":"active","ping":55},{"user_id":128,"name":"phantom","steam_id":76561197963860777,"connected_time":447000000000,"state":"active","ping":61},{"user_id":104,"name":"Large Man","steam_id":76561198880396651,"connected_time":2745000000000,"state":"active","ping":84},{"user_id":117,"name":"tsbro40","steam_id":76561199455605580,"connected_time":1683000000000,"state":"active","ping":85},{"user_id":113,"name":"Node⋄","steam_id":76561198219359475,"connected_time":2063000000000,"state":"active","ping":65},{"user_id":54,"name":"Gluppo","steam_id":76561198379320087,"connected_time":5655000000000,"state":"active","ping":75},{"user_id":55,"name":"Grease Magician","steam_id":76561198285410854,"connected_time":5643000000000,"state":"active","ping":86},{"user_id":127,"name":"George","steam_id":76561198047994501,"connected_time":764000000000,"state":"active","ping":59},{"user_id":84,"name":"jon.cinnamon","steam_id":76561198127316418,"connected_time":3893000000000,"state":"active","ping":67}]},{"server_id":8,"name":"Uncletopia | Dallas | 1 | All Maps","name_short":"dal-1","host":"dal-1.us.uncletopia.com","port":27015,"enabled":true,"region":"us-central","cc":"us","latitude":32.779167,"longitude":-96.80889,"reserved":0,"last_update":"0001-01-01T00:00:00Z","name_a2s":"Uncletopia | Dallas | 1 | All Maps","protocol":17,"map":"pl_snowycoast","folder":"tf","game":"Team Fortress","app_id":440,"player_count":24,"max_players":24,"Bots":0,"server_type":"Dedicated","server_os":"Linux","password":true,"vac":true,"version":"7961495","steam_id":85568392924469986,"keywords":["nocrits","nodmgspread","payload","uncletopia"],"game_id":440,"stv_port":27016,"stv_name":"Uncletopia | Dallas | 1 | All Maps | STV","players":[{"user_id":410,"name":"CORGI.EXE","steam_id":76561198077093432,"connected_time":4906000000000,"state":"active","ping":83},{"user_id":468,"name":"Manchurian Bandit","steam_id":76561198072410042,"connected_time":1547000000000,"state":"active","ping":77},{"user_id":469,"name":"ShadowWasUhOh","steam_id":76561198400361935,"connected_time":1474000000000,"state":"active","ping":77},{"user_id":483,"name":"OWOverkill","steam_id":76561198120569764,"connected_time":555000000000,"state":"active","ping":104},{"user_id":493,"name":"Jazztral (1. e4 e5 2. Ke2 Ke7)","steam_id":76561198067827514,"connected_time":60000000000,"state":"active","ping":33},{"user_id":457,"name":"fasterbum","steam_id":76561198142577444,"connected_time":2372000000000,"state":"active","ping":77},{"user_id":470,"name":"THE STINK","steam_id":76561199226110975,"connected_time":1448000000000,"state":"active","ping":69},{"user_id":485,"name":"Gnome Tank","steam_id":76561198984179092,"connected_time":542000000000,"state":"active","ping":79},{"user_id":489,"name":".tv/grady_val","steam_id":76561198424954118,"connected_time":361000000000,"state":"active","ping":55},{"user_id":454,"name":"Wahaha hee","steam_id":76561198098017157,"connected_time":2431000000000,"state":"active","ping":63},{"user_id":437,"name":"Captain Bong Rips","steam_id":76561198065946939,"connected_time":3507000000000,"state":"active","ping":105},{"user_id":423,"name":"Unk","steam_id":76561198031717617,"connected_time":3941000000000,"state":"active","ping":76},{"user_id":472,"name":"Willem Dafoe","steam_id":76561198037453253,"connected_time":1352000000000,"state":"active","ping":82},{"user_id":425,"name":"tonybaloney","steam_id":76561199434233117,"connected_time":3919000000000,"state":"active","ping":49},{"user_id":492,"name":"Krustytoepaste","steam_id":76561198320265524,"connected_time":188000000000,"state":"active","ping":79},{"user_id":487,"name":"Ruthal","steam_id":76561198004393612,"connected_time":461000000000,"state":"active","ping":106},{"user_id":466,"name":"aintnowaiyboi","steam_id":76561198301372369,"connected_time":1676000000000,"state":"active","ping":44},{"user_id":463,"name":"chanoc","steam_id":76561198026734746,"connected_time":2077000000000,"state":"active","ping":90},{"user_id":477,"name":"Reague","steam_id":76561199092175631,"connected_time":1295000000000,"state":"active","ping":74},{"user_id":475,"name":"glankinator","steam_id":76561198354077256,"connected_time":1331000000000,"state":"active","ping":73},{"user_id":490,"name":"FanaticSalt","steam_id":76561199380123059,"connected_time":357000000000,"state":"active","ping":45},{"user_id":436,"name":"Peepster","steam_id":76561198297854733,"connected_time":3530000000000,"state":"active","ping":98},{"user_id":491,"name":"dry","steam_id":76561198008899411,"connected_time":354000000000,"state":"active","ping":98},{"user_id":479,"name":"Pancho","steam_id":76561198155847264,"connected_time":1081000000000,"state":"active","ping":68}]},{"server_id":108,"name":"Uncletopia | Dallas | 2 | All Maps","name_short":"dal-2","host":"dal-1.us.uncletopia.com","port":27025,"enabled":true,"region":"us-central","cc":"us","latitude":32.779167,"longitude":-96.80889,"reserved":0,"last_update":"0001-01-01T00:00:00Z","name_a2s":"Uncletopia | Dallas | 2 | All Maps","protocol":17,"map":"pl_borneo","folder":"tf","game":"Team Fortress","app_id":440,"player_count":24,"max_players":24,"Bots":0,"server_type":"Dedicated","server_os":"Linux","password":true,"vac":true,"version":"7961495","steam_id":85568392924469988,"keywords":["nocrits","nodmgspread","payload","uncletopia"],"game_id":440,"stv_port":27026,"stv_name":"Uncletopia | Dallas | 2 | All Maps | STV","players":[{"user_id":405,"name":"ispongebobz11","steam_id":76561198862843572,"connected_time":1538000000000,"state":"active","ping":74},{"user_id":426,"name":"MERCHANT","steam_id":76561198210010549,"connected_time":377000000000,"state":"active","ping":105},{"user_id":397,"name":"Echolu","steam_id":76561198158613750,"connected_time":2054000000000,"state":"active","ping":88},{"user_id":395,"name":"☆Doggirl Genius☆","steam_id":76561198083243888,"connected_time":2499000000000,"state":"active","ping":91},{"user_id":424,"name":"exten-z","steam_id":76561198004359190,"connected_time":410000000000,"state":"active","ping":77},{"user_id":396,"name":"Beat-box champ","steam_id":76561198115714484,"connected_time":2398000000000,"state":"active","ping":134},{"user_id":431,"name":"IMM0RTAL","steam_id":76561198013747901,"connected_time":200000000000,"state":"active","ping":66},{"user_id":413,"name":"floofy","steam_id":76561198389769098,"connected_time":1163000000000,"state":"active","ping":83},{"user_id":416,"name":"Marvelous","steam_id":76561199083888017,"connected_time":912000000000,"state":"active","ping":93},{"user_id":351,"name":"kermitcreeper(ZAZA)","steam_id":76561199222829972,"connected_time":6921000000000,"state":"active","ping":64},{"user_id":382,"name":"icm2008 #SaveTF2","steam_id":76561199277408836,"connected_time":4060000000000,"state":"active","ping":80},{"user_id":425,"name":"Smoke Stacks","steam_id":76561197999478769,"connected_time":408000000000,"state":"active","ping":77},{"user_id":403,"name":"Doctor Emerald(real)","steam_id":76561199123003872,"connected_time":1605000000000,"state":"active","ping":90},{"user_id":401,"name":"smooth brain","steam_id":76561198049253541,"connected_time":1808000000000,"state":"active","ping":71},{"user_id":427,"name":"Eth","steam_id":76561198147881701,"connected_time":311000000000,"state":"active","ping":88},{"user_id":418,"name":"Untermensch","steam_id":76561198149634242,"connected_time":841000000000,"state":"active","ping":88},{"user_id":428,"name":"nae nae goblin68","steam_id":76561199115259028,"connected_time":274000000000,"state":"active","ping":120},{"user_id":420,"name":"Zycron0","steam_id":76561199122983789,"connected_time":804000000000,"state":"active","ping":103},{"user_id":410,"name":"Icefury235","steam_id":76561199483354679,"connected_time":1344000000000,"state":"active","ping":84},{"user_id":354,"name":"Panda Loser","steam_id":76561198828745176,"connected_time":6703000000000,"state":"active","ping":90},{"user_id":402,"name":"NotBob","steam_id":76561199135833086,"connected_time":1779000000000,"state":"active","ping":107},{"user_id":429,"name":"Stiffy Magnum","steam_id":76561198000036722,"connected_time":263000000000,"state":"active","ping":87},{"user_id":422,"name":"SomeSimpleton","steam_id":76561199183492031,"connected_time":775000000000,"state":"active","ping":94},{"user_id":430,"name":"moolkey","steam_id":76561198000895549,"connected_time":246000000000,"state":"active","ping":76}]},{"server_id":404,"name":"Uncletopia | Dallas | 3 | All Maps","name_short":"dal-3","host":"dal-1.us.uncletopia.com","port":27035,"enabled":true,"region":"us-central","cc":"us","latitude":32.779167,"longitude":-96.80889,"reserved":0,"last_update":"0001-01-01T00:00:00Z","name_a2s":"Uncletopia | Dallas | 3 | All Maps","protocol":17,"map":"pl_swiftwater_final1","folder":"tf","game":"Team Fortress","app_id":440,"player_count":23,"max_players":24,"Bots":0,"server_type":"Dedicated","server_os":"Linux","password":true,"vac":true,"version":"7961495","steam_id":85568392924515219,"keywords":["nocrits","nodmgspread","payload","uncletopia"],"game_id":440,"stv_port":27036,"stv_name":"Uncletopia | Dallas | 3 | All Maps | STV","players":[{"user_id":217,"name":"CorgiYasu","steam_id":76561198082298201,"connected_time":3443000000000,"state":"active","ping":76},{"user_id":259,"name":"Idk","steam_id":76561198971629959,"connected_time":435000000000,"state":"active","ping":134},{"user_id":198,"name":"Missing Minus","steam_id":76561198120822928,"connected_time":4432000000000,"state":"active","ping":61},{"user_id":253,"name":"You Kn0w","steam_id":76561198081738605,"connected_time":772000000000,"state":"active","ping":71},{"user_id":255,"name":"Kamin","steam_id":76561198255299559,"connected_time":605000000000,"state":"active","ping":67},{"user_id":175,"name":"Chunk Stuffer","steam_id":76561198856508573,"connected_time":5453000000000,"state":"active","ping":39},{"user_id":262,"name":"Lilith","steam_id":76561198125102885,"connected_time":53000000000,"state":"active","ping":81},{"user_id":218,"name":"Meep","steam_id":76561198044645661,"connected_time":3431000000000,"state":"active","ping":98},{"user_id":235,"name":"Colonel Salt","steam_id":76561198207009563,"connected_time":2047000000000,"state":"active","ping":60},{"user_id":257,"name":"sailorlime","steam_id":76561199122643578,"connected_time":497000000000,"state":"active","ping":89},{"user_id":258,"name":"say hi to youtube","steam_id":76561199492543869,"connected_time":469000000000,"state":"active","ping":74},{"user_id":219,"name":"Prime","steam_id":76561198218218705,"connected_time":3380000000000,"state":"active","ping":117},{"user_id":245,"name":"Liebesträume","steam_id":76561198038862034,"connected_time":1200000000000,"state":"active","ping":67},{"user_id":233,"name":"Xenophile","steam_id":76561198044772435,"connected_time":2139000000000,"state":"active","ping":61},{"user_id":243,"name":"Gad","steam_id":76561198020792373,"connected_time":1584000000000,"state":"active","ping":64},{"user_id":260,"name":"Jasmine Rice","steam_id":76561198163163590,"connected_time":431000000000,"state":"active","ping":61},{"user_id":252,"name":"Heathcliff","steam_id":76561198044288534,"connected_time":830000000000,"state":"active","ping":95},{"user_id":247,"name":"The Horselords and Animal Gods","steam_id":76561197975094050,"connected_time":1058000000000,"state":"active","ping":97},{"user_id":200,"name":"dog","steam_id":76561198263873491,"connected_time":4417000000000,"state":"active","ping":62},{"user_id":232,"name":"Manofmanybeans","steam_id":76561199213349938,"connected_time":2181000000000,"state":"active","ping":106},{"user_id":251,"name":"lili","steam_id":76561199391478575,"connected_time":898000000000,"state":"active","ping":108},{"user_id":161,"name":"Prez Pineapple","steam_id":76561198253755258,"connected_time":7079000000000,"state":"active","ping":104},{"user_id":229,"name":"Yoshika","steam_id":76561198036858169,"connected_time":2531000000000,"state":"active","ping":87}]},{"server_id":405,"name":"Uncletopia | Dallas | 4 | Community","name_short":"dal-4","host":"dal-1.us.uncletopia.com","port":27045,"enabled":true,"region":"us-central","cc":"us","latitude":32.779167,"longitude":-96.80889,"reserved":0,"last_update":"0001-01-01T00:00:00Z","name_a2s":"Uncletopia | Dallas | 4 | Community","protocol":17,"map":"workshop/pl_emerge_rc2.ugc888027758","folder":"tf","game":"Team Fortress","app_id":440,"player_count":0,"max_players":24,"Bots":0,"server_type":"Dedicated","server_os":"Linux","password":true,"vac":true,"version":"7961495","steam_id":85568392924515220,"keywords":["nocrits","nodmgspread","payload","uncletopia"],"game_id":440,"stv_port":27046,"stv_name":"Uncletopia | Dallas | 4 | Community | STV","players":null},{"server_id":5,"name":"Uncletopia | Frankfurt | 1 | All Maps","name_short":"frk-1","host":"frk-1.de.uncletopia.com","port":27015,"enabled":true,"region":"eu","cc":"de","latitude":50.110924,"longitude":8.682127,"reserved":0,"last_update":"0001-01-01T00:00:00Z","name_a2s":"Uncletopia | Frankfurt | 1 | All Maps","protocol":17,"map":"pl_badwater","folder":"tf","game":"Team Fortress","app_id":440,"player_count":0,"max_players":24,"Bots":0,"server_type":"Dedicated","server_os":"Linux","password":true,"vac":true,"version":"7961495","steam_id":85568392924469989,"keywords":["nocrits","nodmgspread","payload","uncletopia"],"game_id":440,"stv_port":27016,"stv_name":"Uncletopia | Frankfurt | 1 | All Maps | STV","players":null},{"server_id":110,"name":"Uncletopia | Frankfurt | 2 | All Maps","name_short":"frk-2","host":"frk-1.de.uncletopia.com","port":27025,"enabled":true,"region":"eu","cc":"de","latitude":50.110924,"longitude":8.682127,"reserved":0,"last_update":"0001-01-01T00:00:00Z","name_a2s":"Uncletopia | Frankfurt | 2 | All Maps","protocol":17,"map":"koth_lakeside_final","folder":"tf","game":"Team Fortress","app_id":440,"player_count":0,"max_players":24,"Bots":0,"server_type":"Dedicated","server_os":"Linux","password":true,"vac":true,"version":"7961495","steam_id":85568392924469990,"keywords":["cp","nocrits","nodmgspread","uncletopia"],"game_id":440,"stv_port":27026,"stv_name":"Uncletopia | Frankfurt | 2 | All Maps | STV","players":null},{"server_id":308,"name":"Uncletopia | Frankfurt | 3 | All Maps","name_short":"frk-3","host":"frk-1.de.uncletopia.com","port":27035,"enabled":true,"region":"eu","cc":"de","latitude":50.110924,"longitude":8.682127,"reserved":0,"last_update":"0001-01-01T00:00:00Z","name_a2s":"Uncletopia | Frankfurt | 3 | All Maps","protocol":17,"map":"cp_sunshine","folder":"tf","game":"Team Fortress","app_id":440,"player_count":0,"max_players":24,"Bots":0,"server_type":"Dedicated","server_os":"Linux","password":true,"vac":true,"version":"7961495","steam_id":85568392924504274,"keywords":["cp","nocrits","nodmgspread","uncletopia"],"game_id":440,"stv_port":27036,"stv_name":"Uncletopia | Frankfurt | 3 | All Maps | STV","players":null},{"server_id":309,"name":"Uncletopia | Frankfurt | 4 | All Maps","name_short":"frk-4","host":"frk-1.de.uncletopia.com","port":27045,"enabled":true,"region":"eu","cc":"de","latitude":50.110924,"longitude":8.682127,"reserved":0,"last_update":"0001-01-01T00:00:00Z","name_a2s":"Uncletopia | Frankfurt | 4 | All Maps","protocol":17,"map":"cp_altitude","folder":"tf","game":"Team Fortress","app_id":440,"player_count":0,"max_players":24,"Bots":0,"server_type":"Dedicated","server_os":"Linux","password":true,"vac":true,"version":"7961495","steam_id":85568392924504275,"keywords":["cp","nocrits","nodmgspread","uncletopia"],"game_id":440,"stv_port":27046,"stv_name":"Uncletopia | Frankfurt | 4 | All Maps | STV","players":null},{"server_id":310,"name":"Uncletopia | Frankfurt | 5 | All Maps","name_short":"frk-5","host":"frk-1.de.uncletopia.com","port":27055,"enabled":true,"region":"eu","cc":"de","latitude":50.110924,"longitude":8.682127,"reserved":0,"last_update":"0001-01-01T00:00:00Z","name_a2s":"Uncletopia | Frankfurt | 5 | All Maps","protocol":17,"map":"cp_process_final","folder":"tf","game":"Team Fortress","app_id":440,"player_count":0,"max_players":24,"Bots":0,"server_type":"Dedicated","server_os":"Linux","password":true,"vac":true,"version":"7961495","steam_id":85568392924504277,"keywords":["cp","nocrits","nodmgspread","uncletopia"],"game_id":440,"stv_port":27056,"stv_name":"Uncletopia | Frankfurt | 5 | All Maps | STV","players":null},{"server_id":311,"name":"Uncletopia | Frankfurt | 6 | All Maps","name_short":"frk-6","host":"frk-1.de.uncletopia.com","port":27065,"enabled":true,"region":"eu","cc":"de","latitude":50.110924,"longitude":8.682127,"reserved":0,"last_update":"0001-01-01T00:00:00Z","name_a2s":"Uncletopia | Frankfurt | 6 | All Maps","protocol":17,"map":"pl_barnblitz","folder":"tf","game":"Team Fortress","app_id":440,"player_count":0,"max_players":24,"Bots":0,"server_type":"Dedicated","server_os":"Linux","password":true,"vac":true,"version":"7961495","steam_id":85568392924504278,"keywords":["nocrits","nodmgspread","payload","uncletopia"],"game_id":440,"stv_port":27066,"stv_name":"Uncletopia | Frankfurt | 6 | All Maps | STV","players":null},{"server_id":23,"name":"Uncletopia | Frankfurt | 7 | Stopwatch Beta","name_short":"frk-7","host":"frk-1.de.uncletopia.com","port":27075,"enabled":true,"region":"eu","cc":"de","latitude":50.110924,"longitude":8.682127,"reserved":0,"last_update":"0001-01-01T00:00:00Z","name_a2s":"Uncletopia | Frankfurt | 7 | Stopwatch Beta","protocol":17,"map":"koth_cascade","folder":"tf","game":"Team Fortress","app_id":440,"player_count":0,"max_players":24,"Bots":0,"server_type":"Dedicated","server_os":"Linux","password":true,"vac":true,"version":"7961495","steam_id":85568392924742827,"keywords":["cp","nocrits","nodmgspread","uncletopia"],"game_id":440,"stv_port":27076,"stv_name":"Uncletopia | Frankfurt | 7 | Stopwatch Beta | STV","players":null},{"server_id":24,"name":"Uncletopia | Frankfurt | 8 | Community","name_short":"frk-8","host":"frk-1.de.uncletopia.com","port":27085,"enabled":true,"region":"eu","cc":"de","latitude":50.110924,"longitude":8.682127,"reserved":0,"last_update":"0001-01-01T00:00:00Z","name_a2s":"Uncletopia | Frankfurt | 8 | Community","protocol":17,"map":"cp_dustbowl","folder":"tf","game":"Team Fortress","app_id":440,"player_count":0,"max_players":24,"Bots":0,"server_type":"Dedicated","server_os":"Linux","password":true,"vac":true,"version":"7961495","steam_id":85568392924742828,"keywords":["cp","nocrits","nodmgspread","uncletopia"],"game_id":440,"stv_port":27086,"stv_name":"Uncletopia | Frankfurt | 8 | Community | STV","players":null},{"server_id":202,"name":"Uncletopia | Hong Kong | 1 | All Maps","name_short":"hgk-1","host":"hgk-1.hk.uncletopia.com","port":27015,"enabled":true,"region":"asia","cc":"hk","latitude":22.302711,"longitude":114.177216,"reserved":0,"last_update":"0001-01-01T00:00:00Z","name_a2s":"Uncletopia | Hong Kong | 1 | All Maps","protocol":17,"map":"koth_viaduct","folder":"tf","game":"Team Fortress","app_id":440,"player_count":0,"max_players":24,"Bots":0,"server_type":"Dedicated","server_os":"Linux","password":true,"vac":true,"version":"7961495","steam_id":85568392924494504,"keywords":["cp","nocrits","nodmgspread","uncletopia"],"game_id":440,"stv_port":27016,"stv_name":"Uncletopia | Hong Kong | 1 | All Maps | STV","players":null},{"server_id":1,"name":"Uncletopia | Los Angeles | 1 | All Maps","name_short":"lax-1","host":"lax-1.us.uncletopia.com","port":27015,"enabled":true,"region":"us-west","cc":"us","latitude":33.94279,"longitude":-118.41004,"reserved":0,"last_update":"0001-01-01T00:00:00Z","name_a2s":"Uncletopia | Los Angeles | 1 | All Maps","protocol":17,"map":"pl_borneo","folder":"tf","game":"Team Fortress","app_id":440,"player_count":24,"max_players":24,"Bots":0,"server_type":"Dedicated","server_os":"Linux","password":true,"vac":true,"version":"7961495","steam_id":85568392924469991,"keywords":["nocrits","nodmgspread","payload","uncletopia"],"game_id":440,"stv_port":27016,"stv_name":"Uncletopia | Los Angeles | 1 | All Maps | STV","players":[{"user_id":6,"name":"Imnotnuggets","steam_id":76561198886670414,"connected_time":7889000000000,"state":"active","ping":70},{"user_id":79,"name":"pinkacrash","steam_id":76561198110723576,"connected_time":2044000000000,"state":"active","ping":34},{"user_id":63,"name":"Maxmind24","steam_id":76561198859888778,"connected_time":4108000000000,"state":"active","ping":90},{"user_id":101,"name":"jovial","steam_id":76561198297130941,"connected_time":496000000000,"state":"active","ping":50},{"user_id":12,"name":"Jimmy","steam_id":76561198857959855,"connected_time":6834000000000,"state":"active","ping":45},{"user_id":81,"name":"noceof","steam_id":76561198043656816,"connected_time":2029000000000,"state":"active","ping":169},{"user_id":98,"name":"Skip Hop Doo Bop","steam_id":76561199161571849,"connected_time":581000000000,"state":"active","ping":55},{"user_id":104,"name":"Ratoose","steam_id":76561198155983576,"connected_time":387000000000,"state":"active","ping":72},{"user_id":94,"name":"Seshreb","steam_id":76561198846614634,"connected_time":658000000000,"state":"active","ping":55},{"user_id":97,"name":"D.Porter","steam_id":76561198396340174,"connected_time":608000000000,"state":"active","ping":113},{"user_id":100,"name":"Africason","steam_id":76561198277609778,"connected_time":558000000000,"state":"active","ping":134},{"user_id":108,"name":"MNIJ","steam_id":76561199209509468,"connected_time":6000000000,"state":"spawning","ping":66},{"user_id":103,"name":"SynSten","steam_id":76561199122281764,"connected_time":417000000000,"state":"active","ping":93},{"user_id":92,"name":"De Monki","steam_id":76561198964210411,"connected_time":975000000000,"state":"active","ping":63},{"user_id":105,"name":"HYZA (enthusiastic and calming)","steam_id":76561199100342013,"connected_time":384000000000,"state":"active","ping":48},{"user_id":106,"name":"Hashslinging Slasher","steam_id":76561198099015430,"connected_time":377000000000,"state":"active","ping":73},{"user_id":88,"name":"Organ Harvester","steam_id":76561198069948353,"connected_time":1147000000000,"state":"active","ping":88},{"user_id":73,"name":"thatguywhoalwaysdies","steam_id":76561198824724631,"connected_time":2969000000000,"state":"active","ping":109},{"user_id":32,"name":"Superman123389","steam_id":76561198267472539,"connected_time":5650000000000,"state":"active","ping":92},{"user_id":74,"name":"CrazyKermitRubes","steam_id":76561198009065204,"connected_time":2965000000000,"state":"active","ping":117},{"user_id":75,"name":"Alyx","steam_id":76561198046526130,"connected_time":2964000000000,"state":"active","ping":163},{"user_id":107,"name":"Mason Man","steam_id":76561198211476161,"connected_time":350000000000,"state":"active","ping":63},{"user_id":90,"name":"gatorbelt","steam_id":76561198145784505,"connected_time":1062000000000,"state":"active","ping":45},{"user_id":91,"name":"Weakforanimebitches","steam_id":76561198217663016,"connected_time":1045000000000,"state":"active","ping":51}]},{"server_id":112,"name":"Uncletopia | Los Angeles | 2 | All Maps","name_short":"lax-2","host":"lax-1.us.uncletopia.com","port":27025,"enabled":true,"region":"us-west","cc":"us","latitude":33.94279,"longitude":-118.41004,"reserved":0,"last_update":"0001-01-01T00:00:00Z","name_a2s":"Uncletopia | Los Angeles | 2 | All Maps","protocol":17,"map":"pl_upward","folder":"tf","game":"Team Fortress","app_id":440,"player_count":1,"max_players":24,"Bots":0,"server_type":"Dedicated","server_os":"Linux","password":true,"vac":true,"version":"7961495","steam_id":85568392924469992,"keywords":["nocrits","nodmgspread","payload","uncletopia"],"game_id":440,"stv_port":27026,"stv_name":"Uncletopia | Los Angeles | 2 | All Maps | STV","players":[{"user_id":8,"name":"pmerle702","steam_id":76561199247090059,"connected_time":9000000000,"state":"active","ping":91}]},{"server_id":324,"name":"Uncletopia | Los Angeles | 3 | All Maps","name_short":"lax-3","host":"lax-1.us.uncletopia.com","port":27035,"enabled":true,"region":"us-west","cc":"us","latitude":33.94279,"longitude":-118.41004,"reserved":0,"last_update":"0001-01-01T00:00:00Z","name_a2s":"Uncletopia | Los Angeles | 3 | All Maps","protocol":17,"map":"pl_badwater","folder":"tf","game":"Team Fortress","app_id":440,"player_count":24,"max_players":24,"Bots":0,"server_type":"Dedicated","server_os":"Linux","password":true,"vac":true,"version":"7961495","steam_id":85568392924510198,"keywords":["nocrits","nodmgspread","payload","uncletopia"],"game_id":440,"stv_port":27036,"stv_name":"Uncletopia | Los Angeles | 3 | All Maps | STV","players":[{"user_id":15,"name":"BarrowBaron","steam_id":76561198013633236,"connected_time":2539000000000,"state":"active","ping":110},{"user_id":44,"name":"spy main (spy sucks)","steam_id":76561198922763623,"connected_time":1127000000000,"state":"active","ping":45},{"user_id":9,"name":"Dreamzapp","steam_id":76561199084936632,"connected_time":3421000000000,"state":"active","ping":65},{"user_id":34,"name":"Silly Shark","steam_id":76561198130714378,"connected_time":1729000000000,"state":"active","ping":98},{"user_id":51,"name":"pure","steam_id":76561198196998007,"connected_time":679000000000,"state":"active","ping":60},{"user_id":55,"name":"TheGuy101","steam_id":76561199201772624,"connected_time":540000000000,"state":"active","ping":100},{"user_id":13,"name":"alpha1zer0ready","steam_id":76561199206731331,"connected_time":2714000000000,"state":"active","ping":56},{"user_id":52,"name":"vvitch","steam_id":76561198279661941,"connected_time":613000000000,"state":"active","ping":50},{"user_id":21,"name":"theally105","steam_id":76561199171663406,"connected_time":2198000000000,"state":"active","ping":156},{"user_id":18,"name":"BoyKisser","steam_id":76561199200969139,"connected_time":2408000000000,"state":"active","ping":123},{"user_id":54,"name":"Magma","steam_id":76561198365416679,"connected_time":604000000000,"state":"active","ping":140},{"user_id":35,"name":"GඞMER","steam_id":76561198340389876,"connected_time":1676000000000,"state":"active","ping":59},{"user_id":56,"name":"2girls1diymo","steam_id":76561198017600790,"connected_time":490000000000,"state":"active","ping":75},{"user_id":30,"name":"In-N-Out Double Double","steam_id":76561198104086771,"connected_time":1854000000000,"state":"active","ping":49},{"user_id":57,"name":"Lane","steam_id":76561197965828506,"connected_time":428000000000,"state":"active","ping":78},{"user_id":42,"name":"cool beans","steam_id":76561198045758072,"connected_time":1249000000000,"state":"active","ping":60},{"user_id":49,"name":"Haloman","steam_id":76561198119610371,"connected_time":1008000000000,"state":"active","ping":85},{"user_id":48,"name":"Altruisticailuridae","steam_id":76561198335295596,"connected_time":1025000000000,"state":"active","ping":54},{"user_id":36,"name":"BreadnDip","steam_id":76561198362635423,"connected_time":1639000000000,"state":"active","ping":90},{"user_id":47,"name":"Slabz","steam_id":76561199072777158,"connected_time":1107000000000,"state":"active","ping":100},{"user_id":53,"name":"Five","steam_id":76561198026640473,"connected_time":606000000000,"state":"active","ping":60},{"user_id":59,"name":"Dullahan","steam_id":76561198119668908,"connected_time":391000000000,"state":"active","ping":60},{"user_id":50,"name":"SgtMaj Soggy Titties","steam_id":76561198067732216,"connected_time":1002000000000,"state":"active","ping":91},{"user_id":60,"name":"Ralph Kramden (Slim Charles)","steam_id":76561197981687895,"connected_time":388000000000,"state":"active","ping":66}]},{"server_id":25,"name":"Uncletopia | Los Angeles | 4 | Stopwatch Beta","name_short":"lax-4","host":"lax-1.us.uncletopia.com","port":27045,"enabled":true,"region":"us-west","cc":"us","latitude":33.94279,"longitude":-118.41004,"reserved":0,"last_update":"0001-01-01T00:00:00Z","name_a2s":"Uncletopia | Los Angeles | 4 | Stopwatch Beta","protocol":17,"map":"pl_upward","folder":"tf","game":"Team Fortress","app_id":440,"player_count":0,"max_players":24,"Bots":0,"server_type":"Dedicated","server_os":"Linux","password":true,"vac":true,"version":"7961495","steam_id":85568392924510199,"keywords":["nocrits","nodmgspread","payload","uncletopia"],"game_id":440,"stv_port":27046,"stv_name":"Uncletopia | Los Angeles | 4 | Stopwatch Beta | STV","players":null},{"server_id":11,"name":"Uncletopia | London | 1 | All Maps","name_short":"lon-1","host":"lon-1.uk.uncletopia.com","port":27015,"enabled":true,"region":"eu","cc":"gb","latitude":51.509865,"longitude":-0.118092,"reserved":0,"last_update":"0001-01-01T00:00:00Z","name_a2s":"Uncletopia | London | 1 | All Maps","protocol":17,"map":"pl_borneo","folder":"tf","game":"Team Fortress","app_id":440,"player_count":24,"max_players":24,"Bots":0,"server_type":"Dedicated","server_os":"Linux","password":true,"vac":true,"version":"7961495","steam_id":85568392924367362,"keywords":["nocrits","nodmgspread","payload","uncletopia"],"game_id":440,"stv_port":27016,"stv_name":"Uncletopia | London | 1 | All Maps | STV","players":[{"user_id":550,"name":"BreadBubbles","steam_id":76561198174332826,"connected_time":157000000000,"state":"active","ping":58},{"user_id":524,"name":"teddy","steam_id":76561198007436837,"connected_time":3369000000000,"state":"active","ping":38},{"user_id":519,"name":"Minimi","steam_id":76561198873850443,"connected_time":3679000000000,"state":"active","ping":45},{"user_id":482,"name":"Kphi(i)","steam_id":76561198970587061,"connected_time":7065000000000,"state":"active","ping":59},{"user_id":551,"name":"Cold Heart","steam_id":76561198109838745,"connected_time":139000000000,"state":"active","ping":61},{"user_id":549,"name":"Herb","steam_id":76561198205266944,"connected_time":174000000000,"state":"active","ping":42},{"user_id":515,"name":"Son Goku","steam_id":76561199383437138,"connected_time":4183000000000,"state":"active","ping":118},{"user_id":552,"name":"☁ Lou1smeister ☁","steam_id":76561198004032968,"connected_time":134000000000,"state":"active","ping":75},{"user_id":527,"name":"Pantroglodytestherapy","steam_id":76561198236015392,"connected_time":2988000000000,"state":"active","ping":119},{"user_id":543,"name":"Prome","steam_id":76561199050383942,"connected_time":1136000000000,"state":"active","ping":55},{"user_id":533,"name":"ein'd","steam_id":76561198152162834,"connected_time":2295000000000,"state":"active","ping":94},{"user_id":545,"name":"anders McFlanders","steam_id":76561198022811995,"connected_time":698000000000,"state":"active","ping":72},{"user_id":542,"name":"shooer!","steam_id":76561198110531281,"connected_time":1164000000000,"state":"active","ping":65},{"user_id":521,"name":"owo","steam_id":76561198158209651,"connected_time":3643000000000,"state":"active","ping":66},{"user_id":531,"name":"flappi","steam_id":76561198072892783,"connected_time":2747000000000,"state":"active","ping":61},{"user_id":540,"name":"beebo","steam_id":76561199120277007,"connected_time":1398000000000,"state":"active","ping":50},{"user_id":532,"name":"AWildTamim","steam_id":76561198048060652,"connected_time":2404000000000,"state":"active","ping":41},{"user_id":539,"name":"trans werewolf","steam_id":76561198107235989,"connected_time":1713000000000,"state":"active","ping":68},{"user_id":458,"name":"killer of noob, winner of game","steam_id":76561198190583242,"connected_time":9433000000000,"state":"active","ping":83},{"user_id":520,"name":"sora","steam_id":76561198096547662,"connected_time":3678000000000,"state":"active","ping":53},{"user_id":553,"name":"Saul Goodman","steam_id":76561199182988206,"connected_time":120000000000,"state":"active","ping":93},{"user_id":314,"name":"halow","steam_id":76561198061505163,"connected_time":17117000000000,"state":"active","ping":104},{"user_id":502,"name":"Illy","steam_id":76561198045537823,"connected_time":5489000000000,"state":"active","ping":59},{"user_id":548,"name":"Baked Beans Gaming","steam_id":76561199177778966,"connected_time":220000000000,"state":"active","ping":51}]},{"server_id":114,"name":"Uncletopia | London | 2 | All Maps","name_short":"lon-2","host":"lon-1.uk.uncletopia.com","port":27025,"enabled":true,"region":"eu","cc":"gb","latitude":51.509865,"longitude":-0.118092,"reserved":0,"last_update":"0001-01-01T00:00:00Z","name_a2s":"Uncletopia | London | 2 | All Maps","protocol":17,"map":"pl_barnblitz","folder":"tf","game":"Team Fortress","app_id":440,"player_count":0,"max_players":24,"Bots":0,"server_type":"Dedicated","server_os":"Linux","password":true,"vac":true,"version":"7961495","steam_id":85568392924470941,"keywords":["nocrits","nodmgspread","payload","uncletopia"],"game_id":440,"stv_port":27026,"stv_name":"Uncletopia | London | 2 | All Maps | STV","players":null},{"server_id":320,"name":"Uncletopia | London | 3 | All Maps","name_short":"lon-3","host":"lon-1.uk.uncletopia.com","port":27035,"enabled":true,"region":"eu","cc":"gb","latitude":51.509865,"longitude":-0.118092,"reserved":0,"last_update":"0001-01-01T00:00:00Z","name_a2s":"Uncletopia | London | 3 | All Maps","protocol":17,"map":"pl_barnblitz","folder":"tf","game":"Team Fortress","app_id":440,"player_count":24,"max_players":24,"Bots":0,"server_type":"Dedicated","server_os":"Linux","password":true,"vac":true,"version":"7961495","steam_id":85568392924510192,"keywords":["nocrits","nodmgspread","payload","uncletopia"],"game_id":440,"stv_port":27036,"stv_name":"Uncletopia | London | 3 | All Maps | STV","players":[{"user_id":410,"name":"BD[PL]","steam_id":76561198115995871,"connected_time":3595000000000,"state":"active","ping":90},{"user_id":436,"name":"ashley","steam_id":76561198448551449,"connected_time":1185000000000,"state":"active","ping":37},{"user_id":449,"name":"Van_Zacharias","steam_id":76561198058612253,"connected_time":682000000000,"state":"active","ping":69},{"user_id":329,"name":"flamingosaurus","steam_id":76561198051455397,"connected_time":9166000000000,"state":"active","ping":45},{"user_id":432,"name":"Tipp","steam_id":76561198184360615,"connected_time":1564000000000,"state":"active","ping":92},{"user_id":437,"name":"Average Medic Enjoyer","steam_id":76561198048867302,"connected_time":1169000000000,"state":"active","ping":64},{"user_id":443,"name":"Spikà","steam_id":76561197999582114,"connected_time":1107000000000,"state":"active","ping":74},{"user_id":444,"name":"mans big iron","steam_id":76561198011819389,"connected_time":868000000000,"state":"active","ping":71},{"user_id":406,"name":"Заднепроходец","steam_id":76561198059741978,"connected_time":4324000000000,"state":"active","ping":87},{"user_id":392,"name":"nivlemo :)","steam_id":76561198963784884,"connected_time":4866000000000,"state":"active","ping":74},{"user_id":438,"name":"beheading video from 2009","steam_id":76561198834897089,"connected_time":1168000000000,"state":"active","ping":75},{"user_id":447,"name":"hasansaeedifar","steam_id":76561198974563618,"connected_time":744000000000,"state":"active","ping":163},{"user_id":450,"name":"onlystay","steam_id":76561198314370793,"connected_time":635000000000,"state":"active","ping":89},{"user_id":441,"name":"trill","steam_id":76561198059598696,"connected_time":1146000000000,"state":"active","ping":68},{"user_id":452,"name":"Xonrus","steam_id":76561198074717396,"connected_time":571000000000,"state":"active","ping":73},{"user_id":431,"name":"git bash -er","steam_id":76561198072586494,"connected_time":1734000000000,"state":"active","ping":40},{"user_id":442,"name":"Абсолютная водка","steam_id":76561198886250433,"connected_time":1139000000000,"state":"active","ping":75},{"user_id":423,"name":"a single slightly peeled banana","steam_id":76561198088228092,"connected_time":2574000000000,"state":"active","ping":45},{"user_id":435,"name":"Wilderhammer","steam_id":76561198132133702,"connected_time":1202000000000,"state":"active","ping":51},{"user_id":446,"name":"VK2124 :D","steam_id":76561198111130688,"connected_time":753000000000,"state":"active","ping":59},{"user_id":425,"name":"padillacampos","steam_id":76561198161923970,"connected_time":2518000000000,"state":"active","ping":73},{"user_id":426,"name":"Toa LightMakuta","steam_id":76561198212178104,"connected_time":2505000000000,"state":"active","ping":51},{"user_id":419,"name":"a perfectly fine dog","steam_id":76561198000890796,"connected_time":2715000000000,"state":"active","ping":75},{"user_id":428,"name":"zak","steam_id":76561197998895428,"connected_time":2437000000000,"state":"active","ping":71}]},{"server_id":321,"name":"Uncletopia | London | 4 | All Maps","name_short":"lon-4","host":"lon-1.uk.uncletopia.com","port":27045,"enabled":true,"region":"eu","cc":"gb","latitude":51.509865,"longitude":-0.118092,"reserved":0,"last_update":"0001-01-01T00:00:00Z","name_a2s":"Uncletopia | London | 4 | All Maps","protocol":17,"map":"koth_cascade","folder":"tf","game":"Team Fortress","app_id":440,"player_count":23,"max_players":24,"Bots":0,"server_type":"Dedicated","server_os":"Linux","password":true,"vac":true,"version":"7961495","steam_id":85568392924510193,"keywords":["cp","nocrits","nodmgspread","uncletopia"],"game_id":440,"stv_port":27046,"stv_name":"Uncletopia | London | 4 | All Maps | STV","players":[{"user_id":532,"name":"D0kai","steam_id":76561198389271720,"connected_time":1042000000000,"state":"active","ping":52},{"user_id":533,"name":"General Petrov","steam_id":76561198027204104,"connected_time":1034000000000,"state":"active","ping":77},{"user_id":478,"name":"ToonFood","steam_id":76561198038594124,"connected_time":4190000000000,"state":"active","ping":53},{"user_id":480,"name":"SuperCeleste❤️Trans Rights","steam_id":76561198167207053,"connected_time":3928000000000,"state":"active","ping":161},{"user_id":551,"name":"Milk","steam_id":76561198125876588,"connected_time":254000000000,"state":"active","ping":37},{"user_id":520,"name":"Orange :3","steam_id":76561198963378933,"connected_time":2051000000000,"state":"active","ping":40},{"user_id":544,"name":"Orpheus","steam_id":76561198442035906,"connected_time":587000000000,"state":"active","ping":63},{"user_id":530,"name":"teleporter main","steam_id":76561198851157897,"connected_time":1231000000000,"state":"active","ping":61},{"user_id":554,"name":"Cosmetic brain","steam_id":76561198055936410,"connected_time":192000000000,"state":"active","ping":75},{"user_id":552,"name":"Invoker-sama","steam_id":76561198128470403,"connected_time":240000000000,"state":"active","ping":114},{"user_id":536,"name":"I WILL CHANGE YOU","steam_id":76561198798803845,"connected_time":833000000000,"state":"active","ping":46},{"user_id":546,"name":"whatwasithinking","steam_id":76561198214848887,"connected_time":543000000000,"state":"active","ping":73},{"user_id":492,"name":"a leaf","steam_id":76561198242599168,"connected_time":3398000000000,"state":"active","ping":41},{"user_id":550,"name":"Xiqui","steam_id":76561198818386611,"connected_time":279000000000,"state":"active","ping":80},{"user_id":553,"name":"BŁäck..","steam_id":76561198300644952,"connected_time":236000000000,"state":"active","ping":85},{"user_id":505,"name":"Lilliputt","steam_id":76561198090146457,"connected_time":3053000000000,"state":"active","ping":41},{"user_id":519,"name":"disc0rd","steam_id":76561197985965776,"connected_time":2053000000000,"state":"active","ping":65},{"user_id":521,"name":"havoc","steam_id":76561198315371425,"connected_time":2046000000000,"state":"active","ping":45},{"user_id":535,"name":"ne0n","steam_id":76561198032101031,"connected_time":934000000000,"state":"active","ping":106},{"user_id":555,"name":"Q U E E N A L E X","steam_id":76561198186341157,"connected_time":187000000000,"state":"active","ping":50},{"user_id":556,"name":"C.H.E.R.E.P.","steam_id":76561198026938595,"connected_time":184000000000,"state":"active","ping":75},{"user_id":558,"name":"DeXtron","steam_id":76561198081657104,"connected_time":79000000000,"state":"active","ping":102},{"user_id":542,"name":"rob","steam_id":76561198122211848,"connected_time":712000000000,"state":"active","ping":98}]},{"server_id":21,"name":"Uncletopia | London | 5 | All Maps","name_short":"lon-5","host":"lon-1.uk.uncletopia.com","port":27055,"enabled":true,"region":"eu","cc":"gb","latitude":51.509865,"longitude":-0.118092,"reserved":0,"last_update":"0001-01-01T00:00:00Z","name_a2s":"Uncletopia | London | 5 | All Maps","protocol":17,"map":"pl_pier","folder":"tf","game":"Team Fortress","app_id":440,"player_count":24,"max_players":24,"Bots":0,"server_type":"Dedicated","server_os":"Linux","password":true,"vac":true,"version":"7961495","steam_id":85568392924742829,"keywords":["nocrits","nodmgspread","payload","uncletopia"],"game_id":440,"stv_port":27056,"stv_name":"Uncletopia | London | 5 | All Maps | STV","players":[{"user_id":276,"name":"Vince","steam_id":76561199103000131,"connected_time":1550000000000,"state":"active","ping":45},{"user_id":297,"name":"tone","steam_id":76561197975301462,"connected_time":72000000000,"state":"active","ping":75},{"user_id":265,"name":"Ozzie","steam_id":76561197992915315,"connected_time":1895000000000,"state":"active","ping":74},{"user_id":270,"name":"Urfangonultasadana","steam_id":76561199389286151,"connected_time":1685000000000,"state":"active","ping":87},{"user_id":286,"name":"yush","steam_id":76561198121688934,"connected_time":801000000000,"state":"active","ping":74},{"user_id":298,"name":"tired","steam_id":76561198046838168,"connected_time":50000000000,"state":"active","ping":60},{"user_id":287,"name":"ByggeSimon","steam_id":76561198134789176,"connected_time":793000000000,"state":"active","ping":76},{"user_id":281,"name":"worm with a fat ass","steam_id":76561198170026338,"connected_time":1245000000000,"state":"active","ping":78},{"user_id":290,"name":"ツtyegraツ","steam_id":76561198120768052,"connected_time":525000000000,"state":"active","ping":107},{"user_id":272,"name":"etc","steam_id":76561197998394797,"connected_time":1620000000000,"state":"active","ping":57},{"user_id":273,"name":"[HOL] Solringen","steam_id":76561198003584681,"connected_time":1600000000000,"state":"active","ping":75},{"user_id":274,"name":"♥ImWithMilk","steam_id":76561198269577569,"connected_time":1575000000000,"state":"active","ping":51},{"user_id":244,"name":"UltimateSlayer","steam_id":76561198384109309,"connected_time":3116000000000,"state":"active","ping":48},{"user_id":295,"name":"Haha?","steam_id":76561198056882245,"connected_time":116000000000,"state":"active","ping":32},{"user_id":291,"name":"peruna","steam_id":76561198000721196,"connected_time":511000000000,"state":"active","ping":80},{"user_id":277,"name":"Local Dumbass","steam_id":76561198252211608,"connected_time":1507000000000,"state":"active","ping":84},{"user_id":299,"name":"eknekneknekn","steam_id":76561198238126246,"connected_time":6000000000,"state":"spawning","ping":66},{"user_id":296,"name":"Mr. Crumpet","steam_id":76561198802117294,"connected_time":115000000000,"state":"active","ping":70},{"user_id":162,"name":"Eterneon","steam_id":76561198354080949,"connected_time":7932000000000,"state":"active","ping":53},{"user_id":253,"name":"Ceiling fan enthusiast","steam_id":76561197989214268,"connected_time":2593000000000,"state":"active","ping":63},{"user_id":279,"name":"Tusho","steam_id":76561198115447383,"connected_time":1462000000000,"state":"active","ping":72},{"user_id":289,"name":"gaming gamer","steam_id":76561198212488780,"connected_time":780000000000,"state":"active","ping":73},{"user_id":300,"name":"frankie","steam_id":76561198128953567,"connected_time":5000000000,"state":"spawning","ping":61},{"user_id":284,"name":"lorislk989","steam_id":76561199224251630,"connected_time":1117000000000,"state":"active","ping":76}]},{"server_id":22,"name":"Uncletopia | London | 6 | All Maps","name_short":"lon-6","host":"lon-1.uk.uncletopia.com","port":27065,"enabled":true,"region":"eu","cc":"gb","latitude":51.509865,"longitude":-0.118092,"reserved":0,"last_update":"0001-01-01T00:00:00Z","name_a2s":"Uncletopia | London | 6 | All Maps","protocol":17,"map":"koth_lakeside_final","folder":"tf","game":"Team Fortress","app_id":440,"player_count":0,"max_players":24,"Bots":0,"server_type":"Dedicated","server_os":"Linux","password":true,"vac":true,"version":"7961495","steam_id":85568392924742830,"keywords":["cp","nocrits","nodmgspread","uncletopia"],"game_id":440,"stv_port":27066,"stv_name":"Uncletopia | London | 6 | All Maps | STV","players":null},{"server_id":40,"name":"Uncletopia | London | 7 | No Payload","name_short":"lon-7","host":"lon-1.uk.uncletopia.com","port":27075,"enabled":true,"region":"eu","cc":"gb","latitude":51.509865,"longitude":-0.118092,"reserved":0,"last_update":"0001-01-01T00:00:00Z","name_a2s":"Uncletopia | London | 7 | No Payload","protocol":17,"map":"koth_harvest_final","folder":"tf","game":"Team Fortress","app_id":440,"player_count":21,"max_players":24,"Bots":0,"server_type":"Dedicated","server_os":"Linux","password":true,"vac":true,"version":"7961495","steam_id":85568392924964314,"keywords":["cp","nocrits","nodmgspread","uncletopia"],"game_id":440,"stv_port":27076,"stv_name":"Uncletopia | London | 7 | No Payload | STV","players":[{"user_id":28,"name":"Mobster Tortoise","steam_id":76561199036837091,"connected_time":5562000000000,"state":"active","ping":86},{"user_id":72,"name":"dAg is Buying Keys/CS Skins","steam_id":76561198047819527,"connected_time":585000000000,"state":"active","ping":103},{"user_id":69,"name":"Hoxton","steam_id":76561198129209505,"connected_time":636000000000,"state":"active","ping":71},{"user_id":31,"name":"Spectre","steam_id":76561198163819482,"connected_time":3892000000000,"state":"active","ping":62},{"user_id":65,"name":"Marquis de Hoto","steam_id":76561198080687708,"connected_time":659000000000,"state":"active","ping":72},{"user_id":53,"name":"revolver ocelot","steam_id":76561198866358613,"connected_time":858000000000,"state":"active","ping":156},{"user_id":34,"name":"Banatical Bean","steam_id":76561198122356617,"connected_time":3780000000000,"state":"active","ping":63},{"user_id":49,"name":"Blaze The Fox","steam_id":76561198068005085,"connected_time":1267000000000,"state":"active","ping":46},{"user_id":37,"name":"God's Goofiest Goober","steam_id":76561198103175187,"connected_time":3281000000000,"state":"active","ping":72},{"user_id":75,"name":"Jamiplayer","steam_id":76561198363733732,"connected_time":146000000000,"state":"active","ping":56},{"user_id":74,"name":"A single, solemn Doot","steam_id":76561197999459536,"connected_time":377000000000,"state":"active","ping":53},{"user_id":55,"name":"f0x","steam_id":76561198072921704,"connected_time":748000000000,"state":"active","ping":59},{"user_id":56,"name":"Senka1","steam_id":76561198848670931,"connected_time":745000000000,"state":"active","ping":124},{"user_id":57,"name":"Pvt. Prinny","steam_id":76561198030278562,"connected_time":736000000000,"state":"active","ping":46},{"user_id":58,"name":"\u003e:(","steam_id":76561199233979726,"connected_time":729000000000,"state":"active","ping":90},{"user_id":70,"name":"JosepXXL","steam_id":76561198407124695,"connected_time":617000000000,"state":"active","ping":85},{"user_id":60,"name":"MikeyTWolf","steam_id":76561197979325807,"connected_time":710000000000,"state":"active","ping":44},{"user_id":61,"name":"♥ Cirno ♥","steam_id":76561198834982738,"connected_time":707000000000,"state":"active","ping":71},{"user_id":62,"name":"Cabbch","steam_id":76561198045955679,"connected_time":704000000000,"state":"active","ping":55},{"user_id":63,"name":"(not) dumpster","steam_id":76561198429917681,"connected_time":684000000000,"state":"active","ping":44},{"user_id":78,"name":"Conan","steam_id":76561198158321202,"connected_time":40000000000,"state":"active","ping":61}]},{"server_id":41,"name":"Uncletopia | London | 8 | Community","name_short":"lon-8","host":"lon-1.uk.uncletopia.com","port":27085,"enabled":true,"region":"eu","cc":"gb","latitude":51.509865,"longitude":-0.118092,"reserved":0,"last_update":"0001-01-01T00:00:00Z","name_a2s":"Uncletopia | London | 8 | Community","protocol":17,"map":"workshop/cp_croissant_final.ugc458840209","folder":"tf","game":"Team Fortress","app_id":440,"player_count":0,"max_players":24,"Bots":0,"server_type":"Dedicated","server_os":"Linux","password":true,"vac":true,"version":"7961495","steam_id":85568392924964315,"keywords":["cp","nocrits","nodmgspread","uncletopia"],"game_id":440,"stv_port":27086,"stv_name":"Uncletopia | London | 8 | Community | STV","players":null},{"server_id":300,"name":"Uncletopia | Montréal | 1 | All Maps","name_short":"mtl-1","host":"mtl-1.ca.uncletopia.com","port":27015,"enabled":true,"region":"us-east","cc":"ca","latitude":45.50889,"longitude":-73.56167,"reserved":0,"last_update":"0001-01-01T00:00:00Z","name_a2s":"Uncletopia | Montréal | 1 | All Maps","protocol":17,"map":"pl_pier","folder":"tf","game":"Team Fortress","app_id":440,"player_count":0,"max_players":24,"Bots":0,"server_type":"Dedicated","server_os":"Linux","password":true,"vac":true,"version":"7961495","steam_id":85568392924500087,"keywords":["nocrits","nodmgspread","payload","uncletopia"],"game_id":440,"stv_port":27016,"stv_name":"Uncletopia | Montréal | 1 | All Maps | STV","players":null},{"server_id":301,"name":"Uncletopia | Montréal | 2 | All Maps","name_short":"mtl-2","host":"mtl-1.ca.uncletopia.com","port":27025,"enabled":true,"region":"us-east","cc":"ca","latitude":45.50889,"longitude":-73.56167,"reserved":0,"last_update":"0001-01-01T00:00:00Z","name_a2s":"Uncletopia | Montréal | 2 | All Maps","protocol":17,"map":"cp_process_final","folder":"tf","game":"Team Fortress","app_id":440,"player_count":0,"max_players":24,"Bots":0,"server_type":"Dedicated","server_os":"Linux","password":true,"vac":true,"version":"7961495","steam_id":85568392924500088,"keywords":["cp","nocrits","nodmgspread","uncletopia"],"game_id":440,"stv_port":27026,"stv_name":"Uncletopia | Montréal | 2 | All Maps | STV","players":null},{"server_id":302,"name":"Uncletopia | Montréal | 3 | All Maps","name_short":"mtl-3","host":"mtl-1.ca.uncletopia.com","port":27035,"enabled":true,"region":"us-east","cc":"ca","latitude":45.50889,"longitude":-73.56167,"reserved":0,"last_update":"0001-01-01T00:00:00Z","name_a2s":"Uncletopia | Montréal | 3 | All Maps","protocol":17,"map":"koth_cascade","folder":"tf","game":"Team Fortress","app_id":440,"player_count":0,"max_players":24,"Bots":0,"server_type":"Dedicated","server_os":"Linux","password":true,"vac":true,"version":"7961495","steam_id":85568392924500089,"keywords":["cp","nocrits","nodmgspread","uncletopia"],"game_id":440,"stv_port":27036,"stv_name":"Uncletopia | Montréal | 3 | All Maps | STV","players":null},{"server_id":303,"name":"Uncletopia | Montréal | 4 | No Payload","name_short":"mtl-4","host":"mtl-1.ca.uncletopia.com","port":27045,"enabled":true,"region":"us-east","cc":"ca","latitude":45.50889,"longitude":-73.56167,"reserved":0,"last_update":"0001-01-01T00:00:00Z","name_a2s":"Uncletopia | Montréal | 4 | No Payload","protocol":17,"map":"koth_lakeside_final","folder":"tf","game":"Team Fortress","app_id":440,"player_count":6,"max_players":24,"Bots":0,"server_type":"Dedicated","server_os":"Linux","password":true,"vac":true,"version":"7961495","steam_id":85568392924500090,"keywords":["cp","nocrits","nodmgspread","uncletopia"],"game_id":440,"stv_port":27046,"stv_name":"Uncletopia | Montréal | 4 | No Payload | STV","players":[{"user_id":4,"name":"cool beans","steam_id":76561198321591685,"connected_time":1635000000000,"state":"active","ping":95},{"user_id":7,"name":"DrDan64","steam_id":76561199013363718,"connected_time":292000000000,"state":"active","ping":69},{"user_id":6,"name":"lolzfrdawin21","steam_id":76561199006665979,"connected_time":1558000000000,"state":"active","ping":75},{"user_id":8,"name":"Sneakyflamingo","steam_id":76561199093026056,"connected_time":147000000000,"state":"active","ping":75},{"user_id":9,"name":"TimeWarper","steam_id":76561198307258839,"connected_time":127000000000,"state":"active","ping":43},{"user_id":10,"name":"Sway Sunnay","steam_id":76561198308817394,"connected_time":37000000000,"state":"spawning","ping":73}]},{"server_id":13,"name":"Uncletopia | New York City | 1 | All Maps","name_short":"nyc-1","host":"nyc-1.us.uncletopia.com","port":27015,"enabled":true,"region":"us-east","cc":"us","latitude":40.73061,"longitude":-73.93524,"reserved":0,"last_update":"0001-01-01T00:00:00Z","name_a2s":"Uncletopia | New York City | 1 | All Maps","protocol":17,"map":"pl_hoodoo_final","folder":"tf","game":"Team Fortress","app_id":440,"player_count":24,"max_players":24,"Bots":0,"server_type":"Dedicated","server_os":"Linux","password":true,"vac":true,"version":"7961495","steam_id":85568392924469993,"keywords":["nocrits","nodmgspread","payload","uncletopia"],"game_id":440,"stv_port":27016,"stv_name":"Uncletopia | New York City | 1 | All Maps | STV","players":[{"user_id":137,"name":"Rodgedan","steam_id":76561198226236524,"connected_time":670000000000,"state":"active","ping":79},{"user_id":125,"name":"Fireblade425","steam_id":76561199278401592,"connected_time":1186000000000,"state":"active","ping":81},{"user_id":114,"name":"juanjoesc","steam_id":76561198186368430,"connected_time":1882000000000,"state":"active","ping":134},{"user_id":150,"name":"cowboy","steam_id":76561199079124758,"connected_time":29000000000,"state":"spawning","ping":107},{"user_id":139,"name":"AlphazRD","steam_id":76561198149489341,"connected_time":479000000000,"state":"active","ping":104},{"user_id":126,"name":"LuckyZero-_-","steam_id":76561198139891051,"connected_time":1150000000000,"state":"active","ping":93},{"user_id":128,"name":"FADED GH0UL","steam_id":76561199203064435,"connected_time":1081000000000,"state":"active","ping":70},{"user_id":133,"name":"Infinity","steam_id":76561199134919099,"connected_time":949000000000,"state":"active","ping":59},{"user_id":134,"name":"MILKY","steam_id":76561198073114061,"connected_time":912000000000,"state":"active","ping":79},{"user_id":140,"name":"Nehammer","steam_id":76561198260743692,"connected_time":422000000000,"state":"active","ping":76},{"user_id":106,"name":"Nassu","steam_id":76561198147367577,"connected_time":2199000000000,"state":"active","ping":87},{"user_id":103,"name":"Green Icicle","steam_id":76561198069624529,"connected_time":2297000000000,"state":"active","ping":116},{"user_id":73,"name":"Wahooka","steam_id":76561197962240925,"connected_time":5138000000000,"state":"active","ping":46},{"user_id":146,"name":"Frog","steam_id":76561199165825711,"connected_time":211000000000,"state":"active","ping":86},{"user_id":147,"name":"Yami","steam_id":76561198116546266,"connected_time":191000000000,"state":"active","ping":72},{"user_id":145,"name":"Pigeon Nuggets","steam_id":76561198151200724,"connected_time":257000000000,"state":"active","ping":112},{"user_id":148,"name":"pinkissocool {f2p}","steam_id":76561198989599828,"connected_time":188000000000,"state":"active","ping":40},{"user_id":107,"name":"HOODOO_LOVER_2007","steam_id":76561199087691214,"connected_time":2164000000000,"state":"active","ping":95},{"user_id":149,"name":"sock_vendor","steam_id":76561198059103865,"connected_time":92000000000,"state":"active","ping":54},{"user_id":142,"name":"sqerkbo","steam_id":76561198080012700,"connected_time":396000000000,"state":"active","ping":46},{"user_id":143,"name":"Feared Gamer","steam_id":76561198350127514,"connected_time":391000000000,"state":"active","ping":55},{"user_id":144,"name":"wow120000000000000098","steam_id":76561198016826181,"connected_time":372000000000,"state":"active","ping":61},{"user_id":130,"name":"gren","steam_id":76561198161385366,"connected_time":1008000000000,"state":"active","ping":60},{"user_id":129,"name":"FADED ΣΙ C0RE #RustCases.com","steam_id":76561198338204564,"connected_time":1072000000000,"state":"active","ping":79}]},{"server_id":14,"name":"Uncletopia | New York City | 2 | All Maps","name_short":"nyc-2","host":"nyc-1.us.uncletopia.com","port":27025,"enabled":true,"region":"us-east","cc":"us","latitude":40.73061,"longitude":-73.93524,"reserved":0,"last_update":"0001-01-01T00:00:00Z","name_a2s":"Uncletopia | New York City | 2 | All Maps","protocol":17,"map":"koth_king","folder":"tf","game":"Team Fortress","app_id":440,"player_count":24,"max_players":24,"Bots":0,"server_type":"Dedicated","server_os":"Linux","password":true,"vac":true,"version":"7961495","steam_id":85568392924469994,"keywords":["cp","nocrits","nodmgspread","uncletopia"],"game_id":440,"stv_port":27026,"stv_name":"Uncletopia | New York City | 2 | All Maps | STV","players":[{"user_id":384,"name":"tesagi","steam_id":76561198026664629,"connected_time":716000000000,"state":"active","ping":48},{"user_id":357,"name":"MioAnarchy","steam_id":76561198237106136,"connected_time":2289000000000,"state":"active","ping":85},{"user_id":397,"name":"Decolour","steam_id":76561199045608372,"connected_time":13000000000,"state":"spawning","ping":75},{"user_id":393,"name":"KBoneski ♡","steam_id":76561198307409065,"connected_time":280000000000,"state":"active","ping":78},{"user_id":385,"name":"CrunchCisco","steam_id":76561199162724832,"connected_time":715000000000,"state":"active","ping":90},{"user_id":338,"name":"Pango","steam_id":76561198069811545,"connected_time":3879000000000,"state":"active","ping":66},{"user_id":394,"name":"Lancer Fan Club","steam_id":76561198355495948,"connected_time":214000000000,"state":"active","ping":74},{"user_id":356,"name":"phfez","steam_id":76561198046150386,"connected_time":2535000000000,"state":"active","ping":83},{"user_id":395,"name":"Bark Soul","steam_id":76561198061791538,"connected_time":201000000000,"state":"active","ping":72},{"user_id":361,"name":"Luis wid a mic","steam_id":76561198349570006,"connected_time":2236000000000,"state":"active","ping":41},{"user_id":365,"name":"Bronze Age Furvert","steam_id":76561198859118263,"connected_time":2157000000000,"state":"active","ping":82},{"user_id":322,"name":"stink","steam_id":76561198099318923,"connected_time":5826000000000,"state":"active","ping":66},{"user_id":345,"name":"BigBubble42","steam_id":76561198136286123,"connected_time":3287000000000,"state":"active","ping":64},{"user_id":386,"name":"The ghostly Piss MN","steam_id":76561198209197020,"connected_time":677000000000,"state":"active","ping":56},{"user_id":346,"name":"Yee McGee","steam_id":76561198350041162,"connected_time":3239000000000,"state":"active","ping":63},{"user_id":273,"name":"４０ ＦＰＳ","steam_id":76561198272394965,"connected_time":9729000000000,"state":"active","ping":173},{"user_id":326,"name":"REALLINUSJEWTIP.","steam_id":76561198056647983,"connected_time":5782000000000,"state":"active","ping":74},{"user_id":391,"name":"Spandi","steam_id":76561198121023118,"connected_time":418000000000,"state":"active","ping":158},{"user_id":392,"name":"Stryder","steam_id":76561199387418697,"connected_time":392000000000,"state":"active","ping":98},{"user_id":387,"name":"Guwop","steam_id":76561197970425737,"connected_time":677000000000,"state":"active","ping":72},{"user_id":366,"name":"Special","steam_id":76561198070380404,"connected_time":2025000000000,"state":"active","ping":45},{"user_id":363,"name":"Thedarkdot","steam_id":76561199200787877,"connected_time":2213000000000,"state":"active","ping":55},{"user_id":396,"name":"leonardo doujinshi","steam_id":76561198025810326,"connected_time":197000000000,"state":"active","ping":64},{"user_id":295,"name":"Gravity","steam_id":76561198066875223,"connected_time":8166000000000,"state":"active","ping":104}]},{"server_id":15,"name":"Uncletopia | New York City | 3 | Stopwatch Beta","name_short":"nyc-3","host":"nyc-1.us.uncletopia.com","port":27035,"enabled":true,"region":"us-east","cc":"us","latitude":40.73061,"longitude":-73.93524,"reserved":0,"last_update":"0001-01-01T00:00:00Z","name_a2s":"Uncletopia | New York City | 3 | Stopwatch Beta","protocol":17,"map":"pl_upward","folder":"tf","game":"Team Fortress","app_id":440,"player_count":0,"max_players":24,"Bots":0,"server_type":"Dedicated","server_os":"Linux","password":true,"vac":true,"version":"7961495","steam_id":85568392924742820,"keywords":["nocrits","nodmgspread","payload","uncletopia"],"game_id":440,"stv_port":27036,"stv_name":"Uncletopia | New York City | 3 | Stopwatch Beta | STV","players":null},{"server_id":16,"name":"Uncletopia | New York City | 4 | Community","name_short":"nyc-4","host":"nyc-1.us.uncletopia.com","port":27045,"enabled":true,"region":"us-east","cc":"us","latitude":40.73061,"longitude":-73.93524,"reserved":0,"last_update":"0001-01-01T00:00:00Z","name_a2s":"Uncletopia | New York City | 4 | Community","protocol":17,"map":"koth_lakeside_final","folder":"tf","game":"Team Fortress","app_id":440,"player_count":0,"max_players":24,"Bots":0,"server_type":"Dedicated","server_os":"Linux","password":true,"vac":true,"version":"7961495","steam_id":85568392924742821,"keywords":["cp","nocrits","nodmgspread","uncletopia"],"game_id":440,"stv_port":27046,"stv_name":"Uncletopia | New York City | 4 | Community | STV","players":null},{"server_id":142,"name":"Uncletopia | São Paulo | 1 | All Maps","name_short":"sao-1","host":"sao-1.br.uncletopia.com","port":27015,"enabled":true,"region":"sa","cc":"br","latitude":-23.533773,"longitude":-46.62529,"reserved":0,"last_update":"0001-01-01T00:00:00Z","name_a2s":"Uncletopia | São Paulo | 1 | All Maps","protocol":17,"map":"koth_highpass","folder":"tf","game":"Team Fortress","app_id":440,"player_count":5,"max_players":24,"Bots":0,"server_type":"Dedicated","server_os":"Linux","password":true,"vac":true,"version":"7961495","steam_id":85568392924469996,"keywords":["cp","nocrits","nodmgspread","uncletopia"],"game_id":440,"stv_port":27016,"stv_name":"Uncletopia | São Paulo | 1 | All Maps | STV","players":[{"user_id":12,"name":"guarda-chuva","steam_id":76561198078694330,"connected_time":743000000000,"state":"active","ping":61},{"user_id":13,"name":"Tert_14","steam_id":76561198185952289,"connected_time":627000000000,"state":"active","ping":63},{"user_id":14,"name":"KowoT","steam_id":76561198274546496,"connected_time":141000000000,"state":"active","ping":70},{"user_id":15,"name":"opai","steam_id":76561198965538287,"connected_time":116000000000,"state":"spawning","ping":55},{"user_id":17,"name":"Frans","steam_id":76561198207928860,"connected_time":57000000000,"state":"active","ping":33}]},{"server_id":143,"name":"Uncletopia | São Paulo | 2 | Community","name_short":"sao-2","host":"sao-2.br.uncletopia.com","port":27015,"enabled":true,"region":"sa","cc":"br","latitude":-23.533773,"longitude":-46.62529,"reserved":0,"last_update":"0001-01-01T00:00:00Z","name_a2s":"Uncletopia | São Paulo | 2 | Community","protocol":17,"map":"workshop/pl_barnblitz_pro7.ugc582280235","folder":"tf","game":"Team Fortress","app_id":440,"player_count":0,"max_players":24,"Bots":0,"server_type":"Dedicated","server_os":"Linux","password":true,"vac":true,"version":"7961495","steam_id":85568392924485349,"keywords":["nocrits","nodmgspread","payload","uncletopia"],"game_id":440,"stv_port":27016,"stv_name":"Uncletopia | São Paulo | 2 | Community | STV","players":null},{"server_id":7,"name":"Uncletopia | Seattle | 1 | All Maps","name_short":"sea-1","host":"sea-1.us.uncletopia.com","port":27015,"enabled":true,"region":"us-west","cc":"us","latitude":47.608013,"longitude":-122.33517,"reserved":0,"last_update":"0001-01-01T00:00:00Z","name_a2s":"Uncletopia | Seattle | 1 | All Maps","protocol":17,"map":"pl_upward","folder":"tf","game":"Team Fortress","app_id":440,"player_count":24,"max_players":24,"Bots":0,"server_type":"Dedicated","server_os":"Linux","password":true,"vac":true,"version":"7961495","steam_id":85568392924469997,"keywords":["nocrits","nodmgspread","payload","uncletopia"],"game_id":440,"stv_port":27016,"stv_name":"Uncletopia | Seattle | 1 | All Maps | STV","players":[{"user_id":277,"name":"Rat Smoker","steam_id":76561198090419068,"connected_time":6541000000000,"state":"active","ping":77},{"user_id":342,"name":"Tideflat","steam_id":76561198179850851,"connected_time":970000000000,"state":"active","ping":61},{"user_id":364,"name":"fruit brute fiend","steam_id":76561198811500361,"connected_time":361000000000,"state":"active","ping":43},{"user_id":343,"name":"fwoov","steam_id":76561198129166260,"connected_time":942000000000,"state":"active","ping":76},{"user_id":279,"name":"Empyrean","steam_id":76561198116398716,"connected_time":6422000000000,"state":"active","ping":83},{"user_id":344,"name":"Themasterman75","steam_id":76561199385573293,"connected_time":934000000000,"state":"active","ping":73},{"user_id":335,"name":"McDonald","steam_id":76561199028533497,"connected_time":2103000000000,"state":"active","ping":81},{"user_id":345,"name":"shane","steam_id":76561198060491451,"connected_time":907000000000,"state":"active","ping":85},{"user_id":346,"name":"lemonjack","steam_id":76561198277380277,"connected_time":866000000000,"state":"active","ping":85},{"user_id":347,"name":"giant_dork","steam_id":76561199105606956,"connected_time":859000000000,"state":"active","ping":114},{"user_id":311,"name":"Confirmed Bachelor","steam_id":76561198441041496,"connected_time":3816000000000,"state":"active","ping":59},{"user_id":348,"name":"Meet The Kazoo","steam_id":76561199229748300,"connected_time":849000000000,"state":"active","ping":87},{"user_id":270,"name":"Crustacean Daddy","steam_id":76561198993807061,"connected_time":7023000000000,"state":"active","ping":81},{"user_id":321,"name":"dodecadron","steam_id":76561198027397222,"connected_time":3412000000000,"state":"active","ping":67},{"user_id":350,"name":"i love crack","steam_id":76561199158284778,"connected_time":817000000000,"state":"active","ping":114},{"user_id":338,"name":"Synergy","steam_id":76561198098630198,"connected_time":1746000000000,"state":"active","ping":48},{"user_id":365,"name":"pepe warlord","steam_id":76561198080819197,"connected_time":346000000000,"state":"active","ping":83},{"user_id":352,"name":"FakingGhost","steam_id":76561198338939342,"connected_time":796000000000,"state":"active","ping":65},{"user_id":353,"name":"Elfy","steam_id":76561199166448617,"connected_time":779000000000,"state":"active","ping":54},{"user_id":355,"name":"Drilly22","steam_id":76561198068838338,"connected_time":741000000000,"state":"active","ping":112},{"user_id":356,"name":"Irase","steam_id":76561198065354440,"connected_time":724000000000,"state":"active","ping":72},{"user_id":357,"name":"Jrazz","steam_id":76561199075670262,"connected_time":699000000000,"state":"active","ping":95},{"user_id":318,"name":"GaySkitarii","steam_id":76561198403829714,"connected_time":3528000000000,"state":"active","ping":44},{"user_id":361,"name":"gïbster","steam_id":76561198388032598,"connected_time":627000000000,"state":"active","ping":64}]},{"server_id":119,"name":"Uncletopia | Seattle | 2 | All Maps","name_short":"sea-2","host":"sea-1.us.uncletopia.com","port":27025,"enabled":true,"region":"us-west","cc":"us","latitude":47.608013,"longitude":-122.33517,"reserved":0,"last_update":"0001-01-01T00:00:00Z","name_a2s":"Uncletopia | Seattle | 2 | All Maps","protocol":17,"map":"pl_upward","folder":"tf","game":"Team Fortress","app_id":440,"player_count":20,"max_players":24,"Bots":0,"server_type":"Dedicated","server_os":"Linux","password":true,"vac":true,"version":"7961495","steam_id":85568392924469998,"keywords":["nocrits","nodmgspread","payload","uncletopia"],"game_id":440,"stv_port":27026,"stv_name":"Uncletopia | Seattle | 2 | All Maps | STV","players":[{"user_id":51,"name":"Ⓑ⓪⓪ⓣⓨⓒⓐⓚⓔⓢ","steam_id":76561198088776421,"connected_time":3775000000000,"state":"active","ping":91},{"user_id":9,"name":"spiderland","steam_id":76561198335992132,"connected_time":7486000000000,"state":"active","ping":29},{"user_id":106,"name":"Mocha Josie","steam_id":76561198066452726,"connected_time":96000000000,"state":"active","ping":75},{"user_id":109,"name":"craxyt","steam_id":76561198050192689,"connected_time":0,"state":"spawning","ping":37},{"user_id":12,"name":"K2f","steam_id":76561198049600563,"connected_time":6729000000000,"state":"active","ping":67},{"user_id":50,"name":"Angela :3","steam_id":76561198991101353,"connected_time":3926000000000,"state":"active","ping":45},{"user_id":102,"name":"[COS]SonneyDonkeh","steam_id":76561198091284496,"connected_time":992000000000,"state":"active","ping":81},{"user_id":48,"name":"♦Benji♦","steam_id":76561198313529973,"connected_time":4376000000000,"state":"active","ping":40},{"user_id":91,"name":"Frankie muniz","steam_id":76561198125947844,"connected_time":1528000000000,"state":"active","ping":71},{"user_id":108,"name":"ScatterFreeze","steam_id":76561198822996370,"connected_time":89000000000,"state":"spawning","ping":89},{"user_id":56,"name":"Mr. Carfox","steam_id":76561198041664428,"connected_time":3544000000000,"state":"active","ping":59},{"user_id":104,"name":"Feldspaten","steam_id":76561199122059102,"connected_time":361000000000,"state":"active","ping":97},{"user_id":83,"name":"tf_weapon_sniperrifle","steam_id":76561198040415947,"connected_time":2018000000000,"state":"active","ping":58},{"user_id":103,"name":"Giant","steam_id":76561198851536991,"connected_time":990000000000,"state":"active","ping":81},{"user_id":105,"name":"LILGI4THAW","steam_id":76561198403803842,"connected_time":146000000000,"state":"active","ping":57},{"user_id":64,"name":"SnazzyCelestial","steam_id":76561198328763813,"connected_time":3304000000000,"state":"active","ping":128},{"user_id":96,"name":"Vincent Van Bro","steam_id":76561197966919802,"connected_time":1397000000000,"state":"active","ping":56},{"user_id":57,"name":"sadlaxx","steam_id":76561198061354919,"connected_time":3520000000000,"state":"active","ping":88},{"user_id":66,"name":"craftylongsword","steam_id":76561198340102940,"connected_time":3242000000000,"state":"active","ping":56},{"user_id":67,"name":"McSpazatron","steam_id":76561198955942148,"connected_time":3187000000000,"state":"active","ping":67}]},{"server_id":406,"name":"Uncletopia | Seattle | 3 | Stopwatch Beta","name_short":"sea-3","host":"sea-1.us.uncletopia.com","port":27035,"enabled":true,"region":"us-west","cc":"us","latitude":47.608013,"longitude":-122.33517,"reserved":0,"last_update":"0001-01-01T00:00:00Z","name_a2s":"Uncletopia | Seattle | 3 | Stopwatch Beta","protocol":17,"map":"workshop/cp_reckoner_rc6.ugc674719999","folder":"tf","game":"Team Fortress","app_id":440,"player_count":0,"max_players":24,"Bots":0,"server_type":"Dedicated","server_os":"Linux","password":true,"vac":true,"version":"7961495","steam_id":85568392924515217,"keywords":["cp","nocrits","nodmgspread","uncletopia"],"game_id":440,"stv_port":27036,"stv_name":"Uncletopia | Seattle | 3 | Stopwatch Beta | STV","players":null},{"server_id":17,"name":"Uncletopia | San Francisco | 1 | All Maps","name_short":"sfo-1","host":"sfo-1.us.uncletopia.com","port":27015,"enabled":true,"region":"us-west","cc":"us","latitude":37.77397,"longitude":-122.4313,"reserved":0,"last_update":"0001-01-01T00:00:00Z","name_a2s":"Uncletopia | San Francisco | 1 | All Maps","protocol":17,"map":"koth_viaduct","folder":"tf","game":"Team Fortress","app_id":440,"player_count":0,"max_players":24,"Bots":0,"server_type":"Dedicated","server_os":"Linux","password":true,"vac":true,"version":"7961495","steam_id":85568392924469999,"keywords":["cp","nocrits","nodmgspread","uncletopia"],"game_id":440,"stv_port":27016,"stv_name":"Uncletopia | San Francisco | 1 | All Maps | STV","players":null},{"server_id":18,"name":"Uncletopia | San Francisco | 2 | All Maps","name_short":"sfo-2","host":"sfo-1.us.uncletopia.com","port":27025,"enabled":true,"region":"us-west","cc":"us","latitude":37.77397,"longitude":-122.4313,"reserved":0,"last_update":"0001-01-01T00:00:00Z","name_a2s":"Uncletopia | San Francisco | 2 | All Maps","protocol":17,"map":"pl_frontier_final","folder":"tf","game":"Team Fortress","app_id":440,"player_count":0,"max_players":24,"Bots":0,"server_type":"Dedicated","server_os":"Linux","password":true,"vac":true,"version":"7961495","steam_id":85568392924470000,"keywords":["nocrits","nodmgspread","payload","uncletopia"],"game_id":440,"stv_port":27026,"stv_name":"Uncletopia | San Francisco | 2 | All Maps | STV","players":null},{"server_id":19,"name":"Uncletopia | San Francisco | 3 | Stopwatch Beta","name_short":"sfo-3","host":"sfo-1.us.uncletopia.com","port":27035,"enabled":true,"region":"us-west","cc":"us","latitude":37.77397,"longitude":-122.4313,"reserved":0,"last_update":"0001-01-01T00:00:00Z","name_a2s":"Uncletopia | San Francisco | 3 | Stopwatch Beta","protocol":17,"map":"pl_borneo","folder":"tf","game":"Team Fortress","app_id":440,"player_count":0,"max_players":24,"Bots":0,"server_type":"Dedicated","server_os":"Linux","password":true,"vac":true,"version":"7961495","steam_id":85568392924742824,"keywords":["nocrits","nodmgspread","payload","uncletopia"],"game_id":440,"stv_port":27036,"stv_name":"Uncletopia | San Francisco | 3 | Stopwatch Beta | STV","players":null},{"server_id":20,"name":"Uncletopia | San Francisco | 4 | Community","name_short":"sfo-4","host":"sfo-1.us.uncletopia.com","port":27045,"enabled":true,"region":"us-west","cc":"us","latitude":37.77397,"longitude":-122.4313,"reserved":0,"last_update":"0001-01-01T00:00:00Z","name_a2s":"Uncletopia | San Francisco | 4 | Community","protocol":17,"map":"koth_viaduct","folder":"tf","game":"Team Fortress","app_id":440,"player_count":0,"max_players":24,"Bots":0,"server_type":"Dedicated","server_os":"Linux","password":true,"vac":true,"version":"7961495","steam_id":85568392924742826,"keywords":["cp","nocrits","nodmgspread","uncletopia"],"game_id":440,"stv_port":27046,"stv_name":"Uncletopia | San Francisco | 4 | Community | STV","players":null},{"server_id":141,"name":"Uncletopia | Sydney | 1 | All Maps","name_short":"syd-1","host":"syd-1.au.uncletopia.com","port":27015,"enabled":true,"region":"au","cc":"au","latitude":-33.865143,"longitude":151.2099,"reserved":0,"last_update":"0001-01-01T00:00:00Z","name_a2s":"Uncletopia | Sydney | 1 | All Maps","protocol":17,"map":"pl_swiftwater_final1","folder":"tf","game":"Team Fortress","app_id":440,"player_count":0,"max_players":24,"Bots":0,"server_type":"Dedicated","server_os":"Linux","password":true,"vac":true,"version":"7961495","steam_id":85568392924470001,"keywords":["nocrits","nodmgspread","payload","uncletopia"],"game_id":440,"stv_port":27016,"stv_name":"Uncletopia | Sydney | 1 | All Maps | STV","players":null},{"server_id":123,"name":"Uncletopia | Sydney | 2 | All Maps","name_short":"syd-2","host":"syd-1.au.uncletopia.com","port":27025,"enabled":true,"region":"au","cc":"au","latitude":-33.865143,"longitude":151.2099,"reserved":0,"last_update":"0001-01-01T00:00:00Z","name_a2s":"Uncletopia | Sydney | 2 | All Maps","protocol":17,"map":"pl_snowycoast","folder":"tf","game":"Team Fortress","app_id":440,"player_count":0,"max_players":24,"Bots":0,"server_type":"Dedicated","server_os":"Linux","password":true,"vac":true,"version":"7961495","steam_id":85568392924470002,"keywords":["nocrits","nodmgspread","payload","uncletopia"],"game_id":440,"stv_port":27026,"stv_name":"Uncletopia | Sydney | 2 | All Maps | STV","players":null},{"server_id":395,"name":"Uncletopia | Sydney | 3 | All Maps","name_short":"syd-3","host":"syd-1.au.uncletopia.com","port":27035,"enabled":true,"region":"au","cc":"au","latitude":-33.865143,"longitude":151.2099,"reserved":0,"last_update":"0001-01-01T00:00:00Z","name_a2s":"Uncletopia | Sydney | 3 | All Maps","protocol":17,"map":"cp_dustbowl","folder":"tf","game":"Team Fortress","app_id":440,"player_count":0,"max_players":24,"Bots":0,"server_type":"Dedicated","server_os":"Linux","password":true,"vac":true,"version":"7961495","steam_id":85568392925194467,"keywords":["cp","nocrits","nodmgspread","uncletopia"],"game_id":440,"stv_port":27036,"stv_name":"Uncletopia | Sydney | 3 | All Maps | STV","players":null},{"server_id":396,"name":"Uncletopia | Sydney | 4 | All Maps","name_short":"syd-4","host":"syd-1.au.uncletopia.com","port":27045,"enabled":true,"region":"au","cc":"au","latitude":-33.865143,"longitude":151.2099,"reserved":0,"last_update":"0001-01-01T00:00:00Z","name_a2s":"Uncletopia | Sydney | 4 | All Maps","protocol":17,"map":"cp_dustbowl","folder":"tf","game":"Team Fortress","app_id":440,"player_count":0,"max_players":24,"Bots":0,"server_type":"Dedicated","server_os":"Linux","password":true,"vac":true,"version":"7961495","steam_id":85568392925397958,"keywords":["cp","nocrits","nodmgspread","uncletopia"],"game_id":440,"stv_port":27046,"stv_name":"Uncletopia | Sydney | 4 | All Maps | STV","players":null},{"server_id":58,"name":"Uncletopia | Sydney | 5 | Stopwatch Beta","name_short":"syd-5","host":"syd-1.au.uncletopia.com","port":27055,"enabled":true,"region":"au","cc":"au","latitude":-33.865143,"longitude":151.2099,"reserved":0,"last_update":"0001-01-01T00:00:00Z","name_a2s":"Uncletopia | Sydney | 5 | Stopwatch Beta","protocol":17,"map":"koth_viaduct","folder":"tf","game":"Team Fortress","app_id":440,"player_count":0,"max_players":24,"Bots":0,"server_type":"Dedicated","server_os":"Linux","password":true,"vac":true,"version":"7961495","steam_id":85568392925397959,"keywords":["cp","nocrits","nodmgspread","uncletopia"],"game_id":440,"stv_port":27056,"stv_name":"Uncletopia | Sydney | 5 | Stopwatch Beta | STV","players":null},{"server_id":59,"name":"Uncletopia | Sydney | 6 | Community","name_short":"syd-6","host":"syd-1.au.uncletopia.com","port":27065,"enabled":true,"region":"au","cc":"au","latitude":-33.865143,"longitude":151.2099,"reserved":0,"last_update":"0001-01-01T00:00:00Z","name_a2s":"Uncletopia | Sydney | 6 | Community","protocol":17,"map":"koth_cascade","folder":"tf","game":"Team Fortress","app_id":440,"player_count":0,"max_players":24,"Bots":0,"server_type":"Dedicated","server_os":"Linux","password":true,"vac":true,"version":"7961495","steam_id":85568392925397960,"keywords":["cp","nocrits","nodmgspread","uncletopia"],"game_id":440,"stv_port":27066,"stv_name":"Uncletopia | Sydney | 6 | Community | STV","players":null},{"server_id":49,"name":"Uncletopia | Warsaw | 1 | All Maps","name_short":"waw-1","host":"waw-1.pl.uncletopia.com","port":27015,"enabled":true,"region":"eu","cc":"pl","latitude":52.2297,"longitude":21.017532,"reserved":0,"last_update":"0001-01-01T00:00:00Z","name_a2s":"Uncletopia | Warsaw | 1 | All Maps","protocol":17,"map":"koth_highpass","folder":"tf","game":"Team Fortress","app_id":440,"player_count":0,"max_players":24,"Bots":0,"server_type":"Dedicated","server_os":"Linux","password":true,"vac":true,"version":"7961495","steam_id":85568392925397850,"keywords":["cp","nocrits","nodmgspread","uncletopia"],"game_id":440,"stv_port":27016,"stv_name":"Uncletopia | Warsaw | 1 | All Maps | STV","players":null},{"server_id":50,"name":"Uncletopia | Warsaw | 2 | All Maps","name_short":"waw-2","host":"waw-1.pl.uncletopia.com","port":27025,"enabled":true,"region":"eu","cc":"pl","latitude":52.2297,"longitude":21.017532,"reserved":0,"last_update":"0001-01-01T00:00:00Z","name_a2s":"Uncletopia | Warsaw | 2 | All Maps","protocol":17,"map":"cp_process_final","folder":"tf","game":"Team Fortress","app_id":440,"player_count":0,"max_players":24,"Bots":0,"server_type":"Dedicated","server_os":"Linux","password":true,"vac":true,"version":"7961495","steam_id":85568392925397851,"keywords":["cp","nocrits","nodmgspread","uncletopia"],"game_id":440,"stv_port":27026,"stv_name":"Uncletopia | Warsaw | 2 | All Maps | STV","players":null},{"server_id":51,"name":"Uncletopia | Warsaw | 3 | All Maps","name_short":"waw-3","host":"waw-1.pl.uncletopia.com","port":27035,"enabled":true,"region":"eu","cc":"pl","latitude":52.2297,"longitude":21.017532,"reserved":0,"last_update":"0001-01-01T00:00:00Z","name_a2s":"Uncletopia | Warsaw | 3 | All Maps","protocol":17,"map":"cp_snakewater_final1","folder":"tf","game":"Team Fortress","app_id":440,"player_count":0,"max_players":24,"Bots":0,"server_type":"Dedicated","server_os":"Linux","password":true,"vac":true,"version":"7961495","steam_id":85568392925397852,"keywords":["cp","nocrits","nodmgspread","uncletopia"],"game_id":440,"stv_port":27036,"stv_name":"Uncletopia | Warsaw | 3 | All Maps | STV","players":null},{"server_id":52,"name":"Uncletopia | Warsaw | 4 | All Maps","name_short":"waw-4","host":"waw-1.pl.uncletopia.com","port":27045,"enabled":true,"region":"eu","cc":"pl","latitude":52.2297,"longitude":21.017532,"reserved":0,"last_update":"0001-01-01T00:00:00Z","name_a2s":"Uncletopia | Warsaw | 4 | All Maps","protocol":17,"map":"pl_pier","folder":"tf","game":"Team Fortress","app_id":440,"player_count":0,"max_players":24,"Bots":0,"server_type":"Dedicated","server_os":"Linux","password":true,"vac":true,"version":"7961495","steam_id":85568392925397853,"keywords":["nocrits","nodmgspread","payload","uncletopia"],"game_id":440,"stv_port":27046,"stv_name":"Uncletopia | Warsaw | 4 | All Maps | STV","players":null},{"server_id":53,"name":"Uncletopia | Warsaw | 5 | Stopwatch Beta","name_short":"waw-5","host":"waw-1.pl.uncletopia.com","port":27055,"enabled":true,"region":"eu","cc":"pl","latitude":52.2297,"longitude":21.017532,"reserved":0,"last_update":"0001-01-01T00:00:00Z","name_a2s":"Uncletopia | Warsaw | 5 | Stopwatch Beta","protocol":17,"map":"workshop/pl_barnblitz_pro7.ugc582280235","folder":"tf","game":"Team Fortress","app_id":440,"player_count":0,"max_players":24,"Bots":0,"server_type":"Dedicated","server_os":"Linux","password":true,"vac":true,"version":"7961495","steam_id":85568392925397854,"keywords":["nocrits","nodmgspread","payload","uncletopia"],"game_id":440,"stv_port":27056,"stv_name":"Uncletopia | Warsaw | 5 | Stopwatch Beta | STV","players":null},{"server_id":54,"name":"Uncletopia | Warsaw | 6 | Community","name_short":"waw-6","host":"waw-1.pl.uncletopia.com","port":27065,"enabled":true,"region":"eu","cc":"pl","latitude":52.2297,"longitude":21.017532,"reserved":0,"last_update":"0001-01-01T00:00:00Z","name_a2s":"Uncletopia | Warsaw | 6 | Community","protocol":17,"map":"workshop/koth_synthetic_rc6a.ugc1549817316","folder":"tf","game":"Team Fortress","app_id":440,"player_count":0,"max_players":24,"Bots":0,"server_type":"Dedicated","server_os":"Linux","password":true,"vac":true,"version":"7961495","steam_id":85568392925397856,"keywords":["cp","nocrits","nodmgspread","uncletopia"],"game_id":440,"stv_port":27066,"stv_name":"Uncletopia | Warsaw | 6 | Community | STV","players":null}]}