{"status":true,"message":"","result":[{"server_id":9,"name":"Uncletopia | Atlanta | 1 | All Maps","name_short":"atl-1","host":"atl-1.us.uncletopia.com","port":27015,"enabled":true,"region":"us-east","cc":"us","latitude":33.753746,"longitude":-84.38633,"reserved":0,"last_update":"0001-01-01T00:00:00Z","name_a2s":"Uncletopia | Atlanta | 1 | All Maps","protocol":17,"map":"plr_bananabay","folder":"tf","game":"Team Fortress","app_id":440,"player_count":24,"max_players":24,"Bots":0,"server_type":"Dedicated","server_os":"Linux","password":true,"vac":true,"version":"7961495","steam_id":85568392924469982,"keywords":["nocrits","nodmgspread","payload","uncletopia"],"game_id":440,"stv_port":27016,"stv_name":"Uncletopia | Atlanta | 1 | All Maps | STV","players":[{"user_id":231,"name":"Kiso","steam_id":76561198141026844,"connected_time":143000000000,"state":"active","ping":118},{"user_id":211,"name":"lu","steam_id":76561198080731872,"connected_time":2678000000000,"state":"active","ping":70},{"user_id":212,"name":"PinkLemonade","steam_id":76561198799286228,"connected_time":2146000000000,"state":"active","ping":64},{"user_id":223,"name":"e0e0","steam_id":76561198293839750,"connected_time":1072000000000,"state":"active","ping":57},{"user_id":196,"name":"lynt","steam_id":76561198988333976,"connected_time":3530000000000,"state":"active","ping":45},{"user_id":190,"name":"(∩'-´)⊃ Sapphic Lesbian Yu","steam_id":76561199500664171,"connected_time":4647000000000,"state":"active","ping":59},{"user_id":195,"name":"Immoral Boi","steam_id":76561198069551646,"connected_time":3943000000000,"state":"active","ping":60},{"user_id":219,"name":"Oopsie Daisy ❋","steam_id":76561198042144492,"connected_time":1743000000000,"state":"active","ping":44},{"user_id":228,"name":"Erchius (she/her)","steam_id":76561198256892300,"connected_time":313000000000,"state":"active","ping":46},{"user_id":213,"name":"Nyle","steam_id":76561198045652639,"connected_time":2141000000000,"state":"active","ping":116},{"user_id":234,"name":"Glossophobial","steam_id":76561199013733143,"connected_time":60000000000,"state":"active","ping":62},{"user_id":218,"name":"Poo","steam_id":76561198265144507,"connected_time":1888000000000,"state":"active","ping":70},{"user_id":202,"name":"Tmiracle","steam_id":76561198052375275,"connected_time":2945000000000,"state":"active","ping":119},{"user_id":229,"name":"krabby","steam_id":76561199072773402,"connected_time":213000000000,"state":"active","ping":60},{"user_id":235,"name":"Ozald","steam_id":76561199092019322,"connected_time":60000000000,"state":"active","ping":58},{"user_id":225,"name":"Owtk","steam_id":76561198362380245,"connected_time":821000000000,"state":"active","ping":164},{"user_id":227,"name":"Wingm4n","steam_id":76561198064127012,"connected_time":365000000000,"state":"active","ping":46},{"user_id":203,"name":"Motreir","steam_id":76561198151717946,"connected_time":2936000000000,"state":"active","ping":80},{"user_id":210,"name":"unfrigginbelievable","steam_id":76561198835673715,"connected_time":2728000000000,"state":"active","ping":63},{"user_id":236,"name":"mdharsy","steam_id":76561198065831053,"connected_time":56000000000,"state":"active","ping":94},{"user_id":221,"name":"TheBrocklobster","steam_id":76561198039682984,"connected_time":1517000000000,"state":"active","ping":100},{"user_id":237,"name":"yeff","steam_id":76561198082387158,"connected_time":50000000000,"state":"active","ping":58},{"user_id":238,"name":"andyiscolorless","steam_id":76561199239870921,"connected_time":21000000000,"state":"spawning","ping":187},{"user_id":201,"name":"Frost ♥","steam_id":76561198168870617,"connected_time":3096000000000,"state":"active","ping":75}]},{"server_id":104,"name":"Uncletopia | Atlanta | 2 | All Maps","name_short":"atl-2","host":"atl-1.us.uncletopia.com","port":27025,"enabled":true,"region":"us-east","cc":"us","latitude":33.753746,"longitude":-84.38633,"reserved":0,"last_update":"0001-01-01T00:00:00Z","name_a2s":"Uncletopia | Atlanta | 2 | All Maps","protocol":17,"map":"cp_dustbowl","folder":"tf","game":"Team Fortress","app_id":440,"player_count":24,"max_players":24,"Bots":0,"server_type":"Dedicated","server_os":"Linux","password":true,"vac":true,"version":"7961495","steam_id":85568392924469983,"keywords":["cp","nocrits","nodmgspread","uncletopia"],"game_id":440,"stv_port":27026,"stv_name":"Uncletopia | Atlanta | 2 | All Maps | STV","players":[{"user_id":33,"name":"Peengus","steam_id":76561199091953940,"connected_time":3877000000000,"state":"active","ping":58},{"user_id":35,"name":"TheForgotenFaun","steam_id":76561199004700412,"connected_time":3582000000000,"state":"active","ping":72},{"user_id":82,"name":"Little Bites","steam_id":76561198315245997,"connected_time":1043000000000,"state":"active","ping":72},{"user_id":87,"name":"Some random dude","steam_id":76561199477705792,"connected_time":540000000000,"state":"active","ping":90},{"user_id":80,"name":"tack","steam_id":76561198408477421,"connected_time":1206000000000,"state":"active","ping":66},{"user_id":44,"name":"Varie","steam_id":76561199454930210,"connected_time":2806000000000,"state":"active","ping":90},{"user_id":89,"name":"azufelt","steam_id":76561199259331226,"connected_time":148000000000,"state":"active","ping":59},{"user_id":49,"name":"Steel Chair","steam_id":76561199121525654,"connected_time":2629000000000,"state":"active","ping":44},{"user_id":43,"name":"meep merp","steam_id":76561198012843005,"connected_time":2833000000000,"state":"active","ping":129},{"user_id":83,"name":"QuesaDiaz","steam_id":76561198355667850,"connected_time":1039000000000,"state":"active","ping":99},{"user_id":84,"name":"AAAAAAAAA","steam_id":76561198848149215,"connected_time":1038000000000,"state":"active","ping":53},{"user_id":48,"name":"SirNomegusta","steam_id":76561198108929789,"connected_time":2672000000000,"state":"active","ping":61},{"user_id":50,"name":"average british male","steam_id":76561198326083509,"connected_time":2619000000000,"state":"active","ping":77},{"user_id":68,"name":"Knockonwood0","steam_id":76561198062635137,"connected_time":2141000000000,"state":"active","ping":76},{"user_id":91,"name":"mz.maggie4","steam_id":76561198866614956,"connected_time":129000000000,"state":"active","ping":53},{"user_id":88,"name":"Lee?","steam_id":76561199060892634,"connected_time":410000000000,"state":"active","ping":69},{"user_id":55,"name":"HOG         RIDER","steam_id":76561198040787741,"connected_time":2546000000000,"state":"active","ping":68},{"user_id":56,"name":"lucin","steam_id":76561198258062078,"connected_time":2529000000000,"state":"active","ping":63},{"user_id":60,"name":"King","steam_id":76561198039763676,"connected_time":2455000000000,"state":"active","ping":60},{"user_id":90,"name":"minecraft","steam_id":76561198104345201,"connected_time":147000000000,"state":"active","ping":68},{"user_id":75,"name":"Unpaid_Mcdonaldsworker","steam_id":76561199394565283,"connected_time":1487000000000,"state":"active","ping":158},{"user_id":63,"name":"Spring Beans","steam_id":76561197978546259,"connected_time":2353000000000,"state":"active","ping":61},{"user_id":67,"name":"TommySalami69","steam_id":76561198180275926,"connected_time":2262000000000,"state":"active","ping":89},{"user_id":66,"name":"Mervis","steam_id":76561198018237537,"connected_time":2300000000000,"state":"active","ping":67}]},{"server_id":400,"name":"Uncletopia | Atlanta | 3 | Stopwatch","name_short":"atl-3","host":"atl-1.us.uncletopia.com","port":27035,"enabled":true,"region":"us-east","cc":"us","latitude":33.753746,"longitude":-84.38633,"reserved":0,"last_update":"0001-01-01T00:00:00Z","name_a2s":"Uncletopia | Atlanta | 3 | Stopwatch","protocol":17,"map":"workshop/koth_product_final.ugc454272353","folder":"tf","game":"Team Fortress","app_id":440,"player_count":0,"max_players":24,"Bots":0,"server_type":"Dedicated","server_os":"Linux","password":true,"vac":true,"version":"7961495","steam_id":85568392924515187,"keywords":["cp","nocrits","nodmgspread","uncletopia"],"game_id":440,"stv_port":27036,"stv_name":"Uncletopia | Atlanta | 3 | Stopwatch | STV","players":null},{"server_id":401,"name":"Uncletopia | Atlanta | 4 | Community","name_short":"atl-4","host":"atl-1.us.uncletopia.com","port":27045,"enabled":true,"region":"us-east","cc":"us","latitude":33.753746,"longitude":-84.38633,"reserved":0,"last_update":"0001-01-01T00:00:00Z","name_a2s":"Uncletopia | Atlanta | 4 | Community","protocol":17,"map":"workshop/cp_glassworks_rc7a.ugc454118349","folder":"tf","game":"Team Fortress","app_id":440,"player_count":0,"max_players":24,"Bots":0,"server_type":"Dedicated","server_os":"Linux","password":true,"vac":true,"version":"7961495","steam_id":85568392924515188,"keywords":["cp","nocrits","nodmgspread","uncletopia"],"game_id":440,"stv_port":27046,"stv_name":"Uncletopia | Atlanta | 4 | Community | STV","players":null},{"server_id":2,"name":"Uncletopia | Chicago | 1 | All Maps","name_short":"chi-1","host":"chi-1.us.uncletopia.com","port":27015,"enabled":true,"region":"us-central","cc":"us","latitude":41.881832,"longitude":-87.62318,"reserved":0,"last_update":"0001-01-01T00:00:00Z","name_a2s":"Uncletopia | Chicago | 1 | All Maps","protocol":17,"map":"pl_thundermountain","folder":"tf","game":"Team Fortress","app_id":440,"player_count":24,"max_players":24,"Bots":0,"server_type":"Dedicated","server_os":"Linux","password":true,"vac":true,"version":"7961495","steam_id":85568392924469984,"keywords":["nocrits","nodmgspread","payload","uncletopia"],"game_id":440,"stv_port":27016,"stv_name":"Uncletopia | Chicago | 1 | All Maps | STV","players":[{"user_id":273,"name":"kermitcreeper(ZAZA)","steam_id":76561199222829972,"connected_time":68000000000,"state":"active","ping":48},{"user_id":257,"name":"None of that $9.99 bullshit","steam_id":76561198116169903,"connected_time":1693000000000,"state":"active","ping":49},{"user_id":244,"name":"Vorco","steam_id":76561197996937734,"connected_time":2935000000000,"state":"active","ping":60},{"user_id":219,"name":"OH BOY","steam_id":76561199052273428,"connected_time":4213000000000,"state":"active","ping":50},{"user_id":267,"name":"subdromeda","steam_id":76561198884351860,"connected_time":470000000000,"state":"active","ping":60},{"user_id":264,"name":"↪Pousm↩","steam_id":76561198272377335,"connected_time":890000000000,"state":"active","ping":105},{"user_id":269,"name":".JIFF","steam_id":76561198045181760,"connected_time":295000000000,"state":"active","ping":75},{"user_id":249,"name":"Kitt(eh)  ∑:3","steam_id":76561198110858518,"connected_time":2291000000000,"state":"active","ping":61},{"user_id":253,"name":"Null","steam_id":76561198062791227,"connected_time":1871000000000,"state":"active","ping":46},{"user_id":245,"name":"✧.*i kiss boys✧.*","steam_id":76561199239412094,"connected_time":2902000000000,"state":"active","ping":142},{"user_id":237,"name":"crushy spike ceiling","steam_id":76561198241793002,"connected_time":3166000000000,"state":"active","ping":53},{"user_id":256,"name":"Lia_Rein","steam_id":76561198151569597,"connected_time":1719000000000,"state":"active","ping":146},{"user_id":255,"name":"dantheman","steam_id":76561199486390813,"connected_time":1741000000000,"state":"active","ping":79},{"user_id":239,"name":"chen","steam_id":76561198064872330,"connected_time":3125000000000,"state":"active","ping":79},{"user_id":258,"name":"fakeneph3","steam_id":76561198964153978,"connected_time":1616000000000,"state":"active","ping":68},{"user_id":259,"name":"green bean","steam_id":76561198113099204,"connected_time":1572000000000,"state":"active","ping":90},{"user_id":227,"name":"everything is a lie (wake up)","steam_id":76561198144436132,"connected_time":3663000000000,"state":"active","ping":51},{"user_id":262,"name":"Praxeas Busybody","steam_id":76561198035618952,"connected_time":1489000000000,"state":"active","ping":70},{"user_id":270,"name":"DeepLarkem","steam_id":76561198823247730,"connected_time":294000000000,"state":"active","ping":101},{"user_id":250,"name":"SoftAvocado","steam_id":76561198278375987,"connected_time":2100000000000,"state":"active","ping":69},{"user_id":261,"name":"Ben Dover","steam_id":76561199414514585,"connected_time":1544000000000,"state":"active","ping":44},{"user_id":265,"name":"capybara","steam_id":76561198798828328,"connected_time":606000000000,"state":"active","ping":48},{"user_id":266,"name":"Stacks63bs","steam_id":76561198067797130,"connected_time":505000000000,"state":"active","ping":75},{"user_id":272,"name":"Iceflame","steam_id":76561198067164658,"connected_time":166000000000,"state":"active","ping":68}]},{"server_id":106,"name":"Uncletopia | Chicago | 2 | All Maps","name_short":"chi-2","host":"chi-1.us.uncletopia.com","port":27025,"enabled":true,"region":"us-central","cc":"us","latitude":41.881832,"longitude":-87.62318,"reserved":0,"last_update":"0001-01-01T00:00:00Z","name_a2s":"Uncletopia | Chicago | 2 | All Maps","protocol":17,"map":"pl_pier","folder":"tf","game":"Team Fortress","app_id":440,"player_count":23,"max_players":24,"Bots":0,"server_type":"Dedicated","server_os":"Linux","password":true,"vac":true,"version":"7961495","steam_id":85568392924469985,"keywords":["nocrits","nodmgspread","payload","uncletopia"],"game_id":440,"stv_port":27026,"stv_name":"Uncletopia | Chicago | 2 | All Maps | STV","players":[{"user_id":143,"name":"GrantTheMedicYT","steam_id":76561199077176696,"connected_time":643000000000,"state":"active","ping":87},{"user_id":130,"name":"rstrom","steam_id":76561197961225022,"connected_time":1108000000000,"state":"active","ping":69},{"user_id":148,"name":"Ghostmeal","steam_id":76561198042380299,"connected_time":627000000000,"state":"active","ping":62},{"user_id":155,"name":"Random Person","steam_id":76561198990531385,"connected_time":384000000000,"state":"active","ping":75},{"user_id":83,"name":"ruyon","steam_id":76561198376916657,"connected_time":7138000000000,"state":"active","ping":111},{"user_id":112,"name":"genavi","steam_id":76561198442960243,"connected_time":4191000000000,"state":"active","ping":62},{"user_id":131,"name":"msands","steam_id":76561198968244574,"connected_time":1102000000000,"state":"active","ping":60},{"user_id":132,"name":"I'm a Fungi","steam_id":76561198061507741,"connected_time":1079000000000,"state":"active","ping":53},{"user_id":133,"name":"firetamer2","steam_id":76561198040886980,"connected_time":1020000000000,"state":"active","ping":64},{"user_id":103,"name":"ahem?","steam_id":76561198420227358,"connected_time":5437000000000,"state":"active","ping":77},{"user_id":134,"name":"MedRed™ #IATAH","steam_id":76561198002962970,"connected_time":1016000000000,"state":"active","ping":91},{"user_id":135,"name":"BiggFoot","steam_id":76561197998605599,"connected_time":1013000000000,"state":"active","ping":73},{"user_id":142,"name":"WaltuhWhite12345","steam_id":76561199185391100,"connected_time":666000000000,"state":"active","ping":71},{"user_id":121,"name":"Draekonik","steam_id":76561198327492856,"connected_time":2828000000000,"state":"active","ping":59},{"user_id":138,"name":"HollowMajin","steam_id":76561198122399227,"connected_time":944000000000,"state":"active","ping":60},{"user_id":144,"name":"Toottoot","steam_id":76561197992404836,"connected_time":642000000000,"state":"active","ping":45},{"user_id":105,"name":"brisky","steam_id":76561198869675719,"connected_time":5033000000000,"state":"active","ping":69},{"user_id":145,"name":"Lipo","steam_id":76561198295702119,"connected_time":638000000000,"state":"active","ping":45},{"user_id":146,"name":"Ras","steam_id":76561199029806474,"connected_time":634000000000,"state":"active","ping":54},{"user_id":154,"name":"Sunshine","steam_id":76561198885528098,"connected_time":424000000000,"state":"active","ping":73},{"user_id":149,"name":"Spyfall","steam_id":76561198081729993,"connected_time":612000000000,"state":"active","ping":60},{"user_id":151,"name":"Travorski","steam_id":76561198072493142,"connected_time":598000000000,"state":"active","ping":76},{"user_id":152,"name":"No, this is Patrick","steam_id":76561198058776774,"connected_time":597000000000,"state":"active","ping":51}]},{"server_id":402,"name":"Uncletopia | Chicago | 3 | All Maps","name_short":"chi-3","host":"chi-1.us.uncletopia.com","port":27035,"enabled":true,"region":"us-central","cc":"us","latitude":41.881832,"longitude":-87.62318,"reserved":0,"last_update":"0001-01-01T00:00:00Z","name_a2s":"Uncletopia | Chicago | 3 | All Maps","protocol":17,"map":"pl_pier","folder":"tf","game":"Team Fortress","app_id":440,"player_count":24,"max_players":24,"Bots":0,"server_type":"Dedicated","server_os":"Linux","password":true,"vac":true,"version":"7961495","steam_id":85568392924515191,"keywords":["nocrits","nodmgspread","payload","uncletopia"],"game_id":440,"stv_port":27036,"stv_name":"Uncletopia | Chicago | 3 | All Maps | STV","players":[{"user_id":141,"name":"wincel hampton","steam_id":76561198083095146,"connected_time":39000000000,"state":"active","ping":79},{"user_id":124,"name":"Legit_Jaxer","steam_id":76561198172234053,"connected_time":635000000000,"state":"active","ping":128},{"user_id":73,"name":"The World's Softest Sandwich","steam_id":76561198015577707,"connected_time":4069000000000,"state":"active","ping":80},{"user_id":102,"name":"Fresh Lychee","steam_id":76561198045399559,"connected_time":1955000000000,"state":"active","ping":52},{"user_id":116,"name":"vom","steam_id":76561198070311363,"connected_time":1599000000000,"state":"active","ping":56},{"user_id":103,"name":"wendigo","steam_id":76561197994528974,"connected_time":1913000000000,"state":"active","ping":84},{"user_id":142,"name":"thatmlgyoutuber","steam_id":76561198859007220,"connected_time":35000000000,"state":"active","ping":66},{"user_id":136,"name":"Cresant Ape","steam_id":76561198127425559,"connected_time":167000000000,"state":"active","ping":67},{"user_id":130,"name":"jr933368","steam_id":76561199507931052,"connected_time":459000000000,"state":"active","ping":109},{"user_id":129,"name":"VikingsEdit","steam_id":76561199090100417,"connected_time":512000000000,"state":"active","ping":72},{"user_id":131,"name":"kjc105","steam_id":76561198880364422,"connected_time":443000000000,"state":"active","ping":76},{"user_id":143,"name":"Poppet","steam_id":76561198012301951,"connected_time":34000000000,"state":"active","ping":61},{"user_id":59,"name":"Mint Jelly","steam_id":76561197991286751,"connected_time":5101000000000,"state":"active","ping":49},{"user_id":34,"name":"Peluche Marisa","steam_id":76561199011452659,"connected_time":5829000000000,"state":"active","ping":114},{"user_id":137,"name":"aphexjh","steam_id":76561197985854658,"connected_time":162000000000,"state":"active","ping":45},{"user_id":93,"name":"Daehypeels","steam_id":76561198268981599,"connected_time":2658000000000,"state":"active","ping":61},{"user_id":128,"name":"Mocha","steam_id":76561198368999744,"connected_time":534000000000,"state":"active","ping":70},{"user_id":107,"name":"The CEO of cement","steam_id":76561199107177460,"connected_time":1789000000000,"state":"active","ping":85},{"user_id":84,"name":"ZBaldTop","steam_id":76561199396318132,"connected_time":3122000000000,"state":"active","ping":59},{"user_id":139,"name":"Wikki94","steam_id":76561198002259122,"connected_time":126000000000,"state":"active","ping":100},{"user_id":138,"name":"templeoftoke420","steam_id":76561198000300472,"connected_time":149000000000,"state":"active","ping":47},{"user_id":133,"name":"GuyGoom","steam_id":76561198254522178,"connected_time":398000000000,"state":"active","ping":51},{"user_id":134,"name":"FlameShake","steam_id":76561198084021005,"connected_time":344000000000,"state":"active","ping":58},{"user_id":135,"name":"The Idiot","steam_id":76561198049837377,"connected_time":341000000000,"state":"active","ping":51}]},{"server_id":403,"name":"Uncletopia | Chicago | 4 | All Maps","name_short":"chi-4","host":"chi-1.us.uncletopia.com","port":27045,"enabled":true,"region":"us-central","cc":"us","latitude":41.881832,"longitude":-87.62318,"reserved":0,"last_update":"0001-01-01T00:00:00Z","name_a2s":"Uncletopia | Chicago | 4 | All Maps","protocol":17,"map":"pl_barnblitz","folder":"tf","game":"Team Fortress","app_id":440,"player_count":0,"max_players":24,"Bots":0,"server_type":"Dedicated","server_os":"Linux","password":true,"vac":true,"version":"7961495","steam_id":85568392924515193,"keywords":["nocrits","nodmgspread","payload","uncletopia"],"game_id":440,"stv_port":27046,"stv_name":"Uncletopia | Chicago | 4 | All Maps | STV","players":null},{"server_id":36,"name":"Uncletopia | Chicago | 5 | All Maps","name_short":"chi-5","host":"chi-2.us.uncletopia.com","port":27015,"enabled":true,"region":"us-central","cc":"us","latitude":41.881832,"longitude":-87.62318,"reserved":0,"last_update":"0001-01-01T00:00:00Z","name_a2s":"Uncletopia | Chicago | 5 | All Maps","protocol":17,"map":"pl_frontier_final","folder":"tf","game":"Team Fortress","app_id":440,"player_count":23,"max_players":24,"Bots":0,"server_type":"Dedicated","server_os":"Linux","password":true,"vac":true,"version":"7961495","steam_id":85568392924866362,"keywords":["nocrits","nodmgspread","payload","uncletopia"],"game_id":440,"stv_port":27016,"stv_name":"Uncletopia | Chicago | 5 | All Maps | STV","players":[{"user_id":250,"name":"Ratlympics Gold Medalist","steam_id":76561198064981004,"connected_time":1554000000000,"state":"active","ping":45},{"user_id":241,"name":"lilbigman","steam_id":76561199094216585,"connected_time":1891000000000,"state":"active","ping":61},{"user_id":277,"name":"Rhutebeer","steam_id":76561198018302761,"connected_time":189000000000,"state":"active","ping":91},{"user_id":261,"name":"Pink\u0026PurpleTriangles","steam_id":76561198132219644,"connected_time":847000000000,"state":"active","ping":81},{"user_id":262,"name":"The All-Seeing Tim","steam_id":76561198075510786,"connected_time":815000000000,"state":"active","ping":75},{"user_id":227,"name":"caleb","steam_id":76561198119306966,"connected_time":3261000000000,"state":"active","ping":119},{"user_id":253,"name":"E4Estrogen","steam_id":76561198085813708,"connected_time":1023000000000,"state":"active","ping":59},{"user_id":233,"name":"dadgummit","steam_id":76561198005806915,"connected_time":2969000000000,"state":"active","ping":61},{"user_id":263,"name":"Sneed-poster","steam_id":76561198206198937,"connected_time":797000000000,"state":"active","ping":71},{"user_id":254,"name":"Vajoinkie","steam_id":76561198261761241,"connected_time":1016000000000,"state":"active","ping":103},{"user_id":234,"name":"Olly","steam_id":76561198054273611,"connected_time":2806000000000,"state":"active","ping":68},{"user_id":224,"name":"josh","steam_id":76561198092176972,"connected_time":3394000000000,"state":"active","ping":74},{"user_id":270,"name":"RollingCow","steam_id":76561198067114237,"connected_time":583000000000,"state":"active","ping":81},{"user_id":257,"name":"Rawhide Kobayashi","steam_id":76561198067051062,"connected_time":954000000000,"state":"active","ping":41},{"user_id":278,"name":"ic","steam_id":76561198009288860,"connected_time":113000000000,"state":"active","ping":65},{"user_id":273,"name":"not a good idea","steam_id":76561198032259680,"connected_time":368000000000,"state":"active","ping":73},{"user_id":274,"name":"Green Icicle","steam_id":76561198069624529,"connected_time":332000000000,"state":"active","ping":76},{"user_id":272,"name":"i only ubercharge snipers","steam_id":76561198003995600,"connected_time":429000000000,"state":"active","ping":90},{"user_id":197,"name":"Gliglamesh","steam_id":76561198058221449,"connected_time":4737000000000,"state":"active","ping":61},{"user_id":279,"name":"itsPanzerPanda","steam_id":76561199441946346,"connected_time":14000000000,"state":"active","ping":52},{"user_id":232,"name":"Master Of Whales","steam_id":76561198349104889,"connected_time":3141000000000,"state":"active","ping":94},{"user_id":269,"name":"gatorbelt","steam_id":76561198145784505,"connected_time":641000000000,"state":"active","ping":106},{"user_id":267,"name":"on my backup mouse","steam_id":76561198072179483,"connected_time":758000000000,"state":"active","ping":91}]},{"server_id":37,"name":"Uncletopia | Chicago | 6 | All Maps","name_short":"chi-6","host":"chi-2.us.uncletopia.com","port":27025,"enabled":true,"region":"us-central","cc":"us","latitude":41.881832,"longitude":-87.62318,"reserved":0,"last_update":"0001-01-01T00:00:00Z","name_a2s":"Uncletopia | Chicago | 6 | All Maps","protocol":17,"map":"pl_thundermountain","folder":"tf","game":"Team Fortress","app_id":440,"player_count":23,"max_players":24,"Bots":0,"server_type":"Dedicated","server_os":"Linux","password":true,"vac":true,"version":"7961495","steam_id":85568392924866363,"keywords":["nocrits","nodmgspread","payload","uncletopia"],"game_id":440,"stv_port":27026,"stv_name":"Uncletopia | Chicago | 6 | All Maps | STV","players":[{"user_id":374,"name":"Microsoft Excel","steam_id":76561199216713634,"connected_time":1904000000000,"state":"active","ping":103},{"user_id":380,"name":"Unwavering Flavor","steam_id":76561198053306065,"connected_time":1523000000000,"state":"active","ping":64},{"user_id":382,"name":"ѕυ【ʕ•ᴥ•ʔ】","steam_id":76561198071233302,"connected_time":1462000000000,"state":"active","ping":103},{"user_id":339,"name":"Major_Pippy","steam_id":76561198004482878,"connected_time":3067000000000,"state":"active","ping":88},{"user_id":330,"name":"Genius Meme","steam_id":76561198162911254,"connected_time":3665000000000,"state":"active","ping":100},{"user_id":383,"name":"Cbv isifjfofienentlgod","steam_id":76561198304661367,"connected_time":1461000000000,"state":"active","ping":72},{"user_id":329,"name":"NGsterson","steam_id":76561198162108154,"connected_time":3694000000000,"state":"active","ping":83},{"user_id":384,"name":"Bush.exe","steam_id":76561198124385307,"connected_time":1454000000000,"state":"active","ping":74},{"user_id":399,"name":"That's So Raven! [Dexgod]","steam_id":76561198017130786,"connected_time":725000000000,"state":"active","ping":72},{"user_id":386,"name":"Hawkborne","steam_id":76561198107249245,"connected_time":1411000000000,"state":"active","ping":72},{"user_id":354,"name":"Earballs","steam_id":76561198002601490,"connected_time":2305000000000,"state":"active","ping":55},{"user_id":393,"name":"Jarvis","steam_id":76561198020088034,"connected_time":1145000000000,"state":"active","ping":77},{"user_id":394,"name":"Gamering_funy","steam_id":76561199006503777,"connected_time":781000000000,"state":"active","ping":47},{"user_id":404,"name":"poopybutt420","steam_id":76561199000805315,"connected_time":52000000000,"state":"active","ping":92},{"user_id":331,"name":"gregor","steam_id":76561198057076267,"connected_time":3636000000000,"state":"active","ping":79},{"user_id":361,"name":"Stuff","steam_id":76561199229774519,"connected_time":2195000000000,"state":"active","ping":83},{"user_id":389,"name":"jmin","steam_id":76561198272972548,"connected_time":1391000000000,"state":"active","ping":124},{"user_id":392,"name":"The Notorious RBG","steam_id":76561198014275148,"connected_time":1242000000000,"state":"active","ping":61},{"user_id":388,"name":"AndrewNursh","steam_id":76561199155538700,"connected_time":1392000000000,"state":"active","ping":70},{"user_id":398,"name":"sanrio characters enjoyer","steam_id":76561198853420295,"connected_time":728000000000,"state":"active","ping":106},{"user_id":403,"name":"TheFallenAngel","steam_id":76561198162437125,"connected_time":453000000000,"state":"active","ping":56},{"user_id":370,"name":"YOU WHAT?!","steam_id":76561198418679471,"connected_time":2070000000000,"state":"active","ping":60},{"user_id":371,"name":"Sunflower","steam_id":76561198081223793,"connected_time":2046000000000,"state":"active","ping":37}]},{"server_id":38,"name":"Uncletopia | Chicago | 7 | Stopwatch","name_short":"chi-7","host":"chi-2.us.uncletopia.com","port":27035,"enabled":true,"region":"us-central","cc":"us","latitude":41.881832,"longitude":-87.62318,"reserved":0,"last_update":"0001-01-01T00:00:00Z","name_a2s":"Uncletopia | Chicago | 7 | Stopwatch","protocol":17,"map":"pl_borneo","folder":"tf","game":"Team Fortress","app_id":440,"player_count":0,"max_players":24,"Bots":0,"server_type":"Dedicated","server_os":"Linux","password":true,"vac":true,"version":"7961495","steam_id":85568392924866364,"keywords":["nocrits","nodmgspread","payload","uncletopia"],"game_id":440,"stv_port":27036,"stv_name":"Uncletopia | Chicago | 7 | Stopwatch | STV","players":null},{"server_id":39,"name":"Uncletopia | Chicago | 8 | Community","name_short":"chi-8","host":"chi-2.us.uncletopia.com","port":27045,"enabled":true,"region":"us-central","cc":"us","latitude":41.881832,"longitude":-87.62318,"reserved":0,"last_update":"0001-01-01T00:00:00Z","name_a2s":"Uncletopia | Chicago | 8 | Community","protocol":17,"map":"workshop/koth_slaughter_rc1.ugc1712845210","folder":"tf","game":"Team Fortress","app_id":440,"player_count":0,"max_players":24,"Bots":0,"server_type":"Dedicated","server_os":"Linux","password":true,"vac":true,"version":"7961495","steam_id":85568392924866365,"keywords":["cp","nocrits","nodmgspread","uncletopia"],"game_id":440,"stv_port":27046,"stv_name":"Uncletopia | Chicago | 8 | Community | STV","players":null},{"server_id":8,"name":"Uncletopia | Dallas | 1 | All Maps","name_short":"dal-1","host":"dal-1.us.uncletopia.com","port":27015,"enabled":true,"region":"us-central","cc":"us","latitude":32.779167,"longitude":-96.80889,"reserved":0,"last_update":"0001-01-01T00:00:00Z","name_a2s":"Uncletopia | Dallas | 1 | All Maps","protocol":17,"map":"cp_dustbowl","folder":"tf","game":"Team Fortress","app_id":440,"player_count":8,"max_players":24,"Bots":0,"server_type":"Dedicated","server_os":"Linux","password":true,"vac":true,"version":"7961495","steam_id":85568392924469986,"keywords":["cp","nocrits","nodmgspread","uncletopia"],"game_id":440,"stv_port":27016,"stv_name":"Uncletopia | Dallas | 1 | All Maps | STV","players":[{"user_id":12,"name":"DoctorZer0","steam_id":76561199109330187,"connected_time":2849000000000,"state":"active","ping":68},{"user_id":13,"name":"Dot-JASON","steam_id":76561198990298757,"connected_time":2824000000000,"state":"active","ping":72},{"user_id":25,"name":"Trash Rat","steam_id":76561199439460519,"connected_time":9000000000,"state":"spawning","ping":65},{"user_id":24,"name":"Tinkertacos","steam_id":76561199145815798,"connected_time":79000000000,"state":"active","ping":30},{"user_id":18,"name":"duckie","steam_id":76561198333163800,"connected_time":522000000000,"state":"active","ping":75},{"user_id":19,"name":"Sex Monster","steam_id":76561199426920744,"connected_time":507000000000,"state":"active","ping":190},{"user_id":23,"name":"Chicken_Teriyaki","steam_id":76561199387433577,"connected_time":164000000000,"state":"active","ping":44},{"user_id":26,"name":"what da tuna","steam_id":76561199204728099,"connected_time":4000000000,"state":"spawning","ping":54}]},{"server_id":108,"name":"Uncletopia | Dallas | 2 | All Maps","name_short":"dal-2","host":"dal-1.us.uncletopia.com","port":27025,"enabled":true,"region":"us-central","cc":"us","latitude":32.779167,"longitude":-96.80889,"reserved":0,"last_update":"0001-01-01T00:00:00Z","name_a2s":"Uncletopia | Dallas | 2 | All Maps","protocol":17,"map":"cp_dustbowl","folder":"tf","game":"Team Fortress","app_id":440,"player_count":20,"max_players":24,"Bots":0,"server_type":"Dedicated","server_os":"Linux","password":true,"vac":true,"version":"7961495","steam_id":85568392924469988,"keywords":["cp","nocrits","nodmgspread","uncletopia"],"game_id":440,"stv_port":27026,"stv_name":"Uncletopia | Dallas | 2 | All Maps | STV","players":[{"user_id":57,"name":"Sam","steam_id":76561198012364798,"connected_time":2378000000000,"state":"active","ping":67},{"user_id":86,"name":"Hash-Slinging Slasher","steam_id":76561198416545930,"connected_time":42000000000,"state":"active","ping":73},{"user_id":87,"name":"♥ STEE ♥","steam_id":76561198030495003,"connected_time":3000000000,"state":"spawning","ping":79},{"user_id":82,"name":"Wounded","steam_id":76561199440954924,"connected_time":495000000000,"state":"active","ping":162},{"user_id":55,"name":"The Sydney Sleeper Itself","steam_id":76561198180251763,"connected_time":2511000000000,"state":"active","ping":47},{"user_id":85,"name":"hey! lighten up buddy! :3","steam_id":76561198333985626,"connected_time":104000000000,"state":"active","ping":33},{"user_id":81,"name":"L-","steam_id":76561198046074220,"connected_time":536000000000,"state":"active","ping":75},{"user_id":61,"name":"info","steam_id":76561198119354946,"connected_time":2259000000000,"state":"active","ping":157},{"user_id":64,"name":"Tequila Sunrise","steam_id":76561198009736509,"connected_time":1999000000000,"state":"active","ping":75},{"user_id":65,"name":"femboy =＾● ⋏ ●＾=","steam_id":76561199052450127,"connected_time":1754000000000,"state":"active","ping":59},{"user_id":20,"name":"\u003c3","steam_id":76561198196829267,"connected_time":3956000000000,"state":"active","ping":77},{"user_id":62,"name":"Lylith!!!","steam_id":76561198386687546,"connected_time":2251000000000,"state":"active","ping":63},{"user_id":68,"name":"lover","steam_id":76561198089852954,"connected_time":1508000000000,"state":"active","ping":88},{"user_id":63,"name":"Yoru","steam_id":76561198119698950,"connected_time":2095000000000,"state":"active","ping":121},{"user_id":80,"name":"Grumby","steam_id":76561198149175262,"connected_time":910000000000,"state":"active","ping":45},{"user_id":83,"name":"Icaruss","steam_id":76561199087157705,"connected_time":493000000000,"state":"active","ping":90},{"user_id":77,"name":"Sucsubot","steam_id":76561198106456128,"connected_time":1080000000000,"state":"active","ping":74},{"user_id":78,"name":"sloth (i have gay)","steam_id":76561198047098172,"connected_time":981000000000,"state":"active","ping":81},{"user_id":56,"name":"dog","steam_id":76561198263873491,"connected_time":2497000000000,"state":"active","ping":59},{"user_id":79,"name":"Joejee","steam_id":76561199122423976,"connected_time":974000000000,"state":"active","ping":153}]},{"server_id":404,"name":"Uncletopia | Dallas | 3 | All Maps","name_short":"dal-3","host":"dal-1.us.uncletopia.com","port":27035,"enabled":true,"region":"us-central","cc":"us","latitude":32.779167,"longitude":-96.80889,"reserved":0,"last_update":"0001-01-01T00:00:00Z","name_a2s":"Uncletopia | Dallas | 3 | All Maps","protocol":17,"map":"cp_process_final","folder":"tf","game":"Team Fortress","app_id":440,"player_count":0,"max_players":24,"Bots":0,"server_type":"Dedicated","server_os":"Linux","password":true,"vac":true,"version":"7961495","steam_id":85568392924515219,"keywords":["cp","nocrits","nodmgspread","uncletopia"],"game_id":440,"stv_port":27036,"stv_name":"Uncletopia | Dallas | 3 | All Maps | STV","players":null},{"server_id":405,"name":"Uncletopia | Dallas | 4 | Community","name_short":"dal-4","host":"dal-1.us.uncletopia.com","port":27045,"enabled":true,"region":"us-central","cc":"us","latitude":32.779167,"longitude":-96.80889,"reserved":0,"last_update":"0001-01-01T00:00:00Z","name_a2s":"Uncletopia | Dallas | 4 | Community","protocol":17,"map":"workshop/koth_synthetic_rc6a.ugc1549817316","folder":"tf","game":"Team Fortress","app_id":440,"player_count":0,"max_players":24,"Bots":0,"server_type":"Dedicated","server_os":"Linux","password":true,"vac":true,"version":"7961495","steam_id":85568392924515220,"keywords":["cp","nocrits","nodmgspread","uncletopia"],"game_id":440,"stv_port":27046,"stv_name":"Uncletopia | Dallas | 4 | Community | STV","players":null},{"server_id":5,"name":"Uncletopia | Frankfurt | 1 | All Maps","name_short":"frk-1","host":"frk-1.de.uncletopia.com","port":27015,"enabled":true,"region":"eu","cc":"de","latitude":50.110924,"longitude":8.682127,"reserved":0,"last_update":"0001-01-01T00:00:00Z","name_a2s":"Uncletopia | Frankfurt | 1 | All Maps","protocol":17,"map":"pl_borneo","folder":"tf","game":"Team Fortress","app_id":440,"player_count":23,"max_players":24,"Bots":0,"server_type":"Dedicated","server_os":"Linux","password":true,"vac":true,"version":"7961495","steam_id":85568392924469989,"keywords":["nocrits","nodmgspread","payload","uncletopia"],"game_id":440,"stv_port":27016,"stv_name":"Uncletopia | Frankfurt | 1 | All Maps | STV","players":[{"user_id":588,"name":"Flank","steam_id":76561198098731156,"connected_time":393000000000,"state":"active","ping":67},{"user_id":560,"name":"Viteran","steam_id":76561198170025054,"connected_time":1485000000000,"state":"active","ping":87},{"user_id":558,"name":"Bucz","steam_id":76561198006089285,"connected_time":1521000000000,"state":"active","ping":69},{"user_id":589,"name":"Lowqualitybeans","steam_id":76561198069405114,"connected_time":373000000000,"state":"active","ping":61},{"user_id":562,"name":"KaasKrans","steam_id":76561198240451972,"connected_time":1449000000000,"state":"active","ping":47},{"user_id":574,"name":"PENGUN","steam_id":76561199015156956,"connected_time":1176000000000,"state":"active","ping":91},{"user_id":546,"name":"Endi","steam_id":76561198914938199,"connected_time":2913000000000,"state":"active","ping":71},{"user_id":585,"name":"dop","steam_id":76561199043447608,"connected_time":450000000000,"state":"active","ping":130},{"user_id":581,"name":"Inžinerijos vadybininkas","steam_id":76561199036432051,"connected_time":574000000000,"state":"active","ping":74},{"user_id":592,"name":"Pepe the Frog","steam_id":76561199500477314,"connected_time":88000000000,"state":"active","ping":109},{"user_id":583,"name":"hasky","steam_id":76561197986052798,"connected_time":560000000000,"state":"active","ping":60},{"user_id":570,"name":"dwarf man","steam_id":76561199501952182,"connected_time":1367000000000,"state":"active","ping":70},{"user_id":552,"name":"Unemployed Gaming","steam_id":76561198982674420,"connected_time":2216000000000,"state":"active","ping":61},{"user_id":566,"name":"netWauzi","steam_id":76561198007229483,"connected_time":1402000000000,"state":"active","ping":45},{"user_id":591,"name":"zek","steam_id":76561198862763731,"connected_time":308000000000,"state":"active","ping":57},{"user_id":567,"name":"Muggington","steam_id":76561198147890037,"connected_time":1383000000000,"state":"active","ping":118},{"user_id":586,"name":"Void","steam_id":76561198378322249,"connected_time":431000000000,"state":"active","ping":60},{"user_id":584,"name":"swag messiah","steam_id":76561199171950648,"connected_time":529000000000,"state":"active","ping":107},{"user_id":587,"name":"ike","steam_id":76561198039573338,"connected_time":431000000000,"state":"active","ping":75},{"user_id":550,"name":"Reljadin","steam_id":76561198054997553,"connected_time":2596000000000,"state":"active","ping":75},{"user_id":572,"name":"OG Mamba Lekouye","steam_id":76561198115594594,"connected_time":1365000000000,"state":"active","ping":46},{"user_id":573,"name":"hondjo","steam_id":76561198119324108,"connected_time":1354000000000,"state":"active","ping":55},{"user_id":576,"name":"the grongle","steam_id":76561198989398023,"connected_time":1095000000000,"state":"active","ping":105}]},{"server_id":110,"name":"Uncletopia | Frankfurt | 2 | All Maps","name_short":"frk-2","host":"frk-1.de.uncletopia.com","port":27025,"enabled":true,"region":"eu","cc":"de","latitude":50.110924,"longitude":8.682127,"reserved":0,"last_update":"0001-01-01T00:00:00Z","name_a2s":"Uncletopia | Frankfurt | 2 | All Maps","protocol":17,"map":"cp_sunshine","folder":"tf","game":"Team Fortress","app_id":440,"player_count":24,"max_players":24,"Bots":0,"server_type":"Dedicated","server_os":"Linux","password":true,"vac":true,"version":"7961495","steam_id":85568392924469990,"keywords":["cp","nocrits","nodmgspread","uncletopia"],"game_id":440,"stv_port":27026,"stv_name":"Uncletopia | Frankfurt | 2 | All Maps | STV","players":[{"user_id":501,"name":"Delta","steam_id":76561198254418755,"connected_time":902000000000,"state":"active","ping":44},{"user_id":502,"name":"Vershal Smershal","steam_id":76561198116223995,"connected_time":900000000000,"state":"active","ping":59},{"user_id":487,"name":"Sippie","steam_id":76561198130393388,"connected_time":2402000000000,"state":"active","ping":51},{"user_id":516,"name":"dog?","steam_id":76561199232839385,"connected_time":451000000000,"state":"active","ping":87},{"user_id":514,"name":"JamesPepega","steam_id":76561198019156154,"connected_time":660000000000,"state":"active","ping":47},{"user_id":519,"name":"Domcxz","steam_id":76561198291703984,"connected_time":82000000000,"state":"active","ping":62},{"user_id":520,"name":"totis","steam_id":76561198968410569,"connected_time":66000000000,"state":"active","ping":92},{"user_id":464,"name":"JohnTraveltime","steam_id":76561199244281754,"connected_time":3773000000000,"state":"active","ping":40},{"user_id":521,"name":"一龙马","steam_id":76561198364121077,"connected_time":56000000000,"state":"active","ping":69},{"user_id":499,"name":"Leviticus Cornwall","steam_id":76561197993702685,"connected_time":933000000000,"state":"active","ping":76},{"user_id":479,"name":"✪Beer☭","steam_id":76561198129884760,"connected_time":2654000000000,"state":"active","ping":60},{"user_id":522,"name":"emer","steam_id":76561198001420975,"connected_time":51000000000,"state":"active","ping":105},{"user_id":506,"name":"Tyren","steam_id":76561198993747516,"connected_time":852000000000,"state":"active","ping":60},{"user_id":491,"name":"Lazor","steam_id":76561198310376869,"connected_time":2059000000000,"state":"active","ping":105},{"user_id":493,"name":"Fucking_Scum","steam_id":76561198413973533,"connected_time":1980000000000,"state":"active","ping":60},{"user_id":495,"name":"gagalak","steam_id":76561198089979108,"connected_time":1516000000000,"state":"active","ping":104},{"user_id":421,"name":"lillunya ♡","steam_id":76561198330418866,"connected_time":6634000000000,"state":"active","ping":35},{"user_id":507,"name":"Egor Pomidor","steam_id":76561199175688390,"connected_time":842000000000,"state":"active","ping":74},{"user_id":523,"name":"Moss","steam_id":76561198970737500,"connected_time":39000000000,"state":"active","ping":68},{"user_id":515,"name":"Lyncurion","steam_id":76561199260022725,"connected_time":491000000000,"state":"active","ping":69},{"user_id":518,"name":"cuddles","steam_id":76561198805181599,"connected_time":94000000000,"state":"active","ping":68},{"user_id":386,"name":"orange","steam_id":76561198153181940,"connected_time":8079000000000,"state":"active","ping":75},{"user_id":444,"name":"TreatFly","steam_id":76561198069707362,"connected_time":4879000000000,"state":"active","ping":58},{"user_id":498,"name":"Dark","steam_id":76561199162752036,"connected_time":1008000000000,"state":"active","ping":63}]},{"server_id":308,"name":"Uncletopia | Frankfurt | 3 | All Maps","name_short":"frk-3","host":"frk-1.de.uncletopia.com","port":27035,"enabled":true,"region":"eu","cc":"de","latitude":50.110924,"longitude":8.682127,"reserved":0,"last_update":"0001-01-01T00:00:00Z","name_a2s":"Uncletopia | Frankfurt | 3 | All Maps","protocol":17,"map":"cp_gullywash_final1","folder":"tf","game":"Team Fortress","app_id":440,"player_count":24,"max_players":24,"Bots":0,"server_type":"Dedicated","server_os":"Linux","password":true,"vac":true,"version":"7961495","steam_id":85568392924504274,"keywords":["cp","nocrits","nodmgspread","uncletopia"],"game_id":440,"stv_port":27036,"stv_name":"Uncletopia | Frankfurt | 3 | All Maps | STV","players":[{"user_id":285,"name":"ⓅⓁⓈ | Brett","steam_id":76561198142853906,"connected_time":716000000000,"state":"active","ping":58},{"user_id":280,"name":"Zod","steam_id":76561197970504146,"connected_time":807000000000,"state":"active","ping":161},{"user_id":290,"name":"_Chelik_","steam_id":76561199076069284,"connected_time":108000000000,"state":"active","ping":104},{"user_id":279,"name":"Mega Man Legends 3","steam_id":76561198014110199,"connected_time":821000000000,"state":"active","ping":59},{"user_id":283,"name":"DelT","steam_id":76561198204007537,"connected_time":785000000000,"state":"active","ping":55},{"user_id":252,"name":"Javier dorsaless","steam_id":76561198179324075,"connected_time":2596000000000,"state":"active","ping":72},{"user_id":240,"name":"Efeca","steam_id":76561198018923829,"connected_time":4207000000000,"state":"active","ping":64},{"user_id":262,"name":"Bobirulez","steam_id":76561198009125458,"connected_time":2305000000000,"state":"active","ping":75},{"user_id":291,"name":"joachym","steam_id":76561198428579761,"connected_time":95000000000,"state":"active","ping":55},{"user_id":277,"name":"AzureTestament","steam_id":76561198147007440,"connected_time":859000000000,"state":"active","ping":68},{"user_id":272,"name":"THEYAREINTHEWALLS","steam_id":76561198299161888,"connected_time":1593000000000,"state":"active","ping":72},{"user_id":256,"name":"aisu","steam_id":76561198043768507,"connected_time":2511000000000,"state":"active","ping":166},{"user_id":282,"name":"kaigis","steam_id":76561199028415076,"connected_time":792000000000,"state":"active","ping":81},{"user_id":243,"name":"Avocado1262","steam_id":76561199077413016,"connected_time":3586000000000,"state":"active","ping":61},{"user_id":244,"name":"Udinese Dion","steam_id":76561198067931573,"connected_time":3586000000000,"state":"active","ping":55},{"user_id":284,"name":"MR BUBBLES","steam_id":76561198019005259,"connected_time":781000000000,"state":"active","ping":87},{"user_id":275,"name":"Mr.Shpee","steam_id":76561198158701474,"connected_time":916000000000,"state":"active","ping":74},{"user_id":249,"name":"Paciùg remover","steam_id":76561198035928111,"connected_time":2651000000000,"state":"active","ping":63},{"user_id":253,"name":"Rad","steam_id":76561199001560866,"connected_time":2595000000000,"state":"active","ping":53},{"user_id":232,"name":"Steen","steam_id":76561198122992510,"connected_time":4495000000000,"state":"active","ping":45},{"user_id":219,"name":"ⓅⓁⓈ | Pink Panther","steam_id":76561198046434381,"connected_time":5142000000000,"state":"active","ping":50},{"user_id":287,"name":"Hellheim_Prime","steam_id":76561198379799377,"connected_time":535000000000,"state":"active","ping":93},{"user_id":259,"name":"BOB","steam_id":76561199204446495,"connected_time":2453000000000,"state":"active","ping":70},{"user_id":292,"name":"Michael","steam_id":76561198003146906,"connected_time":92000000000,"state":"active","ping":59}]},{"server_id":309,"name":"Uncletopia | Frankfurt | 4 | All Maps","name_short":"frk-4","host":"frk-1.de.uncletopia.com","port":27045,"enabled":true,"region":"eu","cc":"de","latitude":50.110924,"longitude":8.682127,"reserved":0,"last_update":"0001-01-01T00:00:00Z","name_a2s":"Uncletopia | Frankfurt | 4 | All Maps","protocol":17,"map":"pl_swiftwater_final1","folder":"tf","game":"Team Fortress","app_id":440,"player_count":24,"max_players":24,"Bots":0,"server_type":"Dedicated","server_os":"Linux","password":true,"vac":true,"version":"7961495","steam_id":85568392924504275,"keywords":["nocrits","nodmgspread","payload","uncletopia"],"game_id":440,"stv_port":27046,"stv_name":"Uncletopia | Frankfurt | 4 | All Maps | STV","players":[{"user_id":415,"name":"Skyrider of Spaceways","steam_id":76561197991678236,"connected_time":2200000000000,"state":"active","ping":137},{"user_id":448,"name":"Mr. Voice","steam_id":76561198121649244,"connected_time":373000000000,"state":"active","ping":46},{"user_id":417,"name":"microkwas","steam_id":76561199123377384,"connected_time":2117000000000,"state":"active","ping":77},{"user_id":418,"name":"JustItalianHam","steam_id":76561198202237959,"connected_time":2050000000000,"state":"active","ping":71},{"user_id":423,"name":"Hexagon","steam_id":76561198151205758,"connected_time":1873000000000,"state":"active","ping":59},{"user_id":441,"name":"alfus","steam_id":76561198071003109,"connected_time":890000000000,"state":"active","ping":58},{"user_id":420,"name":"Retz","steam_id":76561198252830166,"connected_time":1967000000000,"state":"active","ping":71},{"user_id":449,"name":"Wattseyy","steam_id":76561198248567360,"connected_time":257000000000,"state":"active","ping":56},{"user_id":454,"name":"hmm yes","steam_id":76561198170322809,"connected_time":2000000000,"state":"spawning","ping":51},{"user_id":424,"name":"[aiming with a tablet] FLXY","steam_id":76561198254679263,"connected_time":1848000000000,"state":"active","ping":58},{"user_id":353,"name":"TheKerhard","steam_id":76561198086772002,"connected_time":7276000000000,"state":"active","ping":118},{"user_id":410,"name":"kenzou","steam_id":76561199180054996,"connected_time":2592000000000,"state":"active","ping":57},{"user_id":443,"name":"Falafel","steam_id":76561198043344845,"connected_time":878000000000,"state":"active","ping":58},{"user_id":450,"name":"suna militisto","steam_id":76561198352926998,"connected_time":249000000000,"state":"active","ping":90},{"user_id":451,"name":"Bobo","steam_id":76561198052308399,"connected_time":236000000000,"state":"active","ping":49},{"user_id":440,"name":"Dictatorial Karelian","steam_id":76561198196736457,"connected_time":951000000000,"state":"active","ping":76},{"user_id":435,"name":"Bread","steam_id":76561198040142466,"connected_time":1512000000000,"state":"active","ping":80},{"user_id":446,"name":"KEYMASTER","steam_id":76561199053214638,"connected_time":664000000000,"state":"active","ping":74},{"user_id":430,"name":"BLÅHAJ","steam_id":76561199353672293,"connected_time":1815000000000,"state":"active","ping":66},{"user_id":414,"name":"snake","steam_id":76561198077822932,"connected_time":2351000000000,"state":"active","ping":61},{"user_id":431,"name":"Nick","steam_id":76561198036109469,"connected_time":1813000000000,"state":"active","ping":78},{"user_id":432,"name":"loli generator","steam_id":76561198279621400,"connected_time":1794000000000,"state":"active","ping":98},{"user_id":433,"name":"Bob Sacamano","steam_id":76561198085610701,"connected_time":1752000000000,"state":"active","ping":70},{"user_id":452,"name":"Qwaden","steam_id":76561198881784698,"connected_time":173000000000,"state":"active","ping":63}]},{"server_id":310,"name":"Uncletopia | Frankfurt | 5 | All Maps","name_short":"frk-5","host":"frk-1.de.uncletopia.com","port":27055,"enabled":true,"region":"eu","cc":"de","latitude":50.110924,"longitude":8.682127,"reserved":0,"last_update":"0001-01-01T00:00:00Z","name_a2s":"Uncletopia | Frankfurt | 5 | All Maps","protocol":17,"map":"pl_upward","folder":"tf","game":"Team Fortress","app_id":440,"player_count":23,"max_players":24,"Bots":0,"server_type":"Dedicated","server_os":"Linux","password":true,"vac":true,"version":"7961495","steam_id":85568392924504277,"keywords":["nocrits","nodmgspread","payload","uncletopia"],"game_id":440,"stv_port":27056,"stv_name":"Uncletopia | Frankfurt | 5 | All Maps | STV","players":[{"user_id":418,"name":"Rimx","steam_id":76561198053034840,"connected_time":827000000000,"state":"active","ping":76},{"user_id":416,"name":"Lorenzo Lovers","steam_id":76561198073973581,"connected_time":983000000000,"state":"active","ping":75},{"user_id":365,"name":"pizzaboob","steam_id":76561198097507847,"connected_time":4390000000000,"state":"active","ping":73},{"user_id":394,"name":"Ransu","steam_id":76561198211750823,"connected_time":2317000000000,"state":"active","ping":75},{"user_id":367,"name":"Nejt","steam_id":76561199264515158,"connected_time":4155000000000,"state":"active","ping":55},{"user_id":407,"name":"LeGerooo","steam_id":76561199110422160,"connected_time":1774000000000,"state":"active","ping":78},{"user_id":329,"name":"gamerkiddo","steam_id":76561198047380360,"connected_time":6566000000000,"state":"active","ping":46},{"user_id":395,"name":"Hugh","steam_id":76561198976348754,"connected_time":2309000000000,"state":"active","ping":58},{"user_id":427,"name":"monky","steam_id":76561198262152748,"connected_time":126000000000,"state":"active","ping":60},{"user_id":310,"name":"Gbus","steam_id":76561198072335838,"connected_time":8426000000000,"state":"active","ping":50},{"user_id":421,"name":"galaxy","steam_id":76561198164819022,"connected_time":705000000000,"state":"active","ping":45},{"user_id":389,"name":"Cheshireycat","steam_id":76561198067204908,"connected_time":2758000000000,"state":"active","ping":66},{"user_id":422,"name":"General Grievous","steam_id":76561198087800030,"connected_time":704000000000,"state":"active","ping":48},{"user_id":423,"name":"Twik","steam_id":76561198023835056,"connected_time":495000000000,"state":"active","ping":48},{"user_id":356,"name":"lugi","steam_id":76561198026903673,"connected_time":4844000000000,"state":"active","ping":52},{"user_id":425,"name":"Kaek","steam_id":76561197960283484,"connected_time":269000000000,"state":"active","ping":77},{"user_id":417,"name":"Toasty5050","steam_id":76561198073540881,"connected_time":965000000000,"state":"active","ping":43},{"user_id":396,"name":"DeBozMann_","steam_id":76561198266876790,"connected_time":2292000000000,"state":"active","ping":70},{"user_id":376,"name":"tired","steam_id":76561198046838168,"connected_time":3944000000000,"state":"active","ping":46},{"user_id":420,"name":"KittyKate ❤","steam_id":76561198116340817,"connected_time":718000000000,"state":"active","ping":60},{"user_id":410,"name":"Kriofty","steam_id":76561198811696536,"connected_time":1731000000000,"state":"active","ping":90},{"user_id":413,"name":"Nymph","steam_id":76561198042801329,"connected_time":1490000000000,"state":"active","ping":48},{"user_id":414,"name":"Flarp von Karma","steam_id":76561198043855292,"connected_time":1333000000000,"state":"active","ping":49}]},{"server_id":311,"name":"Uncletopia | Frankfurt | 6 | All Maps","name_short":"frk-6","host":"frk-1.de.uncletopia.com","port":27065,"enabled":true,"region":"eu","cc":"de","latitude":50.110924,"longitude":8.682127,"reserved":0,"last_update":"0001-01-01T00:00:00Z","name_a2s":"Uncletopia | Frankfurt | 6 | All Maps","protocol":17,"map":"pl_pier","folder":"tf","game":"Team Fortress","app_id":440,"player_count":23,"max_players":24,"Bots":0,"server_type":"Dedicated","server_os":"Linux","password":true,"vac":true,"version":"7961495","steam_id":85568392924504278,"keywords":["nocrits","nodmgspread","payload","uncletopia"],"game_id":440,"stv_port":27066,"stv_name":"Uncletopia | Frankfurt | 6 | All Maps | STV","players":[{"user_id":108,"name":"kelm","steam_id":76561198027166144,"connected_time":1038000000000,"state":"active","ping":79},{"user_id":97,"name":"EVAP","steam_id":76561198341258458,"connected_time":2091000000000,"state":"active","ping":60},{"user_id":74,"name":"shadow39344","steam_id":76561198090639618,"connected_time":2862000000000,"state":"active","ping":50},{"user_id":73,"name":"Ink in veins","steam_id":76561199082262091,"connected_time":2913000000000,"state":"active","ping":61},{"user_id":75,"name":"Flavia ♥","steam_id":76561198108360671,"connected_time":2848000000000,"state":"active","ping":105},{"user_id":76,"name":"Scrooge Mc Clunk","steam_id":76561198885945084,"connected_time":2819000000000,"state":"active","ping":45},{"user_id":127,"name":"wG silentes","steam_id":76561197999595616,"connected_time":86000000000,"state":"active","ping":45},{"user_id":104,"name":"Xoriss","steam_id":76561198045892147,"connected_time":1668000000000,"state":"active","ping":78},{"user_id":117,"name":"Crome_BOX","steam_id":76561198189948415,"connected_time":685000000000,"state":"active","ping":60},{"user_id":101,"name":"Mitrixie","steam_id":76561198842023498,"connected_time":1912000000000,"state":"active","ping":79},{"user_id":126,"name":"bruh","steam_id":76561197993922244,"connected_time":93000000000,"state":"active","ping":57},{"user_id":83,"name":"Sicronici","steam_id":76561199054534566,"connected_time":2663000000000,"state":"active","ping":68},{"user_id":119,"name":"Pestilence","steam_id":76561198140938904,"connected_time":606000000000,"state":"active","ping":57},{"user_id":102,"name":"SGT Angel","steam_id":76561197971585796,"connected_time":1854000000000,"state":"active","ping":48},{"user_id":87,"name":"Springfield Crack","steam_id":76561198044818161,"connected_time":2539000000000,"state":"active","ping":94},{"user_id":128,"name":"Dellty","steam_id":76561198173944065,"connected_time":59000000000,"state":"active","ping":46},{"user_id":98,"name":"sto cazzo","steam_id":76561198066071855,"connected_time":2058000000000,"state":"active","ping":56},{"user_id":100,"name":"Mr. Bean","steam_id":76561198086929777,"connected_time":1947000000000,"state":"active","ping":46},{"user_id":92,"name":"GMsU | Rebikas","steam_id":76561198077053764,"connected_time":2320000000000,"state":"active","ping":35},{"user_id":130,"name":"Technic","steam_id":76561198128096130,"connected_time":23000000000,"state":"active","ping":59},{"user_id":123,"name":"Grimm","steam_id":76561198044684227,"connected_time":220000000000,"state":"active","ping":55},{"user_id":95,"name":"DaLuigi","steam_id":76561198054486188,"connected_time":2309000000000,"state":"active","ping":47},{"user_id":111,"name":"GMsU | Acoul","steam_id":76561198229222992,"connected_time":1011000000000,"state":"active","ping":45}]},{"server_id":23,"name":"Uncletopia | Frankfurt | 7 | Stopwatch","name_short":"frk-7","host":"frk-1.de.uncletopia.com","port":27075,"enabled":true,"region":"eu","cc":"de","latitude":50.110924,"longitude":8.682127,"reserved":0,"last_update":"0001-01-01T00:00:00Z","name_a2s":"Uncletopia | Frankfurt | 7 | Stopwatch","protocol":17,"map":"cp_sunshine","folder":"tf","game":"Team Fortress","app_id":440,"player_count":0,"max_players":24,"Bots":0,"server_type":"Dedicated","server_os":"Linux","password":true,"vac":true,"version":"7961495","steam_id":85568392924742827,"keywords":["cp","nocrits","nodmgspread","uncletopia"],"game_id":440,"stv_port":27076,"stv_name":"Uncletopia | Frankfurt | 7 | Stopwatch | STV","players":null},{"server_id":24,"name":"Uncletopia | Frankfurt | 8 | Community","name_short":"frk-8","host":"frk-1.de.uncletopia.com","port":27085,"enabled":true,"region":"eu","cc":"de","latitude":50.110924,"longitude":8.682127,"reserved":0,"last_update":"0001-01-01T00:00:00Z","name_a2s":"Uncletopia | Frankfurt | 8 | Community","protocol":17,"map":"workshop/koth_synthetic_rc6a.ugc1549817316","folder":"tf","game":"Team Fortress","app_id":440,"player_count":0,"max_players":24,"Bots":0,"server_type":"Dedicated","server_os":"Linux","password":true,"vac":true,"version":"7961495","steam_id":85568392924742828,"keywords":["cp","nocrits","nodmgspread","uncletopia"],"game_id":440,"stv_port":27086,"stv_name":"Uncletopia | Frankfurt | 8 | Community | STV","players":null},{"server_id":202,"name":"Uncletopia | Hong Kong | 1 | All Maps","name_short":"hgk-1","host":"hgk-1.hk.uncletopia.com","port":27015,"enabled":true,"region":"asia","cc":"hk","latitude":22.302711,"longitude":114.177216,"reserved":0,"last_update":"0001-01-01T00:00:00Z","name_a2s":"Uncletopia | Hong Kong | 1 | All Maps","protocol":17,"map":"pl_frontier_final","folder":"tf","game":"Team Fortress","app_id":440,"player_count":0,"max_players":24,"Bots":0,"server_type":"Dedicated","server_os":"Linux","password":true,"vac":true,"version":"7961495","steam_id":85568392924494504,"keywords":["nocrits","nodmgspread","payload","uncletopia"],"game_id":440,"stv_port":27016,"stv_name":"Uncletopia | Hong Kong | 1 | All Maps | STV","players":null},{"server_id":1,"name":"Uncletopia | Los Angeles | 1 | All Maps","name_short":"lax-1","host":"lax-1.us.uncletopia.com","port":27015,"enabled":true,"region":"us-west","cc":"us","latitude":33.94279,"longitude":-118.41004,"reserved":0,"last_update":"0001-01-01T00:00:00Z","name_a2s":"Uncletopia | Los Angeles | 1 | All Maps","protocol":17,"map":"cp_snakewater_final1","folder":"tf","game":"Team Fortress","app_id":440,"player_count":0,"max_players":24,"Bots":0,"server_type":"Dedicated","server_os":"Linux","password":true,"vac":true,"version":"7961495","steam_id":85568392924469991,"keywords":["cp","nocrits","nodmgspread","uncletopia"],"game_id":440,"stv_port":27016,"stv_name":"Uncletopia | Los Angeles | 1 | All Maps | STV","players":null},{"server_id":112,"name":"Uncletopia | Los Angeles | 2 | All Maps","name_short":"lax-2","host":"lax-1.us.uncletopia.com","port":27025,"enabled":true,"region":"us-west","cc":"us","latitude":33.94279,"longitude":-118.41004,"reserved":0,"last_update":"0001-01-01T00:00:00Z","name_a2s":"Uncletopia | Los Angeles | 2 | All Maps","protocol":17,"map":"cp_process_final","folder":"tf","game":"Team Fortress","app_id":440,"player_count":0,"max_players":24,"Bots":0,"server_type":"Dedicated","server_os":"Linux","password":true,"vac":true,"version":"7961495","steam_id":85568392924469992,"keywords":["cp","nocrits","nodmgspread","uncletopia"],"game_id":440,"stv_port":27026,"stv_name":"Uncletopia | Los Angeles | 2 | All Maps | STV","players":null},{"server_id":324,"name":"Uncletopia | Los Angeles | 3 | All Maps","name_short":"lax-3","host":"lax-1.us.uncletopia.com","port":27035,"enabled":true,"region":"us-west","cc":"us","latitude":33.94279,"longitude":-118.41004,"reserved":0,"last_update":"0001-01-01T00:00:00Z","name_a2s":"Uncletopia | Los Angeles | 3 | All Maps","protocol":17,"map":"pl_swiftwater_final1","folder":"tf","game":"Team Fortress","app_id":440,"player_count":0,"max_players":24,"Bots":0,"server_type":"Dedicated","server_os":"Linux","password":true,"vac":true,"version":"7961495","steam_id":85568392924510198,"keywords":["nocrits","nodmgspread","payload","uncletopia"],"game_id":440,"stv_port":27036,"stv_name":"Uncletopia | Los Angeles | 3 | All Maps | STV","players":null},{"server_id":25,"name":"Uncletopia | Los Angeles | 4 | Stopwatch","name_short":"lax-4","host":"lax-1.us.uncletopia.com","port":27045,"enabled":true,"region":"us-west","cc":"us","latitude":33.94279,"longitude":-118.41004,"reserved":0,"last_update":"0001-01-01T00:00:00Z","name_a2s":"Uncletopia | Los Angeles | 4 | Stopwatch","protocol":17,"map":"pl_upward","folder":"tf","game":"Team Fortress","app_id":440,"player_count":0,"max_players":24,"Bots":0,"server_type":"Dedicated","server_os":"Linux","password":true,"vac":true,"version":"7961495","steam_id":85568392924510199,"keywords":["nocrits","nodmgspread","payload","uncletopia"],"game_id":440,"stv_port":27046,"stv_name":"Uncletopia | Los Angeles | 4 | Stopwatch | STV","players":null},{"server_id":11,"name":"Uncletopia | London | 1 | All Maps","name_short":"lon-1","host":"lon-1.uk.uncletopia.com","port":27015,"enabled":true,"region":"eu","cc":"gb","latitude":51.509865,"longitude":-0.118092,"reserved":0,"last_update":"0001-01-01T00:00:00Z","name_a2s":"Uncletopia | London | 1 | All Maps","protocol":17,"map":"pl_barnblitz","folder":"tf","game":"Team Fortress","app_id":440,"player_count":24,"max_players":24,"Bots":0,"server_type":"Dedicated","server_os":"Linux","password":true,"vac":true,"version":"7961495","steam_id":85568392924367362,"keywords":["nocrits","nodmgspread","payload","uncletopia"],"game_id":440,"stv_port":27016,"stv_name":"Uncletopia | London | 1 | All Maps | STV","players":[{"user_id":337,"name":"Grim the lemon","steam_id":76561199083433988,"connected_time":7639000000000,"state":"active","ping":48},{"user_id":176,"name":"Anri Okita's Massive Milkers","steam_id":76561199186352720,"connected_time":19898000000000,"state":"active","ping":71},{"user_id":386,"name":"mag̶p̶i̶e ✿","steam_id":76561198797266244,"connected_time":4060000000000,"state":"active","ping":79},{"user_id":402,"name":"Lyra","steam_id":76561198043601838,"connected_time":2642000000000,"state":"active","ping":61},{"user_id":408,"name":"Çodar","steam_id":76561198235518444,"connected_time":1604000000000,"state":"active","ping":40},{"user_id":341,"name":"Ozzie","steam_id":76561197992915315,"connected_time":7513000000000,"state":"active","ping":75},{"user_id":389,"name":"1 toke 4 mars bars","steam_id":76561198056460000,"connected_time":3849000000000,"state":"active","ping":51},{"user_id":414,"name":"Archer","steam_id":76561197994239444,"connected_time":988000000000,"state":"active","ping":103},{"user_id":364,"name":"joemonster","steam_id":76561199057953617,"connected_time":4776000000000,"state":"active","ping":75},{"user_id":419,"name":"Minus-Abinus","steam_id":76561199383437138,"connected_time":878000000000,"state":"active","ping":120},{"user_id":392,"name":"cactopus","steam_id":76561198837919828,"connected_time":3815000000000,"state":"active","ping":119},{"user_id":355,"name":"Kiryu Kazuma","steam_id":76561198120390292,"connected_time":5736000000000,"state":"active","ping":69},{"user_id":424,"name":"Mea","steam_id":76561198353496134,"connected_time":627000000000,"state":"active","ping":52},{"user_id":406,"name":"bolsonaro","steam_id":76561198074917015,"connected_time":1775000000000,"state":"active","ping":80},{"user_id":426,"name":"hitbox criminal","steam_id":76561198079277466,"connected_time":221000000000,"state":"active","ping":66},{"user_id":418,"name":"Niyaah","steam_id":76561198110209191,"connected_time":891000000000,"state":"active","ping":64},{"user_id":422,"name":"cactusj4","steam_id":76561199243398487,"connected_time":734000000000,"state":"active","ping":55},{"user_id":427,"name":"SKY_","steam_id":76561198080980508,"connected_time":129000000000,"state":"active","ping":49},{"user_id":385,"name":"Interview C","steam_id":76561199012566222,"connected_time":4146000000000,"state":"active","ping":65},{"user_id":405,"name":"Richard nixon roleplayer","steam_id":76561198236015392,"connected_time":1901000000000,"state":"active","ping":120},{"user_id":391,"name":"sword machine","steam_id":76561198895235231,"connected_time":3838000000000,"state":"active","ping":56},{"user_id":379,"name":"jüri","steam_id":76561198107460765,"connected_time":4431000000000,"state":"active","ping":46},{"user_id":227,"name":"whimsy.","steam_id":76561198878171763,"connected_time":16302000000000,"state":"active","ping":50},{"user_id":413,"name":"⚧aura⚧","steam_id":76561198066258544,"connected_time":1012000000000,"state":"active","ping":86}]},{"server_id":114,"name":"Uncletopia | London | 2 | All Maps","name_short":"lon-2","host":"lon-1.uk.uncletopia.com","port":27025,"enabled":true,"region":"eu","cc":"gb","latitude":51.509865,"longitude":-0.118092,"reserved":0,"last_update":"0001-01-01T00:00:00Z","name_a2s":"Uncletopia | London | 2 | All Maps","protocol":17,"map":"pl_snowycoast","folder":"tf","game":"Team Fortress","app_id":440,"player_count":24,"max_players":24,"Bots":0,"server_type":"Dedicated","server_os":"Linux","password":true,"vac":true,"version":"7961495","steam_id":85568392924470941,"keywords":["nocrits","nodmgspread","payload","uncletopia"],"game_id":440,"stv_port":27026,"stv_name":"Uncletopia | London | 2 | All Maps | STV","players":[{"user_id":391,"name":"Nitro_Kill","steam_id":76561198232098540,"connected_time":2172000000000,"state":"active","ping":90},{"user_id":392,"name":"Triploon","steam_id":76561198173304074,"connected_time":2163000000000,"state":"active","ping":45},{"user_id":419,"name":"Zerfesh","steam_id":76561198117534358,"connected_time":355000000000,"state":"active","ping":93},{"user_id":402,"name":"TheLivingBoombox","steam_id":76561199225802945,"connected_time":1596000000000,"state":"active","ping":75},{"user_id":370,"name":"free back real estate","steam_id":76561197999437155,"connected_time":4374000000000,"state":"active","ping":37},{"user_id":241,"name":"Zel","steam_id":76561198284520120,"connected_time":11921000000000,"state":"active","ping":47},{"user_id":381,"name":"yeahfam","steam_id":76561198330481190,"connected_time":3690000000000,"state":"active","ping":47},{"user_id":388,"name":"Ephix","steam_id":76561197977164055,"connected_time":2930000000000,"state":"active","ping":55},{"user_id":393,"name":"grr","steam_id":76561199429407130,"connected_time":2162000000000,"state":"active","ping":73},{"user_id":400,"name":"owlsie","steam_id":76561198094883280,"connected_time":1715000000000,"state":"active","ping":45},{"user_id":411,"name":"[EXDr]Specky","steam_id":76561198302518477,"connected_time":893000000000,"state":"active","ping":41},{"user_id":421,"name":"Олексій | UA","steam_id":76561198802594676,"connected_time":236000000000,"state":"active","ping":64},{"user_id":394,"name":"Boil em mash em","steam_id":76561198026508026,"connected_time":2156000000000,"state":"active","ping":63},{"user_id":404,"name":"The_voices","steam_id":76561199095701143,"connected_time":1535000000000,"state":"active","ping":59},{"user_id":424,"name":"Rubi","steam_id":76561198139410003,"connected_time":89000000000,"state":"active","ping":66},{"user_id":401,"name":"KiteNock","steam_id":76561198160622922,"connected_time":1639000000000,"state":"active","ping":79},{"user_id":413,"name":"Milca_11","steam_id":76561198848650365,"connected_time":798000000000,"state":"active","ping":103},{"user_id":426,"name":"ratbastardgaming","steam_id":76561198444254926,"connected_time":6000000000,"state":"spawning","ping":52},{"user_id":377,"name":"DocTwoEight","steam_id":76561198153488940,"connected_time":3820000000000,"state":"active","ping":78},{"user_id":412,"name":"r","steam_id":76561198239927434,"connected_time":892000000000,"state":"active","ping":60},{"user_id":422,"name":"Mr. Hunts","steam_id":76561197981910397,"connected_time":223000000000,"state":"active","ping":75},{"user_id":416,"name":"glyph","steam_id":76561197980736364,"connected_time":719000000000,"state":"active","ping":86},{"user_id":423,"name":"pa1n","steam_id":76561197984094104,"connected_time":210000000000,"state":"active","ping":77},{"user_id":425,"name":"Makaron","steam_id":76561198312358590,"connected_time":30000000000,"state":"active","ping":88}]},{"server_id":320,"name":"Uncletopia | London | 3 | All Maps","name_short":"lon-3","host":"lon-1.uk.uncletopia.com","port":27035,"enabled":true,"region":"eu","cc":"gb","latitude":51.509865,"longitude":-0.118092,"reserved":0,"last_update":"0001-01-01T00:00:00Z","name_a2s":"Uncletopia | London | 3 | All Maps","protocol":17,"map":"pl_badwater","folder":"tf","game":"Team Fortress","app_id":440,"player_count":24,"max_players":24,"Bots":0,"server_type":"Dedicated","server_os":"Linux","password":true,"vac":true,"version":"7961495","steam_id":85568392924510192,"keywords":["nocrits","nodmgspread","payload","uncletopia"],"game_id":440,"stv_port":27036,"stv_name":"Uncletopia | London | 3 | All Maps | STV","players":[{"user_id":364,"name":"Cöffee","steam_id":76561198115131952,"connected_time":4385000000000,"state":"active","ping":100},{"user_id":423,"name":"honzajspv","steam_id":76561198434476343,"connected_time":484000000000,"state":"active","ping":56},{"user_id":137,"name":"Ｍａｃｉｎｔｏｓｈ","steam_id":76561198074294565,"connected_time":18559000000000,"state":"active","ping":75},{"user_id":416,"name":"Dezalt","steam_id":76561198154866092,"connected_time":641000000000,"state":"active","ping":62},{"user_id":383,"name":"Dr. No Name","steam_id":76561198058656869,"connected_time":2471000000000,"state":"active","ping":140},{"user_id":396,"name":"Solid Snake holding a pepsi","steam_id":76561198348396493,"connected_time":1990000000000,"state":"active","ping":39},{"user_id":425,"name":"Nyoom","steam_id":76561198054585002,"connected_time":384000000000,"state":"active","ping":54},{"user_id":401,"name":"skai","steam_id":76561198184881255,"connected_time":1730000000000,"state":"active","ping":62},{"user_id":424,"name":"Thors","steam_id":76561197968739075,"connected_time":439000000000,"state":"active","ping":44},{"user_id":397,"name":"Wardruna96","steam_id":76561199057083828,"connected_time":1918000000000,"state":"active","ping":75},{"user_id":407,"name":"Largo","steam_id":76561198844368927,"connected_time":1076000000000,"state":"active","ping":70},{"user_id":426,"name":"actualofficeman","steam_id":76561198364649987,"connected_time":189000000000,"state":"active","ping":45},{"user_id":420,"name":"Amandus","steam_id":76561198036281079,"connected_time":529000000000,"state":"active","ping":66},{"user_id":404,"name":"SirVitek","steam_id":76561198142961758,"connected_time":1472000000000,"state":"active","ping":48},{"user_id":399,"name":"Spajro","steam_id":76561198257383813,"connected_time":1749000000000,"state":"active","ping":51},{"user_id":380,"name":"Vista","steam_id":76561199091524536,"connected_time":2515000000000,"state":"active","ping":150},{"user_id":387,"name":"Snowingle","steam_id":76561199222526482,"connected_time":2370000000000,"state":"active","ping":74},{"user_id":374,"name":"japjao","steam_id":76561199230386527,"connected_time":3006000000000,"state":"active","ping":34},{"user_id":415,"name":"Fearly","steam_id":76561198798684016,"connected_time":662000000000,"state":"active","ping":39},{"user_id":421,"name":"TheCosmicLizard","steam_id":76561198861751742,"connected_time":525000000000,"state":"active","ping":73},{"user_id":418,"name":"Kaibz","steam_id":76561197975012611,"connected_time":610000000000,"state":"active","ping":41},{"user_id":422,"name":"PAX","steam_id":76561198046692146,"connected_time":519000000000,"state":"active","ping":70},{"user_id":417,"name":"child cruncher","steam_id":76561199376433147,"connected_time":625000000000,"state":"active","ping":39},{"user_id":400,"name":"Plep","steam_id":76561198840259819,"connected_time":1748000000000,"state":"active","ping":59}]},{"server_id":321,"name":"Uncletopia | London | 4 | All Maps","name_short":"lon-4","host":"lon-1.uk.uncletopia.com","port":27045,"enabled":true,"region":"eu","cc":"gb","latitude":51.509865,"longitude":-0.118092,"reserved":0,"last_update":"0001-01-01T00:00:00Z","name_a2s":"Uncletopia | London | 4 | All Maps","protocol":17,"map":"pl_pier","folder":"tf","game":"Team Fortress","app_id":440,"player_count":24,"max_players":24,"Bots":0,"server_type":"Dedicated","server_os":"Linux","password":true,"vac":true,"version":"7961495","steam_id":85568392924510193,"keywords":["nocrits","nodmgspread","payload","uncletopia"],"game_id":440,"stv_port":27046,"stv_name":"Uncletopia | London | 4 | All Maps | STV","players":[{"user_id":621,"name":"Lynx","steam_id":76561199274008207,"connected_time":2134000000000,"state":"active","ping":82},{"user_id":586,"name":"sv_MrGibbs","steam_id":76561198114071972,"connected_time":3585000000000,"state":"active","ping":45},{"user_id":631,"name":"night.s","steam_id":76561198326287823,"connected_time":1978000000000,"state":"active","ping":74},{"user_id":653,"name":"God Of Pancakes","steam_id":76561198074535608,"connected_time":853000000000,"state":"active","ping":71},{"user_id":643,"name":"Rodia","steam_id":76561197968293161,"connected_time":1068000000000,"state":"active","ping":74},{"user_id":596,"name":"Femboy -UwU-","steam_id":76561198083425408,"connected_time":3411000000000,"state":"active","ping":46},{"user_id":636,"name":"Coac","steam_id":76561198085265740,"connected_time":1844000000000,"state":"active","ping":65},{"user_id":627,"name":"kastanomata","steam_id":76561198271832763,"connected_time":2043000000000,"state":"active","ping":69},{"user_id":630,"name":"Deez nuts","steam_id":76561199429562693,"connected_time":1994000000000,"state":"active","ping":62},{"user_id":660,"name":"Razef","steam_id":76561198030309484,"connected_time":166000000000,"state":"active","ping":47},{"user_id":635,"name":"A Pigeon","steam_id":76561198114090555,"connected_time":1862000000000,"state":"active","ping":78},{"user_id":644,"name":"DXD Tech","steam_id":76561198358379587,"connected_time":977000000000,"state":"active","ping":60},{"user_id":623,"name":"akakez","steam_id":76561198095432821,"connected_time":2088000000000,"state":"active","ping":112},{"user_id":662,"name":"Beowmcianx","steam_id":76561198363627544,"connected_time":5000000000,"state":"spawning","ping":87},{"user_id":661,"name":"tone","steam_id":76561197975301462,"connected_time":154000000000,"state":"active","ping":65},{"user_id":651,"name":"quickfast","steam_id":76561199438900919,"connected_time":861000000000,"state":"active","ping":45},{"user_id":641,"name":"Bill_nye_epic","steam_id":76561199216249214,"connected_time":1428000000000,"state":"active","ping":138},{"user_id":657,"name":"Damaged","steam_id":76561198273394258,"connected_time":596000000000,"state":"active","ping":42},{"user_id":658,"name":"Maybe","steam_id":76561198274455278,"connected_time":571000000000,"state":"active","ping":71},{"user_id":626,"name":"CaptainMac","steam_id":76561198273156139,"connected_time":2046000000000,"state":"active","ping":48},{"user_id":600,"name":"Warlord428","steam_id":76561198377117895,"connected_time":3354000000000,"state":"active","ping":45},{"user_id":625,"name":"Sugardaddy_pep","steam_id":76561198807512589,"connected_time":2071000000000,"state":"active","ping":76},{"user_id":633,"name":"Lance Corporal Boiled Egg","steam_id":76561197989717358,"connected_time":1943000000000,"state":"active","ping":44},{"user_id":646,"name":"Bonduelle#Savetf2","steam_id":76561199041992422,"connected_time":929000000000,"state":"active","ping":155}]},{"server_id":21,"name":"Uncletopia | London | 5 | All Maps","name_short":"lon-5","host":"lon-1.uk.uncletopia.com","port":27055,"enabled":true,"region":"eu","cc":"gb","latitude":51.509865,"longitude":-0.118092,"reserved":0,"last_update":"0001-01-01T00:00:00Z","name_a2s":"Uncletopia | London | 5 | All Maps","protocol":17,"map":"cp_process_final","folder":"tf","game":"Team Fortress","app_id":440,"player_count":24,"max_players":24,"Bots":0,"server_type":"Dedicated","server_os":"Linux","password":true,"vac":true,"version":"7961495","steam_id":85568392924742829,"keywords":["cp","nocrits","nodmgspread","uncletopia"],"game_id":440,"stv_port":27056,"stv_name":"Uncletopia | London | 5 | All Maps | STV","players":[{"user_id":182,"name":"PaperPlay","steam_id":76561198046838964,"connected_time":101000000000,"state":"active","ping":89},{"user_id":168,"name":"mumbler","steam_id":76561197970641239,"connected_time":1036000000000,"state":"active","ping":58},{"user_id":176,"name":"SuperBob103","steam_id":76561199175360012,"connected_time":654000000000,"state":"active","ping":59},{"user_id":148,"name":"Ullr","steam_id":76561198140547483,"connected_time":2406000000000,"state":"active","ping":40},{"user_id":171,"name":"KingPotatoChips","steam_id":76561198035156465,"connected_time":1010000000000,"state":"active","ping":61},{"user_id":153,"name":"silicon based life form","steam_id":76561199127121346,"connected_time":2086000000000,"state":"active","ping":45},{"user_id":94,"name":"HetNet","steam_id":76561198207584963,"connected_time":5439000000000,"state":"active","ping":65},{"user_id":95,"name":"Tin","steam_id":76561198022201818,"connected_time":5439000000000,"state":"active","ping":45},{"user_id":152,"name":"Fish Killer","steam_id":76561198067332366,"connected_time":2142000000000,"state":"active","ping":49},{"user_id":172,"name":"Surrealistic_Ganerson","steam_id":76561198029591931,"connected_time":1008000000000,"state":"active","ping":85},{"user_id":180,"name":"Axio","steam_id":76561198046826031,"connected_time":386000000000,"state":"active","ping":74},{"user_id":147,"name":"The Subway Scientist","steam_id":76561198193757646,"connected_time":2457000000000,"state":"active","ping":47},{"user_id":183,"name":"HOI","steam_id":76561198061182117,"connected_time":89000000000,"state":"active","ping":59},{"user_id":150,"name":"Dr. Funkenstein","steam_id":76561197977816210,"connected_time":2256000000000,"state":"active","ping":51},{"user_id":184,"name":"Dolcelatte","steam_id":76561198038501770,"connected_time":86000000000,"state":"active","ping":61},{"user_id":74,"name":"Nag","steam_id":76561197970488206,"connected_time":6542000000000,"state":"active","ping":67},{"user_id":173,"name":"risc (back from the grave)","steam_id":76561198061208814,"connected_time":954000000000,"state":"active","ping":49},{"user_id":175,"name":"Greed","steam_id":76561197986427930,"connected_time":715000000000,"state":"active","ping":46},{"user_id":157,"name":"engineer drip","steam_id":76561198991032570,"connected_time":1491000000000,"state":"active","ping":84},{"user_id":144,"name":"Duke Fishlord","steam_id":76561198079928327,"connected_time":2680000000000,"state":"active","ping":60},{"user_id":158,"name":"not a nihilist","steam_id":76561198004340466,"connected_time":1348000000000,"state":"active","ping":47},{"user_id":181,"name":"willus212","steam_id":76561199182615246,"connected_time":333000000000,"state":"active","ping":72},{"user_id":177,"name":"sam_","steam_id":76561198814734120,"connected_time":600000000000,"state":"active","ping":107},{"user_id":170,"name":"Trucker mic","steam_id":76561198117199068,"connected_time":1028000000000,"state":"active","ping":69}]},{"server_id":22,"name":"Uncletopia | London | 6 | All Maps","name_short":"lon-6","host":"lon-1.uk.uncletopia.com","port":27065,"enabled":true,"region":"eu","cc":"gb","latitude":51.509865,"longitude":-0.118092,"reserved":0,"last_update":"0001-01-01T00:00:00Z","name_a2s":"Uncletopia | London | 6 | All Maps","protocol":17,"map":"pl_upward","folder":"tf","game":"Team Fortress","app_id":440,"player_count":24,"max_players":24,"Bots":0,"server_type":"Dedicated","server_os":"Linux","password":true,"vac":true,"version":"7961495","steam_id":85568392924742830,"keywords":["nocrits","nodmgspread","payload","uncletopia"],"game_id":440,"stv_port":27066,"stv_name":"Uncletopia | London | 6 | All Maps | STV","players":[{"user_id":150,"name":"Lucrates","steam_id":76561198377615663,"connected_time":796000000000,"state":"active","ping":56},{"user_id":135,"name":"BakedGecko","steam_id":76561198011015750,"connected_time":2212000000000,"state":"active","ping":51},{"user_id":145,"name":"Android Device Connected","steam_id":76561199244250562,"connected_time":1031000000000,"state":"active","ping":97},{"user_id":142,"name":"The Cool Ice Guy","steam_id":76561198146194820,"connected_time":1137000000000,"state":"active","ping":49},{"user_id":178,"name":"axellinag15","steam_id":76561199188113751,"connected_time":183000000000,"state":"active","ping":148},{"user_id":152,"name":"Sparky","steam_id":76561198036754195,"connected_time":754000000000,"state":"active","ping":48},{"user_id":154,"name":"Kekeke","steam_id":76561198063672270,"connected_time":700000000000,"state":"active","ping":102},{"user_id":172,"name":"B@d","steam_id":76561198972548904,"connected_time":347000000000,"state":"active","ping":58},{"user_id":153,"name":"mud","steam_id":76561198141497461,"connected_time":731000000000,"state":"active","ping":64},{"user_id":155,"name":"dum","steam_id":76561198053386482,"connected_time":692000000000,"state":"active","ping":119},{"user_id":160,"name":"Rez","steam_id":76561198410598772,"connected_time":524000000000,"state":"active","ping":43},{"user_id":157,"name":"MillyR","steam_id":76561198200012195,"connected_time":560000000000,"state":"active","ping":45},{"user_id":159,"name":"Sim","steam_id":76561198086641180,"connected_time":537000000000,"state":"active","ping":82},{"user_id":180,"name":"whatever you want","steam_id":76561199085624224,"connected_time":96000000000,"state":"active","ping":65},{"user_id":169,"name":"Pimpin' \u0026 Blimpin'","steam_id":76561198326776107,"connected_time":395000000000,"state":"active","ping":87},{"user_id":165,"name":"CiVillain","steam_id":76561198059617732,"connected_time":427000000000,"state":"active","ping":62},{"user_id":166,"name":"WHUSSKEY","steam_id":76561198137827441,"connected_time":425000000000,"state":"active","ping":71},{"user_id":167,"name":"TylowStar","steam_id":76561198357107806,"connected_time":404000000000,"state":"active","ping":73},{"user_id":173,"name":"red cross volunteer","steam_id":76561197972287320,"connected_time":318000000000,"state":"active","ping":69},{"user_id":171,"name":"Anvil of War","steam_id":76561197978902267,"connected_time":364000000000,"state":"active","ping":113},{"user_id":174,"name":"Superiumentarius","steam_id":76561198081642249,"connected_time":309000000000,"state":"active","ping":69},{"user_id":175,"name":"limbicsystem","steam_id":76561198025612680,"connected_time":273000000000,"state":"active","ping":46},{"user_id":176,"name":"K.V. #RemoveRandomCrits","steam_id":76561197994832993,"connected_time":266000000000,"state":"active","ping":89},{"user_id":177,"name":"\u003c(sur)\u003esquigly","steam_id":76561198134646151,"connected_time":244000000000,"state":"active","ping":84}]},{"server_id":40,"name":"Uncletopia | London | 7 | Stopwatch","name_short":"lon-7","host":"lon-1.uk.uncletopia.com","port":27075,"enabled":true,"region":"eu","cc":"gb","latitude":51.509865,"longitude":-0.118092,"reserved":0,"last_update":"0001-01-01T00:00:00Z","name_a2s":"Uncletopia | London | 7 | Stopwatch","protocol":17,"map":"cp_metalworks","folder":"tf","game":"Team Fortress","app_id":440,"player_count":3,"max_players":24,"Bots":0,"server_type":"Dedicated","server_os":"Linux","password":true,"vac":true,"version":"7961495","steam_id":85568392924964314,"keywords":["cp","nocrits","nodmgspread","uncletopia"],"game_id":440,"stv_port":27076,"stv_name":"Uncletopia | London | 7 | Stopwatch | STV","players":[{"user_id":10,"name":"Roddy St. James","steam_id":76561199139267147,"connected_time":944000000000,"state":"active","ping":57},{"user_id":11,"name":"bonkboy","steam_id":76561199101335057,"connected_time":931000000000,"state":"active","ping":37},{"user_id":12,"name":"Elizabeth_TBL","steam_id":76561198201807437,"connected_time":51000000000,"state":"active","ping":79}]},{"server_id":41,"name":"Uncletopia | London | 8 | Community","name_short":"lon-8","host":"lon-1.uk.uncletopia.com","port":27085,"enabled":true,"region":"eu","cc":"gb","latitude":51.509865,"longitude":-0.118092,"reserved":0,"last_update":"0001-01-01T00:00:00Z","name_a2s":"Uncletopia | London | 8 | Community","protocol":17,"map":"workshop/cp_villa_b19.ugc2113052569","folder":"tf","game":"Team Fortress","app_id":440,"player_count":0,"max_players":24,"Bots":0,"server_type":"Dedicated","server_os":"Linux","password":true,"vac":true,"version":"7961495","steam_id":85568392924964315,"keywords":["cp","nocrits","nodmgspread","uncletopia"],"game_id":440,"stv_port":27086,"stv_name":"Uncletopia | London | 8 | Community | STV","players":null},{"server_id":300,"name":"Uncletopia | Montréal | 1 | One Thousand Uncles","name_short":"mtl-1","host":"mtl-1.ca.uncletopia.com","port":27015,"enabled":true,"region":"us-east","cc":"ca","latitude":45.50889,"longitude":-73.56167,"reserved":0,"last_update":"0001-01-01T00:00:00Z","name_a2s":"Uncletopia | Montréal | 1 | One Thousand Uncles","protocol":17,"map":"pl_swiftwater_final1","folder":"tf","game":"Team Fortress","app_id":440,"player_count":19,"max_players":32,"Bots":16,"server_type":"Dedicated","server_os":"Linux","password":true,"vac":true,"version":"7961495","steam_id":85568392924500087,"keywords":["alltalk","bots","danepve","increased_maxplayers","norespawntime","payload","uncletopia"],"game_id":440,"stv_port":0,"stv_name":"","players":[{"user_id":121,"name":"Navysealdemoman","steam_id":76561199048625312,"connected_time":1911000000000,"state":"active","ping":57},{"user_id":138,"name":"trobin120","steam_id":76561199122420273,"connected_time":911000000000,"state":"active","ping":52},{"user_id":142,"name":"Watong","steam_id":76561199074388745,"connected_time":99000000000,"state":"active","ping":164}]},{"server_id":301,"name":"Uncletopia | Montréal | 2 | One Thousand Uncles","name_short":"mtl-2","host":"mtl-1.ca.uncletopia.com","port":27025,"enabled":true,"region":"us-east","cc":"ca","latitude":45.50889,"longitude":-73.56167,"reserved":0,"last_update":"0001-01-01T00:00:00Z","name_a2s":"Uncletopia | Montréal | 2 | One Thousand Uncles","protocol":17,"map":"pl_chilly","folder":"tf","game":"Team Fortress","app_id":440,"player_count":0,"max_players":32,"Bots":0,"server_type":"Dedicated","server_os":"Linux","password":true,"vac":true,"version":"7961495","steam_id":85568392924500088,"keywords":["alltalk","danepve","increased_maxplayers","norespawntime","payload","uncletopia"],"game_id":440,"stv_port":0,"stv_name":"","players":null},{"server_id":302,"name":"Uncletopia | Montréal | 3 | One Thousand Uncles","name_short":"mtl-3","host":"mtl-1.ca.uncletopia.com","port":27035,"enabled":true,"region":"us-east","cc":"ca","latitude":45.50889,"longitude":-73.56167,"reserved":0,"last_update":"0001-01-01T00:00:00Z","name_a2s":"Uncletopia | Montréal | 3 | One Thousand Uncles","protocol":17,"map":"pl_upward","folder":"tf","game":"Team Fortress","app_id":440,"player_count":21,"max_players":32,"Bots":16,"server_type":"Dedicated","server_os":"Linux","password":true,"vac":true,"version":"7961495","steam_id":85568392924500089,"keywords":["alltalk","bots","danepve","increased_maxplayers","norespawntime","payload","uncletopia"],"game_id":440,"stv_port":0,"stv_name":"","players":[{"user_id":94,"name":"Herdex","steam_id":76561198092575778,"connected_time":2243000000000,"state":"active","ping":70},{"user_id":95,"name":"Indi","steam_id":76561198177002367,"connected_time":2234000000000,"state":"active","ping":76},{"user_id":112,"name":"god_ferny","steam_id":76561198263380204,"connected_time":1347000000000,"state":"active","ping":114},{"user_id":113,"name":"DoingBooing","steam_id":76561199503942745,"connected_time":1050000000000,"state":"active","ping":66},{"user_id":116,"name":"Corginnit","steam_id":76561198862679085,"connected_time":40000000000,"state":"active","ping":53}]},{"server_id":13,"name":"Uncletopia | New York City | 1 | All Maps","name_short":"nyc-1","host":"nyc-1.us.uncletopia.com","port":27015,"enabled":true,"region":"us-east","cc":"us","latitude":40.73061,"longitude":-73.93524,"reserved":0,"last_update":"0001-01-01T00:00:00Z","name_a2s":"Uncletopia | New York City | 1 | All Maps","protocol":17,"map":"pl_barnblitz","folder":"tf","game":"Team Fortress","app_id":440,"player_count":22,"max_players":24,"Bots":0,"server_type":"Dedicated","server_os":"Linux","password":true,"vac":true,"version":"7961495","steam_id":85568392924469993,"keywords":["nocrits","nodmgspread","payload","uncletopia"],"game_id":440,"stv_port":27016,"stv_name":"Uncletopia | New York City | 1 | All Maps | STV","players":[{"user_id":193,"name":"Rat Queen Emily","steam_id":76561198232446788,"connected_time":1832000000000,"state":"active","ping":62},{"user_id":200,"name":"Gluteus","steam_id":76561198039122699,"connected_time":1435000000000,"state":"active","ping":45},{"user_id":221,"name":"Jackiese","steam_id":76561199445100850,"connected_time":144000000000,"state":"active","ping":75},{"user_id":196,"name":"Bignuts69","steam_id":76561199302763718,"connected_time":1816000000000,"state":"active","ping":43},{"user_id":225,"name":"Orange Triangle","steam_id":76561198320498182,"connected_time":1000000000,"state":"spawning","ping":60},{"user_id":191,"name":"aika","steam_id":76561198263271697,"connected_time":2251000000000,"state":"active","ping":74},{"user_id":201,"name":"Sandwich","steam_id":76561199048558029,"connected_time":1433000000000,"state":"active","ping":46},{"user_id":208,"name":"milk.","steam_id":76561198475060900,"connected_time":1144000000000,"state":"active","ping":72},{"user_id":126,"name":"Aokuma","steam_id":76561198808387179,"connected_time":5579000000000,"state":"active","ping":50},{"user_id":209,"name":"Grimprr","steam_id":76561198275816797,"connected_time":1142000000000,"state":"active","ping":48},{"user_id":203,"name":"Carpetspill","steam_id":76561198240023406,"connected_time":1356000000000,"state":"active","ping":89},{"user_id":219,"name":"Mr Happy","steam_id":76561198067689328,"connected_time":164000000000,"state":"active","ping":60},{"user_id":197,"name":"guitarfreak","steam_id":76561198139851357,"connected_time":1718000000000,"state":"active","ping":90},{"user_id":172,"name":"Mawdern","steam_id":76561198042131709,"connected_time":3073000000000,"state":"active","ping":63},{"user_id":212,"name":"normal","steam_id":76561198133712839,"connected_time":568000000000,"state":"active","ping":48},{"user_id":190,"name":"Terry Crews from Brooklyn 99","steam_id":76561198357806819,"connected_time":2485000000000,"state":"active","ping":76},{"user_id":224,"name":"dkinz68","steam_id":76561198430168721,"connected_time":108000000000,"state":"active","ping":95},{"user_id":210,"name":"Order for Delivery","steam_id":76561198070850386,"connected_time":771000000000,"state":"active","ping":82},{"user_id":133,"name":"Stonks","steam_id":76561199490085068,"connected_time":5425000000000,"state":"active","ping":58},{"user_id":152,"name":"Fuzzele","steam_id":76561199199532696,"connected_time":3710000000000,"state":"active","ping":74},{"user_id":183,"name":"xX$VV@G_R3@P3R_$3X_$1\u0026Y3R_2008X","steam_id":76561198207215752,"connected_time":2906000000000,"state":"active","ping":63},{"user_id":223,"name":"Deltaco","steam_id":76561198094572694,"connected_time":137000000000,"state":"active","ping":126}]},{"server_id":14,"name":"Uncletopia | New York City | 2 | All Maps","name_short":"nyc-2","host":"nyc-1.us.uncletopia.com","port":27025,"enabled":true,"region":"us-east","cc":"us","latitude":40.73061,"longitude":-73.93524,"reserved":0,"last_update":"0001-01-01T00:00:00Z","name_a2s":"Uncletopia | New York City | 2 | All Maps","protocol":17,"map":"koth_suijin","folder":"tf","game":"Team Fortress","app_id":440,"player_count":24,"max_players":24,"Bots":0,"server_type":"Dedicated","server_os":"Linux","password":true,"vac":true,"version":"7961495","steam_id":85568392924469994,"keywords":["cp","nocrits","nodmgspread","uncletopia"],"game_id":440,"stv_port":27026,"stv_name":"Uncletopia | New York City | 2 | All Maps | STV","players":[{"user_id":309,"name":"Rummy the Blargh-gineer","steam_id":76561197997192800,"connected_time":1812000000000,"state":"active","ping":46},{"user_id":317,"name":"Berb","steam_id":76561198193911899,"connected_time":1156000000000,"state":"active","ping":71},{"user_id":326,"name":"Teamfortressfunnymomments#5","steam_id":76561198971629959,"connected_time":546000000000,"state":"active","ping":151},{"user_id":316,"name":"minesweeper battlepass","steam_id":76561198047696534,"connected_time":1334000000000,"state":"active","ping":53},{"user_id":295,"name":"princess fern \u003c3333","steam_id":76561198881792140,"connected_time":2230000000000,"state":"active","ping":46},{"user_id":257,"name":"Bigsumoslammer","steam_id":76561198044505076,"connected_time":6802000000000,"state":"active","ping":41},{"user_id":241,"name":"Peepster","steam_id":76561198297854733,"connected_time":7514000000000,"state":"active","ping":71},{"user_id":328,"name":"Auberon","steam_id":76561198102778539,"connected_time":292000000000,"state":"active","ping":42},{"user_id":288,"name":"turnkeyson","steam_id":76561199168848749,"connected_time":3417000000000,"state":"active","ping":66},{"user_id":318,"name":"Jrock","steam_id":76561198045715996,"connected_time":1093000000000,"state":"active","ping":69},{"user_id":305,"name":"Quick-Fix Fan","steam_id":76561198872845740,"connected_time":1959000000000,"state":"active","ping":48},{"user_id":19,"name":"Boofenshmirtz","steam_id":76561198071649858,"connected_time":13465000000000,"state":"active","ping":74},{"user_id":314,"name":"yes daddy","steam_id":76561198166100997,"connected_time":1495000000000,"state":"active","ping":72},{"user_id":329,"name":"Dr. Han","steam_id":76561198811130843,"connected_time":215000000000,"state":"active","ping":70},{"user_id":323,"name":"battle clown","steam_id":76561198045788371,"connected_time":764000000000,"state":"active","ping":76},{"user_id":333,"name":"EvilStickGuy","steam_id":76561197985379320,"connected_time":93000000000,"state":"active","ping":36},{"user_id":279,"name":"hayes","steam_id":76561198057101042,"connected_time":4461000000000,"state":"active","ping":80},{"user_id":310,"name":"Shrebbie","steam_id":76561198875230824,"connected_time":1782000000000,"state":"active","ping":46},{"user_id":331,"name":"Sussin'","steam_id":76561198059813696,"connected_time":160000000000,"state":"active","ping":60},{"user_id":301,"name":"terrapieseven","steam_id":76561198072062415,"connected_time":2146000000000,"state":"active","ping":56},{"user_id":334,"name":"CheetoSmoke7","steam_id":76561198095217273,"connected_time":80000000000,"state":"active","ping":43},{"user_id":321,"name":"Your Local Jester","steam_id":76561199120223717,"connected_time":867000000000,"state":"active","ping":45},{"user_id":324,"name":"Baron von Whoopsie","steam_id":76561197996691013,"connected_time":680000000000,"state":"active","ping":51},{"user_id":335,"name":"Kos, or some say Kosm","steam_id":76561197998833309,"connected_time":0,"state":"spawning","ping":0}]},{"server_id":15,"name":"Uncletopia | New York City | 3 | Stopwatch","name_short":"nyc-3","host":"nyc-1.us.uncletopia.com","port":27035,"enabled":true,"region":"us-east","cc":"us","latitude":40.73061,"longitude":-73.93524,"reserved":0,"last_update":"0001-01-01T00:00:00Z","name_a2s":"Uncletopia | New York City | 3 | Stopwatch","protocol":17,"map":"cp_granary","folder":"tf","game":"Team Fortress","app_id":440,"player_count":0,"max_players":24,"Bots":0,"server_type":"Dedicated","server_os":"Linux","password":true,"vac":true,"version":"7961495","steam_id":85568392924742820,"keywords":["cp","nocrits","nodmgspread","uncletopia"],"game_id":440,"stv_port":27036,"stv_name":"Uncletopia | New York City | 3 | Stopwatch | STV","players":null},{"server_id":16,"name":"Uncletopia | New York City | 4 | Community","name_short":"nyc-4","host":"nyc-1.us.uncletopia.com","port":27045,"enabled":true,"region":"us-east","cc":"us","latitude":40.73061,"longitude":-73.93524,"reserved":0,"last_update":"0001-01-01T00:00:00Z","name_a2s":"Uncletopia | New York City | 4 | Community","protocol":17,"map":"workshop/cp_propaganda_b18.ugc1603743849","folder":"tf","game":"Team Fortress","app_id":440,"player_count":0,"max_players":24,"Bots":0,"server_type":"Dedicated","server_os":"Linux","password":true,"vac":true,"version":"7961495","steam_id":85568392924742821,"keywords":["cp","nocrits","nodmgspread","uncletopia"],"game_id":440,"stv_port":27046,"stv_name":"Uncletopia | New York City | 4 | Community | STV","players":null},{"server_id":142,"name":"Uncletopia | São Paulo | 1 | All Maps","name_short":"sao-1","host":"sao-1.br.uncletopia.com","port":27015,"enabled":true,"region":"sa","cc":"br","latitude":-23.533773,"longitude":-46.62529,"reserved":0,"last_update":"0001-01-01T00:00:00Z","name_a2s":"Uncletopia | São Paulo | 1 | All Maps","protocol":17,"map":"koth_cascade","folder":"tf","game":"Team Fortress","app_id":440,"player_count":0,"max_players":24,"Bots":0,"server_type":"Dedicated","server_os":"Linux","password":true,"vac":true,"version":"7961495","steam_id":85568392924469996,"keywords":["cp","nocrits","nodmgspread","uncletopia"],"game_id":440,"stv_port":27016,"stv_name":"Uncletopia | São Paulo | 1 | All Maps | STV","players":null},{"server_id":143,"name":"Uncletopia | São Paulo | 2 | Community","name_short":"sao-2","host":"sao-2.br.uncletopia.com","port":27015,"enabled":true,"region":"sa","cc":"br","latitude":-23.533773,"longitude":-46.62529,"reserved":0,"last_update":"0001-01-01T00:00:00Z","name_a2s":"Uncletopia | São Paulo | 2 | Community","protocol":17,"map":"workshop/cp_croissant_final.ugc458840209","folder":"tf","game":"Team Fortress","app_id":440,"player_count":0,"max_players":24,"Bots":0,"server_type":"Dedicated","server_os":"Linux","password":true,"vac":true,"version":"7961495","steam_id":85568392924485349,"keywords":["cp","nocrits","nodmgspread","uncletopia"],"game_id":440,"stv_port":27016,"stv_name":"Uncletopia | São Paulo | 2 | Community | STV","players":null},{"server_id":7,"name":"Uncletopia | Seattle | 1 | All Maps","name_short":"sea-1","host":"sea-1.us.uncletopia.com","port":27015,"enabled":true,"region":"us-west","cc":"us","latitude":47.608013,"longitude":-122.33517,"reserved":0,"last_update":"0001-01-01T00:00:00Z","name_a2s":"Uncletopia | Seattle | 1 | All Maps","protocol":17,"map":"cp_dustbowl","folder":"tf","game":"Team Fortress","app_id":440,"player_count":23,"max_players":24,"Bots":0,"server_type":"Dedicated","server_os":"Linux","password":true,"vac":true,"version":"7961495","steam_id":85568392924469997,"keywords":["cp","nocrits","nodmgspread","uncletopia"],"game_id":440,"stv_port":27016,"stv_name":"Uncletopia | Seattle | 1 | All Maps | STV","players":[{"user_id":165,"name":"Kasmk","steam_id":76561198826977394,"connected_time":2539000000000,"state":"active","ping":59},{"user_id":192,"name":"jdm","steam_id":76561199497603020,"connected_time":867000000000,"state":"active","ping":76},{"user_id":174,"name":"deeeefers","steam_id":76561198082592496,"connected_time":1901000000000,"state":"active","ping":45},{"user_id":177,"name":"Micc","steam_id":76561199447744486,"connected_time":1566000000000,"state":"active","ping":75},{"user_id":191,"name":"tmm (theManMan)","steam_id":76561199488457138,"connected_time":901000000000,"state":"active","ping":53},{"user_id":160,"name":"Eraser cat","steam_id":76561199045570463,"connected_time":2787000000000,"state":"active","ping":45},{"user_id":132,"name":"Furry Femboy Hooters (CEO)","steam_id":76561198097745857,"connected_time":5538000000000,"state":"active","ping":46},{"user_id":180,"name":"Jeramosa","steam_id":76561198811000094,"connected_time":1426000000000,"state":"active","ping":81},{"user_id":163,"name":"PiolaCat","steam_id":76561199100535345,"connected_time":2742000000000,"state":"active","ping":98},{"user_id":193,"name":"[bbbc] Dimple","steam_id":76561198980324190,"connected_time":852000000000,"state":"active","ping":58},{"user_id":171,"name":"Clockwork0613","steam_id":76561198987121123,"connected_time":1997000000000,"state":"active","ping":71},{"user_id":175,"name":"Natsuki the Scunt","steam_id":76561199175922684,"connected_time":1829000000000,"state":"active","ping":87},{"user_id":190,"name":"ritchie","steam_id":76561198097835871,"connected_time":943000000000,"state":"active","ping":122},{"user_id":198,"name":"zinnk","steam_id":76561198092081825,"connected_time":379000000000,"state":"active","ping":59},{"user_id":189,"name":"porfer","steam_id":76561199118049168,"connected_time":1143000000000,"state":"active","ping":75},{"user_id":183,"name":"Costco Pizza","steam_id":76561198104062789,"connected_time":1398000000000,"state":"active","ping":84},{"user_id":184,"name":"perfectemu","steam_id":76561199147866624,"connected_time":1393000000000,"state":"active","ping":107},{"user_id":149,"name":"❤To Lazy❤","steam_id":76561198164211904,"connected_time":3620000000000,"state":"active","ping":78},{"user_id":197,"name":"JafarAckbar","steam_id":76561198393932690,"connected_time":739000000000,"state":"active","ping":90},{"user_id":145,"name":"DrD","steam_id":76561198067266383,"connected_time":4187000000000,"state":"active","ping":34},{"user_id":185,"name":"Glitchy","steam_id":76561198101925500,"connected_time":1381000000000,"state":"active","ping":51},{"user_id":199,"name":"dust | it/she","steam_id":76561198045218909,"connected_time":117000000000,"state":"active","ping":39},{"user_id":169,"name":"Aardappel","steam_id":76561198030894676,"connected_time":2093000000000,"state":"active","ping":60}]},{"server_id":119,"name":"Uncletopia | Seattle | 2 | All Maps","name_short":"sea-2","host":"sea-1.us.uncletopia.com","port":27025,"enabled":true,"region":"us-west","cc":"us","latitude":47.608013,"longitude":-122.33517,"reserved":0,"last_update":"0001-01-01T00:00:00Z","name_a2s":"Uncletopia | Seattle | 2 | All Maps","protocol":17,"map":"koth_lakeside_final","folder":"tf","game":"Team Fortress","app_id":440,"player_count":0,"max_players":24,"Bots":0,"server_type":"Dedicated","server_os":"Linux","password":true,"vac":true,"version":"7961495","steam_id":85568392924469998,"keywords":["cp","nocrits","nodmgspread","uncletopia"],"game_id":440,"stv_port":27026,"stv_name":"Uncletopia | Seattle | 2 | All Maps | STV","players":null},{"server_id":406,"name":"Uncletopia | Seattle | 3 | Stopwatch","name_short":"sea-3","host":"sea-1.us.uncletopia.com","port":27035,"enabled":true,"region":"us-west","cc":"us","latitude":47.608013,"longitude":-122.33517,"reserved":0,"last_update":"0001-01-01T00:00:00Z","name_a2s":"Uncletopia | Seattle | 3 | Stopwatch","protocol":17,"map":"cp_sunshine","folder":"tf","game":"Team Fortress","app_id":440,"player_count":0,"max_players":24,"Bots":0,"server_type":"Dedicated","server_os":"Linux","password":true,"vac":true,"version":"7961495","steam_id":85568392924515217,"keywords":["cp","nocrits","nodmgspread","uncletopia"],"game_id":440,"stv_port":27036,"stv_name":"Uncletopia | Seattle | 3 | Stopwatch | STV","players":null},{"server_id":17,"name":"Uncletopia | San Francisco | 1 | All Maps","name_short":"sfo-1","host":"sfo-1.us.uncletopia.com","port":27015,"enabled":true,"region":"us-west","cc":"us","latitude":37.77397,"longitude":-122.4313,"reserved":0,"last_update":"0001-01-01T00:00:00Z","name_a2s":"Uncletopia | San Francisco | 1 | All Maps","protocol":17,"map":"koth_highpass","folder":"tf","game":"Team Fortress","app_id":440,"player_count":2,"max_players":24,"Bots":0,"server_type":"Dedicated","server_os":"Linux","password":true,"vac":true,"version":"7961495","steam_id":85568392924469999,"keywords":["cp","nocrits","nodmgspread","uncletopia"],"game_id":440,"stv_port":27016,"stv_name":"Uncletopia | San Francisco | 1 | All Maps | STV","players":[{"user_id":4,"name":"engineer gaming","steam_id":76561199103219962,"connected_time":1287000000000,"state":"active","ping":62},{"user_id":5,"name":"wade","steam_id":76561199270278551,"connected_time":1284000000000,"state":"active","ping":67}]},{"server_id":18,"name":"Uncletopia | San Francisco | 2 | All Maps","name_short":"sfo-2","host":"sfo-1.us.uncletopia.com","port":27025,"enabled":true,"region":"us-west","cc":"us","latitude":37.77397,"longitude":-122.4313,"reserved":0,"last_update":"0001-01-01T00:00:00Z","name_a2s":"Uncletopia | San Francisco | 2 | All Maps","protocol":17,"map":"pl_snowycoast","folder":"tf","game":"Team Fortress","app_id":440,"player_count":0,"max_players":24,"Bots":0,"server_type":"Dedicated","server_os":"Linux","password":true,"vac":true,"version":"7961495","steam_id":85568392924470000,"keywords":["nocrits","nodmgspread","payload","uncletopia"],"game_id":440,"stv_port":27026,"stv_name":"Uncletopia | San Francisco | 2 | All Maps | STV","players":null},{"server_id":19,"name":"Uncletopia | San Francisco | 3 | Stopwatch","name_short":"sfo-3","host":"sfo-1.us.uncletopia.com","port":27035,"enabled":true,"region":"us-west","cc":"us","latitude":37.77397,"longitude":-122.4313,"reserved":0,"last_update":"0001-01-01T00:00:00Z","name_a2s":"Uncletopia | San Francisco | 3 | Stopwatch","protocol":17,"map":"workshop/koth_product_final.ugc454272353","folder":"tf","game":"Team Fortress","app_id":440,"player_count":0,"max_players":24,"Bots":0,"server_type":"Dedicated","server_os":"Linux","password":true,"vac":true,"version":"7961495","steam_id":85568392924742824,"keywords":["cp","nocrits","nodmgspread","uncletopia"],"game_id":440,"stv_port":27036,"stv_name":"Uncletopia | San Francisco | 3 | Stopwatch | STV","players":null},{"server_id":20,"name":"Uncletopia | San Francisco | 4 | Community","name_short":"sfo-4","host":"sfo-1.us.uncletopia.com","port":27045,"enabled":true,"region":"us-west","cc":"us","latitude":37.77397,"longitude":-122.4313,"reserved":0,"last_update":"0001-01-01T00:00:00Z","name_a2s":"Uncletopia | San Francisco | 4 | Community","protocol":17,"map":"workshop/pl_cashworks_final1.ugc2904065412","folder":"tf","game":"Team Fortress","app_id":440,"player_count":0,"max_players":24,"Bots":0,"server_type":"Dedicated","server_os":"Linux","password":true,"vac":true,"version":"7961495","steam_id":85568392924742826,"keywords":["nocrits","nodmgspread","payload","uncletopia"],"game_id":440,"stv_port":27046,"stv_name":"Uncletopia | San Francisco | 4 | Community | STV","players":null},{"server_id":141,"name":"Uncletopia | Sydney | 1 | All Maps","name_short":"syd-1","host":"syd-1.au.uncletopia.com","port":27015,"enabled":true,"region":"au","cc":"au","latitude":-33.865143,"longitude":151.2099,"reserved":0,"last_update":"0001-01-01T00:00:00Z","name_a2s":"Uncletopia | Sydney | 1 | All Maps","protocol":17,"map":"pl_borneo","folder":"tf","game":"Team Fortress","app_id":440,"player_count":0,"max_players":24,"Bots":0,"server_type":"Dedicated","server_os":"Linux","password":true,"vac":true,"version":"7961495","steam_id":85568392924470001,"keywords":["nocrits","nodmgspread","payload","uncletopia"],"game_id":440,"stv_port":27016,"stv_name":"Uncletopia | Sydney | 1 | All Maps | STV","players":null},{"server_id":123,"name":"Uncletopia | Sydney | 2 | All Maps","name_short":"syd-2","host":"syd-1.au.uncletopia.com","port":27025,"enabled":true,"region":"au","cc":"au","latitude":-33.865143,"longitude":151.2099,"reserved":0,"last_update":"0001-01-01T00:00:00Z","name_a2s":"Uncletopia | Sydney | 2 | All Maps","protocol":17,"map":"cp_sunshine","folder":"tf","game":"Team Fortress","app_id":440,"player_count":0,"max_players":24,"Bots":0,"server_type":"Dedicated","server_os":"Linux","password":true,"vac":true,"version":"7961495","steam_id":85568392924470002,"keywords":["cp","nocrits","nodmgspread","uncletopia"],"game_id":440,"stv_port":27026,"stv_name":"Uncletopia | Sydney | 2 | All Maps | STV","players":null},{"server_id":395,"name":"Uncletopia | Sydney | 3 | All Maps","name_short":"syd-3","host":"syd-1.au.uncletopia.com","port":27035,"enabled":true,"region":"au","cc":"au","latitude":-33.865143,"longitude":151.2099,"reserved":0,"last_update":"0001-01-01T00:00:00Z","name_a2s":"Uncletopia | Sydney | 3 | All Maps","protocol":17,"map":"pl_swiftwater_final1","folder":"tf","game":"Team Fortress","app_id":440,"player_count":0,"max_players":24,"Bots":0,"server_type":"Dedicated","server_os":"Linux","password":true,"vac":true,"version":"7961495","steam_id":85568392925194467,"keywords":["nocrits","nodmgspread","payload","uncletopia"],"game_id":440,"stv_port":27036,"stv_name":"Uncletopia | Sydney | 3 | All Maps | STV","players":null},{"server_id":396,"name":"Uncletopia | Sydney | 4 | All Maps","name_short":"syd-4","host":"syd-1.au.uncletopia.com","port":27045,"enabled":true,"region":"au","cc":"au","latitude":-33.865143,"longitude":151.2099,"reserved":0,"last_update":"0001-01-01T00:00:00Z","name_a2s":"Uncletopia | Sydney | 4 | All Maps","protocol":17,"map":"cp_sunshine","folder":"tf","game":"Team Fortress","app_id":440,"player_count":0,"max_players":24,"Bots":0,"server_type":"Dedicated","server_os":"Linux","password":true,"vac":true,"version":"7961495","steam_id":85568392925397958,"keywords":["cp","nocrits","nodmgspread","uncletopia"],"game_id":440,"stv_port":27046,"stv_name":"Uncletopia | Sydney | 4 | All Maps | STV","players":null},{"server_id":58,"name":"Uncletopia | Sydney | 5 | Stopwatch","name_short":"syd-5","host":"syd-1.au.uncletopia.com","port":27055,"enabled":true,"region":"au","cc":"au","latitude":-33.865143,"longitude":151.2099,"reserved":0,"last_update":"0001-01-01T00:00:00Z","name_a2s":"Uncletopia | Sydney | 5 | Stopwatch","protocol":17,"map":"pl_swiftwater_final1","folder":"tf","game":"Team Fortress","app_id":440,"player_count":0,"max_players":24,"Bots":0,"server_type":"Dedicated","server_os":"Linux","password":true,"vac":true,"version":"7961495","steam_id":85568392925397959,"keywords":["nocrits","nodmgspread","payload","uncletopia"],"game_id":440,"stv_port":27056,"stv_name":"Uncletopia | Sydney | 5 | Stopwatch | STV","players":null},{"server_id":59,"name":"Uncletopia | Sydney | 6 | Community","name_short":"syd-6","host":"syd-1.au.uncletopia.com","port":27065,"enabled":true,"region":"au","cc":"au","latitude":-33.865143,"longitude":151.2099,"reserved":0,"last_update":"0001-01-01T00:00:00Z","name_a2s":"Uncletopia | Sydney | 6 | Community","protocol":17,"map":"workshop/koth_trenchfoot_ab1.ugc731436616","folder":"tf","game":"Team Fortress","app_id":440,"player_count":0,"max_players":24,"Bots":0,"server_type":"Dedicated","server_os":"Linux","password":true,"vac":true,"version":"7961495","steam_id":85568392925397960,"keywords":["cp","nocrits","nodmgspread","uncletopia"],"game_id":440,"stv_port":27066,"stv_name":"Uncletopia | Sydney | 6 | Community | STV","players":null},{"server_id":49,"name":"Uncletopia | Warsaw | 1 | One Thousand Uncles","name_short":"waw-1","host":"waw-1.pl.uncletopia.com","port":27015,"enabled":true,"region":"eu","cc":"pl","latitude":52.2297,"longitude":21.017532,"reserved":0,"last_update":"0001-01-01T00:00:00Z","name_a2s":"Uncletopia | Warsaw | 1 | One Thousand Uncles","protocol":17,"map":"cp_dustbowl","folder":"tf","game":"Team Fortress","app_id":440,"player_count":26,"max_players":32,"Bots":16,"server_type":"Dedicated","server_os":"Linux","password":true,"vac":true,"version":"7961495","steam_id":85568392925397850,"keywords":["alltalk","bots","cp","danepve","increased_maxplayers","norespawntime","uncletopia"],"game_id":440,"stv_port":0,"stv_name":"","players":[{"user_id":525,"name":"[1VS23] BAKELITE","steam_id":76561198190816499,"connected_time":1019000000000,"state":"active","ping":55},{"user_id":523,"name":"donatofina","steam_id":76561198353497885,"connected_time":1117000000000,"state":"active","ping":102},{"user_id":528,"name":"( ͠° ͟ʖ ͡°)","steam_id":76561199362861027,"connected_time":748000000000,"state":"active","ping":313},{"user_id":513,"name":"PuPuruPuruPumPu","steam_id":76561198391950490,"connected_time":2565000000000,"state":"active","ping":98},{"user_id":515,"name":"vurtun","steam_id":76561198857395274,"connected_time":2232000000000,"state":"active","ping":60},{"user_id":514,"name":"Plasmaomatic","steam_id":76561199388897290,"connected_time":2395000000000,"state":"active","ping":87},{"user_id":527,"name":"Bordt258","steam_id":76561199038280717,"connected_time":1011000000000,"state":"active","ping":54},{"user_id":526,"name":"HueJazz","steam_id":76561198168125993,"connected_time":1018000000000,"state":"active","ping":48},{"user_id":530,"name":"Its yah monke","steam_id":76561198323869587,"connected_time":264000000000,"state":"active","ping":61},{"user_id":531,"name":"Käärijä","steam_id":76561199026027655,"connected_time":118000000000,"state":"active","ping":91}]},{"server_id":50,"name":"Uncletopia | Warsaw | 2 | One Thousand Uncles","name_short":"waw-2","host":"waw-1.pl.uncletopia.com","port":27025,"enabled":true,"region":"eu","cc":"pl","latitude":52.2297,"longitude":21.017532,"reserved":0,"last_update":"0001-01-01T00:00:00Z","name_a2s":"Uncletopia | Warsaw | 2 | One Thousand Uncles","protocol":17,"map":"cp_dustbowl","folder":"tf","game":"Team Fortress","app_id":440,"player_count":26,"max_players":32,"Bots":16,"server_type":"Dedicated","server_os":"Linux","password":true,"vac":true,"version":"7961495","steam_id":85568392925397851,"keywords":["alltalk","bots","cp","danepve","increased_maxplayers","norespawntime","uncletopia"],"game_id":440,"stv_port":0,"stv_name":"","players":[{"user_id":607,"name":"MrDUB","steam_id":76561199131642284,"connected_time":1557000000000,"state":"active","ping":76},{"user_id":622,"name":"Chemax","steam_id":76561198168846882,"connected_time":33000000000,"state":"active","ping":90},{"user_id":610,"name":"MrHenry","steam_id":76561199249662743,"connected_time":1363000000000,"state":"active","ping":157},{"user_id":565,"name":"What?","steam_id":76561198121960984,"connected_time":3995000000000,"state":"active","ping":48},{"user_id":611,"name":"aaaaaa","steam_id":76561198086304421,"connected_time":1357000000000,"state":"active","ping":110},{"user_id":576,"name":"Sphynx Cat","steam_id":76561198367800260,"connected_time":2846000000000,"state":"active","ping":46},{"user_id":572,"name":"popez","steam_id":76561198051880474,"connected_time":3159000000000,"state":"active","ping":82},{"user_id":577,"name":"Phisor","steam_id":76561198233450952,"connected_time":2792000000000,"state":"active","ping":62},{"user_id":579,"name":"LTRambo22","steam_id":76561198850909550,"connected_time":2586000000000,"state":"active","ping":166},{"user_id":590,"name":"Valoxi","steam_id":76561197995042938,"connected_time":1731000000000,"state":"active","ping":75}]},{"server_id":51,"name":"Uncletopia | Warsaw | 3 | All Maps","name_short":"waw-3","host":"waw-1.pl.uncletopia.com","port":27035,"enabled":true,"region":"eu","cc":"pl","latitude":52.2297,"longitude":21.017532,"reserved":0,"last_update":"0001-01-01T00:00:00Z","name_a2s":"Uncletopia | Warsaw | 3 | All Maps","protocol":17,"map":"koth_highpass","folder":"tf","game":"Team Fortress","app_id":440,"player_count":0,"max_players":24,"Bots":0,"server_type":"Dedicated","server_os":"Linux","password":true,"vac":true,"version":"7961495","steam_id":85568392925397852,"keywords":["cp","nocrits","nodmgspread","uncletopia"],"game_id":440,"stv_port":27036,"stv_name":"Uncletopia | Warsaw | 3 | All Maps | STV","players":null},{"server_id":52,"name":"Uncletopia | Warsaw | 4 | All Maps","name_short":"waw-4","host":"waw-1.pl.uncletopia.com","port":27045,"enabled":true,"region":"eu","cc":"pl","latitude":52.2297,"longitude":21.017532,"reserved":0,"last_update":"0001-01-01T00:00:00Z","name_a2s":"Uncletopia | Warsaw | 4 | All Maps","protocol":17,"map":"koth_highpass","folder":"tf","game":"Team Fortress","app_id":440,"player_count":3,"max_players":24,"Bots":0,"server_type":"Dedicated","server_os":"Linux","password":true,"vac":true,"version":"7961495","steam_id":85568392925397853,"keywords":["cp","nocrits","nodmgspread","uncletopia"],"game_id":440,"stv_port":27046,"stv_name":"Uncletopia | Warsaw | 4 | All Maps | STV","players":[{"user_id":244,"name":"jamsy","steam_id":76561198880215495,"connected_time":331000000000,"state":"active","ping":83},{"user_id":245,"name":"0","steam_id":76561199170470536,"connected_time":219000000000,"state":"spawning","ping":142},{"user_id":246,"name":"v0mask0","steam_id":76561199187281791,"connected_time":30000000000,"state":"spawning","ping":84}]},{"server_id":53,"name":"Uncletopia | Warsaw | 5 | Stopwatch","name_short":"waw-5","host":"waw-1.pl.uncletopia.com","port":27055,"enabled":true,"region":"eu","cc":"pl","latitude":52.2297,"longitude":21.017532,"reserved":0,"last_update":"0001-01-01T00:00:00Z","name_a2s":"Uncletopia | Warsaw | 5 | Stopwatch","protocol":17,"map":"workshop/koth_clearcut_b15.ugc2107050255","folder":"tf","game":"Team Fortress","app_id":440,"player_count":0,"max_players":24,"Bots":0,"server_type":"Dedicated","server_os":"Linux","password":true,"vac":true,"version":"7961495","steam_id":85568392925397854,"keywords":["cp","nocrits","nodmgspread","uncletopia"],"game_id":440,"stv_port":27056,"stv_name":"Uncletopia | Warsaw | 5 | Stopwatch | STV","players":null},{"server_id":54,"name":"Uncletopia | Warsaw | 6 | Community","name_short":"waw-6","host":"waw-1.pl.uncletopia.com","port":27065,"enabled":true,"region":"eu","cc":"pl","latitude":52.2297,"longitude":21.017532,"reserved":0,"last_update":"0001-01-01T00:00:00Z","name_a2s":"Uncletopia | Warsaw | 6 | Community","protocol":17,"map":"workshop/cp_coilblaze_rc7.ugc1272700588","folder":"tf","game":"Team Fortress","app_id":440,"player_count":0,"max_players":24,"Bots":0,"server_type":"Dedicated","server_os":"Linux","password":true,"vac":true,"version":"7961495","steam_id":85568392925397856,"keywords":["cp","nocrits","nodmgspread","uncletopia"],"game_id":440,"stv_port":27066,"stv_name":"Uncletopia | Warsaw | 6 | Community | STV","players":null}]}