{"status":true,"message":"","result":[{"server_id":9,"name":"Uncletopia | Atlanta | 1 | All Maps","name_short":"atl-1","host":"atl-1.us.uncletopia.com","port":27015,"enabled":true,"region":"us-east","cc":"us","latitude":33.753746,"longitude":-84.38633,"reserved":0,"last_update":"0001-01-01T00:00:00Z","name_a2s":"Uncletopia | Atlanta | 1 | All Maps","protocol":17,"map":"pl_swiftwater_final1","folder":"tf","game":"Team Fortress","app_id":440,"player_count":24,"max_players":24,"Bots":0,"server_type":"Dedicated","server_os":"Linux","password":true,"vac":true,"version":"7961495","steam_id":85568392924469982,"keywords":["nocrits","nodmgspread","payload","uncletopia"],"game_id":440,"stv_port":27016,"stv_name":"Uncletopia | Atlanta | 1 | All Maps | STV","players":[{"user_id":468,"name":"7TH DOORDASH ORDER TODAY","steam_id":76561198042773724,"connected_time":3834000000000,"state":"active","ping":114},{"user_id":383,"name":"JunThePanda","steam_id":76561198144029002,"connected_time":10469000000000,"state":"active","ping":77},{"user_id":493,"name":"shaderoses","steam_id":76561198070800500,"connected_time":1546000000000,"state":"active","ping":73},{"user_id":505,"name":"Whompert","steam_id":76561198042939624,"connected_time":145000000000,"state":"active","ping":71},{"user_id":478,"name":"BIG HOG","steam_id":76561198079923652,"connected_time":2821000000000,"state":"active","ping":65},{"user_id":486,"name":"Fever Dreams","steam_id":76561198116614620,"connected_time":2297000000000,"state":"active","ping":82},{"user_id":447,"name":"Pango","steam_id":76561198069811545,"connected_time":5848000000000,"state":"active","ping":40},{"user_id":500,"name":"Flawless","steam_id":76561198418622751,"connected_time":379000000000,"state":"active","ping":73},{"user_id":503,"name":"joe","steam_id":76561198045781320,"connected_time":325000000000,"state":"active","ping":61},{"user_id":353,"name":"Onyx","steam_id":76561198275349640,"connected_time":12893000000000,"state":"active","ping":100},{"user_id":499,"name":"Dreszerg","steam_id":76561198838757422,"connected_time":810000000000,"state":"active","ping":82},{"user_id":507,"name":"ATL1 | cola","steam_id":76561198374390458,"connected_time":101000000000,"state":"active","ping":61},{"user_id":471,"name":"lil hog","steam_id":76561199230929836,"connected_time":3423000000000,"state":"active","ping":79},{"user_id":452,"name":"marguerite","steam_id":76561198170873495,"connected_time":5161000000000,"state":"active","ping":54},{"user_id":465,"name":"Vee (very cool)","steam_id":76561198330432889,"connected_time":4023000000000,"state":"active","ping":66},{"user_id":480,"name":"Albino Jellyfish","steam_id":76561198208561097,"connected_time":2811000000000,"state":"active","ping":58},{"user_id":506,"name":"SkyCommision","steam_id":76561198116927949,"connected_time":144000000000,"state":"active","ping":92},{"user_id":502,"name":"bkiller","steam_id":76561198029265697,"connected_time":378000000000,"state":"active","ping":61},{"user_id":490,"name":"fachions_tip","steam_id":76561198848962575,"connected_time":1851000000000,"state":"active","ping":71},{"user_id":445,"name":"Jeane","steam_id":76561198151019322,"connected_time":5872000000000,"state":"active","ping":72},{"user_id":492,"name":"Harbor Seal","steam_id":76561198162631724,"connected_time":1752000000000,"state":"active","ping":79},{"user_id":497,"name":"tgirl frothing","steam_id":76561198249206656,"connected_time":1190000000000,"state":"active","ping":88},{"user_id":477,"name":"kite","steam_id":76561198346516392,"connected_time":2838000000000,"state":"active","ping":82},{"user_id":484,"name":"Punchy","steam_id":76561198200000641,"connected_time":2475000000000,"state":"active","ping":54}]},{"server_id":104,"name":"Uncletopia | Atlanta | 2 | All Maps","name_short":"atl-2","host":"atl-1.us.uncletopia.com","port":27025,"enabled":true,"region":"us-east","cc":"us","latitude":33.753746,"longitude":-84.38633,"reserved":0,"last_update":"0001-01-01T00:00:00Z","name_a2s":"Uncletopia | Atlanta | 2 | All Maps","protocol":17,"map":"pl_upward","folder":"tf","game":"Team Fortress","app_id":440,"player_count":25,"max_players":24,"Bots":0,"server_type":"Dedicated","server_os":"Linux","password":true,"vac":true,"version":"7961495","steam_id":85568392924469983,"keywords":["nocrits","nodmgspread","payload","uncletopia"],"game_id":440,"stv_port":27026,"stv_name":"Uncletopia | Atlanta | 2 | All Maps | STV","players":[{"user_id":245,"name":"The Modern Spokesperson","steam_id":76561197998318003,"connected_time":3278000000000,"state":"active","ping":70},{"user_id":325,"name":"elder scrolls 6","steam_id":76561198113364714,"connected_time":116000000000,"state":"active","ping":50},{"user_id":265,"name":"Mythical Lag","steam_id":76561198347031281,"connected_time":2117000000000,"state":"active","ping":82},{"user_id":241,"name":"merk","steam_id":76561198434609353,"connected_time":3563000000000,"state":"active","ping":59},{"user_id":191,"name":"Wooden E","steam_id":76561198020308956,"connected_time":7156000000000,"state":"active","ping":45},{"user_id":324,"name":"Thotimus Begonimus","steam_id":76561197970275938,"connected_time":127000000000,"state":"active","ping":65},{"user_id":268,"name":"Rollerrot","steam_id":76561198044014092,"connected_time":1644000000000,"state":"active","ping":53},{"user_id":308,"name":"PiolaCat","steam_id":76561199100535345,"connected_time":476000000000,"state":"active","ping":110},{"user_id":288,"name":"ZombieSlayer77","steam_id":76561199023974356,"connected_time":909000000000,"state":"active","ping":80},{"user_id":329,"name":"Shrebbie","steam_id":76561198875230824,"connected_time":20000000000,"state":"spawning","ping":59},{"user_id":248,"name":"the cart is not movin lads","steam_id":76561199184578185,"connected_time":3202000000000,"state":"active","ping":169},{"user_id":270,"name":"Wilhelmktx","steam_id":76561198158102295,"connected_time":1361000000000,"state":"active","ping":65},{"user_id":286,"name":"Always Here for You","steam_id":76561198219252313,"connected_time":934000000000,"state":"active","ping":81},{"user_id":326,"name":"Amy Roxwell","steam_id":76561198303391830,"connected_time":102000000000,"state":"active","ping":138},{"user_id":264,"name":"Monkey Mode","steam_id":76561197961267543,"connected_time":2190000000000,"state":"active","ping":57},{"user_id":258,"name":"FracturedChemical56 [PANZS]","steam_id":76561199031148132,"connected_time":2614000000000,"state":"active","ping":80},{"user_id":287,"name":"Speed Spell IV","steam_id":76561198298364415,"connected_time":932000000000,"state":"active","ping":106},{"user_id":295,"name":"Eomy","steam_id":76561198297783627,"connected_time":754000000000,"state":"active","ping":69},{"user_id":105,"name":"tack","steam_id":76561198408477421,"connected_time":12944000000000,"state":"active","ping":81},{"user_id":274,"name":"KBoneski ♡","steam_id":76561198307409065,"connected_time":1271000000000,"state":"active","ping":67},{"user_id":249,"name":"Cow","steam_id":76561198359672478,"connected_time":3029000000000,"state":"active","ping":65},{"user_id":178,"name":"Spoo","steam_id":76561198188021354,"connected_time":8501000000000,"state":"active","ping":71},{"user_id":284,"name":"JustANormalOlive-ia","steam_id":76561198809645656,"connected_time":970000000000,"state":"active","ping":86},{"user_id":267,"name":"Mr. Sun","steam_id":76561198081338822,"connected_time":2057000000000,"state":"active","ping":68},{"user_id":316,"name":"Babylon","steam_id":76561198048291984,"connected_time":314000000000,"state":"active","ping":96}]},{"server_id":400,"name":"Uncletopia | Atlanta | 3 | Stopwatch","name_short":"atl-3","host":"atl-1.us.uncletopia.com","port":27035,"enabled":true,"region":"us-east","cc":"us","latitude":33.753746,"longitude":-84.38633,"reserved":0,"last_update":"0001-01-01T00:00:00Z","name_a2s":"Uncletopia | Atlanta | 3 | Stopwatch","protocol":17,"map":"workshop/koth_clearcut_b15.ugc2107050255","folder":"tf","game":"Team Fortress","app_id":440,"player_count":0,"max_players":24,"Bots":0,"server_type":"Dedicated","server_os":"Linux","password":true,"vac":true,"version":"7961495","steam_id":85568392924515187,"keywords":["cp","nocrits","nodmgspread","uncletopia"],"game_id":440,"stv_port":27036,"stv_name":"Uncletopia | Atlanta | 3 | Stopwatch | STV","players":null},{"server_id":401,"name":"Uncletopia | Atlanta | 4 | Community","name_short":"atl-4","host":"atl-1.us.uncletopia.com","port":27045,"enabled":true,"region":"us-east","cc":"us","latitude":33.753746,"longitude":-84.38633,"reserved":0,"last_update":"0001-01-01T00:00:00Z","name_a2s":"Uncletopia | Atlanta | 4 | Community","protocol":17,"map":"cp_sunshine","folder":"tf","game":"Team Fortress","app_id":440,"player_count":0,"max_players":24,"Bots":0,"server_type":"Dedicated","server_os":"Linux","password":true,"vac":true,"version":"7961495","steam_id":85568392924515188,"keywords":["cp","nocrits","nodmgspread","uncletopia"],"game_id":440,"stv_port":27046,"stv_name":"Uncletopia | Atlanta | 4 | Community | STV","players":null},{"server_id":2,"name":"Uncletopia | Chicago | 1 | All Maps","name_short":"chi-1","host":"chi-1.us.uncletopia.com","port":27015,"enabled":true,"region":"us-central","cc":"us","latitude":41.881832,"longitude":-87.62318,"reserved":0,"last_update":"0001-01-01T00:00:00Z","name_a2s":"Uncletopia | Chicago | 1 | All Maps","protocol":17,"map":"pl_upward","folder":"tf","game":"Team Fortress","app_id":440,"player_count":23,"max_players":24,"Bots":0,"server_type":"Dedicated","server_os":"Linux","password":true,"vac":true,"version":"7961495","steam_id":85568392924469984,"keywords":["nocrits","nodmgspread","payload","uncletopia"],"game_id":440,"stv_port":27016,"stv_name":"Uncletopia | Chicago | 1 | All Maps | STV","players":[{"user_id":731,"name":".JIFF","steam_id":76561198045181760,"connected_time":5551000000000,"state":"active","ping":53},{"user_id":814,"name":"LULW WHAT IS HE DOING?","steam_id":76561198031675881,"connected_time":946000000000,"state":"active","ping":42},{"user_id":826,"name":"Evolution","steam_id":76561198144767370,"connected_time":226000000000,"state":"active","ping":50},{"user_id":787,"name":"Arthur SSJ2","steam_id":76561198043678479,"connected_time":2478000000000,"state":"active","ping":79},{"user_id":816,"name":"trobin120","steam_id":76561199122420273,"connected_time":510000000000,"state":"active","ping":63},{"user_id":740,"name":"TheGreythreat","steam_id":76561198021995538,"connected_time":5189000000000,"state":"active","ping":58},{"user_id":789,"name":"nobody","steam_id":76561198148059714,"connected_time":2451000000000,"state":"active","ping":62},{"user_id":827,"name":"dipp","steam_id":76561198395577807,"connected_time":35000000000,"state":"active","ping":76},{"user_id":808,"name":"Thot Patrol","steam_id":76561198026003193,"connected_time":1415000000000,"state":"active","ping":58},{"user_id":825,"name":"no more fucks to give","steam_id":76561199129974320,"connected_time":354000000000,"state":"active","ping":66},{"user_id":798,"name":"pizza rat","steam_id":76561198044874072,"connected_time":1878000000000,"state":"active","ping":59},{"user_id":811,"name":"Yam Jazzy Jim","steam_id":76561198000788950,"connected_time":1199000000000,"state":"active","ping":64},{"user_id":785,"name":"BreadFish","steam_id":76561198834556559,"connected_time":2627000000000,"state":"active","ping":85},{"user_id":803,"name":"schizophrenic pyro","steam_id":76561198805603832,"connected_time":1739000000000,"state":"active","ping":73},{"user_id":819,"name":"Thatoneguybunchanumbers","steam_id":76561198028039160,"connected_time":487000000000,"state":"active","ping":84},{"user_id":776,"name":"Snom","steam_id":76561198333827920,"connected_time":3330000000000,"state":"active","ping":98},{"user_id":824,"name":"wiwi","steam_id":76561198046650995,"connected_time":427000000000,"state":"active","ping":86},{"user_id":817,"name":"Robo Boss","steam_id":76561199067098696,"connected_time":498000000000,"state":"active","ping":81},{"user_id":821,"name":"GibbusGod","steam_id":76561199232436690,"connected_time":452000000000,"state":"active","ping":74},{"user_id":792,"name":"Toottoot","steam_id":76561197992404836,"connected_time":2321000000000,"state":"active","ping":51},{"user_id":711,"name":"Black Rose Oncore","steam_id":76561198040489960,"connected_time":6956000000000,"state":"active","ping":57},{"user_id":822,"name":"Xocolatl 魔鐘","steam_id":76561198007405067,"connected_time":443000000000,"state":"active","ping":50},{"user_id":752,"name":"Sum0","steam_id":76561198260451626,"connected_time":4727000000000,"state":"active","ping":63}]},{"server_id":106,"name":"Uncletopia | Chicago | 2 | All Maps","name_short":"chi-2","host":"chi-1.us.uncletopia.com","port":27025,"enabled":true,"region":"us-central","cc":"us","latitude":41.881832,"longitude":-87.62318,"reserved":0,"last_update":"0001-01-01T00:00:00Z","name_a2s":"Uncletopia | Chicago | 2 | All Maps","protocol":17,"map":"cp_dustbowl","folder":"tf","game":"Team Fortress","app_id":440,"player_count":24,"max_players":24,"Bots":0,"server_type":"Dedicated","server_os":"Linux","password":true,"vac":true,"version":"7961495","steam_id":85568392924469985,"keywords":["cp","nocrits","nodmgspread","uncletopia"],"game_id":440,"stv_port":27026,"stv_name":"Uncletopia | Chicago | 2 | All Maps | STV","players":[{"user_id":437,"name":"N1ghtW0lf","steam_id":76561198796464037,"connected_time":1386000000000,"state":"active","ping":137},{"user_id":458,"name":"George Holdin' W Bush","steam_id":76561198030066204,"connected_time":747000000000,"state":"active","ping":54},{"user_id":448,"name":"Lemons","steam_id":76561198125139930,"connected_time":966000000000,"state":"active","ping":69},{"user_id":447,"name":"Pikminseed","steam_id":76561198113502795,"connected_time":983000000000,"state":"active","ping":74},{"user_id":324,"name":"The Announcer's Feet","steam_id":76561199501227879,"connected_time":9649000000000,"state":"active","ping":90},{"user_id":459,"name":"MedRed™ #IATAH","steam_id":76561198002962970,"connected_time":411000000000,"state":"active","ping":93},{"user_id":417,"name":"TallBadUserName","steam_id":76561198399685508,"connected_time":3496000000000,"state":"active","ping":94},{"user_id":450,"name":"Propaniac Gaming ☑","steam_id":76561198133963270,"connected_time":906000000000,"state":"active","ping":60},{"user_id":451,"name":"Penis Man Balls Funny","steam_id":76561198207718944,"connected_time":898000000000,"state":"active","ping":64},{"user_id":426,"name":"lil","steam_id":76561198143568367,"connected_time":2494000000000,"state":"active","ping":67},{"user_id":428,"name":"punk cock","steam_id":76561198418182764,"connected_time":2474000000000,"state":"active","ping":76},{"user_id":434,"name":"Yokogaijin Jr.","steam_id":76561199124647094,"connected_time":1413000000000,"state":"active","ping":46},{"user_id":452,"name":"Medic Bag","steam_id":76561198403209900,"connected_time":897000000000,"state":"active","ping":63},{"user_id":453,"name":"CoRot-7 B","steam_id":76561199013689510,"connected_time":895000000000,"state":"active","ping":56},{"user_id":461,"name":"Bobbn","steam_id":76561198876124683,"connected_time":385000000000,"state":"active","ping":83},{"user_id":465,"name":"benevolent eccentric","steam_id":76561198044443985,"connected_time":271000000000,"state":"active","ping":88},{"user_id":455,"name":"bologna forklift 2012","steam_id":76561198199061206,"connected_time":810000000000,"state":"active","ping":44},{"user_id":419,"name":"OH BOY","steam_id":76561199052273428,"connected_time":3454000000000,"state":"active","ping":51},{"user_id":442,"name":"NUt","steam_id":76561198031007966,"connected_time":1099000000000,"state":"active","ping":71},{"user_id":438,"name":"EnragedWaters","steam_id":76561198317135757,"connected_time":1385000000000,"state":"active","ping":108},{"user_id":411,"name":"Harpua","steam_id":76561197988020228,"connected_time":3832000000000,"state":"active","ping":64},{"user_id":456,"name":"CatMagic","steam_id":76561199454230243,"connected_time":792000000000,"state":"active","ping":72},{"user_id":463,"name":"Oopsie Daisy ❋","steam_id":76561198042144492,"connected_time":369000000000,"state":"active","ping":72},{"user_id":467,"name":"VI","steam_id":76561198038737666,"connected_time":91000000000,"state":"active","ping":97}]},{"server_id":402,"name":"Uncletopia | Chicago | 3 | All Maps","name_short":"chi-3","host":"chi-1.us.uncletopia.com","port":27035,"enabled":true,"region":"us-central","cc":"us","latitude":41.881832,"longitude":-87.62318,"reserved":0,"last_update":"0001-01-01T00:00:00Z","name_a2s":"Uncletopia | Chicago | 3 | All Maps","protocol":17,"map":"pl_upward","folder":"tf","game":"Team Fortress","app_id":440,"player_count":24,"max_players":24,"Bots":0,"server_type":"Dedicated","server_os":"Linux","password":true,"vac":true,"version":"7961495","steam_id":85568392924515191,"keywords":["nocrits","nodmgspread","payload","uncletopia"],"game_id":440,"stv_port":27036,"stv_name":"Uncletopia | Chicago | 3 | All Maps | STV","players":[{"user_id":430,"name":"The Washer of Dishes","steam_id":76561198028157625,"connected_time":983000000000,"state":"active","ping":85},{"user_id":439,"name":"RailRunner66","steam_id":76561198053779091,"connected_time":714000000000,"state":"active","ping":96},{"user_id":389,"name":"SpongedSocks","steam_id":76561198374009086,"connected_time":3731000000000,"state":"active","ping":72},{"user_id":368,"name":"Coach McFish","steam_id":76561198210456405,"connected_time":4450000000000,"state":"active","ping":71},{"user_id":448,"name":"Gunden","steam_id":76561198124380112,"connected_time":158000000000,"state":"active","ping":60},{"user_id":449,"name":"totoro","steam_id":76561198210420871,"connected_time":145000000000,"state":"active","ping":42},{"user_id":451,"name":"ali oop","steam_id":76561198057516213,"connected_time":16000000000,"state":"spawning","ping":75},{"user_id":415,"name":"snail from ear AT(cochlea)","steam_id":76561198184900753,"connected_time":1793000000000,"state":"active","ping":52},{"user_id":409,"name":"averted","steam_id":76561198067784310,"connected_time":2633000000000,"state":"active","ping":68},{"user_id":425,"name":"GreatTimBones","steam_id":76561198409145748,"connected_time":1216000000000,"state":"active","ping":78},{"user_id":444,"name":"dulg","steam_id":76561198127640309,"connected_time":601000000000,"state":"active","ping":85},{"user_id":440,"name":"butterlordthing???????","steam_id":76561198069745191,"connected_time":713000000000,"state":"active","ping":110},{"user_id":417,"name":"onionaid","steam_id":76561198065266282,"connected_time":1485000000000,"state":"active","ping":123},{"user_id":441,"name":"slurp","steam_id":76561198323497535,"connected_time":653000000000,"state":"active","ping":77},{"user_id":435,"name":"37 septillion tapeworms","steam_id":76561198186128723,"connected_time":766000000000,"state":"active","ping":75},{"user_id":419,"name":"Weebmcgee","steam_id":76561198081231557,"connected_time":1473000000000,"state":"active","ping":62},{"user_id":443,"name":"AMistake","steam_id":76561199379196708,"connected_time":632000000000,"state":"active","ping":61},{"user_id":405,"name":"jayyteeAT #fleon","steam_id":76561198059575962,"connected_time":2701000000000,"state":"active","ping":64},{"user_id":420,"name":"anonpain","steam_id":76561198081317092,"connected_time":1465000000000,"state":"active","ping":57},{"user_id":406,"name":"Deeply","steam_id":76561199000786530,"connected_time":2699000000000,"state":"active","ping":93},{"user_id":447,"name":"twinblock","steam_id":76561198157414556,"connected_time":241000000000,"state":"active","ping":80},{"user_id":413,"name":"2cats_2curious","steam_id":76561198027143149,"connected_time":1972000000000,"state":"active","ping":44},{"user_id":445,"name":"Kim Wexler","steam_id":76561198964107245,"connected_time":263000000000,"state":"active","ping":98},{"user_id":429,"name":"Søren","steam_id":76561198068798828,"connected_time":1058000000000,"state":"active","ping":67}]},{"server_id":403,"name":"Uncletopia | Chicago | 4 | All Maps","name_short":"chi-4","host":"chi-1.us.uncletopia.com","port":27045,"enabled":true,"region":"us-central","cc":"us","latitude":41.881832,"longitude":-87.62318,"reserved":0,"last_update":"0001-01-01T00:00:00Z","name_a2s":"Uncletopia | Chicago | 4 | All Maps","protocol":17,"map":"pl_pier","folder":"tf","game":"Team Fortress","app_id":440,"player_count":24,"max_players":24,"Bots":0,"server_type":"Dedicated","server_os":"Linux","password":true,"vac":true,"version":"7961495","steam_id":85568392924515193,"keywords":["nocrits","nodmgspread","payload","uncletopia"],"game_id":440,"stv_port":27046,"stv_name":"Uncletopia | Chicago | 4 | All Maps | STV","players":[{"user_id":451,"name":"Phae","steam_id":76561198024763351,"connected_time":6506000000000,"state":"active","ping":63},{"user_id":509,"name":"bumrusherz","steam_id":76561198440658195,"connected_time":2339000000000,"state":"active","ping":80},{"user_id":526,"name":"dbelow_","steam_id":76561198056148853,"connected_time":1947000000000,"state":"active","ping":64},{"user_id":448,"name":"Spyfall","steam_id":76561198081729993,"connected_time":6611000000000,"state":"active","ping":70},{"user_id":547,"name":"kup","steam_id":76561198046816932,"connected_time":614000000000,"state":"active","ping":64},{"user_id":521,"name":"Shwal","steam_id":76561198138840448,"connected_time":2074000000000,"state":"active","ping":77},{"user_id":548,"name":"ShellBug","steam_id":76561198144187527,"connected_time":608000000000,"state":"active","ping":75},{"user_id":549,"name":"Palmetto","steam_id":76561199015369139,"connected_time":529000000000,"state":"active","ping":77},{"user_id":513,"name":"MakutaArty1987","steam_id":76561199048865492,"connected_time":2119000000000,"state":"active","ping":46},{"user_id":473,"name":"Octovaitor","steam_id":76561198004658451,"connected_time":4621000000000,"state":"active","ping":62},{"user_id":552,"name":"penguinlord","steam_id":76561198305192692,"connected_time":171000000000,"state":"active","ping":62},{"user_id":543,"name":"corntent","steam_id":76561198824847948,"connected_time":898000000000,"state":"active","ping":59},{"user_id":514,"name":"Squid","steam_id":76561198142873471,"connected_time":2111000000000,"state":"active","ping":84},{"user_id":546,"name":"playguy carter","steam_id":76561198080679337,"connected_time":718000000000,"state":"active","ping":68},{"user_id":539,"name":"ErenJenga54","steam_id":76561199066185761,"connected_time":1080000000000,"state":"active","ping":134},{"user_id":544,"name":"Jaflampe","steam_id":76561198175827647,"connected_time":897000000000,"state":"active","ping":69},{"user_id":482,"name":"Seakeal","steam_id":76561198069388472,"connected_time":4069000000000,"state":"active","ping":58},{"user_id":518,"name":"Eustace \"CA$H MONEY\" Bagge","steam_id":76561198154022811,"connected_time":2095000000000,"state":"active","ping":79},{"user_id":536,"name":"toritora","steam_id":76561198023859737,"connected_time":1336000000000,"state":"active","ping":69},{"user_id":520,"name":"medic enthusiast","steam_id":76561198323031964,"connected_time":2084000000000,"state":"active","ping":80},{"user_id":545,"name":"Surin","steam_id":76561198008953177,"connected_time":892000000000,"state":"active","ping":82},{"user_id":522,"name":"A Good Boy","steam_id":76561198066998594,"connected_time":2057000000000,"state":"active","ping":83},{"user_id":550,"name":"[NAME-REDACTED]","steam_id":76561198035682975,"connected_time":202000000000,"state":"active","ping":70},{"user_id":551,"name":"ZYNTERLINKED","steam_id":76561198241948526,"connected_time":202000000000,"state":"active","ping":67}]},{"server_id":36,"name":"Uncletopia | Chicago | 5 | All Maps","name_short":"chi-5","host":"chi-2.us.uncletopia.com","port":27015,"enabled":true,"region":"us-central","cc":"us","latitude":41.881832,"longitude":-87.62318,"reserved":0,"last_update":"0001-01-01T00:00:00Z","name_a2s":"Uncletopia | Chicago | 5 | All Maps","protocol":17,"map":"pl_borneo","folder":"tf","game":"Team Fortress","app_id":440,"player_count":24,"max_players":24,"Bots":0,"server_type":"Dedicated","server_os":"Linux","password":true,"vac":true,"version":"7961495","steam_id":85568392924866362,"keywords":["nocrits","nodmgspread","payload","uncletopia"],"game_id":440,"stv_port":27016,"stv_name":"Uncletopia | Chicago | 5 | All Maps | STV","players":[{"user_id":302,"name":"shoobs","steam_id":76561198042507255,"connected_time":49000000000,"state":"active","ping":86},{"user_id":262,"name":"Nobody","steam_id":76561198286486517,"connected_time":3013000000000,"state":"active","ping":60},{"user_id":295,"name":"Dieu-Sama","steam_id":76561198002075862,"connected_time":840000000000,"state":"active","ping":73},{"user_id":284,"name":"Bracey","steam_id":76561199092318246,"connected_time":1368000000000,"state":"active","ping":89},{"user_id":297,"name":"Granny from Hoodwinked","steam_id":76561198116389072,"connected_time":605000000000,"state":"active","ping":112},{"user_id":259,"name":"King Cotton","steam_id":76561198292444376,"connected_time":3050000000000,"state":"active","ping":87},{"user_id":300,"name":"frank","steam_id":76561198137777483,"connected_time":62000000000,"state":"active","ping":73},{"user_id":278,"name":"Bad Medic Buddy","steam_id":76561198093222632,"connected_time":1548000000000,"state":"active","ping":77},{"user_id":287,"name":"Giggles™","steam_id":76561198058708019,"connected_time":1296000000000,"state":"active","ping":56},{"user_id":276,"name":"Drillbit Taylor","steam_id":76561198043684960,"connected_time":1569000000000,"state":"active","ping":74},{"user_id":303,"name":"God's Drunkest Driver","steam_id":76561198069378337,"connected_time":39000000000,"state":"active","ping":92},{"user_id":234,"name":"Tobo","steam_id":76561198085846393,"connected_time":5140000000000,"state":"active","ping":90},{"user_id":279,"name":"Roz257","steam_id":76561198842844532,"connected_time":1542000000000,"state":"active","ping":63},{"user_id":280,"name":"really hot pocket","steam_id":76561198239297686,"connected_time":1539000000000,"state":"active","ping":68},{"user_id":204,"name":"Mega_Man23","steam_id":76561198138341391,"connected_time":7638000000000,"state":"active","ping":60},{"user_id":281,"name":"elephantofdoom","steam_id":76561198062436835,"connected_time":1530000000000,"state":"active","ping":65},{"user_id":208,"name":"Cyber Cylon","steam_id":76561198048972781,"connected_time":7222000000000,"state":"active","ping":58},{"user_id":294,"name":"Axio","steam_id":76561198046826031,"connected_time":1045000000000,"state":"active","ping":138},{"user_id":229,"name":"Howard Hamlin","steam_id":76561198881039861,"connected_time":5864000000000,"state":"active","ping":46},{"user_id":298,"name":"The World's Softest Sandwich","steam_id":76561198015577707,"connected_time":580000000000,"state":"active","ping":83},{"user_id":282,"name":"ToeKnee Starch","steam_id":76561198151396636,"connected_time":1492000000000,"state":"active","ping":60},{"user_id":283,"name":"beats!","steam_id":76561199245717718,"connected_time":1487000000000,"state":"active","ping":50},{"user_id":304,"name":"cheetaz","steam_id":76561198224614084,"connected_time":20000000000,"state":"active","ping":63}]},{"server_id":37,"name":"Uncletopia | Chicago | 6 | All Maps","name_short":"chi-6","host":"chi-2.us.uncletopia.com","port":27025,"enabled":true,"region":"us-central","cc":"us","latitude":41.881832,"longitude":-87.62318,"reserved":0,"last_update":"0001-01-01T00:00:00Z","name_a2s":"Uncletopia | Chicago | 6 | All Maps","protocol":17,"map":"cp_gravelpit","folder":"tf","game":"Team Fortress","app_id":440,"player_count":24,"max_players":24,"Bots":0,"server_type":"Dedicated","server_os":"Linux","password":true,"vac":true,"version":"7961495","steam_id":85568392924866363,"keywords":["cp","nocrits","nodmgspread","uncletopia"],"game_id":440,"stv_port":27026,"stv_name":"Uncletopia | Chicago | 6 | All Maps | STV","players":[{"user_id":371,"name":"Phos","steam_id":76561198122339506,"connected_time":23000000000,"state":"active","ping":76},{"user_id":365,"name":"Ɑ͞ ̶͞ ̶͞ ﻝﮞ dumpy[CO","steam_id":76561198056103422,"connected_time":104000000000,"state":"active","ping":45},{"user_id":312,"name":"㋛ countblanc","steam_id":76561197993171771,"connected_time":3538000000000,"state":"active","ping":46},{"user_id":315,"name":"nice tea. good house","steam_id":76561197992669506,"connected_time":2974000000000,"state":"active","ping":70},{"user_id":314,"name":"Ahhpple","steam_id":76561197993322448,"connected_time":2976000000000,"state":"active","ping":62},{"user_id":358,"name":"Big Iron Enjoyer","steam_id":76561199184115008,"connected_time":916000000000,"state":"active","ping":77},{"user_id":366,"name":"LivinInTheMyst","steam_id":76561199109119765,"connected_time":96000000000,"state":"active","ping":72},{"user_id":353,"name":"Lead poisoned Seabird","steam_id":76561198069706351,"connected_time":1028000000000,"state":"active","ping":62},{"user_id":368,"name":"ncc_42","steam_id":76561198066377700,"connected_time":65000000000,"state":"active","ping":78},{"user_id":351,"name":"fac_73","steam_id":76561198064692697,"connected_time":1064000000000,"state":"active","ping":60},{"user_id":369,"name":"bcizzo","steam_id":76561197994399953,"connected_time":65000000000,"state":"active","ping":93},{"user_id":348,"name":"Paupy","steam_id":76561198059952321,"connected_time":1683000000000,"state":"active","ping":93},{"user_id":359,"name":"hyazzz","steam_id":76561199100342013,"connected_time":872000000000,"state":"active","ping":89},{"user_id":352,"name":"A Puppy","steam_id":76561198828184456,"connected_time":1048000000000,"state":"active","ping":61},{"user_id":339,"name":"RainboomCrash","steam_id":76561198065612273,"connected_time":2250000000000,"state":"active","ping":91},{"user_id":372,"name":"Emissary","steam_id":76561198125972367,"connected_time":21000000000,"state":"active","ping":62},{"user_id":284,"name":"notdoxed","steam_id":76561197992591404,"connected_time":5665000000000,"state":"active","ping":59},{"user_id":360,"name":"miku_miku_miku_miku","steam_id":76561198309010627,"connected_time":776000000000,"state":"active","ping":118},{"user_id":373,"name":"GreenHam","steam_id":76561198094319270,"connected_time":20000000000,"state":"active","ping":57},{"user_id":374,"name":"Portizz","steam_id":76561198095732366,"connected_time":19000000000,"state":"spawning","ping":106},{"user_id":354,"name":"Medici","steam_id":76561198310130481,"connected_time":1000000000000,"state":"active","ping":67},{"user_id":375,"name":"Gorky Gaming","steam_id":76561198438511115,"connected_time":8000000000,"state":"spawning","ping":60},{"user_id":376,"name":"★TC2","steam_id":76561198026985346,"connected_time":0,"state":"spawning","ping":0},{"user_id":364,"name":"Morthis","steam_id":76561198021483291,"connected_time":109000000000,"state":"active","ping":61}]},{"server_id":38,"name":"Uncletopia | Chicago | 7 | Stopwatch","name_short":"chi-7","host":"chi-2.us.uncletopia.com","port":27035,"enabled":true,"region":"us-central","cc":"us","latitude":41.881832,"longitude":-87.62318,"reserved":0,"last_update":"0001-01-01T00:00:00Z","name_a2s":"Uncletopia | Chicago | 7 | Stopwatch","protocol":17,"map":"workshop/pl_barnblitz_pro7.ugc582280235","folder":"tf","game":"Team Fortress","app_id":440,"player_count":0,"max_players":24,"Bots":0,"server_type":"Dedicated","server_os":"Linux","password":true,"vac":true,"version":"7961495","steam_id":85568392924866364,"keywords":["nocrits","nodmgspread","payload","uncletopia"],"game_id":440,"stv_port":27036,"stv_name":"Uncletopia | Chicago | 7 | Stopwatch | STV","players":null},{"server_id":39,"name":"Uncletopia | Chicago | 8 | Community","name_short":"chi-8","host":"chi-2.us.uncletopia.com","port":27045,"enabled":true,"region":"us-central","cc":"us","latitude":41.881832,"longitude":-87.62318,"reserved":0,"last_update":"0001-01-01T00:00:00Z","name_a2s":"Uncletopia | Chicago | 8 | Community","protocol":17,"map":"workshop/pl_cactuscanyon_redux_final2.ugc2579644293","folder":"tf","game":"Team Fortress","app_id":440,"player_count":0,"max_players":24,"Bots":0,"server_type":"Dedicated","server_os":"Linux","password":true,"vac":true,"version":"7961495","steam_id":85568392924866365,"keywords":["nocrits","nodmgspread","payload","uncletopia"],"game_id":440,"stv_port":27046,"stv_name":"Uncletopia | Chicago | 8 | Community | STV","players":null},{"server_id":8,"name":"Uncletopia | Dallas | 1 | All Maps","name_short":"dal-1","host":"dal-1.us.uncletopia.com","port":27015,"enabled":true,"region":"us-central","cc":"us","latitude":32.779167,"longitude":-96.80889,"reserved":0,"last_update":"0001-01-01T00:00:00Z","name_a2s":"Uncletopia | Dallas | 1 | All Maps","protocol":17,"map":"koth_viaduct","folder":"tf","game":"Team Fortress","app_id":440,"player_count":24,"max_players":24,"Bots":0,"server_type":"Dedicated","server_os":"Linux","password":true,"vac":true,"version":"7961495","steam_id":85568392924469986,"keywords":["cp","nocrits","nodmgspread","uncletopia"],"game_id":440,"stv_port":27016,"stv_name":"Uncletopia | Dallas | 1 | All Maps | STV","players":[{"user_id":363,"name":"BLOCKHEAD","steam_id":76561198808224331,"connected_time":499000000000,"state":"active","ping":104},{"user_id":378,"name":"❤ Ashley ❤","steam_id":76561198056428303,"connected_time":184000000000,"state":"active","ping":79},{"user_id":364,"name":"Barack Hussein Obama II","steam_id":76561198170853026,"connected_time":471000000000,"state":"active","ping":74},{"user_id":365,"name":"king sir glorious","steam_id":76561198115676070,"connected_time":467000000000,"state":"active","ping":114},{"user_id":281,"name":"shellaa","steam_id":76561198044124102,"connected_time":7615000000000,"state":"active","ping":46},{"user_id":360,"name":"black tar estrogen","steam_id":76561198043911582,"connected_time":854000000000,"state":"active","ping":88},{"user_id":337,"name":"LOVEDRAGON","steam_id":76561198089908485,"connected_time":3379000000000,"state":"active","ping":88},{"user_id":362,"name":"WashingMachine","steam_id":76561198318572060,"connected_time":547000000000,"state":"active","ping":66},{"user_id":366,"name":"Burny Sanders","steam_id":76561197961879048,"connected_time":408000000000,"state":"active","ping":45},{"user_id":372,"name":"Lim","steam_id":76561198082820168,"connected_time":266000000000,"state":"active","ping":95},{"user_id":367,"name":"hamletespacial","steam_id":76561199084414649,"connected_time":394000000000,"state":"active","ping":50},{"user_id":368,"name":"Duke","steam_id":76561199498553459,"connected_time":394000000000,"state":"active","ping":103},{"user_id":380,"name":"self sufficient kitten","steam_id":76561197960592612,"connected_time":125000000000,"state":"active","ping":105},{"user_id":356,"name":"zinnk","steam_id":76561198092081825,"connected_time":1676000000000,"state":"active","ping":83},{"user_id":342,"name":"KillSwitch","steam_id":76561198271909107,"connected_time":2986000000000,"state":"active","ping":92},{"user_id":370,"name":"Sicko Mode (Chris Pratt Cover)","steam_id":76561198315786174,"connected_time":342000000000,"state":"active","ping":103},{"user_id":348,"name":"Jim the Fish","steam_id":76561199135784419,"connected_time":2373000000000,"state":"active","ping":106},{"user_id":357,"name":"Jack \"Hee Ho\" Frost","steam_id":76561198353395198,"connected_time":1674000000000,"state":"active","ping":86},{"user_id":371,"name":"Muffin","steam_id":76561198209987299,"connected_time":340000000000,"state":"active","ping":145},{"user_id":373,"name":"Anti-Clown","steam_id":76561199041966659,"connected_time":249000000000,"state":"active","ping":81},{"user_id":374,"name":"Real_Jakepaul","steam_id":76561198170243578,"connected_time":244000000000,"state":"active","ping":121},{"user_id":361,"name":"ʏᴜᴊɪ","steam_id":76561198401572620,"connected_time":552000000000,"state":"active","ping":92},{"user_id":376,"name":"SaltyManok","steam_id":76561198160082948,"connected_time":240000000000,"state":"active","ping":58},{"user_id":379,"name":"Contract/Acheivement helper","steam_id":76561199230325479,"connected_time":176000000000,"state":"active","ping":90}]},{"server_id":108,"name":"Uncletopia | Dallas | 2 | All Maps","name_short":"dal-2","host":"dal-1.us.uncletopia.com","port":27025,"enabled":true,"region":"us-central","cc":"us","latitude":32.779167,"longitude":-96.80889,"reserved":0,"last_update":"0001-01-01T00:00:00Z","name_a2s":"Uncletopia | Dallas | 2 | All Maps","protocol":17,"map":"pl_badwater","folder":"tf","game":"Team Fortress","app_id":440,"player_count":24,"max_players":24,"Bots":0,"server_type":"Dedicated","server_os":"Linux","password":true,"vac":true,"version":"7961495","steam_id":85568392924469988,"keywords":["nocrits","nodmgspread","payload","uncletopia"],"game_id":440,"stv_port":27026,"stv_name":"Uncletopia | Dallas | 2 | All Maps | STV","players":[{"user_id":448,"name":"Gungus Dingaling","steam_id":76561198018270898,"connected_time":1988000000000,"state":"active","ping":51},{"user_id":478,"name":"elcarlos1010","steam_id":76561198201986832,"connected_time":376000000000,"state":"active","ping":65},{"user_id":472,"name":"Rafl","steam_id":76561198055222756,"connected_time":521000000000,"state":"active","ping":44},{"user_id":446,"name":"women in suits #transrights","steam_id":76561198103901723,"connected_time":2762000000000,"state":"active","ping":73},{"user_id":463,"name":"Importality","steam_id":76561198049943127,"connected_time":1415000000000,"state":"active","ping":105},{"user_id":452,"name":"2kchr0","steam_id":76561198069681848,"connected_time":1911000000000,"state":"active","ping":149},{"user_id":465,"name":"menonamed","steam_id":76561198199564382,"connected_time":1175000000000,"state":"active","ping":88},{"user_id":470,"name":"RAWRWAIFU","steam_id":76561198032118386,"connected_time":797000000000,"state":"active","ping":68},{"user_id":479,"name":"TOKENLIZARD","steam_id":76561198218765205,"connected_time":33000000000,"state":"active","ping":69},{"user_id":475,"name":"Dent","steam_id":76561198304978514,"connected_time":447000000000,"state":"active","ping":88},{"user_id":425,"name":"d5","steam_id":76561199339997328,"connected_time":4161000000000,"state":"active","ping":48},{"user_id":473,"name":"Cat doin laundry","steam_id":76561198063895852,"connected_time":517000000000,"state":"active","ping":46},{"user_id":445,"name":"Brandino!","steam_id":76561198000446932,"connected_time":2808000000000,"state":"active","ping":107},{"user_id":476,"name":"EGGZO13","steam_id":76561199163466238,"connected_time":425000000000,"state":"active","ping":122},{"user_id":480,"name":"Mr. Mane T.S.H.A.","steam_id":76561198056728986,"connected_time":29000000000,"state":"active","ping":74},{"user_id":457,"name":"nonagon infinity","steam_id":76561198397662124,"connected_time":1756000000000,"state":"active","ping":65},{"user_id":398,"name":"Hazeyboi","steam_id":76561198130687838,"connected_time":6147000000000,"state":"active","ping":64},{"user_id":466,"name":"AWGER","steam_id":76561198284683624,"connected_time":1136000000000,"state":"active","ping":85},{"user_id":399,"name":"Maximum Flame","steam_id":76561198073682529,"connected_time":6122000000000,"state":"active","ping":62},{"user_id":458,"name":"UNIT 220","steam_id":76561198042243497,"connected_time":1754000000000,"state":"active","ping":71},{"user_id":447,"name":"uncletopia dallas 2 player","steam_id":76561198412786186,"connected_time":2015000000000,"state":"active","ping":47},{"user_id":402,"name":"DerpyNate","steam_id":76561198100249037,"connected_time":6059000000000,"state":"active","ping":59},{"user_id":481,"name":"lacava.ryan","steam_id":76561199118865787,"connected_time":11000000000,"state":"active","ping":91},{"user_id":460,"name":"Alchemist","steam_id":76561198094238189,"connected_time":1735000000000,"state":"active","ping":64}]},{"server_id":404,"name":"Uncletopia | Dallas | 3 | All Maps","name_short":"dal-3","host":"dal-1.us.uncletopia.com","port":27035,"enabled":true,"region":"us-central","cc":"us","latitude":32.779167,"longitude":-96.80889,"reserved":0,"last_update":"0001-01-01T00:00:00Z","name_a2s":"Uncletopia | Dallas | 3 | All Maps","protocol":17,"map":"pl_pier","folder":"tf","game":"Team Fortress","app_id":440,"player_count":24,"max_players":24,"Bots":0,"server_type":"Dedicated","server_os":"Linux","password":true,"vac":true,"version":"7961495","steam_id":85568392924515219,"keywords":["nocrits","nodmgspread","payload","uncletopia"],"game_id":440,"stv_port":27036,"stv_name":"Uncletopia | Dallas | 3 | All Maps | STV","players":[{"user_id":118,"name":"Rob","steam_id":76561199187786660,"connected_time":5969000000000,"state":"active","ping":56},{"user_id":198,"name":"tsun.","steam_id":76561198079488962,"connected_time":1003000000000,"state":"active","ping":90},{"user_id":181,"name":"qawzse543","steam_id":76561198049425694,"connected_time":1633000000000,"state":"active","ping":89},{"user_id":197,"name":"LacunaModusArdent","steam_id":76561198133102865,"connected_time":1054000000000,"state":"active","ping":74},{"user_id":210,"name":"killadelphia mixtape","steam_id":76561199001918194,"connected_time":460000000000,"state":"active","ping":91},{"user_id":200,"name":"uzr","steam_id":76561198799343084,"connected_time":974000000000,"state":"active","ping":84},{"user_id":172,"name":"Scoot the Burbs","steam_id":76561198079507179,"connected_time":1970000000000,"state":"active","ping":95},{"user_id":212,"name":"wajanta","steam_id":76561199040280852,"connected_time":167000000000,"state":"active","ping":63},{"user_id":201,"name":"bigchungusgaming(real)","steam_id":76561198273392037,"connected_time":967000000000,"state":"active","ping":102},{"user_id":177,"name":"jfrizzle420","steam_id":76561198105544691,"connected_time":1723000000000,"state":"active","ping":77},{"user_id":213,"name":"The Law","steam_id":76561198202209948,"connected_time":153000000000,"state":"active","ping":61},{"user_id":183,"name":"Lord_Dabbatron","steam_id":76561199058480985,"connected_time":1631000000000,"state":"active","ping":46},{"user_id":209,"name":"Pinetree w/ apples.","steam_id":76561198105411709,"connected_time":492000000000,"state":"active","ping":109},{"user_id":199,"name":"Silverstar","steam_id":76561198399525329,"connected_time":991000000000,"state":"active","ping":95},{"user_id":169,"name":"Ryzema","steam_id":76561198165594229,"connected_time":2031000000000,"state":"active","ping":88},{"user_id":170,"name":"leesh","steam_id":76561198079603938,"connected_time":2021000000000,"state":"active","ping":60},{"user_id":133,"name":"Certified Hood Classic","steam_id":76561199086159354,"connected_time":5571000000000,"state":"active","ping":58},{"user_id":211,"name":"Five","steam_id":76561198026640473,"connected_time":210000000000,"state":"active","ping":71},{"user_id":195,"name":"Liebesträume","steam_id":76561198038862034,"connected_time":1487000000000,"state":"active","ping":81},{"user_id":190,"name":"Fishandfish","steam_id":76561198298483804,"connected_time":1554000000000,"state":"active","ping":107},{"user_id":214,"name":"Servitz","steam_id":76561198194446835,"connected_time":142000000000,"state":"active","ping":87},{"user_id":192,"name":"Seskova","steam_id":76561198090207032,"connected_time":1549000000000,"state":"active","ping":103},{"user_id":196,"name":"a bucket of chicken","steam_id":76561198023710042,"connected_time":1358000000000,"state":"active","ping":60},{"user_id":194,"name":"IRUMBLERI","steam_id":76561198285541599,"connected_time":1527000000000,"state":"active","ping":84}]},{"server_id":405,"name":"Uncletopia | Dallas | 4 | Community","name_short":"dal-4","host":"dal-1.us.uncletopia.com","port":27045,"enabled":true,"region":"us-central","cc":"us","latitude":32.779167,"longitude":-96.80889,"reserved":0,"last_update":"0001-01-01T00:00:00Z","name_a2s":"Uncletopia | Dallas | 4 | Community","protocol":17,"map":"workshop/koth_bagel_rc6.ugc2514036946","folder":"tf","game":"Team Fortress","app_id":440,"player_count":0,"max_players":24,"Bots":0,"server_type":"Dedicated","server_os":"Linux","password":true,"vac":true,"version":"7961495","steam_id":85568392924515220,"keywords":["cp","nocrits","nodmgspread","uncletopia"],"game_id":440,"stv_port":27046,"stv_name":"Uncletopia | Dallas | 4 | Community | STV","players":null},{"server_id":5,"name":"Uncletopia | Frankfurt | 1 | All Maps","name_short":"frk-1","host":"frk-1.de.uncletopia.com","port":27015,"enabled":true,"region":"eu","cc":"de","latitude":50.110924,"longitude":8.682127,"reserved":0,"last_update":"0001-01-01T00:00:00Z","name_a2s":"Uncletopia | Frankfurt | 1 | All Maps","protocol":17,"map":"cp_sunshine","folder":"tf","game":"Team Fortress","app_id":440,"player_count":0,"max_players":24,"Bots":0,"server_type":"Dedicated","server_os":"Linux","password":true,"vac":true,"version":"7961495","steam_id":85568392924469989,"keywords":["cp","nocrits","nodmgspread","uncletopia"],"game_id":440,"stv_port":27016,"stv_name":"Uncletopia | Frankfurt | 1 | All Maps | STV","players":null},{"server_id":110,"name":"Uncletopia | Frankfurt | 2 | All Maps","name_short":"frk-2","host":"frk-1.de.uncletopia.com","port":27025,"enabled":true,"region":"eu","cc":"de","latitude":50.110924,"longitude":8.682127,"reserved":0,"last_update":"0001-01-01T00:00:00Z","name_a2s":"Uncletopia | Frankfurt | 2 | All Maps","protocol":17,"map":"plr_pipeline","folder":"tf","game":"Team Fortress","app_id":440,"player_count":0,"max_players":24,"Bots":0,"server_type":"Dedicated","server_os":"Linux","password":true,"vac":true,"version":"7961495","steam_id":85568392924469990,"keywords":["nocrits","nodmgspread","payload","uncletopia"],"game_id":440,"stv_port":27026,"stv_name":"Uncletopia | Frankfurt | 2 | All Maps | STV","players":null},{"server_id":308,"name":"Uncletopia | Frankfurt | 3 | All Maps","name_short":"frk-3","host":"frk-1.de.uncletopia.com","port":27035,"enabled":true,"region":"eu","cc":"de","latitude":50.110924,"longitude":8.682127,"reserved":0,"last_update":"0001-01-01T00:00:00Z","name_a2s":"Uncletopia | Frankfurt | 3 | All Maps","protocol":17,"map":"koth_nucleus","folder":"tf","game":"Team Fortress","app_id":440,"player_count":0,"max_players":24,"Bots":0,"server_type":"Dedicated","server_os":"Linux","password":true,"vac":true,"version":"7961495","steam_id":85568392924504274,"keywords":["cp","nocrits","nodmgspread","uncletopia"],"game_id":440,"stv_port":27036,"stv_name":"Uncletopia | Frankfurt | 3 | All Maps | STV","players":null},{"server_id":309,"name":"Uncletopia | Frankfurt | 4 | All Maps","name_short":"frk-4","host":"frk-1.de.uncletopia.com","port":27045,"enabled":true,"region":"eu","cc":"de","latitude":50.110924,"longitude":8.682127,"reserved":0,"last_update":"0001-01-01T00:00:00Z","name_a2s":"Uncletopia | Frankfurt | 4 | All Maps","protocol":17,"map":"koth_viaduct","folder":"tf","game":"Team Fortress","app_id":440,"player_count":0,"max_players":24,"Bots":0,"server_type":"Dedicated","server_os":"Linux","password":true,"vac":true,"version":"7961495","steam_id":85568392924504275,"keywords":["cp","nocrits","nodmgspread","uncletopia"],"game_id":440,"stv_port":27046,"stv_name":"Uncletopia | Frankfurt | 4 | All Maps | STV","players":null},{"server_id":310,"name":"Uncletopia | Frankfurt | 5 | All Maps","name_short":"frk-5","host":"frk-1.de.uncletopia.com","port":27055,"enabled":true,"region":"eu","cc":"de","latitude":50.110924,"longitude":8.682127,"reserved":0,"last_update":"0001-01-01T00:00:00Z","name_a2s":"Uncletopia | Frankfurt | 5 | All Maps","protocol":17,"map":"pl_upward","folder":"tf","game":"Team Fortress","app_id":440,"player_count":0,"max_players":24,"Bots":0,"server_type":"Dedicated","server_os":"Linux","password":true,"vac":true,"version":"7961495","steam_id":85568392924504277,"keywords":["nocrits","nodmgspread","payload","uncletopia"],"game_id":440,"stv_port":27056,"stv_name":"Uncletopia | Frankfurt | 5 | All Maps | STV","players":null},{"server_id":311,"name":"Uncletopia | Frankfurt | 6 | All Maps","name_short":"frk-6","host":"frk-1.de.uncletopia.com","port":27065,"enabled":true,"region":"eu","cc":"de","latitude":50.110924,"longitude":8.682127,"reserved":0,"last_update":"0001-01-01T00:00:00Z","name_a2s":"Uncletopia | Frankfurt | 6 | All Maps","protocol":17,"map":"koth_lakeside_final","folder":"tf","game":"Team Fortress","app_id":440,"player_count":0,"max_players":24,"Bots":0,"server_type":"Dedicated","server_os":"Linux","password":true,"vac":true,"version":"7961495","steam_id":85568392924504278,"keywords":["cp","nocrits","nodmgspread","uncletopia"],"game_id":440,"stv_port":27066,"stv_name":"Uncletopia | Frankfurt | 6 | All Maps | STV","players":null},{"server_id":23,"name":"Uncletopia | Frankfurt | 7 | Stopwatch","name_short":"frk-7","host":"frk-1.de.uncletopia.com","port":27075,"enabled":true,"region":"eu","cc":"de","latitude":50.110924,"longitude":8.682127,"reserved":0,"last_update":"0001-01-01T00:00:00Z","name_a2s":"Uncletopia | Frankfurt | 7 | Stopwatch","protocol":17,"map":"workshop/koth_ashville_final.ugc2130459942","folder":"tf","game":"Team Fortress","app_id":440,"player_count":0,"max_players":24,"Bots":0,"server_type":"Dedicated","server_os":"Linux","password":true,"vac":true,"version":"7961495","steam_id":85568392924742827,"keywords":["cp","nocrits","nodmgspread","uncletopia"],"game_id":440,"stv_port":27076,"stv_name":"Uncletopia | Frankfurt | 7 | Stopwatch | STV","players":null},{"server_id":24,"name":"Uncletopia | Frankfurt | 8 | Community","name_short":"frk-8","host":"frk-1.de.uncletopia.com","port":27085,"enabled":true,"region":"eu","cc":"de","latitude":50.110924,"longitude":8.682127,"reserved":0,"last_update":"0001-01-01T00:00:00Z","name_a2s":"Uncletopia | Frankfurt | 8 | Community","protocol":17,"map":"workshop/pl_barnblitz_pro7.ugc582280235","folder":"tf","game":"Team Fortress","app_id":440,"player_count":0,"max_players":24,"Bots":0,"server_type":"Dedicated","server_os":"Linux","password":true,"vac":true,"version":"7961495","steam_id":85568392924742828,"keywords":["nocrits","nodmgspread","payload","uncletopia"],"game_id":440,"stv_port":27086,"stv_name":"Uncletopia | Frankfurt | 8 | Community | STV","players":null},{"server_id":202,"name":"Uncletopia | Hong Kong | 1 | All Maps","name_short":"hgk-1","host":"hgk-1.hk.uncletopia.com","port":27015,"enabled":true,"region":"asia","cc":"hk","latitude":22.302711,"longitude":114.177216,"reserved":0,"last_update":"0001-01-01T00:00:00Z","name_a2s":"Uncletopia | Hong Kong | 1 | All Maps","protocol":17,"map":"pl_frontier_final","folder":"tf","game":"Team Fortress","app_id":440,"player_count":0,"max_players":24,"Bots":0,"server_type":"Dedicated","server_os":"Linux","password":true,"vac":true,"version":"7961495","steam_id":85568392924494504,"keywords":["nocrits","nodmgspread","payload","uncletopia"],"game_id":440,"stv_port":27016,"stv_name":"Uncletopia | Hong Kong | 1 | All Maps | STV","players":null},{"server_id":1,"name":"Uncletopia | Los Angeles | 1 | All Maps","name_short":"lax-1","host":"lax-1.us.uncletopia.com","port":27015,"enabled":true,"region":"us-west","cc":"us","latitude":33.94279,"longitude":-118.41004,"reserved":0,"last_update":"0001-01-01T00:00:00Z","name_a2s":"Uncletopia | Los Angeles | 1 | All Maps","protocol":17,"map":"pl_frontier_final","folder":"tf","game":"Team Fortress","app_id":440,"player_count":24,"max_players":24,"Bots":0,"server_type":"Dedicated","server_os":"Linux","password":true,"vac":true,"version":"7961495","steam_id":85568392924469991,"keywords":["nocrits","nodmgspread","payload","uncletopia"],"game_id":440,"stv_port":27016,"stv_name":"Uncletopia | Los Angeles | 1 | All Maps | STV","players":[{"user_id":164,"name":"mac_cheese","steam_id":76561198071334162,"connected_time":479000000000,"state":"active","ping":75},{"user_id":148,"name":"greentop_","steam_id":76561198209650964,"connected_time":2051000000000,"state":"active","ping":50},{"user_id":161,"name":"GlossyBat","steam_id":76561198929313869,"connected_time":560000000000,"state":"active","ping":56},{"user_id":141,"name":"SixFlabs","steam_id":76561198169754882,"connected_time":2453000000000,"state":"active","ping":61},{"user_id":128,"name":"monkey squirts","steam_id":76561197983101644,"connected_time":3150000000000,"state":"active","ping":42},{"user_id":142,"name":"cupsovietxeno","steam_id":76561198997539399,"connected_time":2368000000000,"state":"active","ping":57},{"user_id":162,"name":"Gnaash","steam_id":76561198940657194,"connected_time":557000000000,"state":"active","ping":87},{"user_id":138,"name":"B1rd","steam_id":76561198235330420,"connected_time":2583000000000,"state":"active","ping":60},{"user_id":133,"name":"Ockulus","steam_id":76561199069638460,"connected_time":2844000000000,"state":"active","ping":60},{"user_id":157,"name":"ACK","steam_id":76561198130390689,"connected_time":647000000000,"state":"active","ping":70},{"user_id":154,"name":"HopeTheNeko","steam_id":76561199159285465,"connected_time":1412000000000,"state":"active","ping":61},{"user_id":139,"name":"frailty","steam_id":76561198212773468,"connected_time":2582000000000,"state":"active","ping":121},{"user_id":156,"name":"nella","steam_id":76561198079349621,"connected_time":880000000000,"state":"active","ping":57},{"user_id":140,"name":"vietricecrop","steam_id":76561198431819495,"connected_time":2479000000000,"state":"active","ping":71},{"user_id":151,"name":"Wiggs is the Shiggs","steam_id":76561198078379719,"connected_time":1915000000000,"state":"active","ping":60},{"user_id":117,"name":"Casey","steam_id":76561198068810896,"connected_time":3959000000000,"state":"active","ping":97},{"user_id":163,"name":"blast a hoe","steam_id":76561198294281809,"connected_time":551000000000,"state":"active","ping":53},{"user_id":146,"name":"Amber the field nurse","steam_id":76561199134893517,"connected_time":2190000000000,"state":"active","ping":106},{"user_id":155,"name":"Jovi Boy","steam_id":76561198046605691,"connected_time":1140000000000,"state":"active","ping":63},{"user_id":166,"name":"Capitalism 101","steam_id":76561198017214464,"connected_time":381000000000,"state":"active","ping":99},{"user_id":125,"name":"cielael","steam_id":76561198043971956,"connected_time":3435000000000,"state":"active","ping":49},{"user_id":147,"name":"Therapy Goth","steam_id":76561198048448497,"connected_time":2112000000000,"state":"active","ping":115},{"user_id":158,"name":"BiggestHistoryNerd","steam_id":76561198027677672,"connected_time":647000000000,"state":"active","ping":48},{"user_id":152,"name":"Siopao","steam_id":76561198254089497,"connected_time":1904000000000,"state":"active","ping":84}]},{"server_id":112,"name":"Uncletopia | Los Angeles | 2 | All Maps","name_short":"lax-2","host":"lax-1.us.uncletopia.com","port":27025,"enabled":true,"region":"us-west","cc":"us","latitude":33.94279,"longitude":-118.41004,"reserved":0,"last_update":"0001-01-01T00:00:00Z","name_a2s":"Uncletopia | Los Angeles | 2 | All Maps","protocol":17,"map":"cp_mountainlab","folder":"tf","game":"Team Fortress","app_id":440,"player_count":24,"max_players":24,"Bots":0,"server_type":"Dedicated","server_os":"Linux","password":true,"vac":true,"version":"7961495","steam_id":85568392924469992,"keywords":["cp","nocrits","nodmgspread","uncletopia"],"game_id":440,"stv_port":27026,"stv_name":"Uncletopia | Los Angeles | 2 | All Maps | STV","players":[{"user_id":99,"name":"sora","steam_id":76561198094256973,"connected_time":3550000000000,"state":"active","ping":58},{"user_id":128,"name":"Mr Beast","steam_id":76561198100385184,"connected_time":1542000000000,"state":"active","ping":54},{"user_id":121,"name":"fat ass haver563","steam_id":76561198319897635,"connected_time":2391000000000,"state":"active","ping":80},{"user_id":122,"name":"unghh shakes butt","steam_id":76561198430889640,"connected_time":2364000000000,"state":"active","ping":116},{"user_id":124,"name":"Mook","steam_id":76561198219800355,"connected_time":2262000000000,"state":"active","ping":116},{"user_id":119,"name":"celestia ludenberg","steam_id":76561199196437823,"connected_time":2527000000000,"state":"active","ping":68},{"user_id":102,"name":"Silly Shark","steam_id":76561198130714378,"connected_time":3429000000000,"state":"active","ping":93},{"user_id":108,"name":"THE man is EPIC","steam_id":76561198085410777,"connected_time":2808000000000,"state":"active","ping":109},{"user_id":126,"name":"Zerodian115","steam_id":76561198273719764,"connected_time":2129000000000,"state":"active","ping":97},{"user_id":109,"name":"Fireheart888","steam_id":76561198044555953,"connected_time":2800000000000,"state":"active","ping":107},{"user_id":127,"name":"Maid 'n' China","steam_id":76561198423392976,"connected_time":2121000000000,"state":"active","ping":58},{"user_id":123,"name":"Sock","steam_id":76561198315420000,"connected_time":2328000000000,"state":"active","ping":110},{"user_id":78,"name":"Username","steam_id":76561198198918781,"connected_time":4905000000000,"state":"active","ping":85},{"user_id":137,"name":"not the guy","steam_id":76561198168492250,"connected_time":427000000000,"state":"active","ping":52},{"user_id":135,"name":"esQ","steam_id":76561198242699432,"connected_time":826000000000,"state":"active","ping":46},{"user_id":92,"name":"Taco+Taco=Burrito","steam_id":76561198063128663,"connected_time":3886000000000,"state":"active","ping":45},{"user_id":133,"name":"My Five Nights at Freddys Movie","steam_id":76561198256886614,"connected_time":1330000000000,"state":"active","ping":87},{"user_id":134,"name":"Sterling Nano","steam_id":76561198048580088,"connected_time":1328000000000,"state":"active","ping":68},{"user_id":139,"name":"NightGhost1400","steam_id":76561198810730471,"connected_time":230000000000,"state":"active","ping":78},{"user_id":45,"name":"The Comedian","steam_id":76561198037780226,"connected_time":7406000000000,"state":"active","ping":47},{"user_id":138,"name":"Max Headass","steam_id":76561198964210411,"connected_time":278000000000,"state":"active","ping":47},{"user_id":131,"name":"The Panda Knight","steam_id":76561198150282587,"connected_time":1353000000000,"state":"active","ping":89},{"user_id":132,"name":"Schmupp","steam_id":76561198150928115,"connected_time":1344000000000,"state":"active","ping":44},{"user_id":140,"name":"i cant aim","steam_id":76561198065873462,"connected_time":230000000000,"state":"active","ping":48}]},{"server_id":324,"name":"Uncletopia | Los Angeles | 3 | All Maps","name_short":"lax-3","host":"lax-1.us.uncletopia.com","port":27035,"enabled":true,"region":"us-west","cc":"us","latitude":33.94279,"longitude":-118.41004,"reserved":0,"last_update":"0001-01-01T00:00:00Z","name_a2s":"Uncletopia | Los Angeles | 3 | All Maps","protocol":17,"map":"koth_viaduct","folder":"tf","game":"Team Fortress","app_id":440,"player_count":0,"max_players":24,"Bots":0,"server_type":"Dedicated","server_os":"Linux","password":true,"vac":true,"version":"7961495","steam_id":85568392924510198,"keywords":["cp","nocrits","nodmgspread","uncletopia"],"game_id":440,"stv_port":27036,"stv_name":"Uncletopia | Los Angeles | 3 | All Maps | STV","players":null},{"server_id":25,"name":"Uncletopia | Los Angeles | 4 | Stopwatch","name_short":"lax-4","host":"lax-1.us.uncletopia.com","port":27045,"enabled":true,"region":"us-west","cc":"us","latitude":33.94279,"longitude":-118.41004,"reserved":0,"last_update":"0001-01-01T00:00:00Z","name_a2s":"Uncletopia | Los Angeles | 4 | Stopwatch","protocol":17,"map":"pl_barnblitz","folder":"tf","game":"Team Fortress","app_id":440,"player_count":0,"max_players":24,"Bots":0,"server_type":"Dedicated","server_os":"Linux","password":true,"vac":true,"version":"7961495","steam_id":85568392924510199,"keywords":["nocrits","nodmgspread","payload","uncletopia"],"game_id":440,"stv_port":27046,"stv_name":"Uncletopia | Los Angeles | 4 | Stopwatch | STV","players":null},{"server_id":11,"name":"Uncletopia | London | 1 | All Maps","name_short":"lon-1","host":"lon-1.uk.uncletopia.com","port":27015,"enabled":true,"region":"eu","cc":"gb","latitude":51.509865,"longitude":-0.118092,"reserved":0,"last_update":"0001-01-01T00:00:00Z","name_a2s":"Uncletopia | London | 1 | All Maps","protocol":17,"map":"pl_borneo","folder":"tf","game":"Team Fortress","app_id":440,"player_count":8,"max_players":24,"Bots":0,"server_type":"Dedicated","server_os":"Linux","password":true,"vac":true,"version":"7961495","steam_id":85568392924367362,"keywords":["nocrits","nodmgspread","payload","uncletopia"],"game_id":440,"stv_port":27016,"stv_name":"Uncletopia | London | 1 | All Maps | STV","players":[{"user_id":941,"name":"is it your crocodile?","steam_id":76561198346638308,"connected_time":594000000000,"state":"active","ping":67},{"user_id":942,"name":"Ace","steam_id":76561198412734572,"connected_time":451000000000,"state":"active","ping":135},{"user_id":943,"name":"Totaly not a bot","steam_id":76561199388730984,"connected_time":365000000000,"state":"active","ping":127},{"user_id":944,"name":"Coke Zero","steam_id":76561198158562873,"connected_time":326000000000,"state":"active","ping":68},{"user_id":948,"name":"ArcticRescue","steam_id":76561198055362404,"connected_time":164000000000,"state":"active","ping":121},{"user_id":946,"name":"Vethenoir","steam_id":76561198321109423,"connected_time":293000000000,"state":"active","ping":131},{"user_id":937,"name":"Robotnik gaming","steam_id":76561198070536845,"connected_time":936000000000,"state":"active","ping":78},{"user_id":884,"name":"yuno appreciator","steam_id":76561198083286511,"connected_time":5880000000000,"state":"active","ping":45}]},{"server_id":114,"name":"Uncletopia | London | 2 | All Maps","name_short":"lon-2","host":"lon-1.uk.uncletopia.com","port":27025,"enabled":true,"region":"eu","cc":"gb","latitude":51.509865,"longitude":-0.118092,"reserved":0,"last_update":"0001-01-01T00:00:00Z","name_a2s":"Uncletopia | London | 2 | All Maps","protocol":17,"map":"cp_dustbowl","folder":"tf","game":"Team Fortress","app_id":440,"player_count":0,"max_players":24,"Bots":0,"server_type":"Dedicated","server_os":"Linux","password":true,"vac":true,"version":"7961495","steam_id":85568392924470941,"keywords":["cp","nocrits","nodmgspread","uncletopia"],"game_id":440,"stv_port":27026,"stv_name":"Uncletopia | London | 2 | All Maps | STV","players":null},{"server_id":320,"name":"Uncletopia | London | 3 | All Maps","name_short":"lon-3","host":"lon-1.uk.uncletopia.com","port":27035,"enabled":true,"region":"eu","cc":"gb","latitude":51.509865,"longitude":-0.118092,"reserved":0,"last_update":"0001-01-01T00:00:00Z","name_a2s":"Uncletopia | London | 3 | All Maps","protocol":17,"map":"cp_process_final","folder":"tf","game":"Team Fortress","app_id":440,"player_count":0,"max_players":24,"Bots":0,"server_type":"Dedicated","server_os":"Linux","password":true,"vac":true,"version":"7961495","steam_id":85568392924510192,"keywords":["cp","nocrits","nodmgspread","uncletopia"],"game_id":440,"stv_port":27036,"stv_name":"Uncletopia | London | 3 | All Maps | STV","players":null},{"server_id":321,"name":"Uncletopia | London | 4 | All Maps","name_short":"lon-4","host":"lon-1.uk.uncletopia.com","port":27045,"enabled":true,"region":"eu","cc":"gb","latitude":51.509865,"longitude":-0.118092,"reserved":0,"last_update":"0001-01-01T00:00:00Z","name_a2s":"Uncletopia | London | 4 | All Maps","protocol":17,"map":"cp_mountainlab","folder":"tf","game":"Team Fortress","app_id":440,"player_count":0,"max_players":24,"Bots":0,"server_type":"Dedicated","server_os":"Linux","password":true,"vac":true,"version":"7961495","steam_id":85568392924510193,"keywords":["cp","nocrits","nodmgspread","uncletopia"],"game_id":440,"stv_port":27046,"stv_name":"Uncletopia | London | 4 | All Maps | STV","players":null},{"server_id":21,"name":"Uncletopia | London | 5 | All Maps","name_short":"lon-5","host":"lon-1.uk.uncletopia.com","port":27055,"enabled":true,"region":"eu","cc":"gb","latitude":51.509865,"longitude":-0.118092,"reserved":0,"last_update":"0001-01-01T00:00:00Z","name_a2s":"Uncletopia | London | 5 | All Maps","protocol":17,"map":"plr_pipeline","folder":"tf","game":"Team Fortress","app_id":440,"player_count":0,"max_players":24,"Bots":0,"server_type":"Dedicated","server_os":"Linux","password":true,"vac":true,"version":"7961495","steam_id":85568392924742829,"keywords":["nocrits","nodmgspread","payload","uncletopia"],"game_id":440,"stv_port":27056,"stv_name":"Uncletopia | London | 5 | All Maps | STV","players":null},{"server_id":22,"name":"Uncletopia | London | 6 | All Maps","name_short":"lon-6","host":"lon-1.uk.uncletopia.com","port":27065,"enabled":true,"region":"eu","cc":"gb","latitude":51.509865,"longitude":-0.118092,"reserved":0,"last_update":"0001-01-01T00:00:00Z","name_a2s":"Uncletopia | London | 6 | All Maps","protocol":17,"map":"pl_pier","folder":"tf","game":"Team Fortress","app_id":440,"player_count":0,"max_players":24,"Bots":0,"server_type":"Dedicated","server_os":"Linux","password":true,"vac":true,"version":"7961495","steam_id":85568392924742830,"keywords":["nocrits","nodmgspread","payload","uncletopia"],"game_id":440,"stv_port":27066,"stv_name":"Uncletopia | London | 6 | All Maps | STV","players":null},{"server_id":40,"name":"Uncletopia | London | 7 | Stopwatch","name_short":"lon-7","host":"lon-1.uk.uncletopia.com","port":27075,"enabled":true,"region":"eu","cc":"gb","latitude":51.509865,"longitude":-0.118092,"reserved":0,"last_update":"0001-01-01T00:00:00Z","name_a2s":"Uncletopia | London | 7 | Stopwatch","protocol":17,"map":"koth_lakeside_final","folder":"tf","game":"Team Fortress","app_id":440,"player_count":0,"max_players":24,"Bots":0,"server_type":"Dedicated","server_os":"Linux","password":true,"vac":true,"version":"7961495","steam_id":85568392924964314,"keywords":["cp","nocrits","nodmgspread","uncletopia"],"game_id":440,"stv_port":27076,"stv_name":"Uncletopia | London | 7 | Stopwatch | STV","players":null},{"server_id":41,"name":"Uncletopia | London | 8 | Community","name_short":"lon-8","host":"lon-1.uk.uncletopia.com","port":27085,"enabled":true,"region":"eu","cc":"gb","latitude":51.509865,"longitude":-0.118092,"reserved":0,"last_update":"0001-01-01T00:00:00Z","name_a2s":"Uncletopia | London | 8 | Community","protocol":17,"map":"workshop/pl_corrode_rc2.ugc546577989","folder":"tf","game":"Team Fortress","app_id":440,"player_count":0,"max_players":24,"Bots":0,"server_type":"Dedicated","server_os":"Linux","password":true,"vac":true,"version":"7961495","steam_id":85568392924964315,"keywords":["nocrits","nodmgspread","payload","uncletopia"],"game_id":440,"stv_port":27086,"stv_name":"Uncletopia | London | 8 | Community | STV","players":null},{"server_id":300,"name":"Uncletopia | Montréal | 1 | One Thousand Uncles","name_short":"mtl-1","host":"mtl-1.ca.uncletopia.com","port":27015,"enabled":true,"region":"us-east","cc":"ca","latitude":45.50889,"longitude":-73.56167,"reserved":0,"last_update":"0001-01-01T00:00:00Z","name_a2s":"","protocol":0,"map":"","folder":"","game":"","app_id":0,"player_count":3,"max_players":0,"Bots":0,"server_type":"","server_os":"","password":false,"vac":false,"version":"","steam_id":0,"keywords":null,"game_id":0,"stv_port":0,"stv_name":"","players":[{"user_id":453,"name":"Waaagh!","steam_id":76561197995317887,"connected_time":28000000000,"state":"active","ping":38},{"user_id":451,"name":"1-800-GHOST-DANCE","steam_id":76561198835430429,"connected_time":1822000000000,"state":"active","ping":80},{"user_id":448,"name":"penis atomizer 9000 🏳️?","steam_id":76561198864841966,"connected_time":2661000000000,"state":"active","ping":105}]},{"server_id":301,"name":"Uncletopia | Montréal | 2 | One Thousand Uncles","name_short":"mtl-2","host":"mtl-1.ca.uncletopia.com","port":27025,"enabled":true,"region":"us-east","cc":"ca","latitude":45.50889,"longitude":-73.56167,"reserved":0,"last_update":"0001-01-01T00:00:00Z","name_a2s":"","protocol":0,"map":"","folder":"","game":"","app_id":0,"player_count":0,"max_players":0,"Bots":0,"server_type":"","server_os":"","password":false,"vac":false,"version":"","steam_id":0,"keywords":null,"game_id":0,"stv_port":0,"stv_name":"","players":null},{"server_id":302,"name":"Uncletopia | Montréal | 3 | One Thousand Uncles","name_short":"mtl-3","host":"mtl-1.ca.uncletopia.com","port":27035,"enabled":true,"region":"us-east","cc":"ca","latitude":45.50889,"longitude":-73.56167,"reserved":0,"last_update":"0001-01-01T00:00:00Z","name_a2s":"","protocol":0,"map":"","folder":"","game":"","app_id":0,"player_count":0,"max_players":0,"Bots":0,"server_type":"","server_os":"","password":false,"vac":false,"version":"","steam_id":0,"keywords":null,"game_id":0,"stv_port":0,"stv_name":"","players":null},{"server_id":13,"name":"Uncletopia | New York City | 1 | All Maps","name_short":"nyc-1","host":"nyc-1.us.uncletopia.com","port":27015,"enabled":true,"region":"us-east","cc":"us","latitude":40.73061,"longitude":-73.93524,"reserved":0,"last_update":"0001-01-01T00:00:00Z","name_a2s":"Uncletopia | New York City | 1 | All Maps","protocol":17,"map":"plr_pipeline","folder":"tf","game":"Team Fortress","app_id":440,"player_count":24,"max_players":24,"Bots":0,"server_type":"Dedicated","server_os":"Linux","password":true,"vac":true,"version":"7961495","steam_id":85568392924469993,"keywords":["nocrits","nodmgspread","payload","uncletopia"],"game_id":440,"stv_port":27016,"stv_name":"Uncletopia | New York City | 1 | All Maps | STV","players":[{"user_id":339,"name":"Tokyo_Timeshift_","steam_id":76561198048677523,"connected_time":1219000000000,"state":"active","ping":63},{"user_id":338,"name":"Spiral Mountain","steam_id":76561198058683715,"connected_time":1337000000000,"state":"active","ping":71},{"user_id":345,"name":"It's FoolMoon","steam_id":76561198153344375,"connected_time":542000000000,"state":"active","ping":37},{"user_id":307,"name":"FloydianSystem (girl)","steam_id":76561198081987191,"connected_time":3634000000000,"state":"active","ping":86},{"user_id":346,"name":"Goth Girl Communism","steam_id":76561198086121413,"connected_time":517000000000,"state":"active","ping":53},{"user_id":349,"name":"rach9411","steam_id":76561198256535721,"connected_time":217000000000,"state":"active","ping":138},{"user_id":311,"name":"Stealthguy724","steam_id":76561198195961430,"connected_time":2979000000000,"state":"active","ping":84},{"user_id":347,"name":"Clippy #Save TF2","steam_id":76561199101412758,"connected_time":506000000000,"state":"active","ping":145},{"user_id":343,"name":"joyeuxnoelle","steam_id":76561198062423120,"connected_time":739000000000,"state":"active","ping":75},{"user_id":342,"name":"DanishWaffleHouse","steam_id":76561198085400631,"connected_time":830000000000,"state":"active","ping":87},{"user_id":348,"name":"baklava","steam_id":76561198124591302,"connected_time":501000000000,"state":"active","ping":45},{"user_id":322,"name":"Biscout","steam_id":76561199030447424,"connected_time":1840000000000,"state":"active","ping":70},{"user_id":323,"name":"Faeruune","steam_id":76561198066824710,"connected_time":1817000000000,"state":"active","ping":73},{"user_id":341,"name":"Naffu","steam_id":76561198036945403,"connected_time":1047000000000,"state":"active","ping":49},{"user_id":282,"name":"Xx_PR3TTY_R4VE_G!R1_xX","steam_id":76561199059016425,"connected_time":5630000000000,"state":"active","ping":60},{"user_id":324,"name":"Rabblerouser","steam_id":76561198127930963,"connected_time":1790000000000,"state":"active","ping":132},{"user_id":313,"name":"gokrow","steam_id":76561198187351183,"connected_time":2792000000000,"state":"active","ping":65},{"user_id":350,"name":"1fairy","steam_id":76561199043766687,"connected_time":214000000000,"state":"active","ping":131},{"user_id":331,"name":"viper","steam_id":76561198839942937,"connected_time":1700000000000,"state":"active","ping":72},{"user_id":332,"name":"my body makes rocks","steam_id":76561198054533015,"connected_time":1696000000000,"state":"active","ping":101},{"user_id":316,"name":"Decibel","steam_id":76561198301239435,"connected_time":2155000000000,"state":"active","ping":61},{"user_id":274,"name":"CDBeans","steam_id":76561198046990367,"connected_time":6161000000000,"state":"active","ping":86},{"user_id":333,"name":"Fudgely","steam_id":76561198039425862,"connected_time":1694000000000,"state":"active","ping":67},{"user_id":340,"name":"Mailbox","steam_id":76561198118446009,"connected_time":1204000000000,"state":"active","ping":96}]},{"server_id":14,"name":"Uncletopia | New York City | 2 | All Maps","name_short":"nyc-2","host":"nyc-1.us.uncletopia.com","port":27025,"enabled":true,"region":"us-east","cc":"us","latitude":40.73061,"longitude":-73.93524,"reserved":0,"last_update":"0001-01-01T00:00:00Z","name_a2s":"Uncletopia | New York City | 2 | All Maps","protocol":17,"map":"cp_altitude","folder":"tf","game":"Team Fortress","app_id":440,"player_count":22,"max_players":24,"Bots":0,"server_type":"Dedicated","server_os":"Linux","password":true,"vac":true,"version":"7961495","steam_id":85568392924469994,"keywords":["cp","nocrits","nodmgspread","uncletopia"],"game_id":440,"stv_port":27026,"stv_name":"Uncletopia | New York City | 2 | All Maps | STV","players":[{"user_id":619,"name":"CRAZYLAWNMOWER18","steam_id":76561198072653481,"connected_time":1660000000000,"state":"active","ping":47},{"user_id":602,"name":"Jimmy","steam_id":76561198059948196,"connected_time":2182000000000,"state":"active","ping":105},{"user_id":615,"name":"Strange Diplomat","steam_id":76561198428191920,"connected_time":1673000000000,"state":"active","ping":51},{"user_id":527,"name":"WolfintheWires","steam_id":76561197998385084,"connected_time":6974000000000,"state":"active","ping":69},{"user_id":617,"name":"tommy","steam_id":76561198111753974,"connected_time":1668000000000,"state":"active","ping":35},{"user_id":604,"name":"Stock Dog","steam_id":76561198070469034,"connected_time":2141000000000,"state":"active","ping":110},{"user_id":648,"name":"dave :3","steam_id":76561198135961731,"connected_time":1000000000,"state":"spawning","ping":68},{"user_id":620,"name":"The Nikocado Enjoyer","steam_id":76561198263154374,"connected_time":1635000000000,"state":"active","ping":57},{"user_id":632,"name":"Ctrl_Alt_Delicious","steam_id":76561198111684171,"connected_time":817000000000,"state":"active","ping":58},{"user_id":545,"name":"Crab","steam_id":76561198067628664,"connected_time":6250000000000,"state":"active","ping":89},{"user_id":641,"name":"FOOL","steam_id":76561198370866973,"connected_time":130000000000,"state":"active","ping":133},{"user_id":642,"name":"Gamer Man","steam_id":76561198983776208,"connected_time":123000000000,"state":"active","ping":50},{"user_id":643,"name":"SomeStranger17","steam_id":76561199488770736,"connected_time":116000000000,"state":"active","ping":124},{"user_id":634,"name":"AquaTail_T","steam_id":76561198857751933,"connected_time":531000000000,"state":"active","ping":57},{"user_id":578,"name":"flip flop man(Lee)","steam_id":76561198374860339,"connected_time":3175000000000,"state":"active","ping":144},{"user_id":635,"name":"Sasuke DeVito","steam_id":76561198285862067,"connected_time":490000000000,"state":"active","ping":56},{"user_id":591,"name":"lalman","steam_id":76561198196605887,"connected_time":2711000000000,"state":"active","ping":54},{"user_id":639,"name":"Xx_Savage_Twerks_xX","steam_id":76561198011665915,"connected_time":150000000000,"state":"active","ping":49},{"user_id":629,"name":"OrangeSodaMachine","steam_id":76561198079230156,"connected_time":1203000000000,"state":"active","ping":267},{"user_id":646,"name":"Mr Happy","steam_id":76561198067689328,"connected_time":89000000000,"state":"active","ping":71},{"user_id":613,"name":"WitheringLeo","steam_id":76561198046722918,"connected_time":1866000000000,"state":"active","ping":76},{"user_id":647,"name":"duckyLoPan","steam_id":76561198000385832,"connected_time":88000000000,"state":"active","ping":73}]},{"server_id":15,"name":"Uncletopia | New York City | 3 | Stopwatch","name_short":"nyc-3","host":"nyc-1.us.uncletopia.com","port":27035,"enabled":true,"region":"us-east","cc":"us","latitude":40.73061,"longitude":-73.93524,"reserved":0,"last_update":"0001-01-01T00:00:00Z","name_a2s":"Uncletopia | New York City | 3 | Stopwatch","protocol":17,"map":"koth_highpass","folder":"tf","game":"Team Fortress","app_id":440,"player_count":0,"max_players":24,"Bots":0,"server_type":"Dedicated","server_os":"Linux","password":true,"vac":true,"version":"7961495","steam_id":85568392924742820,"keywords":["cp","nocrits","nodmgspread","uncletopia"],"game_id":440,"stv_port":27036,"stv_name":"Uncletopia | New York City | 3 | Stopwatch | STV","players":null},{"server_id":16,"name":"Uncletopia | New York City | 4 | Community","name_short":"nyc-4","host":"nyc-1.us.uncletopia.com","port":27045,"enabled":true,"region":"us-east","cc":"us","latitude":40.73061,"longitude":-73.93524,"reserved":0,"last_update":"0001-01-01T00:00:00Z","name_a2s":"Uncletopia | New York City | 4 | Community","protocol":17,"map":"workshop/cp_sulfur_rc2.ugc619869471","folder":"tf","game":"Team Fortress","app_id":440,"player_count":6,"max_players":24,"Bots":0,"server_type":"Dedicated","server_os":"Linux","password":true,"vac":true,"version":"7961495","steam_id":85568392924742821,"keywords":["cp","nocrits","nodmgspread","uncletopia"],"game_id":440,"stv_port":27046,"stv_name":"Uncletopia | New York City | 4 | Community | STV","players":[{"user_id":64,"name":"Micc","steam_id":76561199447744486,"connected_time":353000000000,"state":"active","ping":116},{"user_id":62,"name":"sloth (be nice im cringe)","steam_id":76561198047098172,"connected_time":841000000000,"state":"active","ping":63},{"user_id":63,"name":"Bud Light","steam_id":76561198066904836,"connected_time":795000000000,"state":"active","ping":70},{"user_id":33,"name":"box","steam_id":76561198985635309,"connected_time":3626000000000,"state":"active","ping":82},{"user_id":65,"name":"Asanez3","steam_id":76561198037381436,"connected_time":132000000000,"state":"active","ping":55},{"user_id":41,"name":"+==[:::::::::::::::::::::::\u003e","steam_id":76561199051212534,"connected_time":2836000000000,"state":"active","ping":83}]},{"server_id":142,"name":"Uncletopia | São Paulo | 1 | All Maps","name_short":"sao-1","host":"sao-1.br.uncletopia.com","port":27015,"enabled":true,"region":"sa","cc":"br","latitude":-23.533773,"longitude":-46.62529,"reserved":0,"last_update":"0001-01-01T00:00:00Z","name_a2s":"Uncletopia | São Paulo | 1 | All Maps","protocol":17,"map":"koth_cascade","folder":"tf","game":"Team Fortress","app_id":440,"player_count":0,"max_players":24,"Bots":0,"server_type":"Dedicated","server_os":"Linux","password":true,"vac":true,"version":"7961495","steam_id":85568392924469996,"keywords":["cp","nocrits","nodmgspread","uncletopia"],"game_id":440,"stv_port":27016,"stv_name":"Uncletopia | São Paulo | 1 | All Maps | STV","players":null},{"server_id":143,"name":"Uncletopia | São Paulo | 2 | Community","name_short":"sao-2","host":"sao-2.br.uncletopia.com","port":27015,"enabled":true,"region":"sa","cc":"br","latitude":-23.533773,"longitude":-46.62529,"reserved":0,"last_update":"0001-01-01T00:00:00Z","name_a2s":"Uncletopia | São Paulo | 2 | Community","protocol":17,"map":"workshop/koth_slaughter_rc1.ugc1712845210","folder":"tf","game":"Team Fortress","app_id":440,"player_count":0,"max_players":24,"Bots":0,"server_type":"Dedicated","server_os":"Linux","password":true,"vac":true,"version":"7961495","steam_id":85568392924485349,"keywords":["cp","nocrits","nodmgspread","uncletopia"],"game_id":440,"stv_port":27016,"stv_name":"Uncletopia | São Paulo | 2 | Community | STV","players":null},{"server_id":7,"name":"Uncletopia | Seattle | 1 | All Maps","name_short":"sea-1","host":"sea-1.us.uncletopia.com","port":27015,"enabled":true,"region":"us-west","cc":"us","latitude":47.608013,"longitude":-122.33517,"reserved":0,"last_update":"0001-01-01T00:00:00Z","name_a2s":"Uncletopia | Seattle | 1 | All Maps","protocol":17,"map":"pl_barnblitz","folder":"tf","game":"Team Fortress","app_id":440,"player_count":24,"max_players":24,"Bots":0,"server_type":"Dedicated","server_os":"Linux","password":true,"vac":true,"version":"7961495","steam_id":85568392924469997,"keywords":["nocrits","nodmgspread","payload","uncletopia"],"game_id":440,"stv_port":27016,"stv_name":"Uncletopia | Seattle | 1 | All Maps | STV","players":[{"user_id":561,"name":"The Shaq Attack","steam_id":76561198075285534,"connected_time":331000000000,"state":"active","ping":35},{"user_id":562,"name":"Caqtus","steam_id":76561198025599356,"connected_time":9000000000,"state":"active","ping":99},{"user_id":546,"name":"AttackCommander","steam_id":76561198111522679,"connected_time":1899000000000,"state":"active","ping":92},{"user_id":535,"name":"Echo","steam_id":76561198103342230,"connected_time":2798000000000,"state":"active","ping":63},{"user_id":525,"name":"bath","steam_id":76561197969993352,"connected_time":4173000000000,"state":"active","ping":104},{"user_id":540,"name":"Whimsy!","steam_id":76561197989578836,"connected_time":2585000000000,"state":"active","ping":64},{"user_id":547,"name":"ImmuneToPeas","steam_id":76561198342411594,"connected_time":1891000000000,"state":"active","ping":51},{"user_id":551,"name":"MarioLuigi0404","steam_id":76561198252513650,"connected_time":1652000000000,"state":"active","ping":63},{"user_id":543,"name":"DubiousDodo","steam_id":76561198828172686,"connected_time":2211000000000,"state":"active","ping":75},{"user_id":406,"name":"Spectre⁹⁹⁹","steam_id":76561198037535169,"connected_time":13146000000000,"state":"active","ping":73},{"user_id":536,"name":"Havi","steam_id":76561198197832829,"connected_time":2695000000000,"state":"active","ping":45},{"user_id":516,"name":"Grandma","steam_id":76561199247095754,"connected_time":4706000000000,"state":"active","ping":61},{"user_id":532,"name":"Puskinti","steam_id":76561198032120688,"connected_time":3141000000000,"state":"active","ping":53},{"user_id":496,"name":"CashGordon","steam_id":76561197975594096,"connected_time":5804000000000,"state":"active","ping":42},{"user_id":484,"name":"lker","steam_id":76561197976975075,"connected_time":6714000000000,"state":"active","ping":105},{"user_id":541,"name":"Ayayayayayayayayayayayayahuasca","steam_id":76561199002906056,"connected_time":2533000000000,"state":"active","ping":46},{"user_id":559,"name":"KellyKapoor","steam_id":76561198040828123,"connected_time":474000000000,"state":"active","ping":41},{"user_id":560,"name":"WaffleWithNoToppings","steam_id":76561199088280111,"connected_time":472000000000,"state":"active","ping":46},{"user_id":527,"name":"Fh","steam_id":76561198000903511,"connected_time":3874000000000,"state":"active","ping":74},{"user_id":550,"name":"Attrition","steam_id":76561197969881916,"connected_time":1803000000000,"state":"active","ping":57},{"user_id":555,"name":"MrYadaization","steam_id":76561198050770818,"connected_time":504000000000,"state":"active","ping":49},{"user_id":518,"name":"Dongus","steam_id":76561197979056451,"connected_time":4690000000000,"state":"active","ping":54},{"user_id":544,"name":"baedeker","steam_id":76561199081837220,"connected_time":2059000000000,"state":"active","ping":94},{"user_id":557,"name":"plutonium isotope","steam_id":76561198319442494,"connected_time":500000000000,"state":"active","ping":101}]},{"server_id":119,"name":"Uncletopia | Seattle | 2 | All Maps","name_short":"sea-2","host":"sea-1.us.uncletopia.com","port":27025,"enabled":true,"region":"us-west","cc":"us","latitude":47.608013,"longitude":-122.33517,"reserved":0,"last_update":"0001-01-01T00:00:00Z","name_a2s":"Uncletopia | Seattle | 2 | All Maps","protocol":17,"map":"pl_pier","folder":"tf","game":"Team Fortress","app_id":440,"player_count":24,"max_players":24,"Bots":0,"server_type":"Dedicated","server_os":"Linux","password":true,"vac":true,"version":"7961495","steam_id":85568392924469998,"keywords":["nocrits","nodmgspread","payload","uncletopia"],"game_id":440,"stv_port":27026,"stv_name":"Uncletopia | Seattle | 2 | All Maps | STV","players":[{"user_id":304,"name":"Kawaiiestboi","steam_id":76561198182178703,"connected_time":2374000000000,"state":"active","ping":48},{"user_id":291,"name":"Zano","steam_id":76561198066887048,"connected_time":3178000000000,"state":"active","ping":68},{"user_id":266,"name":"moe","steam_id":76561198929586245,"connected_time":5006000000000,"state":"active","ping":71},{"user_id":318,"name":"alagon","steam_id":76561198312491066,"connected_time":1270000000000,"state":"active","ping":46},{"user_id":325,"name":"worker","steam_id":76561198039608940,"connected_time":700000000000,"state":"active","ping":51},{"user_id":251,"name":"Kelladrin","steam_id":76561198040727880,"connected_time":5582000000000,"state":"active","ping":62},{"user_id":308,"name":"Frank (Live on Twitch)","steam_id":76561198126681511,"connected_time":2129000000000,"state":"active","ping":75},{"user_id":311,"name":"William P. Ennis","steam_id":76561198073464877,"connected_time":1764000000000,"state":"active","ping":96},{"user_id":274,"name":"Synergy","steam_id":76561198098630198,"connected_time":4236000000000,"state":"active","ping":45},{"user_id":314,"name":"kaeslark1","steam_id":76561199059460838,"connected_time":1570000000000,"state":"active","ping":46},{"user_id":324,"name":"011sra","steam_id":76561199489542125,"connected_time":876000000000,"state":"active","ping":45},{"user_id":281,"name":"Gruntilda Tim","steam_id":76561198000852537,"connected_time":3477000000000,"state":"active","ping":70},{"user_id":328,"name":"garfield","steam_id":76561198114119308,"connected_time":223000000000,"state":"active","ping":108},{"user_id":303,"name":"grape","steam_id":76561197993980328,"connected_time":2403000000000,"state":"active","ping":53},{"user_id":319,"name":"your local dipshit","steam_id":76561198291984726,"connected_time":1264000000000,"state":"active","ping":133},{"user_id":305,"name":"Owls = Government Drones","steam_id":76561198439793697,"connected_time":2265000000000,"state":"active","ping":92},{"user_id":320,"name":"Stewest Griffin","steam_id":76561198150251920,"connected_time":1243000000000,"state":"active","ping":105},{"user_id":307,"name":"chheesse","steam_id":76561198926982316,"connected_time":2252000000000,"state":"active","ping":84},{"user_id":213,"name":"VerminKing","steam_id":76561198060887391,"connected_time":8440000000000,"state":"active","ping":69},{"user_id":326,"name":"BlazedBunny","steam_id":76561198243610560,"connected_time":281000000000,"state":"active","ping":82},{"user_id":315,"name":"Meatball Obsessed Demoman","steam_id":76561198253325844,"connected_time":1568000000000,"state":"active","ping":49},{"user_id":288,"name":"chanoc","steam_id":76561198026734746,"connected_time":3380000000000,"state":"active","ping":61},{"user_id":327,"name":"Starpillow ♡","steam_id":76561198095034817,"connected_time":261000000000,"state":"active","ping":54},{"user_id":313,"name":"Dimple","steam_id":76561198980324190,"connected_time":1710000000000,"state":"active","ping":178}]},{"server_id":406,"name":"Uncletopia | Seattle | 3 | Stopwatch","name_short":"sea-3","host":"sea-1.us.uncletopia.com","port":27035,"enabled":true,"region":"us-west","cc":"us","latitude":47.608013,"longitude":-122.33517,"reserved":0,"last_update":"0001-01-01T00:00:00Z","name_a2s":"Uncletopia | Seattle | 3 | Stopwatch","protocol":17,"map":"workshop/koth_ashville_final.ugc2130459942","folder":"tf","game":"Team Fortress","app_id":440,"player_count":0,"max_players":24,"Bots":0,"server_type":"Dedicated","server_os":"Linux","password":true,"vac":true,"version":"7961495","steam_id":85568392924515217,"keywords":["cp","nocrits","nodmgspread","uncletopia"],"game_id":440,"stv_port":27036,"stv_name":"Uncletopia | Seattle | 3 | Stopwatch | STV","players":null},{"server_id":17,"name":"Uncletopia | San Francisco | 1 | All Maps","name_short":"sfo-1","host":"sfo-1.us.uncletopia.com","port":27015,"enabled":true,"region":"us-west","cc":"us","latitude":37.77397,"longitude":-122.4313,"reserved":0,"last_update":"0001-01-01T00:00:00Z","name_a2s":"Uncletopia | San Francisco | 1 | All Maps","protocol":17,"map":"cp_dustbowl","folder":"tf","game":"Team Fortress","app_id":440,"player_count":24,"max_players":24,"Bots":0,"server_type":"Dedicated","server_os":"Linux","password":true,"vac":true,"version":"7961495","steam_id":85568392924469999,"keywords":["cp","nocrits","nodmgspread","uncletopia"],"game_id":440,"stv_port":27016,"stv_name":"Uncletopia | San Francisco | 1 | All Maps | STV","players":[{"user_id":176,"name":"FaceLaces","steam_id":76561198194417725,"connected_time":4220000000000,"state":"active","ping":60},{"user_id":170,"name":"Service Droid","steam_id":76561198075712160,"connected_time":4614000000000,"state":"active","ping":67},{"user_id":196,"name":"GreenApples","steam_id":76561198120559543,"connected_time":3488000000000,"state":"active","ping":52},{"user_id":201,"name":"Goopy!","steam_id":76561199502523624,"connected_time":3267000000000,"state":"active","ping":131},{"user_id":172,"name":"spanky","steam_id":76561199060482859,"connected_time":4520000000000,"state":"active","ping":80},{"user_id":173,"name":"BOAT","steam_id":76561198056263576,"connected_time":4491000000000,"state":"active","ping":73},{"user_id":242,"name":"Creature","steam_id":76561198194585781,"connected_time":1610000000000,"state":"active","ping":59},{"user_id":243,"name":"Weed Dealer","steam_id":76561198418604400,"connected_time":1609000000000,"state":"active","ping":72},{"user_id":177,"name":"MCA","steam_id":76561198162520530,"connected_time":4205000000000,"state":"active","ping":136},{"user_id":244,"name":"YoJames","steam_id":76561198828844484,"connected_time":1609000000000,"state":"active","ping":115},{"user_id":246,"name":"what're ya buyin","steam_id":76561199277633460,"connected_time":1431000000000,"state":"active","ping":53},{"user_id":232,"name":"Pybro","steam_id":76561198116008410,"connected_time":2232000000000,"state":"active","ping":91},{"user_id":247,"name":"Oktayey","steam_id":76561198143213426,"connected_time":1381000000000,"state":"active","ping":47},{"user_id":298,"name":"ryan","steam_id":76561198083851689,"connected_time":162000000000,"state":"active","ping":73},{"user_id":183,"name":"Windette","steam_id":76561198067039755,"connected_time":3792000000000,"state":"active","ping":83},{"user_id":190,"name":"Black Bear.","steam_id":76561198806203328,"connected_time":3662000000000,"state":"active","ping":74},{"user_id":197,"name":"Dullahan","steam_id":76561198119668908,"connected_time":3484000000000,"state":"active","ping":45},{"user_id":165,"name":"cwnz2","steam_id":76561198418170535,"connected_time":5148000000000,"state":"active","ping":126},{"user_id":113,"name":"Hero Smasher","steam_id":76561198150681669,"connected_time":9264000000000,"state":"active","ping":47},{"user_id":279,"name":"a_lilypup","steam_id":76561198163640324,"connected_time":858000000000,"state":"active","ping":56},{"user_id":257,"name":"grease monkey","steam_id":76561198089833897,"connected_time":1158000000000,"state":"active","ping":128},{"user_id":256,"name":"Drilly22","steam_id":76561198068838338,"connected_time":1193000000000,"state":"active","ping":100},{"user_id":193,"name":"Cosmolian","steam_id":76561199178160545,"connected_time":3611000000000,"state":"active","ping":56},{"user_id":207,"name":"Captain Crunch","steam_id":76561199141538581,"connected_time":3107000000000,"state":"active","ping":76}]},{"server_id":18,"name":"Uncletopia | San Francisco | 2 | All Maps","name_short":"sfo-2","host":"sfo-1.us.uncletopia.com","port":27025,"enabled":true,"region":"us-west","cc":"us","latitude":37.77397,"longitude":-122.4313,"reserved":0,"last_update":"0001-01-01T00:00:00Z","name_a2s":"Uncletopia | San Francisco | 2 | All Maps","protocol":17,"map":"pl_upward","folder":"tf","game":"Team Fortress","app_id":440,"player_count":0,"max_players":24,"Bots":0,"server_type":"Dedicated","server_os":"Linux","password":true,"vac":true,"version":"7961495","steam_id":85568392924470000,"keywords":["nocrits","nodmgspread","payload","uncletopia"],"game_id":440,"stv_port":27026,"stv_name":"Uncletopia | San Francisco | 2 | All Maps | STV","players":null},{"server_id":19,"name":"Uncletopia | San Francisco | 3 | Stopwatch","name_short":"sfo-3","host":"sfo-1.us.uncletopia.com","port":27035,"enabled":true,"region":"us-west","cc":"us","latitude":37.77397,"longitude":-122.4313,"reserved":0,"last_update":"0001-01-01T00:00:00Z","name_a2s":"Uncletopia | San Francisco | 3 | Stopwatch","protocol":17,"map":"pl_upward","folder":"tf","game":"Team Fortress","app_id":440,"player_count":0,"max_players":24,"Bots":0,"server_type":"Dedicated","server_os":"Linux","password":true,"vac":true,"version":"7961495","steam_id":85568392924742824,"keywords":["nocrits","nodmgspread","payload","uncletopia"],"game_id":440,"stv_port":27036,"stv_name":"Uncletopia | San Francisco | 3 | Stopwatch | STV","players":null},{"server_id":20,"name":"Uncletopia | San Francisco | 4 | Community","name_short":"sfo-4","host":"sfo-1.us.uncletopia.com","port":27045,"enabled":true,"region":"us-west","cc":"us","latitude":37.77397,"longitude":-122.4313,"reserved":0,"last_update":"0001-01-01T00:00:00Z","name_a2s":"Uncletopia | San Francisco | 4 | Community","protocol":17,"map":"workshop/pl_highwood_b13.ugc1769496557","folder":"tf","game":"Team Fortress","app_id":440,"player_count":0,"max_players":24,"Bots":0,"server_type":"Dedicated","server_os":"Linux","password":true,"vac":true,"version":"7961495","steam_id":85568392924742826,"keywords":["nocrits","nodmgspread","payload","uncletopia"],"game_id":440,"stv_port":27046,"stv_name":"Uncletopia | San Francisco | 4 | Community | STV","players":null},{"server_id":141,"name":"Uncletopia | Sydney | 1 | All Maps","name_short":"syd-1","host":"syd-1.au.uncletopia.com","port":27015,"enabled":true,"region":"au","cc":"au","latitude":-33.865143,"longitude":151.2099,"reserved":0,"last_update":"0001-01-01T00:00:00Z","name_a2s":"Uncletopia | Sydney | 1 | All Maps","protocol":17,"map":"koth_viaduct","folder":"tf","game":"Team Fortress","app_id":440,"player_count":0,"max_players":24,"Bots":0,"server_type":"Dedicated","server_os":"Linux","password":true,"vac":true,"version":"7961495","steam_id":85568392924470001,"keywords":["cp","nocrits","nodmgspread","uncletopia"],"game_id":440,"stv_port":27016,"stv_name":"Uncletopia | Sydney | 1 | All Maps | STV","players":null},{"server_id":123,"name":"Uncletopia | Sydney | 2 | All Maps","name_short":"syd-2","host":"syd-1.au.uncletopia.com","port":27025,"enabled":true,"region":"au","cc":"au","latitude":-33.865143,"longitude":151.2099,"reserved":0,"last_update":"0001-01-01T00:00:00Z","name_a2s":"Uncletopia | Sydney | 2 | All Maps","protocol":17,"map":"koth_lakeside_final","folder":"tf","game":"Team Fortress","app_id":440,"player_count":0,"max_players":24,"Bots":0,"server_type":"Dedicated","server_os":"Linux","password":true,"vac":true,"version":"7961495","steam_id":85568392924470002,"keywords":["cp","nocrits","nodmgspread","uncletopia"],"game_id":440,"stv_port":27026,"stv_name":"Uncletopia | Sydney | 2 | All Maps | STV","players":null},{"server_id":395,"name":"Uncletopia | Sydney | 3 | All Maps","name_short":"syd-3","host":"syd-1.au.uncletopia.com","port":27035,"enabled":true,"region":"au","cc":"au","latitude":-33.865143,"longitude":151.2099,"reserved":0,"last_update":"0001-01-01T00:00:00Z","name_a2s":"Uncletopia | Sydney | 3 | All Maps","protocol":17,"map":"pl_frontier_final","folder":"tf","game":"Team Fortress","app_id":440,"player_count":0,"max_players":24,"Bots":0,"server_type":"Dedicated","server_os":"Linux","password":true,"vac":true,"version":"7961495","steam_id":85568392925194467,"keywords":["nocrits","nodmgspread","payload","uncletopia"],"game_id":440,"stv_port":27036,"stv_name":"Uncletopia | Sydney | 3 | All Maps | STV","players":null},{"server_id":396,"name":"Uncletopia | Sydney | 4 | All Maps","name_short":"syd-4","host":"syd-1.au.uncletopia.com","port":27045,"enabled":true,"region":"au","cc":"au","latitude":-33.865143,"longitude":151.2099,"reserved":0,"last_update":"0001-01-01T00:00:00Z","name_a2s":"Uncletopia | Sydney | 4 | All Maps","protocol":17,"map":"cp_process_final","folder":"tf","game":"Team Fortress","app_id":440,"player_count":0,"max_players":24,"Bots":0,"server_type":"Dedicated","server_os":"Linux","password":true,"vac":true,"version":"7961495","steam_id":85568392925397958,"keywords":["cp","nocrits","nodmgspread","uncletopia"],"game_id":440,"stv_port":27046,"stv_name":"Uncletopia | Sydney | 4 | All Maps | STV","players":null},{"server_id":58,"name":"Uncletopia | Sydney | 5 | Stopwatch","name_short":"syd-5","host":"syd-1.au.uncletopia.com","port":27055,"enabled":true,"region":"au","cc":"au","latitude":-33.865143,"longitude":151.2099,"reserved":0,"last_update":"0001-01-01T00:00:00Z","name_a2s":"Uncletopia | Sydney | 5 | Stopwatch","protocol":17,"map":"pl_frontier_final","folder":"tf","game":"Team Fortress","app_id":440,"player_count":0,"max_players":24,"Bots":0,"server_type":"Dedicated","server_os":"Linux","password":true,"vac":true,"version":"7961495","steam_id":85568392925397959,"keywords":["nocrits","nodmgspread","payload","uncletopia"],"game_id":440,"stv_port":27056,"stv_name":"Uncletopia | Sydney | 5 | Stopwatch | STV","players":null},{"server_id":59,"name":"Uncletopia | Sydney | 6 | Community","name_short":"syd-6","host":"syd-1.au.uncletopia.com","port":27065,"enabled":true,"region":"au","cc":"au","latitude":-33.865143,"longitude":151.2099,"reserved":0,"last_update":"0001-01-01T00:00:00Z","name_a2s":"Uncletopia | Sydney | 6 | Community","protocol":17,"map":"cp_sunshine","folder":"tf","game":"Team Fortress","app_id":440,"player_count":0,"max_players":24,"Bots":0,"server_type":"Dedicated","server_os":"Linux","password":true,"vac":true,"version":"7961495","steam_id":85568392925397960,"keywords":["cp","nocrits","nodmgspread","uncletopia"],"game_id":440,"stv_port":27066,"stv_name":"Uncletopia | Sydney | 6 | Community | STV","players":null},{"server_id":49,"name":"Uncletopia | Warsaw | 1 | One Thousand Uncles","name_short":"waw-1","host":"waw-1.pl.uncletopia.com","port":27015,"enabled":true,"region":"eu","cc":"pl","latitude":52.2297,"longitude":21.017532,"reserved":0,"last_update":"0001-01-01T00:00:00Z","name_a2s":"Uncletopia | Warsaw | 1 | One Thousand Uncles","protocol":17,"map":"cp_mossrock","folder":"tf","game":"Team Fortress","app_id":440,"player_count":17,"max_players":32,"Bots":16,"server_type":"Dedicated","server_os":"Linux","password":true,"vac":true,"version":"7961495","steam_id":85568392925397850,"keywords":["alltalk","bots","cp","danepve","increased_maxplayers","nocrits","norespawntime","uncletopia"],"game_id":440,"stv_port":0,"stv_name":"","players":[{"user_id":248,"name":"the one","steam_id":76561198037977091,"connected_time":39000000000,"state":"active","ping":135}]},{"server_id":50,"name":"Uncletopia | Warsaw | 2 | One Thousand Uncles","name_short":"waw-2","host":"waw-1.pl.uncletopia.com","port":27025,"enabled":true,"region":"eu","cc":"pl","latitude":52.2297,"longitude":21.017532,"reserved":0,"last_update":"0001-01-01T00:00:00Z","name_a2s":"Uncletopia | Warsaw | 2 | One Thousand Uncles","protocol":17,"map":"pl_goldrush","folder":"tf","game":"Team Fortress","app_id":440,"player_count":0,"max_players":32,"Bots":0,"server_type":"Dedicated","server_os":"Linux","password":true,"vac":true,"version":"7961495","steam_id":85568392925397851,"keywords":["alltalk","danepve","increased_maxplayers","nocrits","norespawntime","payload","uncletopia"],"game_id":440,"stv_port":0,"stv_name":"","players":null},{"server_id":51,"name":"Uncletopia | Warsaw | 3 | All Maps","name_short":"waw-3","host":"waw-1.pl.uncletopia.com","port":27035,"enabled":true,"region":"eu","cc":"pl","latitude":52.2297,"longitude":21.017532,"reserved":0,"last_update":"0001-01-01T00:00:00Z","name_a2s":"Uncletopia | Warsaw | 3 | All Maps","protocol":17,"map":"cp_snakewater_final1","folder":"tf","game":"Team Fortress","app_id":440,"player_count":0,"max_players":24,"Bots":0,"server_type":"Dedicated","server_os":"Linux","password":true,"vac":true,"version":"7961495","steam_id":85568392925397852,"keywords":["cp","nocrits","nodmgspread","uncletopia"],"game_id":440,"stv_port":27036,"stv_name":"Uncletopia | Warsaw | 3 | All Maps | STV","players":null},{"server_id":52,"name":"Uncletopia | Warsaw | 4 | All Maps","name_short":"waw-4","host":"waw-1.pl.uncletopia.com","port":27045,"enabled":true,"region":"eu","cc":"pl","latitude":52.2297,"longitude":21.017532,"reserved":0,"last_update":"0001-01-01T00:00:00Z","name_a2s":"Uncletopia | Warsaw | 4 | All Maps","protocol":17,"map":"pl_borneo","folder":"tf","game":"Team Fortress","app_id":440,"player_count":0,"max_players":24,"Bots":0,"server_type":"Dedicated","server_os":"Linux","password":true,"vac":true,"version":"7961495","steam_id":85568392925397853,"keywords":["nocrits","nodmgspread","payload","uncletopia"],"game_id":440,"stv_port":27046,"stv_name":"Uncletopia | Warsaw | 4 | All Maps | STV","players":null},{"server_id":53,"name":"Uncletopia | Warsaw | 5 | Stopwatch","name_short":"waw-5","host":"waw-1.pl.uncletopia.com","port":27055,"enabled":true,"region":"eu","cc":"pl","latitude":52.2297,"longitude":21.017532,"reserved":0,"last_update":"0001-01-01T00:00:00Z","name_a2s":"Uncletopia | Warsaw | 5 | Stopwatch","protocol":17,"map":"workshop/koth_ramjam_rc1.ugc459778887","folder":"tf","game":"Team Fortress","app_id":440,"player_count":0,"max_players":24,"Bots":0,"server_type":"Dedicated","server_os":"Linux","password":true,"vac":true,"version":"7961495","steam_id":85568392925397854,"keywords":["cp","nocrits","nodmgspread","uncletopia"],"game_id":440,"stv_port":27056,"stv_name":"Uncletopia | Warsaw | 5 | Stopwatch | STV","players":null},{"server_id":54,"name":"Uncletopia | Warsaw | 6 | Community","name_short":"waw-6","host":"waw-1.pl.uncletopia.com","port":27065,"enabled":true,"region":"eu","cc":"pl","latitude":52.2297,"longitude":21.017532,"reserved":0,"last_update":"0001-01-01T00:00:00Z","name_a2s":"Uncletopia | Warsaw | 6 | Community","protocol":17,"map":"workshop/pl_badwater_pro_v12.ugc2142942074","folder":"tf","game":"Team Fortress","app_id":440,"player_count":0,"max_players":24,"Bots":0,"server_type":"Dedicated","server_os":"Linux","password":true,"vac":true,"version":"7961495","steam_id":85568392925397856,"keywords":["nocrits","nodmgspread","payload","uncletopia"],"game_id":440,"stv_port":27066,"stv_name":"Uncletopia | Warsaw | 6 | Community | STV","players":null}]}