{"status":true,"message":"","result":[{"server_id":9,"name":"Uncletopia | Atlanta | 1 | All Maps","name_short":"atl-1","host":"atl-1.us.uncletopia.com","port":27015,"enabled":true,"region":"us-east","cc":"us","latitude":33.753746,"longitude":-84.38633,"reserved":0,"last_update":"0001-01-01T00:00:00Z","name_a2s":"Uncletopia | Atlanta | 1 | All Maps","protocol":17,"map":"pl_pier","folder":"tf","game":"Team Fortress","app_id":440,"player_count":24,"max_players":24,"Bots":0,"server_type":"Dedicated","server_os":"Linux","password":true,"vac":true,"version":"7882260","steam_id":85568392924469982,"keywords":["nocrits","nodmgspread","payload","uncletopia"],"game_id":440,"stv_port":27016,"stv_name":"Uncletopia | Atlanta | 1 | All Maps | STV","players":[{"user_id":503,"name":"Albino Jellyfish","steam_id":76561198208561097,"connected_time":3907000000000,"state":"active","ping":64},{"user_id":512,"name":"bkiller","steam_id":76561198029265697,"connected_time":2114000000000,"state":"active","ping":61},{"user_id":376,"name":"Intro Bonito","steam_id":76561198119478838,"connected_time":11796000000000,"state":"active","ping":51},{"user_id":529,"name":"Ghetto Smosh Fan","steam_id":76561198097272509,"connected_time":323000000000,"state":"active","ping":31},{"user_id":523,"name":"BIG HOG","steam_id":76561198079923652,"connected_time":722000000000,"state":"active","ping":68},{"user_id":499,"name":"Galactamarx","steam_id":76561198028065755,"connected_time":4455000000000,"state":"active","ping":86},{"user_id":525,"name":"Modeus","steam_id":76561199228751836,"connected_time":714000000000,"state":"active","ping":59},{"user_id":497,"name":"jump_apex_b1","steam_id":76561198092135570,"connected_time":4496000000000,"state":"active","ping":60},{"user_id":518,"name":"Tue","steam_id":76561198181668501,"connected_time":1523000000000,"state":"active","ping":63},{"user_id":504,"name":"Winston","steam_id":76561198050204475,"connected_time":3542000000000,"state":"active","ping":50},{"user_id":502,"name":"Pumbloom","steam_id":76561198024481281,"connected_time":4275000000000,"state":"active","ping":45},{"user_id":473,"name":"Save your wifi","steam_id":76561198286147372,"connected_time":5622000000000,"state":"active","ping":62},{"user_id":513,"name":"Wheat Box","steam_id":76561198203443358,"connected_time":2078000000000,"state":"active","ping":80},{"user_id":379,"name":"cola","steam_id":76561198374390458,"connected_time":11780000000000,"state":"active","ping":62},{"user_id":459,"name":"Bocchi the Cock","steam_id":76561198152455316,"connected_time":7098000000000,"state":"active","ping":97},{"user_id":494,"name":"lil hog","steam_id":76561199230929836,"connected_time":5130000000000,"state":"active","ping":80},{"user_id":475,"name":"Jabawakai","steam_id":76561198088881254,"connected_time":5561000000000,"state":"active","ping":71},{"user_id":491,"name":"map tr_ctap_practice","steam_id":76561198249206656,"connected_time":5312000000000,"state":"active","ping":88},{"user_id":519,"name":"Eddy","steam_id":76561198088889421,"connected_time":1116000000000,"state":"active","ping":84},{"user_id":526,"name":"StatesideSnake","steam_id":76561198272957048,"connected_time":712000000000,"state":"active","ping":92},{"user_id":505,"name":"[Janitor] SuperFlexMan","steam_id":76561198075382445,"connected_time":3441000000000,"state":"active","ping":66},{"user_id":496,"name":"jump_beef","steam_id":76561198079416036,"connected_time":4593000000000,"state":"active","ping":85},{"user_id":528,"name":"jin","steam_id":76561198119873148,"connected_time":651000000000,"state":"active","ping":65},{"user_id":522,"name":"totoro","steam_id":76561198210420871,"connected_time":755000000000,"state":"active","ping":61}]},{"server_id":104,"name":"Uncletopia | Atlanta | 2 | All Maps","name_short":"atl-2","host":"atl-1.us.uncletopia.com","port":27025,"enabled":true,"region":"us-east","cc":"us","latitude":33.753746,"longitude":-84.38633,"reserved":0,"last_update":"0001-01-01T00:00:00Z","name_a2s":"Uncletopia | Atlanta | 2 | All Maps","protocol":17,"map":"cp_process_final","folder":"tf","game":"Team Fortress","app_id":440,"player_count":23,"max_players":24,"Bots":0,"server_type":"Dedicated","server_os":"Linux","password":true,"vac":true,"version":"7882260","steam_id":85568392924469983,"keywords":["cp","nocrits","nodmgspread","uncletopia"],"game_id":440,"stv_port":27026,"stv_name":"Uncletopia | Atlanta | 2 | All Maps | STV","players":[{"user_id":511,"name":"boy from the rafters","steam_id":76561198042926224,"connected_time":893000000000,"state":"active","ping":81},{"user_id":494,"name":"ALB","steam_id":76561198041496496,"connected_time":2312000000000,"state":"active","ping":81},{"user_id":425,"name":"Gamerdude313","steam_id":76561198869211435,"connected_time":7283000000000,"state":"active","ping":77},{"user_id":527,"name":"Azuras","steam_id":76561198156416843,"connected_time":179000000000,"state":"active","ping":67},{"user_id":512,"name":"Misty Blu ✿","steam_id":76561198011442255,"connected_time":883000000000,"state":"active","ping":107},{"user_id":476,"name":"Literally Printer Jesus","steam_id":76561198093687962,"connected_time":2961000000000,"state":"active","ping":107},{"user_id":526,"name":"lokm","steam_id":76561198030374238,"connected_time":355000000000,"state":"active","ping":122},{"user_id":509,"name":"Elite_Friendly","steam_id":76561198819972127,"connected_time":1329000000000,"state":"active","ping":120},{"user_id":520,"name":"Dullahan","steam_id":76561198119668908,"connected_time":682000000000,"state":"active","ping":105},{"user_id":525,"name":"Noctis","steam_id":76561198845208323,"connected_time":467000000000,"state":"active","ping":80},{"user_id":514,"name":"Wookiee","steam_id":76561198139642742,"connected_time":826000000000,"state":"active","ping":81},{"user_id":447,"name":"highschool drop-out","steam_id":76561198366299848,"connected_time":5063000000000,"state":"active","ping":47},{"user_id":515,"name":"Mg330","steam_id":76561199438395728,"connected_time":774000000000,"state":"active","ping":95},{"user_id":516,"name":"Spiderfight1","steam_id":76561199189991528,"connected_time":772000000000,"state":"active","ping":73},{"user_id":508,"name":"orange","steam_id":76561198272694642,"connected_time":1410000000000,"state":"active","ping":61},{"user_id":517,"name":"bwuce ree","steam_id":76561198038080028,"connected_time":747000000000,"state":"active","ping":105},{"user_id":486,"name":"gorf?","steam_id":76561198142286417,"connected_time":2540000000000,"state":"active","ping":76},{"user_id":484,"name":"tux","steam_id":76561198167746330,"connected_time":2773000000000,"state":"active","ping":46},{"user_id":524,"name":"crayonnipple","steam_id":76561198070253331,"connected_time":590000000000,"state":"active","ping":79},{"user_id":521,"name":"kree","steam_id":76561197979960008,"connected_time":647000000000,"state":"active","ping":74},{"user_id":522,"name":"G_Bob","steam_id":76561198098133233,"connected_time":637000000000,"state":"active","ping":55},{"user_id":503,"name":"toastman","steam_id":76561198207073088,"connected_time":2076000000000,"state":"active","ping":111},{"user_id":493,"name":"wunkem","steam_id":76561198055948497,"connected_time":2341000000000,"state":"active","ping":84}]},{"server_id":400,"name":"Uncletopia | Atlanta | 3 | Community","name_short":"atl-3","host":"atl-1.us.uncletopia.com","port":27035,"enabled":true,"region":"us-east","cc":"us","latitude":33.753746,"longitude":-84.38633,"reserved":0,"last_update":"0001-01-01T00:00:00Z","name_a2s":"Uncletopia | Atlanta | 3 | Community","protocol":17,"map":"workshop/koth_trenchfoot_b1a.ugc731436616","folder":"tf","game":"Team Fortress","app_id":440,"player_count":0,"max_players":24,"Bots":0,"server_type":"Dedicated","server_os":"Linux","password":true,"vac":true,"version":"7882260","steam_id":85568392924515187,"keywords":["cp","nocrits","nodmgspread","uncletopia"],"game_id":440,"stv_port":27036,"stv_name":"Uncletopia | Atlanta | 3 | Community | STV","players":null},{"server_id":401,"name":"Uncletopia | Atlanta | 4 | No Payload","name_short":"atl-4","host":"atl-1.us.uncletopia.com","port":27045,"enabled":true,"region":"us-east","cc":"us","latitude":33.753746,"longitude":-84.38633,"reserved":0,"last_update":"0001-01-01T00:00:00Z","name_a2s":"","protocol":0,"map":"","folder":"","game":"","app_id":0,"player_count":0,"max_players":0,"Bots":0,"server_type":"","server_os":"","password":false,"vac":false,"version":"","steam_id":0,"keywords":null,"game_id":0,"stv_port":0,"stv_name":"","players":null},{"server_id":2,"name":"Uncletopia | Chicago | 1 | All Maps","name_short":"chi-1","host":"chi-1.us.uncletopia.com","port":27015,"enabled":true,"region":"us-central","cc":"us","latitude":41.881832,"longitude":-87.62318,"reserved":0,"last_update":"0001-01-01T00:00:00Z","name_a2s":"Uncletopia | Chicago | 1 | All Maps","protocol":17,"map":"pl_borneo","folder":"tf","game":"Team Fortress","app_id":440,"player_count":24,"max_players":24,"Bots":0,"server_type":"Dedicated","server_os":"Linux","password":true,"vac":true,"version":"7882260","steam_id":85568392924469984,"keywords":["nocrits","nodmgspread","payload","uncletopia"],"game_id":440,"stv_port":27016,"stv_name":"Uncletopia | Chicago | 1 | All Maps | STV","players":[{"user_id":625,"name":"ROGUE-PLANET","steam_id":76561198116023052,"connected_time":594000000000,"state":"active","ping":68},{"user_id":629,"name":"Raz","steam_id":76561198002426150,"connected_time":457000000000,"state":"active","ping":64},{"user_id":639,"name":"Suez","steam_id":76561198034642980,"connected_time":96000000000,"state":"active","ping":76},{"user_id":640,"name":"Blitzy","steam_id":76561198149472890,"connected_time":74000000000,"state":"active","ping":71},{"user_id":568,"name":"tidal47","steam_id":76561198219084819,"connected_time":4444000000000,"state":"active","ping":80},{"user_id":627,"name":"Local","steam_id":76561198069537437,"connected_time":506000000000,"state":"active","ping":106},{"user_id":512,"name":"Iceman10a","steam_id":76561198171922098,"connected_time":8277000000000,"state":"active","ping":115},{"user_id":622,"name":"Arty","steam_id":76561198064047186,"connected_time":1432000000000,"state":"active","ping":44},{"user_id":628,"name":"Human Person","steam_id":76561198283855440,"connected_time":489000000000,"state":"active","ping":73},{"user_id":598,"name":"GIGAHAXX","steam_id":76561197993714726,"connected_time":2875000000000,"state":"active","ping":60},{"user_id":605,"name":"Sableye","steam_id":76561198061247147,"connected_time":2297000000000,"state":"active","ping":65},{"user_id":614,"name":"tools","steam_id":76561199010542612,"connected_time":2216000000000,"state":"active","ping":49},{"user_id":631,"name":"c9","steam_id":76561198136642793,"connected_time":441000000000,"state":"active","ping":76},{"user_id":504,"name":"Takyon","steam_id":76561198172075186,"connected_time":9583000000000,"state":"active","ping":162},{"user_id":612,"name":"pauldog","steam_id":76561198966277057,"connected_time":2237000000000,"state":"active","ping":102},{"user_id":617,"name":":3","steam_id":76561198326987939,"connected_time":2010000000000,"state":"active","ping":77},{"user_id":641,"name":"ryan","steam_id":76561198139411911,"connected_time":69000000000,"state":"active","ping":78},{"user_id":621,"name":"FutureWingEmilia","steam_id":76561199432006843,"connected_time":1440000000000,"state":"active","ping":72},{"user_id":642,"name":"Tohubohu","steam_id":76561198077838448,"connected_time":64000000000,"state":"active","ping":115},{"user_id":632,"name":"WHY U RUNNIN PAPI","steam_id":76561198144766439,"connected_time":431000000000,"state":"active","ping":45},{"user_id":643,"name":"xxa","steam_id":76561197984735021,"connected_time":57000000000,"state":"active","ping":88},{"user_id":644,"name":"HOTA","steam_id":76561199002778841,"connected_time":22000000000,"state":"active","ping":65},{"user_id":645,"name":"(Past Tense)","steam_id":76561197996279335,"connected_time":10000000000,"state":"spawning","ping":45},{"user_id":600,"name":"Goblin Mode","steam_id":76561198064870076,"connected_time":2688000000000,"state":"active","ping":88}]},{"server_id":106,"name":"Uncletopia | Chicago | 2 | All Maps","name_short":"chi-2","host":"chi-1.us.uncletopia.com","port":27025,"enabled":true,"region":"us-central","cc":"us","latitude":41.881832,"longitude":-87.62318,"reserved":0,"last_update":"0001-01-01T00:00:00Z","name_a2s":"Uncletopia | Chicago | 2 | All Maps","protocol":17,"map":"pl_badwater","folder":"tf","game":"Team Fortress","app_id":440,"player_count":24,"max_players":24,"Bots":0,"server_type":"Dedicated","server_os":"Linux","password":true,"vac":true,"version":"7882260","steam_id":85568392924469985,"keywords":["nocrits","nodmgspread","payload","uncletopia"],"game_id":440,"stv_port":27026,"stv_name":"Uncletopia | Chicago | 2 | All Maps | STV","players":[{"user_id":311,"name":"Bliztank | RGL.gg","steam_id":76561198019252798,"connected_time":6133000000000,"state":"active","ping":60},{"user_id":370,"name":"TheGhostThatWas","steam_id":76561198055836483,"connected_time":1287000000000,"state":"active","ping":60},{"user_id":386,"name":"[SWE]solsson","steam_id":76561198152176457,"connected_time":547000000000,"state":"active","ping":147},{"user_id":387,"name":"Bee","steam_id":76561198074681324,"connected_time":529000000000,"state":"active","ping":62},{"user_id":393,"name":"aishteru","steam_id":76561198126358045,"connected_time":253000000000,"state":"active","ping":75},{"user_id":339,"name":"sithreis","steam_id":76561198000564263,"connected_time":4395000000000,"state":"active","ping":74},{"user_id":388,"name":"EULA / JoJoJo","steam_id":76561198067153390,"connected_time":499000000000,"state":"active","ping":53},{"user_id":377,"name":"skosgo -eg","steam_id":76561197996403345,"connected_time":859000000000,"state":"active","ping":90},{"user_id":350,"name":"Rose","steam_id":76561198955581861,"connected_time":3081000000000,"state":"active","ping":102},{"user_id":375,"name":"tony hawk","steam_id":76561198172050802,"connected_time":887000000000,"state":"active","ping":116},{"user_id":389,"name":"Merchant","steam_id":76561198130468663,"connected_time":499000000000,"state":"active","ping":61},{"user_id":378,"name":"meownt evewest :3","steam_id":76561198017686306,"connected_time":854000000000,"state":"active","ping":159},{"user_id":394,"name":"ATL1 | yumyum","steam_id":76561198150567198,"connected_time":2000000000,"state":"spawning","ping":50},{"user_id":369,"name":"Frontier Psychiatrist","steam_id":76561198038689088,"connected_time":1297000000000,"state":"active","ping":85},{"user_id":384,"name":"_","steam_id":76561198191199554,"connected_time":704000000000,"state":"active","ping":64},{"user_id":363,"name":"Sean Bae","steam_id":76561198036909521,"connected_time":2398000000000,"state":"active","ping":85},{"user_id":322,"name":"lanoc","steam_id":76561198055415367,"connected_time":5565000000000,"state":"active","ping":59},{"user_id":316,"name":"java","steam_id":76561198030276792,"connected_time":5935000000000,"state":"active","ping":60},{"user_id":366,"name":"objective permanence","steam_id":76561198050393061,"connected_time":1673000000000,"state":"active","ping":74},{"user_id":381,"name":"Jianoc","steam_id":76561198010019214,"connected_time":820000000000,"state":"active","ping":48},{"user_id":390,"name":"my money washed like george","steam_id":76561198115458307,"connected_time":494000000000,"state":"active","ping":107},{"user_id":391,"name":"ottoman","steam_id":76561198407056645,"connected_time":486000000000,"state":"active","ping":73},{"user_id":392,"name":"kbsfnk","steam_id":76561198036884600,"connected_time":260000000000,"state":"active","ping":67},{"user_id":327,"name":"Jizznalius","steam_id":76561198042444734,"connected_time":5079000000000,"state":"active","ping":75}]},{"server_id":402,"name":"Uncletopia | Chicago | 3 | All Maps","name_short":"chi-3","host":"chi-1.us.uncletopia.com","port":27035,"enabled":true,"region":"us-central","cc":"us","latitude":41.881832,"longitude":-87.62318,"reserved":0,"last_update":"0001-01-01T00:00:00Z","name_a2s":"Uncletopia | Chicago | 3 | All Maps","protocol":17,"map":"pl_frontier_final","folder":"tf","game":"Team Fortress","app_id":440,"player_count":21,"max_players":24,"Bots":0,"server_type":"Dedicated","server_os":"Linux","password":true,"vac":true,"version":"7882260","steam_id":85568392924515191,"keywords":["nocrits","nodmgspread","payload","uncletopia"],"game_id":440,"stv_port":27036,"stv_name":"Uncletopia | Chicago | 3 | All Maps | STV","players":[{"user_id":388,"name":"Codo Sapien","steam_id":76561198014206810,"connected_time":698000000000,"state":"active","ping":29},{"user_id":389,"name":"Lore","steam_id":76561198098407538,"connected_time":685000000000,"state":"active","ping":55},{"user_id":384,"name":"BBOSensei","steam_id":76561198071548190,"connected_time":2029000000000,"state":"active","ping":70},{"user_id":359,"name":"The Foolish Samurai","steam_id":76561198094494945,"connected_time":4034000000000,"state":"active","ping":107},{"user_id":360,"name":"trappy (washed)","steam_id":76561198402801140,"connected_time":3995000000000,"state":"active","ping":55},{"user_id":378,"name":"M@verick","steam_id":76561198006363519,"connected_time":2608000000000,"state":"active","ping":72},{"user_id":361,"name":"griff928","steam_id":76561198149614679,"connected_time":3994000000000,"state":"active","ping":47},{"user_id":338,"name":"1TheExterminator","steam_id":76561198972879727,"connected_time":5693000000000,"state":"active","ping":76},{"user_id":385,"name":"totally not a pile of beans","steam_id":76561198119851931,"connected_time":1525000000000,"state":"active","ping":73},{"user_id":381,"name":"Shades McKenzie","steam_id":76561198007051107,"connected_time":2341000000000,"state":"active","ping":58},{"user_id":382,"name":"Technic","steam_id":76561198200302281,"connected_time":2146000000000,"state":"active","ping":74},{"user_id":398,"name":"cataconik","steam_id":76561198145530829,"connected_time":23000000000,"state":"active","ping":90},{"user_id":396,"name":"Sho' Nuff, the Shogun of Harlem","steam_id":76561198010708247,"connected_time":583000000000,"state":"active","ping":64},{"user_id":392,"name":"DO NOT call me BART SIMPSON!!","steam_id":76561198069113375,"connected_time":666000000000,"state":"active","ping":69},{"user_id":323,"name":"Mr. Crispy Lips","steam_id":76561198028157625,"connected_time":7072000000000,"state":"active","ping":77},{"user_id":386,"name":"The Super Mario Bros. Movie","steam_id":76561198871692156,"connected_time":1525000000000,"state":"active","ping":96},{"user_id":367,"name":"Remmy","steam_id":76561198268857418,"connected_time":3912000000000,"state":"active","ping":85},{"user_id":369,"name":"Blobbyfish","steam_id":76561198822962650,"connected_time":3852000000000,"state":"active","ping":76},{"user_id":394,"name":"Scum!","steam_id":76561198051805219,"connected_time":623000000000,"state":"active","ping":50},{"user_id":395,"name":"CamSoup","steam_id":76561198202483168,"connected_time":618000000000,"state":"active","ping":67},{"user_id":340,"name":"pee pee poo poo","steam_id":76561198930017260,"connected_time":5666000000000,"state":"active","ping":130}]},{"server_id":403,"name":"Uncletopia | Chicago | 4 | All Maps","name_short":"chi-4","host":"chi-1.us.uncletopia.com","port":27045,"enabled":true,"region":"us-central","cc":"us","latitude":41.881832,"longitude":-87.62318,"reserved":0,"last_update":"0001-01-01T00:00:00Z","name_a2s":"Uncletopia | Chicago | 4 | All Maps","protocol":17,"map":"pl_frontier_final","folder":"tf","game":"Team Fortress","app_id":440,"player_count":24,"max_players":24,"Bots":0,"server_type":"Dedicated","server_os":"Linux","password":true,"vac":true,"version":"7882260","steam_id":85568392924515193,"keywords":["nocrits","nodmgspread","payload","uncletopia"],"game_id":440,"stv_port":27046,"stv_name":"Uncletopia | Chicago | 4 | All Maps | STV","players":[{"user_id":414,"name":"Six Piece Chicken McNobody","steam_id":76561198129848222,"connected_time":630000000000,"state":"active","ping":64},{"user_id":418,"name":"gromit","steam_id":76561198037746805,"connected_time":354000000000,"state":"active","ping":72},{"user_id":371,"name":"JayArr","steam_id":76561198124371253,"connected_time":4251000000000,"state":"active","ping":45},{"user_id":389,"name":"Maxxycat","steam_id":76561198194062681,"connected_time":2723000000000,"state":"active","ping":57},{"user_id":417,"name":"NewerCoke","steam_id":76561198042911847,"connected_time":414000000000,"state":"active","ping":87},{"user_id":391,"name":"apple pie","steam_id":76561198073215150,"connected_time":2407000000000,"state":"active","ping":69},{"user_id":419,"name":"Ermine","steam_id":76561198072831312,"connected_time":300000000000,"state":"active","ping":65},{"user_id":412,"name":"greeno","steam_id":76561198109901138,"connected_time":753000000000,"state":"active","ping":73},{"user_id":376,"name":"bill","steam_id":76561199142779872,"connected_time":3787000000000,"state":"active","ping":65},{"user_id":397,"name":"Horrizan","steam_id":76561197965028480,"connected_time":1949000000000,"state":"active","ping":75},{"user_id":390,"name":"DREW PEACOCK","steam_id":76561198065057392,"connected_time":2716000000000,"state":"active","ping":84},{"user_id":420,"name":"bong water","steam_id":76561198880398499,"connected_time":296000000000,"state":"active","ping":59},{"user_id":421,"name":"RagingRoosevelt","steam_id":76561197985483153,"connected_time":288000000000,"state":"active","ping":106},{"user_id":392,"name":":)","steam_id":76561198093921290,"connected_time":2375000000000,"state":"active","ping":50},{"user_id":364,"name":"Spike","steam_id":76561198141356571,"connected_time":4597000000000,"state":"active","ping":60},{"user_id":422,"name":"noblehallett","steam_id":76561197990994280,"connected_time":282000000000,"state":"active","ping":114},{"user_id":403,"name":"yurty","steam_id":76561198036307721,"connected_time":1808000000000,"state":"active","ping":68},{"user_id":423,"name":"yung xrist","steam_id":76561198060699533,"connected_time":250000000000,"state":"active","ping":88},{"user_id":424,"name":"Jezzus","steam_id":76561199289676387,"connected_time":214000000000,"state":"active","ping":87},{"user_id":425,"name":"VOICES IN MY HEAD","steam_id":76561198357238486,"connected_time":12000000000,"state":"spawning","ping":62},{"user_id":409,"name":"porz","steam_id":76561198195711453,"connected_time":1250000000000,"state":"active","ping":60},{"user_id":411,"name":"blossom","steam_id":76561198042735130,"connected_time":767000000000,"state":"active","ping":110},{"user_id":408,"name":"bron jame","steam_id":76561198202195792,"connected_time":1548000000000,"state":"active","ping":63},{"user_id":413,"name":"im terrified","steam_id":76561198072179483,"connected_time":748000000000,"state":"active","ping":89}]},{"server_id":36,"name":"Uncletopia | Chicago | 5 | All Maps","name_short":"chi-5","host":"chi-2.us.uncletopia.com","port":27015,"enabled":true,"region":"us-central","cc":"us","latitude":41.881832,"longitude":-87.62318,"reserved":0,"last_update":"0001-01-01T00:00:00Z","name_a2s":"Uncletopia | Chicago | 5 | All Maps","protocol":17,"map":"koth_lakeside_final","folder":"tf","game":"Team Fortress","app_id":440,"player_count":0,"max_players":24,"Bots":0,"server_type":"Dedicated","server_os":"Linux","password":true,"vac":true,"version":"7882260","steam_id":85568392924866362,"keywords":["cp","nocrits","nodmgspread","uncletopia"],"game_id":440,"stv_port":27016,"stv_name":"Uncletopia | Chicago | 5 | All Maps | STV","players":null},{"server_id":37,"name":"Uncletopia | Chicago | 6 | All Maps","name_short":"chi-6","host":"chi-2.us.uncletopia.com","port":27025,"enabled":true,"region":"us-central","cc":"us","latitude":41.881832,"longitude":-87.62318,"reserved":0,"last_update":"0001-01-01T00:00:00Z","name_a2s":"Uncletopia | Chicago | 6 | All Maps","protocol":17,"map":"pl_borneo","folder":"tf","game":"Team Fortress","app_id":440,"player_count":24,"max_players":24,"Bots":0,"server_type":"Dedicated","server_os":"Linux","password":true,"vac":true,"version":"7882260","steam_id":85568392924866363,"keywords":["nocrits","nodmgspread","payload","uncletopia"],"game_id":440,"stv_port":27026,"stv_name":"Uncletopia | Chicago | 6 | All Maps | STV","players":[{"user_id":826,"name":"chilis baby back ribs","steam_id":76561198813516435,"connected_time":961000000000,"state":"active","ping":93},{"user_id":805,"name":"mikhail","steam_id":76561198242175530,"connected_time":2984000000000,"state":"active","ping":72},{"user_id":824,"name":"nickname 123","steam_id":76561198080234033,"connected_time":978000000000,"state":"active","ping":54},{"user_id":804,"name":"Atlas (Skylar)","steam_id":76561198041531774,"connected_time":3030000000000,"state":"active","ping":53},{"user_id":832,"name":"Bukashmook","steam_id":76561198169455956,"connected_time":233000000000,"state":"active","ping":104},{"user_id":815,"name":"Neophyte","steam_id":76561198027183394,"connected_time":2680000000000,"state":"active","ping":89},{"user_id":795,"name":"Nathontin","steam_id":76561198263545504,"connected_time":4099000000000,"state":"active","ping":60},{"user_id":783,"name":"souljaboytellem.com","steam_id":76561198111975583,"connected_time":4778000000000,"state":"active","ping":79},{"user_id":821,"name":"Xraverz","steam_id":76561198008891628,"connected_time":1798000000000,"state":"active","ping":94},{"user_id":803,"name":"bojack from the show bojack hor","steam_id":76561198053006712,"connected_time":3137000000000,"state":"active","ping":58},{"user_id":801,"name":"WillieMakit","steam_id":76561197985391684,"connected_time":3226000000000,"state":"active","ping":118},{"user_id":834,"name":"starshynee","steam_id":76561199058955154,"connected_time":10000000000,"state":"active","ping":94},{"user_id":830,"name":"gamer","steam_id":76561199092043420,"connected_time":469000000000,"state":"active","ping":105},{"user_id":807,"name":"scooby","steam_id":76561198019444443,"connected_time":2980000000000,"state":"active","ping":90},{"user_id":825,"name":"mashallah","steam_id":76561198075111427,"connected_time":970000000000,"state":"active","ping":55},{"user_id":829,"name":"Renota","steam_id":76561198058224488,"connected_time":693000000000,"state":"active","ping":81},{"user_id":817,"name":"The Announcer's Feet","steam_id":76561199443456893,"connected_time":2650000000000,"state":"active","ping":75},{"user_id":818,"name":"ApertureCity","steam_id":76561198004153607,"connected_time":2574000000000,"state":"active","ping":97},{"user_id":786,"name":"Monster","steam_id":76561198189429665,"connected_time":4761000000000,"state":"active","ping":73},{"user_id":787,"name":"[S]Mr. X [No Monitor]","steam_id":76561197963746035,"connected_time":4747000000000,"state":"active","ping":118},{"user_id":827,"name":"gabagool","steam_id":76561198012131766,"connected_time":917000000000,"state":"active","ping":59},{"user_id":820,"name":"Townze","steam_id":76561198081827165,"connected_time":1918000000000,"state":"active","ping":65},{"user_id":828,"name":"Nova","steam_id":76561198421340963,"connected_time":906000000000,"state":"active","ping":70}]},{"server_id":38,"name":"Uncletopia | Chicago | 7 | Stopwatch Beta","name_short":"chi-7","host":"chi-2.us.uncletopia.com","port":27035,"enabled":true,"region":"us-central","cc":"us","latitude":41.881832,"longitude":-87.62318,"reserved":0,"last_update":"0001-01-01T00:00:00Z","name_a2s":"Uncletopia | Chicago | 7 | Stopwatch Beta","protocol":17,"map":"cp_granary","folder":"tf","game":"Team Fortress","app_id":440,"player_count":0,"max_players":24,"Bots":0,"server_type":"Dedicated","server_os":"Linux","password":true,"vac":true,"version":"7882260","steam_id":85568392924866364,"keywords":["cp","nocrits","nodmgspread","uncletopia"],"game_id":440,"stv_port":27036,"stv_name":"Uncletopia | Chicago | 7 | Stopwatch Beta | STV","players":null},{"server_id":39,"name":"Uncletopia | Chicago | 8 | Community","name_short":"chi-8","host":"chi-2.us.uncletopia.com","port":27045,"enabled":true,"region":"us-central","cc":"us","latitude":41.881832,"longitude":-87.62318,"reserved":0,"last_update":"0001-01-01T00:00:00Z","name_a2s":"Uncletopia | Chicago | 8 | Community","protocol":17,"map":"workshop/koth_ramjam_rc1.ugc459778887","folder":"tf","game":"Team Fortress","app_id":440,"player_count":24,"max_players":24,"Bots":0,"server_type":"Dedicated","server_os":"Linux","password":true,"vac":true,"version":"7882260","steam_id":85568392924866365,"keywords":["cp","nocrits","nodmgspread","uncletopia"],"game_id":440,"stv_port":27046,"stv_name":"Uncletopia | Chicago | 8 | Community | STV","players":[{"user_id":274,"name":"Ediot","steam_id":76561199349494096,"connected_time":677000000000,"state":"active","ping":89},{"user_id":251,"name":"So Hygienic! Washed gamer","steam_id":76561198321627268,"connected_time":2390000000000,"state":"active","ping":118},{"user_id":257,"name":"Tom Crúaich","steam_id":76561197999439911,"connected_time":2170000000000,"state":"active","ping":59},{"user_id":249,"name":"PinguEnjoyer6","steam_id":76561199186723516,"connected_time":2489000000000,"state":"active","ping":98},{"user_id":242,"name":"mu","steam_id":76561197997530228,"connected_time":3189000000000,"state":"active","ping":109},{"user_id":20,"name":"spreadable arse","steam_id":76561198032259680,"connected_time":14147000000000,"state":"active","ping":75},{"user_id":205,"name":"don't leave her waiting","steam_id":76561198103496593,"connected_time":6438000000000,"state":"active","ping":62},{"user_id":266,"name":"samantha","steam_id":76561198049258493,"connected_time":1051000000000,"state":"active","ping":114},{"user_id":265,"name":"Spring Beans","steam_id":76561197978546259,"connected_time":1194000000000,"state":"active","ping":59},{"user_id":267,"name":"vessel of ruin","steam_id":76561198094512992,"connected_time":1047000000000,"state":"active","ping":45},{"user_id":248,"name":"Reisen Udongein Inaba","steam_id":76561198051082314,"connected_time":2999000000000,"state":"active","ping":110},{"user_id":275,"name":"helikopter","steam_id":76561198881026292,"connected_time":352000000000,"state":"active","ping":67},{"user_id":270,"name":"DroidX19","steam_id":76561198867783457,"connected_time":1023000000000,"state":"active","ping":87},{"user_id":228,"name":"Buckshot","steam_id":76561198312838299,"connected_time":4558000000000,"state":"active","ping":78},{"user_id":268,"name":"fartabsorber","steam_id":76561198127211709,"connected_time":1047000000000,"state":"active","ping":72},{"user_id":236,"name":"Antifa Supersoldier","steam_id":76561198141816516,"connected_time":3535000000000,"state":"active","ping":68},{"user_id":269,"name":"Golden","steam_id":76561198408792544,"connected_time":1033000000000,"state":"active","ping":101},{"user_id":229,"name":"DeckofDragons","steam_id":76561198057398213,"connected_time":4456000000000,"state":"active","ping":79},{"user_id":255,"name":"PlanktonTheWayICumBuckets","steam_id":76561198074678273,"connected_time":2207000000000,"state":"active","ping":59},{"user_id":259,"name":"teafital","steam_id":76561198406252824,"connected_time":2102000000000,"state":"active","ping":108},{"user_id":276,"name":"evilstuntman","steam_id":76561198056911537,"connected_time":285000000000,"state":"active","ping":57},{"user_id":277,"name":"Goofball","steam_id":76561198074189084,"connected_time":237000000000,"state":"active","ping":58},{"user_id":232,"name":"Mathatguy","steam_id":76561198225432188,"connected_time":4374000000000,"state":"active","ping":90},{"user_id":264,"name":"Lepa Radić","steam_id":76561198014698593,"connected_time":1475000000000,"state":"active","ping":93}]},{"server_id":8,"name":"Uncletopia | Dallas | 1 | All Maps","name_short":"dal-1","host":"dal-1.us.uncletopia.com","port":27015,"enabled":true,"region":"us-central","cc":"us","latitude":32.779167,"longitude":-96.80889,"reserved":0,"last_update":"0001-01-01T00:00:00Z","name_a2s":"Uncletopia | Dallas | 1 | All Maps","protocol":17,"map":"pl_borneo","folder":"tf","game":"Team Fortress","app_id":440,"player_count":24,"max_players":24,"Bots":0,"server_type":"Dedicated","server_os":"Linux","password":true,"vac":true,"version":"7882260","steam_id":85568392924469986,"keywords":["nocrits","nodmgspread","payload","uncletopia"],"game_id":440,"stv_port":27016,"stv_name":"Uncletopia | Dallas | 1 | All Maps | STV","players":[{"user_id":417,"name":"MeMyBongusAndTheGreatOutdoors","steam_id":76561198097708978,"connected_time":2251000000000,"state":"active","ping":54},{"user_id":434,"name":"Mellou","steam_id":76561198212048740,"connected_time":919000000000,"state":"active","ping":38},{"user_id":447,"name":"brochi","steam_id":76561198218757063,"connected_time":74000000000,"state":"active","ping":58},{"user_id":432,"name":"AgenT BendeR RodrigueZ","steam_id":76561197962498428,"connected_time":1059000000000,"state":"active","ping":90},{"user_id":429,"name":"♠Silver♠","steam_id":76561198206109224,"connected_time":1632000000000,"state":"active","ping":133},{"user_id":436,"name":"Quietsharp","steam_id":76561198277968438,"connected_time":767000000000,"state":"active","ping":83},{"user_id":445,"name":"InvaderAlex","steam_id":76561198039232451,"connected_time":134000000000,"state":"active","ping":65},{"user_id":404,"name":"Sods","steam_id":76561198010204565,"connected_time":3408000000000,"state":"active","ping":36},{"user_id":428,"name":"NexFrost","steam_id":76561197985774837,"connected_time":1635000000000,"state":"active","ping":41},{"user_id":395,"name":"CHIKN","steam_id":76561198277792665,"connected_time":3843000000000,"state":"active","ping":82},{"user_id":389,"name":"hunterzar","steam_id":76561198347666725,"connected_time":5149000000000,"state":"active","ping":90},{"user_id":437,"name":"Sarbanes-Oxley","steam_id":76561197975898479,"connected_time":765000000000,"state":"active","ping":56},{"user_id":444,"name":"LACTOSE","steam_id":76561198282604344,"connected_time":162000000000,"state":"active","ping":86},{"user_id":448,"name":"bunny girl bimbo!","steam_id":76561198122027532,"connected_time":27000000000,"state":"active","ping":119},{"user_id":446,"name":"ThugSlug","steam_id":76561198086098047,"connected_time":78000000000,"state":"active","ping":75},{"user_id":426,"name":"Sych06","steam_id":76561198798979302,"connected_time":1864000000000,"state":"active","ping":86},{"user_id":431,"name":"Mr. Dick™","steam_id":76561198047309044,"connected_time":1214000000000,"state":"active","ping":60},{"user_id":442,"name":"Bikeway Naros","steam_id":76561198086676786,"connected_time":673000000000,"state":"active","ping":80},{"user_id":430,"name":"SPREAD SPRING GROWTH AND WARMTH","steam_id":76561198800386026,"connected_time":1238000000000,"state":"active","ping":100},{"user_id":401,"name":"wilmer el versatil","steam_id":76561198155393832,"connected_time":3526000000000,"state":"active","ping":157},{"user_id":421,"name":"Prophet","steam_id":76561198134948582,"connected_time":2148000000000,"state":"active","ping":110},{"user_id":399,"name":"LumaDooma","steam_id":76561198076875817,"connected_time":3808000000000,"state":"active","ping":46},{"user_id":443,"name":"Drapph","steam_id":76561199384213314,"connected_time":636000000000,"state":"active","ping":84}]},{"server_id":108,"name":"Uncletopia | Dallas | 2 | All Maps","name_short":"dal-2","host":"dal-1.us.uncletopia.com","port":27025,"enabled":true,"region":"us-central","cc":"us","latitude":32.779167,"longitude":-96.80889,"reserved":0,"last_update":"0001-01-01T00:00:00Z","name_a2s":"Uncletopia | Dallas | 2 | All Maps","protocol":17,"map":"pl_upward","folder":"tf","game":"Team Fortress","app_id":440,"player_count":24,"max_players":24,"Bots":0,"server_type":"Dedicated","server_os":"Linux","password":true,"vac":true,"version":"7882260","steam_id":85568392924469988,"keywords":["nocrits","nodmgspread","payload","uncletopia"],"game_id":440,"stv_port":27026,"stv_name":"Uncletopia | Dallas | 2 | All Maps | STV","players":[{"user_id":486,"name":"Zero","steam_id":76561199383267408,"connected_time":2393000000000,"state":"active","ping":48},{"user_id":403,"name":"CreepyCook","steam_id":76561198242874622,"connected_time":7747000000000,"state":"active","ping":57},{"user_id":510,"name":"gundog","steam_id":76561198063240044,"connected_time":545000000000,"state":"active","ping":60},{"user_id":511,"name":"Big Dick Swinging","steam_id":76561198053819929,"connected_time":523000000000,"state":"active","ping":71},{"user_id":445,"name":"SpecialForce19","steam_id":76561198120974644,"connected_time":3996000000000,"state":"active","ping":92},{"user_id":515,"name":"bladee is the 5th beatle","steam_id":76561198984612489,"connected_time":93000000000,"state":"active","ping":78},{"user_id":457,"name":"Rear Admiral Crunch","steam_id":76561198020007558,"connected_time":2879000000000,"state":"active","ping":56},{"user_id":442,"name":"Insizhen","steam_id":76561198051352605,"connected_time":4363000000000,"state":"active","ping":57},{"user_id":484,"name":"Glover75","steam_id":76561198045960273,"connected_time":2417000000000,"state":"active","ping":90},{"user_id":513,"name":"Manic","steam_id":76561198128149670,"connected_time":491000000000,"state":"active","ping":42},{"user_id":501,"name":"Iron","steam_id":76561198247918478,"connected_time":963000000000,"state":"active","ping":68},{"user_id":496,"name":"aiming with drawing tablet","steam_id":76561198397662124,"connected_time":1348000000000,"state":"active","ping":63},{"user_id":512,"name":"Malewife","steam_id":76561198076320763,"connected_time":506000000000,"state":"active","ping":92},{"user_id":453,"name":"boombox","steam_id":76561198237013798,"connected_time":3820000000000,"state":"active","ping":101},{"user_id":443,"name":"it's peanut time","steam_id":76561198236028020,"connected_time":4325000000000,"state":"active","ping":104},{"user_id":500,"name":"dicksnip","steam_id":76561198356515396,"connected_time":981000000000,"state":"active","ping":56},{"user_id":447,"name":"Faraday","steam_id":76561198089928357,"connected_time":3988000000000,"state":"active","ping":55},{"user_id":506,"name":"Bonus Oceans","steam_id":76561198066820572,"connected_time":830000000000,"state":"active","ping":84},{"user_id":466,"name":"Sorrow","steam_id":76561198050225563,"connected_time":2825000000000,"state":"active","ping":68},{"user_id":514,"name":"ChottoAMinute","steam_id":76561198873157775,"connected_time":450000000000,"state":"active","ping":39},{"user_id":482,"name":"Blake Belladonna","steam_id":76561198010169911,"connected_time":2619000000000,"state":"active","ping":75},{"user_id":495,"name":"cornealvase9152","steam_id":76561198851958868,"connected_time":1478000000000,"state":"active","ping":84},{"user_id":509,"name":"Commissar","steam_id":76561198137223253,"connected_time":582000000000,"state":"active","ping":55},{"user_id":499,"name":"nekoknight tf2","steam_id":76561198400058665,"connected_time":1011000000000,"state":"active","ping":92}]},{"server_id":5,"name":"Uncletopia | Frankfurt | 1 | All Maps","name_short":"frk-1","host":"frk-1.de.uncletopia.com","port":27015,"enabled":true,"region":"eu","cc":"de","latitude":50.110924,"longitude":8.682127,"reserved":0,"last_update":"0001-01-01T00:00:00Z","name_a2s":"Uncletopia | Frankfurt | 1 | All Maps","protocol":17,"map":"cp_process_final","folder":"tf","game":"Team Fortress","app_id":440,"player_count":0,"max_players":24,"Bots":0,"server_type":"Dedicated","server_os":"Linux","password":true,"vac":true,"version":"7882260","steam_id":85568392924469989,"keywords":["cp","nocrits","nodmgspread","uncletopia"],"game_id":440,"stv_port":27016,"stv_name":"Uncletopia | Frankfurt | 1 | All Maps | STV","players":null},{"server_id":110,"name":"Uncletopia | Frankfurt | 2 | All Maps","name_short":"frk-2","host":"frk-1.de.uncletopia.com","port":27025,"enabled":true,"region":"eu","cc":"de","latitude":50.110924,"longitude":8.682127,"reserved":0,"last_update":"0001-01-01T00:00:00Z","name_a2s":"Uncletopia | Frankfurt | 2 | All Maps","protocol":17,"map":"pl_swiftwater_final1","folder":"tf","game":"Team Fortress","app_id":440,"player_count":0,"max_players":24,"Bots":0,"server_type":"Dedicated","server_os":"Linux","password":true,"vac":true,"version":"7882260","steam_id":85568392924469990,"keywords":["nocrits","nodmgspread","payload","uncletopia"],"game_id":440,"stv_port":27026,"stv_name":"Uncletopia | Frankfurt | 2 | All Maps | STV","players":null},{"server_id":308,"name":"Uncletopia | Frankfurt | 3 | All Maps","name_short":"frk-3","host":"frk-1.de.uncletopia.com","port":27035,"enabled":true,"region":"eu","cc":"de","latitude":50.110924,"longitude":8.682127,"reserved":0,"last_update":"0001-01-01T00:00:00Z","name_a2s":"Uncletopia | Frankfurt | 3 | All Maps","protocol":17,"map":"pl_snowycoast","folder":"tf","game":"Team Fortress","app_id":440,"player_count":0,"max_players":24,"Bots":0,"server_type":"Dedicated","server_os":"Linux","password":true,"vac":true,"version":"7882260","steam_id":85568392924504274,"keywords":["nocrits","nodmgspread","payload","uncletopia"],"game_id":440,"stv_port":27036,"stv_name":"Uncletopia | Frankfurt | 3 | All Maps | STV","players":null},{"server_id":309,"name":"Uncletopia | Frankfurt | 4 | All Maps","name_short":"frk-4","host":"frk-1.de.uncletopia.com","port":27045,"enabled":true,"region":"eu","cc":"de","latitude":50.110924,"longitude":8.682127,"reserved":0,"last_update":"0001-01-01T00:00:00Z","name_a2s":"Uncletopia | Frankfurt | 4 | All Maps","protocol":17,"map":"pl_pier","folder":"tf","game":"Team Fortress","app_id":440,"player_count":3,"max_players":24,"Bots":0,"server_type":"Dedicated","server_os":"Linux","password":true,"vac":true,"version":"7882260","steam_id":85568392924504275,"keywords":["nocrits","nodmgspread","payload","uncletopia"],"game_id":440,"stv_port":27046,"stv_name":"Uncletopia | Frankfurt | 4 | All Maps | STV","players":[{"user_id":13,"name":"john fortress the second","steam_id":76561198110198881,"connected_time":249000000000,"state":"active","ping":63},{"user_id":4,"name":"wide appreciator","steam_id":76561198083286511,"connected_time":2347000000000,"state":"active","ping":59},{"user_id":9,"name":"gebycoks","steam_id":76561199259198472,"connected_time":2291000000000,"state":"active","ping":65}]},{"server_id":310,"name":"Uncletopia | Frankfurt | 5 | All Maps","name_short":"frk-5","host":"frk-1.de.uncletopia.com","port":27055,"enabled":true,"region":"eu","cc":"de","latitude":50.110924,"longitude":8.682127,"reserved":0,"last_update":"0001-01-01T00:00:00Z","name_a2s":"Uncletopia | Frankfurt | 5 | All Maps","protocol":17,"map":"cp_mountainlab","folder":"tf","game":"Team Fortress","app_id":440,"player_count":0,"max_players":24,"Bots":0,"server_type":"Dedicated","server_os":"Linux","password":true,"vac":true,"version":"7882260","steam_id":85568392924504277,"keywords":["cp","nocrits","nodmgspread","uncletopia"],"game_id":440,"stv_port":27056,"stv_name":"Uncletopia | Frankfurt | 5 | All Maps | STV","players":null},{"server_id":311,"name":"Uncletopia | Frankfurt | 6 | All Maps","name_short":"frk-6","host":"frk-1.de.uncletopia.com","port":27065,"enabled":true,"region":"eu","cc":"de","latitude":50.110924,"longitude":8.682127,"reserved":0,"last_update":"0001-01-01T00:00:00Z","name_a2s":"Uncletopia | Frankfurt | 6 | All Maps","protocol":17,"map":"pl_badwater","folder":"tf","game":"Team Fortress","app_id":440,"player_count":0,"max_players":24,"Bots":0,"server_type":"Dedicated","server_os":"Linux","password":true,"vac":true,"version":"7882260","steam_id":85568392924504278,"keywords":["nocrits","nodmgspread","payload","uncletopia"],"game_id":440,"stv_port":27066,"stv_name":"Uncletopia | Frankfurt | 6 | All Maps | STV","players":null},{"server_id":23,"name":"Uncletopia | Frankfurt | 7 | Stopwatch Beta","name_short":"frk-7","host":"frk-1.de.uncletopia.com","port":27075,"enabled":true,"region":"eu","cc":"de","latitude":50.110924,"longitude":8.682127,"reserved":0,"last_update":"0001-01-01T00:00:00Z","name_a2s":"Uncletopia | Frankfurt | 7 | Stopwatch Beta","protocol":17,"map":"cp_dustbowl","folder":"tf","game":"Team Fortress","app_id":440,"player_count":0,"max_players":24,"Bots":0,"server_type":"Dedicated","server_os":"Linux","password":true,"vac":true,"version":"7882260","steam_id":85568392924742827,"keywords":["cp","nocrits","nodmgspread","uncletopia"],"game_id":440,"stv_port":27076,"stv_name":"Uncletopia | Frankfurt | 7 | Stopwatch Beta | STV","players":null},{"server_id":24,"name":"Uncletopia | Frankfurt | 8 | Community","name_short":"frk-8","host":"frk-1.de.uncletopia.com","port":27085,"enabled":true,"region":"eu","cc":"de","latitude":50.110924,"longitude":8.682127,"reserved":0,"last_update":"0001-01-01T00:00:00Z","name_a2s":"Uncletopia | Frankfurt | 8 | Community","protocol":17,"map":"koth_cascade","folder":"tf","game":"Team Fortress","app_id":440,"player_count":0,"max_players":24,"Bots":0,"server_type":"Dedicated","server_os":"Linux","password":true,"vac":true,"version":"7882260","steam_id":85568392924742828,"keywords":["cp","nocrits","nodmgspread","uncletopia"],"game_id":440,"stv_port":27086,"stv_name":"Uncletopia | Frankfurt | 8 | Community | STV","players":null},{"server_id":202,"name":"Uncletopia | Hong Kong | 1 | All Maps","name_short":"hgk-1","host":"hgk-1.hk.uncletopia.com","port":27015,"enabled":true,"region":"asia","cc":"hk","latitude":22.302711,"longitude":114.177216,"reserved":0,"last_update":"0001-01-01T00:00:00Z","name_a2s":"Uncletopia | Hong Kong | 1 | All Maps","protocol":17,"map":"pl_pier","folder":"tf","game":"Team Fortress","app_id":440,"player_count":4,"max_players":24,"Bots":0,"server_type":"Dedicated","server_os":"Linux","password":true,"vac":true,"version":"7882260","steam_id":85568392924494504,"keywords":["nocrits","nodmgspread","payload","uncletopia"],"game_id":440,"stv_port":27016,"stv_name":"Uncletopia | Hong Kong | 1 | All Maps | STV","players":[{"user_id":11,"name":"RP birdzz","steam_id":76561198318077734,"connected_time":3522000000000,"state":"active","ping":57},{"user_id":21,"name":"ellz71","steam_id":76561199216074568,"connected_time":767000000000,"state":"active","ping":134},{"user_id":16,"name":"TheChainsaw","steam_id":76561198312001455,"connected_time":2268000000000,"state":"active","ping":105},{"user_id":24,"name":"Zach Rabaznaz","steam_id":76561198842547633,"connected_time":579000000000,"state":"active","ping":90}]},{"server_id":1,"name":"Uncletopia | Los Angeles | 1 | All Maps","name_short":"lax-1","host":"lax-1.us.uncletopia.com","port":27015,"enabled":true,"region":"us-west","cc":"us","latitude":33.94279,"longitude":-118.41004,"reserved":0,"last_update":"0001-01-01T00:00:00Z","name_a2s":"Uncletopia | Los Angeles | 1 | All Maps","protocol":17,"map":"cp_dustbowl","folder":"tf","game":"Team Fortress","app_id":440,"player_count":24,"max_players":24,"Bots":0,"server_type":"Dedicated","server_os":"Linux","password":true,"vac":true,"version":"7882260","steam_id":85568392924469991,"keywords":["cp","nocrits","nodmgspread","uncletopia"],"game_id":440,"stv_port":27016,"stv_name":"Uncletopia | Los Angeles | 1 | All Maps | STV","players":[{"user_id":366,"name":"Mateo The Social Engineer","steam_id":76561199199772083,"connected_time":1413000000000,"state":"active","ping":74},{"user_id":289,"name":"cp_dustbowl","steam_id":76561198087574100,"connected_time":7112000000000,"state":"active","ping":52},{"user_id":296,"name":"usedhalfcart","steam_id":76561198072621852,"connected_time":7003000000000,"state":"active","ping":79},{"user_id":363,"name":"Throws Before Bros󠀡","steam_id":76561197992905530,"connected_time":1701000000000,"state":"active","ping":56},{"user_id":317,"name":"Lonlily","steam_id":76561198130418647,"connected_time":5331000000000,"state":"active","ping":54},{"user_id":360,"name":"RagingBagon","steam_id":76561198255453127,"connected_time":2099000000000,"state":"active","ping":35},{"user_id":346,"name":"Waffle_Hunter","steam_id":76561198220675860,"connected_time":3118000000000,"state":"active","ping":71},{"user_id":371,"name":"noellehound","steam_id":76561198108844158,"connected_time":846000000000,"state":"active","ping":54},{"user_id":361,"name":"June","steam_id":76561198141803658,"connected_time":1738000000000,"state":"active","ping":48},{"user_id":278,"name":"Miro","steam_id":76561198936412406,"connected_time":8359000000000,"state":"active","ping":128},{"user_id":375,"name":"luigiclub","steam_id":76561198180548194,"connected_time":308000000000,"state":"active","ping":83},{"user_id":353,"name":"I am NOT a Spy","steam_id":76561199153596010,"connected_time":3058000000000,"state":"active","ping":101},{"user_id":356,"name":"2 for $3.50 McChickens","steam_id":76561198089908660,"connected_time":2827000000000,"state":"active","ping":52},{"user_id":372,"name":"charley","steam_id":76561198828238339,"connected_time":727000000000,"state":"active","ping":80},{"user_id":354,"name":"Balerion the Black Dread","steam_id":76561198003728369,"connected_time":3026000000000,"state":"active","ping":55},{"user_id":270,"name":"fire","steam_id":76561198044354279,"connected_time":8703000000000,"state":"active","ping":45},{"user_id":369,"name":"CBUR","steam_id":76561198437498149,"connected_time":1072000000000,"state":"active","ping":68},{"user_id":351,"name":"Rinsworth","steam_id":76561198071110753,"connected_time":3058000000000,"state":"active","ping":52},{"user_id":368,"name":"Archie","steam_id":76561198137112917,"connected_time":1171000000000,"state":"active","ping":55},{"user_id":365,"name":"Excrement","steam_id":76561198167740127,"connected_time":1681000000000,"state":"active","ping":72},{"user_id":323,"name":"Specter the Unchained","steam_id":76561198348354629,"connected_time":5009000000000,"state":"active","ping":36},{"user_id":293,"name":"Taco+Taco=Burrito","steam_id":76561198063128663,"connected_time":7085000000000,"state":"active","ping":46},{"user_id":374,"name":"Richard_MF_Nixon","steam_id":76561198011398728,"connected_time":335000000000,"state":"active","ping":87},{"user_id":328,"name":"Mythical Lag","steam_id":76561198347031281,"connected_time":4859000000000,"state":"active","ping":76}]},{"server_id":112,"name":"Uncletopia | Los Angeles | 2 | All Maps","name_short":"lax-2","host":"lax-1.us.uncletopia.com","port":27025,"enabled":true,"region":"us-west","cc":"us","latitude":33.94279,"longitude":-118.41004,"reserved":0,"last_update":"0001-01-01T00:00:00Z","name_a2s":"Uncletopia | Los Angeles | 2 | All Maps","protocol":17,"map":"pl_swiftwater_final1","folder":"tf","game":"Team Fortress","app_id":440,"player_count":21,"max_players":24,"Bots":0,"server_type":"Dedicated","server_os":"Linux","password":true,"vac":true,"version":"7882260","steam_id":85568392924469992,"keywords":["nocrits","nodmgspread","payload","uncletopia"],"game_id":440,"stv_port":27026,"stv_name":"Uncletopia | Los Angeles | 2 | All Maps | STV","players":[{"user_id":275,"name":"Cypress [ +/- ] ✔","steam_id":76561198067164431,"connected_time":590000000000,"state":"active","ping":35},{"user_id":263,"name":"culture shock","steam_id":76561198212421513,"connected_time":2286000000000,"state":"active","ping":46},{"user_id":280,"name":"Centre","steam_id":76561198281612642,"connected_time":8000000000,"state":"active","ping":197},{"user_id":235,"name":"rorywashere /ᐠ - ˕ -マ Ⳋ","steam_id":76561198065825165,"connected_time":4453000000000,"state":"active","ping":102},{"user_id":262,"name":"Cream Pioneer","steam_id":76561198309491596,"connected_time":2396000000000,"state":"active","ping":62},{"user_id":276,"name":"Vincent Van Bro","steam_id":76561197966919802,"connected_time":573000000000,"state":"active","ping":87},{"user_id":251,"name":"jorts","steam_id":76561199041179985,"connected_time":3417000000000,"state":"active","ping":91},{"user_id":278,"name":"JellyParrot","steam_id":76561199190990163,"connected_time":314000000000,"state":"active","ping":100},{"user_id":214,"name":"Chocc","steam_id":76561198068070211,"connected_time":6936000000000,"state":"active","ping":57},{"user_id":266,"name":"Trash Rummager","steam_id":76561198085388962,"connected_time":1544000000000,"state":"active","ping":92},{"user_id":269,"name":"FezRequiem","steam_id":76561198070066667,"connected_time":942000000000,"state":"active","ping":60},{"user_id":224,"name":"CheeseLikeSubstance","steam_id":76561197977170646,"connected_time":5766000000000,"state":"active","ping":101},{"user_id":229,"name":"smeasly","steam_id":76561198028718812,"connected_time":4743000000000,"state":"active","ping":73},{"user_id":252,"name":"Ducks","steam_id":76561198130038345,"connected_time":3299000000000,"state":"active","ping":109},{"user_id":271,"name":"Fiestaknight","steam_id":76561198037847385,"connected_time":871000000000,"state":"active","ping":86},{"user_id":272,"name":"XxDragon4321xX","steam_id":76561198046705735,"connected_time":870000000000,"state":"active","ping":69},{"user_id":273,"name":"confused","steam_id":76561199391930993,"connected_time":861000000000,"state":"active","ping":47},{"user_id":248,"name":"Sinn","steam_id":76561199013434543,"connected_time":3496000000000,"state":"active","ping":61},{"user_id":265,"name":"drrockso20[MicS]","steam_id":76561198001003987,"connected_time":1629000000000,"state":"active","ping":52},{"user_id":279,"name":"Manchurian Bandit","steam_id":76561198072410042,"connected_time":175000000000,"state":"active","ping":56},{"user_id":253,"name":"tweakseason","steam_id":76561198169755734,"connected_time":3218000000000,"state":"active","ping":53}]},{"server_id":324,"name":"Uncletopia | Los Angeles | 3 | All Maps","name_short":"lax-3","host":"lax-1.us.uncletopia.com","port":27035,"enabled":true,"region":"us-west","cc":"us","latitude":33.94279,"longitude":-118.41004,"reserved":0,"last_update":"0001-01-01T00:00:00Z","name_a2s":"Uncletopia | Los Angeles | 3 | All Maps","protocol":17,"map":"cp_dustbowl","folder":"tf","game":"Team Fortress","app_id":440,"player_count":24,"max_players":24,"Bots":0,"server_type":"Dedicated","server_os":"Linux","password":true,"vac":true,"version":"7882260","steam_id":85568392924510198,"keywords":["cp","nocrits","nodmgspread","uncletopia"],"game_id":440,"stv_port":27036,"stv_name":"Uncletopia | Los Angeles | 3 | All Maps | STV","players":[{"user_id":298,"name":"A UsedNom","steam_id":76561198402832756,"connected_time":4198000000000,"state":"active","ping":45},{"user_id":338,"name":"SQbuilder","steam_id":76561198076473375,"connected_time":1157000000000,"state":"active","ping":65},{"user_id":331,"name":"An00bis","steam_id":76561198044084508,"connected_time":2156000000000,"state":"active","ping":58},{"user_id":327,"name":"gnome zone","steam_id":76561198883349445,"connected_time":2382000000000,"state":"active","ping":75},{"user_id":296,"name":"Nez","steam_id":76561197963109059,"connected_time":4245000000000,"state":"active","ping":63},{"user_id":321,"name":"Maid 'n' China","steam_id":76561198423392976,"connected_time":2588000000000,"state":"active","ping":105},{"user_id":312,"name":"Meet The Kazoo","steam_id":76561199229748300,"connected_time":3728000000000,"state":"active","ping":57},{"user_id":275,"name":"Delimeat","steam_id":76561198043824595,"connected_time":5506000000000,"state":"active","ping":46},{"user_id":337,"name":"Thunder","steam_id":76561198097721532,"connected_time":1177000000000,"state":"active","ping":46},{"user_id":277,"name":"Frazzer","steam_id":76561198088679707,"connected_time":5483000000000,"state":"active","ping":53},{"user_id":336,"name":"Zykron","steam_id":76561199056400800,"connected_time":1646000000000,"state":"active","ping":56},{"user_id":339,"name":"SanitysEdge","steam_id":76561198130732813,"connected_time":1017000000000,"state":"active","ping":50},{"user_id":320,"name":"Racist Pyro","steam_id":76561198016168993,"connected_time":2593000000000,"state":"active","ping":81},{"user_id":329,"name":"SleeplessCollin","steam_id":76561198968140914,"connected_time":2206000000000,"state":"active","ping":50},{"user_id":346,"name":"ronald","steam_id":76561197960691622,"connected_time":299000000000,"state":"active","ping":75},{"user_id":248,"name":"Diesel","steam_id":76561198448815852,"connected_time":7591000000000,"state":"active","ping":52},{"user_id":324,"name":"Ian","steam_id":76561198159334435,"connected_time":2471000000000,"state":"active","ping":179},{"user_id":342,"name":"basmati jarate","steam_id":76561198319442494,"connected_time":766000000000,"state":"active","ping":57},{"user_id":322,"name":"MonkeyNobody","steam_id":76561199451266605,"connected_time":2586000000000,"state":"active","ping":58},{"user_id":335,"name":"Homura Simp","steam_id":76561198246080762,"connected_time":1761000000000,"state":"active","ping":58},{"user_id":344,"name":"Ruthless2467","steam_id":76561198124055298,"connected_time":690000000000,"state":"active","ping":49},{"user_id":340,"name":"HOG RIDER","steam_id":76561198298589502,"connected_time":1013000000000,"state":"active","ping":47},{"user_id":311,"name":"sora","steam_id":76561198094256973,"connected_time":3746000000000,"state":"active","ping":65},{"user_id":334,"name":"cranfordtheodore45","steam_id":76561199161577403,"connected_time":2062000000000,"state":"active","ping":88}]},{"server_id":25,"name":"Uncletopia | Los Angeles | 4 | Stopwatch Beta","name_short":"lax-4","host":"lax-1.us.uncletopia.com","port":27045,"enabled":true,"region":"us-west","cc":"us","latitude":33.94279,"longitude":-118.41004,"reserved":0,"last_update":"0001-01-01T00:00:00Z","name_a2s":"Uncletopia | Los Angeles | 4 | Stopwatch Beta","protocol":17,"map":"workshop/koth_ashville_final.ugc2130459942","folder":"tf","game":"Team Fortress","app_id":440,"player_count":12,"max_players":24,"Bots":0,"server_type":"Dedicated","server_os":"Linux","password":true,"vac":true,"version":"7882260","steam_id":85568392924510199,"keywords":["cp","nocrits","nodmgspread","uncletopia"],"game_id":440,"stv_port":27046,"stv_name":"Uncletopia | Los Angeles | 4 | Stopwatch Beta | STV","players":[{"user_id":30,"name":"Mori \u003c3","steam_id":76561198418561352,"connected_time":231000000000,"state":"active","ping":46},{"user_id":31,"name":"J","steam_id":76561198267494572,"connected_time":67000000000,"state":"active","ping":67},{"user_id":32,"name":"DoubleCheck","steam_id":76561198105194407,"connected_time":63000000000,"state":"active","ping":85},{"user_id":21,"name":"THEQUIRKA (ALL CAPS ARC)","steam_id":76561198968058652,"connected_time":1140000000000,"state":"active","ping":75},{"user_id":20,"name":"autumnal.messenger","steam_id":76561199345816635,"connected_time":1261000000000,"state":"active","ping":75},{"user_id":22,"name":"FrAnK (iDfK ArC)","steam_id":76561198428759980,"connected_time":1123000000000,"state":"active","ping":59},{"user_id":23,"name":"amoeber","steam_id":76561198081564767,"connected_time":1116000000000,"state":"active","ping":78},{"user_id":24,"name":"that guy (lowercase mode)","steam_id":76561198851266251,"connected_time":1113000000000,"state":"active","ping":88},{"user_id":26,"name":"Maxnimus","steam_id":76561199099100323,"connected_time":431000000000,"state":"active","ping":47},{"user_id":27,"name":"MORE BOUNCE TO THE OUNCE","steam_id":76561198243399336,"connected_time":426000000000,"state":"active","ping":60},{"user_id":28,"name":"Genō from Fortnite","steam_id":76561199303762112,"connected_time":343000000000,"state":"active","ping":102},{"user_id":29,"name":"Genesukt64","steam_id":76561199107398982,"connected_time":313000000000,"state":"active","ping":71}]},{"server_id":11,"name":"Uncletopia | London | 1 | All Maps","name_short":"lon-1","host":"lon-1.uk.uncletopia.com","port":27015,"enabled":true,"region":"eu","cc":"gb","latitude":51.509865,"longitude":-0.118092,"reserved":0,"last_update":"0001-01-01T00:00:00Z","name_a2s":"Uncletopia | London | 1 | All Maps","protocol":17,"map":"pl_upward","folder":"tf","game":"Team Fortress","app_id":440,"player_count":1,"max_players":24,"Bots":0,"server_type":"Dedicated","server_os":"Linux","password":true,"vac":true,"version":"7882260","steam_id":85568392924367362,"keywords":["nocrits","nodmgspread","payload","uncletopia"],"game_id":440,"stv_port":27016,"stv_name":"Uncletopia | London | 1 | All Maps | STV","players":[{"user_id":987,"name":"spxcy","steam_id":76561198080296853,"connected_time":847000000000,"state":"active","ping":101}]},{"server_id":114,"name":"Uncletopia | London | 2 | All Maps","name_short":"lon-2","host":"lon-1.uk.uncletopia.com","port":27025,"enabled":true,"region":"eu","cc":"gb","latitude":51.509865,"longitude":-0.118092,"reserved":0,"last_update":"0001-01-01T00:00:00Z","name_a2s":"Uncletopia | London | 2 | All Maps","protocol":17,"map":"koth_viaduct","folder":"tf","game":"Team Fortress","app_id":440,"player_count":0,"max_players":24,"Bots":0,"server_type":"Dedicated","server_os":"Linux","password":true,"vac":true,"version":"7882260","steam_id":85568392924470941,"keywords":["cp","nocrits","nodmgspread","uncletopia"],"game_id":440,"stv_port":27026,"stv_name":"Uncletopia | London | 2 | All Maps | STV","players":null},{"server_id":320,"name":"Uncletopia | London | 3 | All Maps","name_short":"lon-3","host":"lon-1.uk.uncletopia.com","port":27035,"enabled":true,"region":"eu","cc":"gb","latitude":51.509865,"longitude":-0.118092,"reserved":0,"last_update":"0001-01-01T00:00:00Z","name_a2s":"Uncletopia | London | 3 | All Maps","protocol":17,"map":"koth_cascade","folder":"tf","game":"Team Fortress","app_id":440,"player_count":0,"max_players":24,"Bots":0,"server_type":"Dedicated","server_os":"Linux","password":true,"vac":true,"version":"7882260","steam_id":85568392924510192,"keywords":["cp","nocrits","nodmgspread","uncletopia"],"game_id":440,"stv_port":27036,"stv_name":"Uncletopia | London | 3 | All Maps | STV","players":null},{"server_id":321,"name":"Uncletopia | London | 4 | All Maps","name_short":"lon-4","host":"lon-1.uk.uncletopia.com","port":27045,"enabled":true,"region":"eu","cc":"gb","latitude":51.509865,"longitude":-0.118092,"reserved":0,"last_update":"0001-01-01T00:00:00Z","name_a2s":"Uncletopia | London | 4 | All Maps","protocol":17,"map":"cp_mountainlab","folder":"tf","game":"Team Fortress","app_id":440,"player_count":0,"max_players":24,"Bots":0,"server_type":"Dedicated","server_os":"Linux","password":true,"vac":true,"version":"7882260","steam_id":85568392924510193,"keywords":["cp","nocrits","nodmgspread","uncletopia"],"game_id":440,"stv_port":27046,"stv_name":"Uncletopia | London | 4 | All Maps | STV","players":null},{"server_id":21,"name":"Uncletopia | London | 5 | All Maps","name_short":"lon-5","host":"lon-1.uk.uncletopia.com","port":27055,"enabled":true,"region":"eu","cc":"gb","latitude":51.509865,"longitude":-0.118092,"reserved":0,"last_update":"0001-01-01T00:00:00Z","name_a2s":"Uncletopia | London | 5 | All Maps","protocol":17,"map":"koth_lakeside_final","folder":"tf","game":"Team Fortress","app_id":440,"player_count":0,"max_players":24,"Bots":0,"server_type":"Dedicated","server_os":"Linux","password":true,"vac":true,"version":"7882260","steam_id":85568392924742829,"keywords":["cp","nocrits","nodmgspread","uncletopia"],"game_id":440,"stv_port":27056,"stv_name":"Uncletopia | London | 5 | All Maps | STV","players":null},{"server_id":22,"name":"Uncletopia | London | 6 | All Maps","name_short":"lon-6","host":"lon-1.uk.uncletopia.com","port":27065,"enabled":true,"region":"eu","cc":"gb","latitude":51.509865,"longitude":-0.118092,"reserved":0,"last_update":"0001-01-01T00:00:00Z","name_a2s":"Uncletopia | London | 6 | All Maps","protocol":17,"map":"koth_highpass","folder":"tf","game":"Team Fortress","app_id":440,"player_count":0,"max_players":24,"Bots":0,"server_type":"Dedicated","server_os":"Linux","password":true,"vac":true,"version":"7882260","steam_id":85568392924742830,"keywords":["cp","nocrits","nodmgspread","uncletopia"],"game_id":440,"stv_port":27066,"stv_name":"Uncletopia | London | 6 | All Maps | STV","players":null},{"server_id":40,"name":"Uncletopia | London | 7 | No Payload","name_short":"lon-7","host":"lon-1.uk.uncletopia.com","port":27075,"enabled":true,"region":"eu","cc":"gb","latitude":51.509865,"longitude":-0.118092,"reserved":0,"last_update":"0001-01-01T00:00:00Z","name_a2s":"Uncletopia | London | 7 | No Payload","protocol":17,"map":"ctf_doublecross","folder":"tf","game":"Team Fortress","app_id":440,"player_count":0,"max_players":24,"Bots":0,"server_type":"Dedicated","server_os":"Linux","password":true,"vac":true,"version":"7882260","steam_id":85568392924964314,"keywords":["ctf","nocrits","nodmgspread","uncletopia"],"game_id":440,"stv_port":27076,"stv_name":"Uncletopia | London | 7 | No Payload | STV","players":null},{"server_id":41,"name":"Uncletopia | London | 8 | Community","name_short":"lon-8","host":"lon-1.uk.uncletopia.com","port":27085,"enabled":true,"region":"eu","cc":"gb","latitude":51.509865,"longitude":-0.118092,"reserved":0,"last_update":"0001-01-01T00:00:00Z","name_a2s":"Uncletopia | London | 8 | Community","protocol":17,"map":"workshop/koth_ashville_final.ugc2130459942","folder":"tf","game":"Team Fortress","app_id":440,"player_count":0,"max_players":24,"Bots":0,"server_type":"Dedicated","server_os":"Linux","password":true,"vac":true,"version":"7882260","steam_id":85568392924964315,"keywords":["cp","nocrits","nodmgspread","uncletopia"],"game_id":440,"stv_port":27086,"stv_name":"Uncletopia | London | 8 | Community | STV","players":null},{"server_id":300,"name":"Uncletopia | Montréal | 1 | All Maps","name_short":"mtl-1","host":"mtl-1.ca.uncletopia.com","port":27015,"enabled":true,"region":"us-east","cc":"ca","latitude":45.50889,"longitude":-73.56167,"reserved":0,"last_update":"0001-01-01T00:00:00Z","name_a2s":"Uncletopia | Montréal | 1 | All Maps","protocol":17,"map":"cp_snakewater_final1","folder":"tf","game":"Team Fortress","app_id":440,"player_count":0,"max_players":24,"Bots":0,"server_type":"Dedicated","server_os":"Linux","password":true,"vac":true,"version":"7882260","steam_id":85568392924500087,"keywords":["cp","nocrits","nodmgspread","uncletopia"],"game_id":440,"stv_port":27016,"stv_name":"Uncletopia | Montréal | 1 | All Maps | STV","players":null},{"server_id":301,"name":"Uncletopia | Montréal | 2 | All Maps","name_short":"mtl-2","host":"mtl-1.ca.uncletopia.com","port":27025,"enabled":true,"region":"us-east","cc":"ca","latitude":45.50889,"longitude":-73.56167,"reserved":0,"last_update":"0001-01-01T00:00:00Z","name_a2s":"Uncletopia | Montréal | 2 | All Maps","protocol":17,"map":"koth_highpass","folder":"tf","game":"Team Fortress","app_id":440,"player_count":0,"max_players":24,"Bots":0,"server_type":"Dedicated","server_os":"Linux","password":true,"vac":true,"version":"7882260","steam_id":85568392924500088,"keywords":["cp","nocrits","nodmgspread","uncletopia"],"game_id":440,"stv_port":27026,"stv_name":"Uncletopia | Montréal | 2 | All Maps | STV","players":null},{"server_id":302,"name":"Uncletopia | Montréal | 3 | All Maps","name_short":"mtl-3","host":"mtl-1.ca.uncletopia.com","port":27035,"enabled":true,"region":"us-east","cc":"ca","latitude":45.50889,"longitude":-73.56167,"reserved":0,"last_update":"0001-01-01T00:00:00Z","name_a2s":"Uncletopia | Montréal | 3 | All Maps","protocol":17,"map":"cp_snakewater_final1","folder":"tf","game":"Team Fortress","app_id":440,"player_count":0,"max_players":24,"Bots":0,"server_type":"Dedicated","server_os":"Linux","password":true,"vac":true,"version":"7882260","steam_id":85568392924500089,"keywords":["cp","nocrits","nodmgspread","uncletopia"],"game_id":440,"stv_port":27036,"stv_name":"Uncletopia | Montréal | 3 | All Maps | STV","players":null},{"server_id":303,"name":"Uncletopia | Montréal | 4 | No Payload","name_short":"mtl-4","host":"mtl-1.ca.uncletopia.com","port":27045,"enabled":true,"region":"us-east","cc":"ca","latitude":45.50889,"longitude":-73.56167,"reserved":0,"last_update":"0001-01-01T00:00:00Z","name_a2s":"Uncletopia | Montréal | 4 | No Payload","protocol":17,"map":"plr_pipeline","folder":"tf","game":"Team Fortress","app_id":440,"player_count":0,"max_players":24,"Bots":0,"server_type":"Dedicated","server_os":"Linux","password":true,"vac":true,"version":"7882260","steam_id":85568392924500090,"keywords":["nocrits","nodmgspread","payload","uncletopia"],"game_id":440,"stv_port":27046,"stv_name":"Uncletopia | Montréal | 4 | No Payload | STV","players":null},{"server_id":13,"name":"Uncletopia | New York City | 1 | All Maps","name_short":"nyc-1","host":"nyc-1.us.uncletopia.com","port":27015,"enabled":true,"region":"us-east","cc":"us","latitude":40.73061,"longitude":-73.93524,"reserved":0,"last_update":"0001-01-01T00:00:00Z","name_a2s":"Uncletopia | New York City | 1 | All Maps","protocol":17,"map":"pl_upward","folder":"tf","game":"Team Fortress","app_id":440,"player_count":24,"max_players":24,"Bots":0,"server_type":"Dedicated","server_os":"Linux","password":true,"vac":true,"version":"7882260","steam_id":85568392924469993,"keywords":["nocrits","nodmgspread","payload","uncletopia"],"game_id":440,"stv_port":27016,"stv_name":"Uncletopia | New York City | 1 | All Maps | STV","players":[{"user_id":626,"name":"e77","steam_id":76561198069309111,"connected_time":2148000000000,"state":"active","ping":60},{"user_id":623,"name":"Chip Lee","steam_id":76561198084330836,"connected_time":2241000000000,"state":"active","ping":56},{"user_id":632,"name":"TJGSASQUATCH","steam_id":76561198077806921,"connected_time":1678000000000,"state":"active","ping":67},{"user_id":594,"name":"cereal with water","steam_id":76561198091332884,"connected_time":3684000000000,"state":"active","ping":50},{"user_id":647,"name":"emseaeye","steam_id":76561198161499803,"connected_time":464000000000,"state":"active","ping":67},{"user_id":556,"name":"Trash Fire","steam_id":76561198870515262,"connected_time":7143000000000,"state":"active","ping":77},{"user_id":595,"name":"ramen with milk","steam_id":76561198119096403,"connected_time":3674000000000,"state":"active","ping":49},{"user_id":638,"name":"Smooth - Santana ft. Rob Thomas","steam_id":76561198145283389,"connected_time":1212000000000,"state":"active","ping":93},{"user_id":649,"name":"oxbudy","steam_id":76561198022120207,"connected_time":154000000000,"state":"active","ping":83},{"user_id":591,"name":"Amaretto Sour","steam_id":76561198063112844,"connected_time":4196000000000,"state":"active","ping":52},{"user_id":642,"name":"Falk","steam_id":76561198117024236,"connected_time":843000000000,"state":"active","ping":63},{"user_id":597,"name":"cornshot","steam_id":76561198043496387,"connected_time":3653000000000,"state":"active","ping":93},{"user_id":610,"name":"Ludcmorais","steam_id":76561198359217809,"connected_time":3296000000000,"state":"active","ping":174},{"user_id":629,"name":"Kerflumple","steam_id":76561198050602757,"connected_time":2083000000000,"state":"active","ping":58},{"user_id":593,"name":"Jesse Bear","steam_id":76561198217075305,"connected_time":4027000000000,"state":"active","ping":69},{"user_id":643,"name":"*","steam_id":76561198173047169,"connected_time":776000000000,"state":"active","ping":46},{"user_id":570,"name":"JD","steam_id":76561198202669250,"connected_time":6468000000000,"state":"active","ping":71},{"user_id":648,"name":"BannerSiamang15","steam_id":76561198990892565,"connected_time":241000000000,"state":"active","ping":88},{"user_id":634,"name":"moe","steam_id":76561198929586245,"connected_time":1597000000000,"state":"active","ping":106},{"user_id":650,"name":"goose","steam_id":76561198367551668,"connected_time":118000000000,"state":"active","ping":45},{"user_id":641,"name":"Braamklauw","steam_id":76561198283287697,"connected_time":1112000000000,"state":"active","ping":146},{"user_id":646,"name":"Lunacy","steam_id":76561199386273760,"connected_time":632000000000,"state":"active","ping":127},{"user_id":631,"name":"big kahuna dynamite splash","steam_id":76561198094486651,"connected_time":1755000000000,"state":"active","ping":74},{"user_id":624,"name":"Sir Quacksalot","steam_id":76561198048942777,"connected_time":2241000000000,"state":"active","ping":87}]},{"server_id":14,"name":"Uncletopia | New York City | 2 | All Maps","name_short":"nyc-2","host":"nyc-1.us.uncletopia.com","port":27025,"enabled":true,"region":"us-east","cc":"us","latitude":40.73061,"longitude":-73.93524,"reserved":0,"last_update":"0001-01-01T00:00:00Z","name_a2s":"Uncletopia | New York City | 2 | All Maps","protocol":17,"map":"pl_swiftwater_final1","folder":"tf","game":"Team Fortress","app_id":440,"player_count":1,"max_players":24,"Bots":0,"server_type":"Dedicated","server_os":"Linux","password":true,"vac":true,"version":"7882260","steam_id":85568392924469994,"keywords":["nocrits","nodmgspread","payload","uncletopia"],"game_id":440,"stv_port":27026,"stv_name":"Uncletopia | New York City | 2 | All Maps | STV","players":[{"user_id":538,"name":"IronGiant","steam_id":76561198062139190,"connected_time":103000000000,"state":"active","ping":109}]},{"server_id":15,"name":"Uncletopia | New York City | 3 | Stopwatch Beta","name_short":"nyc-3","host":"nyc-1.us.uncletopia.com","port":27035,"enabled":true,"region":"us-east","cc":"us","latitude":40.73061,"longitude":-73.93524,"reserved":0,"last_update":"0001-01-01T00:00:00Z","name_a2s":"Uncletopia | New York City | 3 | Stopwatch Beta","protocol":17,"map":"workshop/koth_product_final.ugc454272353","folder":"tf","game":"Team Fortress","app_id":440,"player_count":0,"max_players":24,"Bots":0,"server_type":"Dedicated","server_os":"Linux","password":true,"vac":true,"version":"7882260","steam_id":85568392924742820,"keywords":["cp","nocrits","nodmgspread","uncletopia"],"game_id":440,"stv_port":27036,"stv_name":"Uncletopia | New York City | 3 | Stopwatch Beta | STV","players":null},{"server_id":16,"name":"Uncletopia | New York City | 4 | Community","name_short":"nyc-4","host":"nyc-1.us.uncletopia.com","port":27045,"enabled":true,"region":"us-east","cc":"us","latitude":40.73061,"longitude":-73.93524,"reserved":0,"last_update":"0001-01-01T00:00:00Z","name_a2s":"Uncletopia | New York City | 4 | Community","protocol":17,"map":"workshop/cp_snowbase_b18.ugc2081770490","folder":"tf","game":"Team Fortress","app_id":440,"player_count":0,"max_players":24,"Bots":0,"server_type":"Dedicated","server_os":"Linux","password":true,"vac":true,"version":"7882260","steam_id":85568392924742821,"keywords":["cp","nocrits","nodmgspread","uncletopia"],"game_id":440,"stv_port":27046,"stv_name":"Uncletopia | New York City | 4 | Community | STV","players":null},{"server_id":142,"name":"Uncletopia | São Paulo | 1 | All Maps","name_short":"sao-1","host":"sao-1.br.uncletopia.com","port":27015,"enabled":true,"region":"sa","cc":"br","latitude":-23.533773,"longitude":-46.62529,"reserved":0,"last_update":"0001-01-01T00:00:00Z","name_a2s":"Uncletopia | São Paulo | 1 | All Maps","protocol":17,"map":"koth_highpass","folder":"tf","game":"Team Fortress","app_id":440,"player_count":0,"max_players":24,"Bots":0,"server_type":"Dedicated","server_os":"Linux","password":true,"vac":true,"version":"7882260","steam_id":85568392924469996,"keywords":["cp","nocrits","nodmgspread","uncletopia"],"game_id":440,"stv_port":27016,"stv_name":"Uncletopia | São Paulo | 1 | All Maps | STV","players":null},{"server_id":143,"name":"Uncletopia | São Paulo | 2 | All Maps","name_short":"sao-2","host":"sao-2.br.uncletopia.com","port":27015,"enabled":true,"region":"sa","cc":"br","latitude":-23.533773,"longitude":-46.62529,"reserved":0,"last_update":"0001-01-01T00:00:00Z","name_a2s":"Uncletopia | São Paulo | 2 | All Maps","protocol":17,"map":"koth_cascade","folder":"tf","game":"Team Fortress","app_id":440,"player_count":0,"max_players":24,"Bots":0,"server_type":"Dedicated","server_os":"Linux","password":true,"vac":true,"version":"7882260","steam_id":85568392924485349,"keywords":["cp","nocrits","nodmgspread","uncletopia"],"game_id":440,"stv_port":27016,"stv_name":"Uncletopia | São Paulo | 2 | All Maps | STV","players":null},{"server_id":7,"name":"Uncletopia | Seattle | 1 | All Maps","name_short":"sea-1","host":"sea-1.us.uncletopia.com","port":27015,"enabled":true,"region":"us-west","cc":"us","latitude":47.608013,"longitude":-122.33517,"reserved":0,"last_update":"0001-01-01T00:00:00Z","name_a2s":"Uncletopia | Seattle | 1 | All Maps","protocol":17,"map":"cp_mossrock","folder":"tf","game":"Team Fortress","app_id":440,"player_count":24,"max_players":24,"Bots":0,"server_type":"Dedicated","server_os":"Linux","password":true,"vac":true,"version":"7882260","steam_id":85568392924469997,"keywords":["cp","nocrits","nodmgspread","uncletopia"],"game_id":440,"stv_port":27016,"stv_name":"Uncletopia | Seattle | 1 | All Maps | STV","players":[{"user_id":646,"name":"PachucoWaffle","steam_id":76561198051491032,"connected_time":8382000000000,"state":"active","ping":57},{"user_id":677,"name":"forest (girldick)","steam_id":76561198157960257,"connected_time":5353000000000,"state":"active","ping":41},{"user_id":717,"name":"spenca","steam_id":76561198025371154,"connected_time":662000000000,"state":"active","ping":61},{"user_id":720,"name":"carpet","steam_id":76561198207881077,"connected_time":619000000000,"state":"active","ping":103},{"user_id":669,"name":"Pre Pissed Pants","steam_id":76561198042143837,"connected_time":5897000000000,"state":"active","ping":65},{"user_id":692,"name":"evilOlive","steam_id":76561198106222025,"connected_time":3833000000000,"state":"active","ping":82},{"user_id":722,"name":"Mr. Ravioli","steam_id":76561197996625649,"connected_time":605000000000,"state":"active","ping":58},{"user_id":701,"name":"profile name","steam_id":76561198032625036,"connected_time":2694000000000,"state":"active","ping":60},{"user_id":721,"name":"Dealer","steam_id":76561198801450794,"connected_time":619000000000,"state":"active","ping":102},{"user_id":711,"name":"wintersEmbrace","steam_id":76561198205428892,"connected_time":1869000000000,"state":"active","ping":66},{"user_id":704,"name":"Ena","steam_id":76561198066986108,"connected_time":2342000000000,"state":"active","ping":208},{"user_id":723,"name":"Alf Creepypasta","steam_id":76561198841844093,"connected_time":605000000000,"state":"active","ping":77},{"user_id":718,"name":"Mitch McHoover","steam_id":76561198178827614,"connected_time":636000000000,"state":"active","ping":62},{"user_id":712,"name":"soup","steam_id":76561198043209046,"connected_time":1808000000000,"state":"active","ping":73},{"user_id":563,"name":"♥haunti","steam_id":76561199235580556,"connected_time":14847000000000,"state":"active","ping":48},{"user_id":716,"name":"BlueDragonOracle","steam_id":76561198124318349,"connected_time":943000000000,"state":"active","ping":65},{"user_id":616,"name":"Fallen","steam_id":76561198206490352,"connected_time":10774000000000,"state":"active","ping":79},{"user_id":724,"name":"Monsieur Pequeño","steam_id":76561198327271041,"connected_time":547000000000,"state":"active","ping":51},{"user_id":615,"name":"o o o o o o o o o","steam_id":76561197993757506,"connected_time":10780000000000,"state":"active","ping":77},{"user_id":715,"name":"Bingleton","steam_id":76561197998930473,"connected_time":1231000000000,"state":"active","ping":41},{"user_id":727,"name":"Luca","steam_id":76561198125087140,"connected_time":90000000000,"state":"active","ping":48},{"user_id":725,"name":"Big Yoshi #savetf2","steam_id":76561198009916036,"connected_time":465000000000,"state":"active","ping":99},{"user_id":693,"name":"Cream Corn","steam_id":76561198043791586,"connected_time":3833000000000,"state":"active","ping":108},{"user_id":698,"name":"NEBULA","steam_id":76561198086878595,"connected_time":2997000000000,"state":"active","ping":75}]},{"server_id":119,"name":"Uncletopia | Seattle | 2 | All Maps","name_short":"sea-2","host":"sea-1.us.uncletopia.com","port":27025,"enabled":true,"region":"us-west","cc":"us","latitude":47.608013,"longitude":-122.33517,"reserved":0,"last_update":"0001-01-01T00:00:00Z","name_a2s":"Uncletopia | Seattle | 2 | All Maps","protocol":17,"map":"cp_snakewater_final1","folder":"tf","game":"Team Fortress","app_id":440,"player_count":24,"max_players":24,"Bots":0,"server_type":"Dedicated","server_os":"Linux","password":true,"vac":true,"version":"7882260","steam_id":85568392924469998,"keywords":["cp","nocrits","nodmgspread","uncletopia"],"game_id":440,"stv_port":27026,"stv_name":"Uncletopia | Seattle | 2 | All Maps | STV","players":[{"user_id":652,"name":"SadChicken λ","steam_id":76561198082458968,"connected_time":1610000000000,"state":"active","ping":97},{"user_id":637,"name":"Ping","steam_id":76561198072947773,"connected_time":2344000000000,"state":"active","ping":110},{"user_id":648,"name":"Ad3ptus","steam_id":76561198272045750,"connected_time":1701000000000,"state":"active","ping":40},{"user_id":649,"name":"Buncake","steam_id":76561198072541212,"connected_time":1672000000000,"state":"active","ping":94},{"user_id":650,"name":"Chimi","steam_id":76561198067800540,"connected_time":1659000000000,"state":"active","ping":105},{"user_id":590,"name":"Battery Acid Addict","steam_id":76561198439793697,"connected_time":4651000000000,"state":"active","ping":107},{"user_id":657,"name":"MyMonkeyBaby","steam_id":76561198046896670,"connected_time":1235000000000,"state":"active","ping":58},{"user_id":659,"name":"NickoDeeBz","steam_id":76561198294657867,"connected_time":780000000000,"state":"active","ping":56},{"user_id":661,"name":"Sniff","steam_id":76561198010270922,"connected_time":295000000000,"state":"active","ping":43},{"user_id":611,"name":"ice dweller","steam_id":76561198329367716,"connected_time":2993000000000,"state":"active","ping":87},{"user_id":660,"name":"VantaFanta","steam_id":76561199471110593,"connected_time":527000000000,"state":"active","ping":84},{"user_id":647,"name":"Bamboo","steam_id":76561198043139553,"connected_time":1724000000000,"state":"active","ping":76},{"user_id":655,"name":"Rusty","steam_id":76561198055585129,"connected_time":1395000000000,"state":"active","ping":46},{"user_id":609,"name":"fucking batman","steam_id":76561198419896433,"connected_time":3286000000000,"state":"active","ping":43},{"user_id":600,"name":"Juevos","steam_id":76561198066142119,"connected_time":4355000000000,"state":"active","ping":80},{"user_id":651,"name":"cookiegenius2398.r2","steam_id":76561198970759258,"connected_time":1658000000000,"state":"active","ping":62},{"user_id":574,"name":"Tibetan Pop Star","steam_id":76561198844903984,"connected_time":5868000000000,"state":"active","ping":84},{"user_id":654,"name":"no vc no c","steam_id":76561197989503095,"connected_time":1585000000000,"state":"active","ping":155},{"user_id":658,"name":"General Fisticuffs","steam_id":76561198255721392,"connected_time":976000000000,"state":"active","ping":112},{"user_id":596,"name":"Ethan","steam_id":76561198371216468,"connected_time":4576000000000,"state":"active","ping":51},{"user_id":639,"name":"DanceBunny","steam_id":76561198243610560,"connected_time":2261000000000,"state":"active","ping":74},{"user_id":656,"name":"io_est","steam_id":76561198079538952,"connected_time":1273000000000,"state":"active","ping":55},{"user_id":642,"name":"090-nsalih","steam_id":76561199467467873,"connected_time":2148000000000,"state":"active","ping":68},{"user_id":614,"name":"Glar","steam_id":76561198341907150,"connected_time":2826000000000,"state":"active","ping":40}]},{"server_id":406,"name":"Uncletopia | Seattle | 3 | Stopwatch Beta","name_short":"sea-3","host":"sea-1.us.uncletopia.com","port":27035,"enabled":true,"region":"us-west","cc":"us","latitude":47.608013,"longitude":-122.33517,"reserved":0,"last_update":"0001-01-01T00:00:00Z","name_a2s":"Uncletopia | Seattle | 3 | Stopwatch Beta","protocol":17,"map":"cp_gullywash_final1","folder":"tf","game":"Team Fortress","app_id":440,"player_count":22,"max_players":24,"Bots":0,"server_type":"Dedicated","server_os":"Linux","password":true,"vac":true,"version":"7882260","steam_id":85568392924515217,"keywords":["cp","nocrits","nodmgspread","uncletopia"],"game_id":440,"stv_port":27036,"stv_name":"Uncletopia | Seattle | 3 | Stopwatch Beta | STV","players":[{"user_id":116,"name":"mafia is mafia","steam_id":76561198042574722,"connected_time":635000000000,"state":"active","ping":53},{"user_id":100,"name":"exephur","steam_id":76561198135763234,"connected_time":2476000000000,"state":"active","ping":62},{"user_id":117,"name":"Hannah","steam_id":76561199142959128,"connected_time":539000000000,"state":"active","ping":56},{"user_id":32,"name":"Sleempreem","steam_id":76561198131987251,"connected_time":6780000000000,"state":"active","ping":73},{"user_id":110,"name":"Takyon","steam_id":76561198240014196,"connected_time":1032000000000,"state":"active","ping":76},{"user_id":93,"name":"Punished Shitster","steam_id":76561198150452857,"connected_time":3214000000000,"state":"active","ping":107},{"user_id":88,"name":"oo","steam_id":76561198119626492,"connected_time":3415000000000,"state":"active","ping":69},{"user_id":112,"name":"Day Man","steam_id":76561198067154807,"connected_time":815000000000,"state":"active","ping":48},{"user_id":109,"name":"NightmareTheCEO","steam_id":76561198349694120,"connected_time":1431000000000,"state":"active","ping":56},{"user_id":47,"name":"Neavlof","steam_id":76561198437773859,"connected_time":5150000000000,"state":"active","ping":62},{"user_id":71,"name":"Grassman (Cc)","steam_id":76561198026488532,"connected_time":4173000000000,"state":"active","ping":63},{"user_id":120,"name":"Duck nut","steam_id":76561198355475831,"connected_time":471000000000,"state":"active","ping":86},{"user_id":48,"name":"CressyFan_488","steam_id":76561199166270036,"connected_time":5146000000000,"state":"active","ping":85},{"user_id":49,"name":"TwoScoops","steam_id":76561197997463332,"connected_time":5055000000000,"state":"active","ping":66},{"user_id":115,"name":"Guloveos","steam_id":76561199138358380,"connected_time":678000000000,"state":"active","ping":100},{"user_id":108,"name":"Peter, what are you doing?","steam_id":76561198066452726,"connected_time":1632000000000,"state":"active","ping":75},{"user_id":107,"name":"weed","steam_id":76561199128192017,"connected_time":1743000000000,"state":"active","ping":64},{"user_id":56,"name":"Fluffy","steam_id":76561198213561811,"connected_time":4919000000000,"state":"active","ping":67},{"user_id":98,"name":"ShredMaan","steam_id":76561198429982138,"connected_time":2770000000000,"state":"active","ping":89},{"user_id":119,"name":"catgirl giantess in heat","steam_id":76561198439042583,"connected_time":531000000000,"state":"active","ping":113},{"user_id":123,"name":"Woomy Just A Furry :3","steam_id":76561199199877614,"connected_time":275000000000,"state":"active","ping":78},{"user_id":122,"name":"PainInTheRuss","steam_id":76561197977960543,"connected_time":426000000000,"state":"active","ping":60}]},{"server_id":17,"name":"Uncletopia | San Francisco | 1 | All Maps","name_short":"sfo-1","host":"sfo-1.us.uncletopia.com","port":27015,"enabled":true,"region":"us-west","cc":"us","latitude":37.77397,"longitude":-122.4313,"reserved":0,"last_update":"0001-01-01T00:00:00Z","name_a2s":"Uncletopia | San Francisco | 1 | All Maps","protocol":17,"map":"cp_process_final","folder":"tf","game":"Team Fortress","app_id":440,"player_count":0,"max_players":24,"Bots":0,"server_type":"Dedicated","server_os":"Linux","password":true,"vac":true,"version":"7757534","steam_id":85568392924469999,"keywords":["cp","nocrits","nodmgspread","uncletopia"],"game_id":440,"stv_port":27016,"stv_name":"Uncletopia | San Francisco | 1 | All Maps | STV","players":null},{"server_id":18,"name":"Uncletopia | San Francisco | 2 | All Maps","name_short":"sfo-2","host":"sfo-1.us.uncletopia.com","port":27025,"enabled":true,"region":"us-west","cc":"us","latitude":37.77397,"longitude":-122.4313,"reserved":0,"last_update":"0001-01-01T00:00:00Z","name_a2s":"Uncletopia | San Francisco | 2 | All Maps","protocol":17,"map":"koth_highpass","folder":"tf","game":"Team Fortress","app_id":440,"player_count":0,"max_players":24,"Bots":0,"server_type":"Dedicated","server_os":"Linux","password":true,"vac":true,"version":"7757534","steam_id":85568392924470000,"keywords":["cp","nocrits","nodmgspread","uncletopia"],"game_id":440,"stv_port":27026,"stv_name":"Uncletopia | San Francisco | 2 | All Maps | STV","players":null},{"server_id":19,"name":"Uncletopia | San Francisco | 3 | Stopwatch Beta","name_short":"sfo-3","host":"sfo-1.us.uncletopia.com","port":27035,"enabled":true,"region":"us-west","cc":"us","latitude":37.77397,"longitude":-122.4313,"reserved":0,"last_update":"0001-01-01T00:00:00Z","name_a2s":"Uncletopia | San Francisco | 3 | Stopwatch Beta","protocol":17,"map":"koth_lakeside_final","folder":"tf","game":"Team Fortress","app_id":440,"player_count":0,"max_players":24,"Bots":0,"server_type":"Dedicated","server_os":"Linux","password":true,"vac":true,"version":"7757534","steam_id":85568392924742824,"keywords":["cp","nocrits","nodmgspread","uncletopia"],"game_id":440,"stv_port":27036,"stv_name":"Uncletopia | San Francisco | 3 | Stopwatch Beta | STV","players":null},{"server_id":20,"name":"Uncletopia | San Francisco | 4 | Community","name_short":"sfo-4","host":"sfo-1.us.uncletopia.com","port":27045,"enabled":true,"region":"us-west","cc":"us","latitude":37.77397,"longitude":-122.4313,"reserved":0,"last_update":"0001-01-01T00:00:00Z","name_a2s":"Uncletopia | San Francisco | 4 | Community","protocol":17,"map":"cp_altitude","folder":"tf","game":"Team Fortress","app_id":440,"player_count":0,"max_players":24,"Bots":0,"server_type":"Dedicated","server_os":"Linux","password":true,"vac":true,"version":"7757534","steam_id":85568392924742826,"keywords":["cp","nocrits","nodmgspread","uncletopia"],"game_id":440,"stv_port":27046,"stv_name":"Uncletopia | San Francisco | 4 | Community | STV","players":null},{"server_id":141,"name":"Uncletopia | Sydney | 1 | All Maps","name_short":"syd-1","host":"syd-1.au.uncletopia.com","port":27015,"enabled":true,"region":"au","cc":"au","latitude":-33.865143,"longitude":151.2099,"reserved":0,"last_update":"0001-01-01T00:00:00Z","name_a2s":"Uncletopia | Sydney | 1 | All Maps","protocol":17,"map":"koth_viaduct","folder":"tf","game":"Team Fortress","app_id":440,"player_count":0,"max_players":24,"Bots":0,"server_type":"Dedicated","server_os":"Linux","password":true,"vac":true,"version":"7882260","steam_id":85568392924470001,"keywords":["cp","nocrits","nodmgspread","uncletopia"],"game_id":440,"stv_port":27016,"stv_name":"Uncletopia | Sydney | 1 | All Maps | STV","players":null},{"server_id":123,"name":"Uncletopia | Sydney | 2 | All Maps","name_short":"syd-2","host":"syd-1.au.uncletopia.com","port":27025,"enabled":true,"region":"au","cc":"au","latitude":-33.865143,"longitude":151.2099,"reserved":0,"last_update":"0001-01-01T00:00:00Z","name_a2s":"Uncletopia | Sydney | 2 | All Maps","protocol":17,"map":"cp_snakewater_final1","folder":"tf","game":"Team Fortress","app_id":440,"player_count":0,"max_players":24,"Bots":0,"server_type":"Dedicated","server_os":"Linux","password":true,"vac":true,"version":"7882260","steam_id":85568392924470002,"keywords":["cp","nocrits","nodmgspread","uncletopia"],"game_id":440,"stv_port":27026,"stv_name":"Uncletopia | Sydney | 2 | All Maps | STV","players":null},{"server_id":395,"name":"Uncletopia | Sydney | 3 | All Maps","name_short":"syd-3","host":"syd-1.au.uncletopia.com","port":27035,"enabled":true,"region":"au","cc":"au","latitude":-33.865143,"longitude":151.2099,"reserved":0,"last_update":"0001-01-01T00:00:00Z","name_a2s":"Uncletopia | Sydney | 3 | All Maps","protocol":17,"map":"koth_cascade","folder":"tf","game":"Team Fortress","app_id":440,"player_count":0,"max_players":24,"Bots":0,"server_type":"Dedicated","server_os":"Linux","password":true,"vac":true,"version":"7882260","steam_id":85568392925194467,"keywords":["cp","nocrits","nodmgspread","uncletopia"],"game_id":440,"stv_port":27036,"stv_name":"Uncletopia | Sydney | 3 | All Maps | STV","players":null},{"server_id":396,"name":"Uncletopia | Sydney | 4 | All Maps","name_short":"syd-4","host":"syd-1.au.uncletopia.com","port":27045,"enabled":true,"region":"au","cc":"au","latitude":-33.865143,"longitude":151.2099,"reserved":0,"last_update":"0001-01-01T00:00:00Z","name_a2s":"Uncletopia | Sydney | 4 | All Maps","protocol":17,"map":"koth_cascade","folder":"tf","game":"Team Fortress","app_id":440,"player_count":0,"max_players":24,"Bots":0,"server_type":"Dedicated","server_os":"Linux","password":true,"vac":true,"version":"7882260","steam_id":85568392925397958,"keywords":["cp","nocrits","nodmgspread","uncletopia"],"game_id":440,"stv_port":27046,"stv_name":"Uncletopia | Sydney | 4 | All Maps | STV","players":null},{"server_id":58,"name":"Uncletopia | Sydney | 5 | Stopwatch Beta","name_short":"syd-5","host":"syd-1.au.uncletopia.com","port":27055,"enabled":true,"region":"au","cc":"au","latitude":-33.865143,"longitude":151.2099,"reserved":0,"last_update":"0001-01-01T00:00:00Z","name_a2s":"Uncletopia | Sydney | 5 | Stopwatch Beta","protocol":17,"map":"pl_swiftwater_final1","folder":"tf","game":"Team Fortress","app_id":440,"player_count":0,"max_players":24,"Bots":0,"server_type":"Dedicated","server_os":"Linux","password":true,"vac":true,"version":"7882260","steam_id":85568392925397959,"keywords":["nocrits","nodmgspread","payload","uncletopia"],"game_id":440,"stv_port":27056,"stv_name":"Uncletopia | Sydney | 5 | Stopwatch Beta | STV","players":null},{"server_id":59,"name":"Uncletopia | Sydney | 6 | Community","name_short":"syd-6","host":"syd-1.au.uncletopia.com","port":27065,"enabled":true,"region":"au","cc":"au","latitude":-33.865143,"longitude":151.2099,"reserved":0,"last_update":"0001-01-01T00:00:00Z","name_a2s":"Uncletopia | Sydney | 6 | Community","protocol":17,"map":"pl_snowycoast","folder":"tf","game":"Team Fortress","app_id":440,"player_count":0,"max_players":24,"Bots":0,"server_type":"Dedicated","server_os":"Linux","password":true,"vac":true,"version":"7882260","steam_id":85568392925397960,"keywords":["nocrits","nodmgspread","payload","uncletopia"],"game_id":440,"stv_port":27066,"stv_name":"Uncletopia | Sydney | 6 | Community | STV","players":null},{"server_id":49,"name":"Uncletopia | Warsaw | 1 | All Maps","name_short":"waw-1","host":"waw-1.pl.uncletopia.com","port":27015,"enabled":true,"region":"eu","cc":"pl","latitude":52.2297,"longitude":21.017532,"reserved":0,"last_update":"0001-01-01T00:00:00Z","name_a2s":"","protocol":0,"map":"","folder":"","game":"","app_id":0,"player_count":0,"max_players":0,"Bots":0,"server_type":"","server_os":"","password":false,"vac":false,"version":"","steam_id":0,"keywords":null,"game_id":0,"stv_port":0,"stv_name":"","players":null},{"server_id":50,"name":"Uncletopia | Warsaw | 2 | All Maps","name_short":"waw-2","host":"waw-1.pl.uncletopia.com","port":27025,"enabled":true,"region":"eu","cc":"pl","latitude":52.2297,"longitude":21.017532,"reserved":0,"last_update":"0001-01-01T00:00:00Z","name_a2s":"Uncletopia | Warsaw | 2 | All Maps","protocol":17,"map":"pl_swiftwater_final1","folder":"tf","game":"Team Fortress","app_id":440,"player_count":0,"max_players":24,"Bots":0,"server_type":"Dedicated","server_os":"Linux","password":true,"vac":true,"version":"7882260","steam_id":85568392925397851,"keywords":["nocrits","nodmgspread","payload","uncletopia"],"game_id":440,"stv_port":27026,"stv_name":"Uncletopia | Warsaw | 2 | All Maps | STV","players":null},{"server_id":51,"name":"Uncletopia | Warsaw | 3 | All Maps","name_short":"waw-3","host":"waw-1.pl.uncletopia.com","port":27035,"enabled":true,"region":"eu","cc":"pl","latitude":52.2297,"longitude":21.017532,"reserved":0,"last_update":"0001-01-01T00:00:00Z","name_a2s":"Uncletopia | Warsaw | 3 | All Maps","protocol":17,"map":"koth_viaduct","folder":"tf","game":"Team Fortress","app_id":440,"player_count":0,"max_players":24,"Bots":0,"server_type":"Dedicated","server_os":"Linux","password":true,"vac":true,"version":"7882260","steam_id":85568392925397852,"keywords":["cp","nocrits","nodmgspread","uncletopia"],"game_id":440,"stv_port":27036,"stv_name":"Uncletopia | Warsaw | 3 | All Maps | STV","players":null},{"server_id":52,"name":"Uncletopia | Warsaw | 4 | All Maps","name_short":"waw-4","host":"waw-1.pl.uncletopia.com","port":27045,"enabled":true,"region":"eu","cc":"pl","latitude":52.2297,"longitude":21.017532,"reserved":0,"last_update":"0001-01-01T00:00:00Z","name_a2s":"Uncletopia | Warsaw | 4 | All Maps","protocol":17,"map":"koth_highpass","folder":"tf","game":"Team Fortress","app_id":440,"player_count":0,"max_players":24,"Bots":0,"server_type":"Dedicated","server_os":"Linux","password":true,"vac":true,"version":"7882260","steam_id":85568392925397853,"keywords":["cp","nocrits","nodmgspread","uncletopia"],"game_id":440,"stv_port":27046,"stv_name":"Uncletopia | Warsaw | 4 | All Maps | STV","players":null},{"server_id":53,"name":"Uncletopia | Warsaw | 5 | Stopwatch Beta","name_short":"waw-5","host":"waw-1.pl.uncletopia.com","port":27055,"enabled":true,"region":"eu","cc":"pl","latitude":52.2297,"longitude":21.017532,"reserved":0,"last_update":"0001-01-01T00:00:00Z","name_a2s":"Uncletopia | Warsaw | 5 | Stopwatch Beta","protocol":17,"map":"cp_mountainlab","folder":"tf","game":"Team Fortress","app_id":440,"player_count":0,"max_players":24,"Bots":0,"server_type":"Dedicated","server_os":"Linux","password":true,"vac":true,"version":"7882260","steam_id":85568392925397854,"keywords":["cp","nocrits","nodmgspread","uncletopia"],"game_id":440,"stv_port":27056,"stv_name":"Uncletopia | Warsaw | 5 | Stopwatch Beta | STV","players":null},{"server_id":54,"name":"Uncletopia | Warsaw | 6 | Community","name_short":"waw-6","host":"waw-1.pl.uncletopia.com","port":27065,"enabled":true,"region":"eu","cc":"pl","latitude":52.2297,"longitude":21.017532,"reserved":0,"last_update":"0001-01-01T00:00:00Z","name_a2s":"Uncletopia | Warsaw | 6 | Community","protocol":17,"map":"koth_viaduct","folder":"tf","game":"Team Fortress","app_id":440,"player_count":0,"max_players":24,"Bots":0,"server_type":"Dedicated","server_os":"Linux","password":true,"vac":true,"version":"7882260","steam_id":85568392925397856,"keywords":["cp","nocrits","nodmgspread","uncletopia"],"game_id":440,"stv_port":27066,"stv_name":"Uncletopia | Warsaw | 6 | Community | STV","players":null}]}