{"status":true,"message":"","result":[{"server_id":9,"name":"Uncletopia | Atlanta | 1 | All Maps","name_short":"atl-1","host":"atl-1.us.uncletopia.com","port":27015,"enabled":true,"region":"us-east","cc":"us","latitude":33.753746,"longitude":-84.38633,"reserved":0,"last_update":"0001-01-01T00:00:00Z","name_a2s":"Uncletopia | Atlanta | 1 | All Maps","protocol":17,"map":"pl_frontier_final","folder":"tf","game":"Team Fortress","app_id":440,"player_count":23,"max_players":24,"Bots":0,"server_type":"Dedicated","server_os":"Linux","password":true,"vac":true,"version":"7757534","steam_id":85568392924469982,"keywords":["nocrits","nodmgspread","payload","uncletopia"],"game_id":440,"stv_port":27016,"stv_name":"Uncletopia | Atlanta | 1 | All Maps | STV","players":[{"user_id":597,"name":"BIG HOG","steam_id":76561198079923652,"connected_time":1514000000000,"state":"active","ping":70},{"user_id":607,"name":"SparkStorm","steam_id":76561198095817025,"connected_time":129000000000,"state":"active","ping":40},{"user_id":590,"name":"lil hog","steam_id":76561199230929836,"connected_time":1829000000000,"state":"active","ping":82},{"user_id":594,"name":"Decolour","steam_id":76561199045608372,"connected_time":1522000000000,"state":"active","ping":80},{"user_id":600,"name":"stink","steam_id":76561198099318923,"connected_time":1435000000000,"state":"active","ping":75},{"user_id":591,"name":"‚ô°Alyx‚ô°","steam_id":76561198024303978,"connected_time":1543000000000,"state":"active","ping":59},{"user_id":609,"name":"ATL 1 | Save your wifi","steam_id":76561198286147372,"connected_time":112000000000,"state":"active","ping":53},{"user_id":595,"name":"open gif","steam_id":76561198249206656,"connected_time":1521000000000,"state":"active","ping":83},{"user_id":604,"name":"Reyloko","steam_id":76561198172480913,"connected_time":1215000000000,"state":"active","ping":99},{"user_id":507,"name":"ATL1 | on my hunting trip","steam_id":76561198315341646,"connected_time":11464000000000,"state":"active","ping":73},{"user_id":606,"name":"Broken Cereal‚àö","steam_id":76561198087489795,"connected_time":133000000000,"state":"active","ping":63},{"user_id":603,"name":"ATL1 | LuckyZero-_-","steam_id":76561198139891051,"connected_time":1279000000000,"state":"active","ping":74},{"user_id":593,"name":"analdevistator1872","steam_id":76561198005572722,"connected_time":1532000000000,"state":"active","ping":75},{"user_id":523,"name":"mayhem","steam_id":76561199246637881,"connected_time":9115000000000,"state":"active","ping":52},{"user_id":608,"name":"shaderoses","steam_id":76561198070800500,"connected_time":125000000000,"state":"active","ping":65},{"user_id":605,"name":"Im High","steam_id":76561198049954886,"connected_time":1020000000000,"state":"active","ping":69},{"user_id":610,"name":"cola","steam_id":76561198374390458,"connected_time":66000000000,"state":"active","ping":51},{"user_id":598,"name":"OpossumStyle","steam_id":76561199230107171,"connected_time":1507000000000,"state":"active","ping":78},{"user_id":495,"name":"eish","steam_id":76561198089463603,"connected_time":12603000000000,"state":"active","ping":122},{"user_id":599,"name":"floofy","steam_id":76561198389769098,"connected_time":1506000000000,"state":"active","ping":84},{"user_id":589,"name":"moonage lobotomy","steam_id":76561198041348890,"connected_time":1903000000000,"state":"active","ping":65},{"user_id":577,"name":"DuckMann","steam_id":76561198197058638,"connected_time":4050000000000,"state":"active","ping":49},{"user_id":580,"name":"BambuBabyPackRunner","steam_id":76561198320866421,"connected_time":4016000000000,"state":"active","ping":57}]},{"server_id":400,"name":"Uncletopia | Atlanta | 3 | Community","name_short":"atl-3","host":"atl-1.us.uncletopia.com","port":27035,"enabled":true,"region":"us-east","cc":"us","latitude":33.753746,"longitude":-84.38633,"reserved":0,"last_update":"0001-01-01T00:00:00Z","name_a2s":"Uncletopia | Atlanta | 3 | Community","protocol":17,"map":"workshop/pl_divulgence_b4b.ugc2884808746","folder":"tf","game":"Team Fortress","app_id":440,"player_count":6,"max_players":24,"Bots":0,"server_type":"Dedicated","server_os":"Linux","password":true,"vac":true,"version":"7757534","steam_id":85568392924515187,"keywords":["nocrits","nodmgspread","payload","uncletopia"],"game_id":440,"stv_port":27036,"stv_name":"Uncletopia | Atlanta | 3 | Community | STV","players":[{"user_id":179,"name":"BB Lorexav","steam_id":76561198207565988,"connected_time":1299000000000,"state":"active","ping":56},{"user_id":188,"name":"Klav02","steam_id":76561199109999974,"connected_time":625000000000,"state":"active","ping":143},{"user_id":186,"name":"Artificial Unintelligence","steam_id":76561199056745987,"connected_time":747000000000,"state":"active","ping":129},{"user_id":191,"name":"dr boom","steam_id":76561198202144304,"connected_time":508000000000,"state":"active","ping":150},{"user_id":185,"name":"fruitymario","steam_id":76561198047190430,"connected_time":843000000000,"state":"active","ping":57},{"user_id":166,"name":"chimeowa","steam_id":76561198076598729,"connected_time":2346000000000,"state":"active","ping":67}]},{"server_id":401,"name":"Uncletopia | Atlanta | 4 | No Payload","name_short":"atl-4","host":"atl-1.us.uncletopia.com","port":27045,"enabled":true,"region":"us-east","cc":"us","latitude":33.753746,"longitude":-84.38633,"reserved":0,"last_update":"0001-01-01T00:00:00Z","name_a2s":"","protocol":0,"map":"","folder":"","game":"","app_id":0,"player_count":0,"max_players":0,"Bots":0,"server_type":"","server_os":"","password":false,"vac":false,"version":"","steam_id":0,"keywords":null,"game_id":0,"stv_port":0,"stv_name":"","players":null},{"server_id":2,"name":"Uncletopia | Chicago | 1 | All Maps","name_short":"chi-1","host":"chi-1.us.uncletopia.com","port":27015,"enabled":true,"region":"us-central","cc":"us","latitude":41.881832,"longitude":-87.62318,"reserved":0,"last_update":"0001-01-01T00:00:00Z","name_a2s":"Uncletopia | Chicago | 1 | All Maps","protocol":17,"map":"pl_upward","folder":"tf","game":"Team Fortress","app_id":440,"player_count":18,"max_players":24,"Bots":0,"server_type":"Dedicated","server_os":"Linux","password":true,"vac":true,"version":"7757534","steam_id":85568392924469984,"keywords":["nocrits","nodmgspread","payload","uncletopia"],"game_id":440,"stv_port":27016,"stv_name":"Uncletopia | Chicago | 1 | All Maps | STV","players":[{"user_id":301,"name":"tricky","steam_id":76561198143206173,"connected_time":9039000000000,"state":"active","ping":67},{"user_id":410,"name":"Monsterjessy","steam_id":76561198035630985,"connected_time":2033000000000,"state":"active","ping":62},{"user_id":434,"name":"StompOnYourFace!!!!","steam_id":76561198065581117,"connected_time":29000000000,"state":"active","ping":68},{"user_id":383,"name":"moistwalnut1967","steam_id":76561198044489449,"connected_time":3728000000000,"state":"active","ping":55},{"user_id":422,"name":"StumbleBumble","steam_id":76561199000369528,"connected_time":806000000000,"state":"active","ping":157},{"user_id":424,"name":"uhooter","steam_id":76561198007829078,"connected_time":247000000000,"state":"active","ping":47},{"user_id":375,"name":"rude boi","steam_id":76561198006783260,"connected_time":4752000000000,"state":"active","ping":60},{"user_id":425,"name":"cooltool21","steam_id":76561197996817585,"connected_time":245000000000,"state":"active","ping":76},{"user_id":426,"name":"Trash Man","steam_id":76561198874518834,"connected_time":242000000000,"state":"active","ping":83},{"user_id":431,"name":"HelloMikey","steam_id":76561198173582887,"connected_time":139000000000,"state":"active","ping":67},{"user_id":430,"name":"Heppeh","steam_id":76561198068049507,"connected_time":165000000000,"state":"active","ping":82},{"user_id":429,"name":"bron jame","steam_id":76561198202195792,"connected_time":173000000000,"state":"active","ping":57},{"user_id":305,"name":"WillyOmNom","steam_id":76561198345656852,"connected_time":8995000000000,"state":"active","ping":61},{"user_id":358,"name":"KingCrawful","steam_id":76561198104291657,"connected_time":5622000000000,"state":"active","ping":51},{"user_id":419,"name":"Bungalow Bill","steam_id":76561198033536404,"connected_time":897000000000,"state":"active","ping":68},{"user_id":432,"name":"Temujin","steam_id":76561198030936583,"connected_time":132000000000,"state":"active","ping":48},{"user_id":416,"name":"Randy \"the Man\" Johnson","steam_id":76561198039124445,"connected_time":1259000000000,"state":"active","ping":90},{"user_id":407,"name":"Thunderous","steam_id":76561198192752793,"connected_time":2124000000000,"state":"active","ping":65}]},{"server_id":106,"name":"Uncletopia | Chicago | 2 | All Maps","name_short":"chi-2","host":"chi-1.us.uncletopia.com","port":27025,"enabled":true,"region":"us-central","cc":"us","latitude":41.881832,"longitude":-87.62318,"reserved":0,"last_update":"0001-01-01T00:00:00Z","name_a2s":"Uncletopia | Chicago | 2 | All Maps","protocol":17,"map":"pl_upward","folder":"tf","game":"Team Fortress","app_id":440,"player_count":24,"max_players":24,"Bots":0,"server_type":"Dedicated","server_os":"Linux","password":true,"vac":true,"version":"7757534","steam_id":85568392924469985,"keywords":["nocrits","nodmgspread","payload","uncletopia"],"game_id":440,"stv_port":27026,"stv_name":"Uncletopia | Chicago | 2 | All Maps | STV","players":[{"user_id":674,"name":"Gian","steam_id":76561198041434512,"connected_time":2995000000000,"state":"active","ping":114},{"user_id":690,"name":"[SK] Punish ‚ô• ÁâßÊøëÁ∫¢ËéâÊ†ñ","steam_id":76561198207987376,"connected_time":1032000000000,"state":"active","ping":66},{"user_id":467,"name":"Phil Collins","steam_id":76561198068868644,"connected_time":10506000000000,"state":"active","ping":103},{"user_id":680,"name":"Pillowtalk","steam_id":76561198864204146,"connected_time":1640000000000,"state":"active","ping":79},{"user_id":694,"name":"yodieland","steam_id":76561198143727547,"connected_time":811000000000,"state":"active","ping":99},{"user_id":689,"name":"kent C Straight","steam_id":76561198056190259,"connected_time":1044000000000,"state":"active","ping":67},{"user_id":681,"name":"goodbye stinky","steam_id":76561198017428900,"connected_time":1638000000000,"state":"active","ping":61},{"user_id":515,"name":"deadpixel","steam_id":76561198150249843,"connected_time":8257000000000,"state":"active","ping":49},{"user_id":655,"name":"Big Yoshi","steam_id":76561199160576376,"connected_time":3539000000000,"state":"active","ping":116},{"user_id":688,"name":"D.LeBlanc","steam_id":76561198119483989,"connected_time":1063000000000,"state":"active","ping":82},{"user_id":647,"name":"Marisad","steam_id":76561198843890616,"connected_time":3883000000000,"state":"active","ping":89},{"user_id":682,"name":"Singularity","steam_id":76561198301852594,"connected_time":1633000000000,"state":"active","ping":69},{"user_id":676,"name":"Arnude","steam_id":76561198128553858,"connected_time":2041000000000,"state":"active","ping":77},{"user_id":650,"name":"Dylan","steam_id":76561198060996590,"connected_time":3601000000000,"state":"active","ping":95},{"user_id":648,"name":"cotton candy thief","steam_id":76561198058998371,"connected_time":3875000000000,"state":"active","ping":67},{"user_id":561,"name":"ApertureCity","steam_id":76561198004153607,"connected_time":6352000000000,"state":"active","ping":87},{"user_id":683,"name":"JustTheTypical","steam_id":76561198327370394,"connected_time":1627000000000,"state":"active","ping":73},{"user_id":678,"name":"big ol' buford","steam_id":76561198290675957,"connected_time":1831000000000,"state":"active","ping":58},{"user_id":652,"name":"melon soda","steam_id":76561198066748230,"connected_time":3547000000000,"state":"active","ping":64},{"user_id":636,"name":"wheresgeorge","steam_id":76561198986281248,"connected_time":5058000000000,"state":"active","ping":85},{"user_id":684,"name":"Gordon Ramsay","steam_id":76561198123893900,"connected_time":1626000000000,"state":"active","ping":80},{"user_id":691,"name":"N8","steam_id":76561198077788860,"connected_time":1024000000000,"state":"active","ping":70},{"user_id":692,"name":"Sage","steam_id":76561198143101697,"connected_time":1004000000000,"state":"active","ping":100},{"user_id":686,"name":"otto","steam_id":76561198029585065,"connected_time":1272000000000,"state":"active","ping":50}]},{"server_id":402,"name":"Uncletopia | Chicago | 3 | All Maps","name_short":"chi-3","host":"chi-1.us.uncletopia.com","port":27035,"enabled":true,"region":"us-central","cc":"us","latitude":41.881832,"longitude":-87.62318,"reserved":0,"last_update":"0001-01-01T00:00:00Z","name_a2s":"Uncletopia | Chicago | 3 | All Maps","protocol":17,"map":"pl_upward","folder":"tf","game":"Team Fortress","app_id":440,"player_count":21,"max_players":24,"Bots":0,"server_type":"Dedicated","server_os":"Linux","password":true,"vac":true,"version":"7757534","steam_id":85568392924515191,"keywords":["nocrits","nodmgspread","payload","uncletopia"],"game_id":440,"stv_port":27036,"stv_name":"Uncletopia | Chicago | 3 | All Maps | STV","players":[{"user_id":350,"name":"gabagool","steam_id":76561198012131766,"connected_time":296000000000,"state":"active","ping":50},{"user_id":353,"name":"Gromlin","steam_id":76561198042055526,"connected_time":199000000000,"state":"active","ping":76},{"user_id":354,"name":"malarkeyman","steam_id":76561198844473584,"connected_time":187000000000,"state":"active","ping":53},{"user_id":355,"name":"JohnnyBoi","steam_id":76561199082599937,"connected_time":173000000000,"state":"active","ping":110},{"user_id":356,"name":"Pontifex","steam_id":76561198013016489,"connected_time":171000000000,"state":"active","ping":106},{"user_id":352,"name":"Veridian","steam_id":76561198096334078,"connected_time":234000000000,"state":"active","ping":61},{"user_id":357,"name":"Se_Rious","steam_id":76561198040671133,"connected_time":147000000000,"state":"active","ping":58},{"user_id":348,"name":"onion","steam_id":76561198242311084,"connected_time":1453000000000,"state":"active","ping":63},{"user_id":315,"name":"IM_NORMAL","steam_id":76561198325072162,"connected_time":3076000000000,"state":"active","ping":90},{"user_id":326,"name":"Training Arc","steam_id":76561198038832034,"connected_time":2300000000000,"state":"active","ping":105},{"user_id":322,"name":"wheres my drink?","steam_id":76561198031675881,"connected_time":2476000000000,"state":"active","ping":74},{"user_id":358,"name":"BOUZENZEL","steam_id":76561198095000722,"connected_time":108000000000,"state":"active","ping":53},{"user_id":359,"name":"tacofever","steam_id":76561198010966507,"connected_time":61000000000,"state":"active","ping":106},{"user_id":349,"name":"A Fruit","steam_id":76561198951830050,"connected_time":1349000000000,"state":"active","ping":61},{"user_id":338,"name":"Joe Beef","steam_id":76561198437703253,"connected_time":1917000000000,"state":"active","ping":57},{"user_id":360,"name":"protein from burger king","steam_id":76561198983967605,"connected_time":49000000000,"state":"active","ping":69},{"user_id":329,"name":"The Lonely Croc","steam_id":76561198123241396,"connected_time":2150000000000,"state":"active","ping":80},{"user_id":317,"name":"Turtleduck","steam_id":76561198320514249,"connected_time":3011000000000,"state":"active","ping":93},{"user_id":361,"name":"dog-shaped dog","steam_id":76561198286166220,"connected_time":22000000000,"state":"active","ping":42},{"user_id":345,"name":"Cagnus Marlsen","steam_id":76561198063341193,"connected_time":1795000000000,"state":"active","ping":65},{"user_id":320,"name":"shadow wizard","steam_id":76561198165212575,"connected_time":2876000000000,"state":"active","ping":64}]},{"server_id":403,"name":"Uncletopia | Chicago | 4 | All Maps","name_short":"chi-4","host":"chi-1.us.uncletopia.com","port":27045,"enabled":true,"region":"us-central","cc":"us","latitude":41.881832,"longitude":-87.62318,"reserved":0,"last_update":"0001-01-01T00:00:00Z","name_a2s":"Uncletopia | Chicago | 4 | All Maps","protocol":17,"map":"pl_borneo","folder":"tf","game":"Team Fortress","app_id":440,"player_count":24,"max_players":24,"Bots":0,"server_type":"Dedicated","server_os":"Linux","password":true,"vac":true,"version":"7757534","steam_id":85568392924515193,"keywords":["nocrits","nodmgspread","payload","uncletopia"],"game_id":440,"stv_port":27046,"stv_name":"Uncletopia | Chicago | 4 | All Maps | STV","players":[{"user_id":864,"name":"‡πá‡πá‡πá ‡πá","steam_id":76561198145598073,"connected_time":1228000000000,"state":"active","ping":93},{"user_id":886,"name":"toastman","steam_id":76561198207073088,"connected_time":519000000000,"state":"active","ping":69},{"user_id":808,"name":"yamme","steam_id":76561198117849124,"connected_time":3659000000000,"state":"active","ping":105},{"user_id":831,"name":"years","steam_id":76561197994098627,"connected_time":2541000000000,"state":"active","ping":115},{"user_id":889,"name":"Joe","steam_id":76561199220049605,"connected_time":207000000000,"state":"active","ping":95},{"user_id":874,"name":"JGatsby","steam_id":76561198023307584,"connected_time":1008000000000,"state":"active","ping":56},{"user_id":838,"name":"ray (the based god)","steam_id":76561198311984941,"connected_time":2293000000000,"state":"active","ping":60},{"user_id":878,"name":"Splinto","steam_id":76561198111260488,"connected_time":874000000000,"state":"active","ping":47},{"user_id":879,"name":"Lore","steam_id":76561198098407538,"connected_time":868000000000,"state":"active","ping":57},{"user_id":832,"name":"Iron","steam_id":76561198247918478,"connected_time":2507000000000,"state":"active","ping":62},{"user_id":824,"name":"RockMan","steam_id":76561199228684720,"connected_time":3103000000000,"state":"active","ping":80},{"user_id":847,"name":"wake up","steam_id":76561198072179483,"connected_time":2112000000000,"state":"active","ping":90},{"user_id":881,"name":"TheTruthOfTheCessationOfDukkha","steam_id":76561198214370515,"connected_time":797000000000,"state":"active","ping":67},{"user_id":856,"name":"Meurik","steam_id":76561198078032795,"connected_time":1414000000000,"state":"active","ping":168},{"user_id":882,"name":"Gwando","steam_id":76561198294629124,"connected_time":788000000000,"state":"active","ping":76},{"user_id":845,"name":"ShredMaan","steam_id":76561198429982138,"connected_time":2160000000000,"state":"active","ping":111},{"user_id":884,"name":"OneTrueCorvid","steam_id":76561199012953221,"connected_time":678000000000,"state":"active","ping":76},{"user_id":867,"name":"Peaceful Chaos","steam_id":76561198087989602,"connected_time":1165000000000,"state":"active","ping":72},{"user_id":890,"name":"Resistance","steam_id":76561198146782074,"connected_time":0,"state":"spawning","ping":0},{"user_id":873,"name":"Dovid65","steam_id":76561199277530814,"connected_time":1092000000000,"state":"active","ping":127},{"user_id":828,"name":"Hot Milk + Sweet Delight","steam_id":76561197988989149,"connected_time":2931000000000,"state":"active","ping":84},{"user_id":887,"name":"Dr. Pleasant","steam_id":76561198111945101,"connected_time":297000000000,"state":"active","ping":68},{"user_id":868,"name":"‚ô• JUNE ‚ô•","steam_id":76561198975039481,"connected_time":1164000000000,"state":"active","ping":59},{"user_id":885,"name":"Griff Applewood","steam_id":76561198091512776,"connected_time":578000000000,"state":"active","ping":61}]},{"server_id":36,"name":"Uncletopia | Chicago | 5 | All Maps","name_short":"chi-5","host":"chi-2.us.uncletopia.com","port":27015,"enabled":true,"region":"us-central","cc":"us","latitude":41.881832,"longitude":-87.62318,"reserved":0,"last_update":"0001-01-01T00:00:00Z","name_a2s":"Uncletopia | Chicago | 5 | All Maps","protocol":17,"map":"pl_frontier_final","folder":"tf","game":"Team Fortress","app_id":440,"player_count":24,"max_players":24,"Bots":0,"server_type":"Dedicated","server_os":"Linux","password":true,"vac":true,"version":"7757534","steam_id":85568392924866362,"keywords":["nocrits","nodmgspread","payload","uncletopia"],"game_id":440,"stv_port":27016,"stv_name":"Uncletopia | Chicago | 5 | All Maps | STV","players":[{"user_id":87,"name":"Swshbcklr","steam_id":76561197969421355,"connected_time":12777000000000,"state":"active","ping":60},{"user_id":204,"name":"clio","steam_id":76561198141700569,"connected_time":2718000000000,"state":"active","ping":70},{"user_id":233,"name":"Post nut clarity","steam_id":76561198060246831,"connected_time":88000000000,"state":"active","ping":92},{"user_id":230,"name":"Capt.Swag","steam_id":76561198088340994,"connected_time":715000000000,"state":"active","ping":78},{"user_id":190,"name":"money getting 1 percenter","steam_id":76561198012796388,"connected_time":4135000000000,"state":"active","ping":56},{"user_id":222,"name":"Reisen","steam_id":76561197968832019,"connected_time":1342000000000,"state":"active","ping":62},{"user_id":224,"name":"iceman","steam_id":76561198135397441,"connected_time":1314000000000,"state":"active","ping":76},{"user_id":217,"name":"Hill Bill","steam_id":76561198131629233,"connected_time":1790000000000,"state":"active","ping":49},{"user_id":231,"name":"sokka","steam_id":76561198046650995,"connected_time":622000000000,"state":"active","ping":85},{"user_id":172,"name":"Lia_Rein","steam_id":76561198151569597,"connected_time":5320000000000,"state":"active","ping":155},{"user_id":232,"name":"Chaos","steam_id":76561199068325065,"connected_time":279000000000,"state":"active","ping":96},{"user_id":234,"name":"Phillip Jeffries","steam_id":76561198064052174,"connected_time":80000000000,"state":"active","ping":62},{"user_id":203,"name":"bojack from the show bojack hor","steam_id":76561198053006712,"connected_time":3120000000000,"state":"active","ping":60},{"user_id":188,"name":"bobby peanstalk","steam_id":76561198040495463,"connected_time":4169000000000,"state":"active","ping":69},{"user_id":206,"name":"the real big sips","steam_id":76561197999945358,"connected_time":2692000000000,"state":"active","ping":62},{"user_id":226,"name":"Constipated Barry","steam_id":76561198004482269,"connected_time":998000000000,"state":"active","ping":102},{"user_id":236,"name":"engie","steam_id":76561199229629045,"connected_time":49000000000,"state":"active","ping":112},{"user_id":111,"name":"HumFreY","steam_id":76561198076639682,"connected_time":10857000000000,"state":"active","ping":74},{"user_id":221,"name":"Crazy Dave","steam_id":76561198875469297,"connected_time":1522000000000,"state":"active","ping":56},{"user_id":218,"name":"Vapeinhand","steam_id":76561198134439943,"connected_time":1755000000000,"state":"active","ping":68},{"user_id":219,"name":"totally not a pile of beans","steam_id":76561198119851931,"connected_time":1746000000000,"state":"active","ping":89},{"user_id":176,"name":"jubattz","steam_id":76561198044874072,"connected_time":4476000000000,"state":"active","ping":63},{"user_id":184,"name":"Ka Xin Yu","steam_id":76561198057116531,"connected_time":4362000000000,"state":"active","ping":64},{"user_id":205,"name":"katryna","steam_id":76561198023440304,"connected_time":2712000000000,"state":"active","ping":60}]},{"server_id":37,"name":"Uncletopia | Chicago | 6 | All Maps","name_short":"chi-6","host":"chi-2.us.uncletopia.com","port":27025,"enabled":true,"region":"us-central","cc":"us","latitude":41.881832,"longitude":-87.62318,"reserved":0,"last_update":"0001-01-01T00:00:00Z","name_a2s":"Uncletopia | Chicago | 6 | All Maps","protocol":17,"map":"koth_viaduct","folder":"tf","game":"Team Fortress","app_id":440,"player_count":17,"max_players":24,"Bots":0,"server_type":"Dedicated","server_os":"Linux","password":true,"vac":true,"version":"7757534","steam_id":85568392924866363,"keywords":["cp","nocrits","nodmgspread","uncletopia"],"game_id":440,"stv_port":27026,"stv_name":"Uncletopia | Chicago | 6 | All Maps | STV","players":[{"user_id":685,"name":"Eric","steam_id":76561198057717934,"connected_time":438000000000,"state":"active","ping":42},{"user_id":684,"name":"Kerry kotronko","steam_id":76561199288091672,"connected_time":649000000000,"state":"active","ping":89},{"user_id":686,"name":"Farseer Ulwithy","steam_id":76561197965179245,"connected_time":68000000000,"state":"active","ping":76},{"user_id":672,"name":"roman","steam_id":76561198170066797,"connected_time":2042000000000,"state":"active","ping":72},{"user_id":679,"name":"Nodin","steam_id":76561198135757376,"connected_time":978000000000,"state":"active","ping":49},{"user_id":639,"name":"RedSock","steam_id":76561198161243404,"connected_time":3575000000000,"state":"active","ping":37},{"user_id":660,"name":"aya fumo","steam_id":76561198061621275,"connected_time":2741000000000,"state":"active","ping":76},{"user_id":661,"name":"momiji fumo","steam_id":76561198066698922,"connected_time":2738000000000,"state":"active","ping":55},{"user_id":654,"name":"blank","steam_id":76561198105529673,"connected_time":3017000000000,"state":"active","ping":90},{"user_id":657,"name":"Carson","steam_id":76561198076771071,"connected_time":2913000000000,"state":"active","ping":49},{"user_id":662,"name":"Chin","steam_id":76561198247426906,"connected_time":2713000000000,"state":"active","ping":77},{"user_id":680,"name":"kitchen crusader","steam_id":76561199217620385,"connected_time":946000000000,"state":"active","ping":70},{"user_id":665,"name":"Dispenser (Twan)","steam_id":76561197991064908,"connected_time":2635000000000,"state":"active","ping":64},{"user_id":681,"name":"hehehe ha","steam_id":76561198159823948,"connected_time":944000000000,"state":"active","ping":57},{"user_id":683,"name":"Cocksneed Fartin","steam_id":76561198126675787,"connected_time":771000000000,"state":"active","ping":78},{"user_id":658,"name":"[ibb‚Ñ¢]Shadow20X6-ENGI","steam_id":76561198019292755,"connected_time":2894000000000,"state":"active","ping":100},{"user_id":663,"name":"Chagalicious","steam_id":76561198044128240,"connected_time":2694000000000,"state":"active","ping":82}]},{"server_id":38,"name":"Uncletopia | Chicago | 7 | Stopwatch Beta","name_short":"chi-7","host":"chi-2.us.uncletopia.com","port":27035,"enabled":true,"region":"us-central","cc":"us","latitude":41.881832,"longitude":-87.62318,"reserved":0,"last_update":"0001-01-01T00:00:00Z","name_a2s":"Uncletopia | Chicago | 7 | Stopwatch Beta","protocol":17,"map":"koth_lakeside_final","folder":"tf","game":"Team Fortress","app_id":440,"player_count":2,"max_players":24,"Bots":0,"server_type":"Dedicated","server_os":"Linux","password":true,"vac":true,"version":"7757534","steam_id":85568392924866364,"keywords":["cp","nocrits","nodmgspread","uncletopia"],"game_id":440,"stv_port":27036,"stv_name":"Uncletopia | Chicago | 7 | Stopwatch Beta | STV","players":[{"user_id":27,"name":"Steev Stanman","steam_id":76561198048417796,"connected_time":151000000000,"state":"active","ping":30},{"user_id":28,"name":"Nivet Fox","steam_id":76561198135362867,"connected_time":143000000000,"state":"active","ping":40}]},{"server_id":39,"name":"Uncletopia | Chicago | 8 | Community","name_short":"chi-8","host":"chi-2.us.uncletopia.com","port":27045,"enabled":true,"region":"us-central","cc":"us","latitude":41.881832,"longitude":-87.62318,"reserved":0,"last_update":"0001-01-01T00:00:00Z","name_a2s":"Uncletopia | Chicago | 8 | Community","protocol":17,"map":"workshop/rd_asteroid_redux_b1.ugc2154902912","folder":"tf","game":"Team Fortress","app_id":440,"player_count":0,"max_players":24,"Bots":0,"server_type":"Dedicated","server_os":"Linux","password":true,"vac":true,"version":"7757534","steam_id":85568392924866365,"keywords":["beta","nocrits","nodmgspread","rd","uncletopia"],"game_id":440,"stv_port":27046,"stv_name":"Uncletopia | Chicago | 8 | Community | STV","players":null},{"server_id":8,"name":"Uncletopia | Dallas | 1 | All Maps","name_short":"dal-1","host":"dal-1.us.uncletopia.com","port":27015,"enabled":true,"region":"us-central","cc":"us","latitude":32.779167,"longitude":-96.80889,"reserved":0,"last_update":"0001-01-01T00:00:00Z","name_a2s":"Uncletopia | Dallas | 1 | All Maps","protocol":17,"map":"cp_snakewater_final1","folder":"tf","game":"Team Fortress","app_id":440,"player_count":24,"max_players":24,"Bots":0,"server_type":"Dedicated","server_os":"Linux","password":true,"vac":true,"version":"7757534","steam_id":85568392924469986,"keywords":["cp","nocrits","nodmgspread","uncletopia"],"game_id":440,"stv_port":27016,"stv_name":"Uncletopia | Dallas | 1 | All Maps | STV","players":[{"user_id":444,"name":"Law","steam_id":76561198320282310,"connected_time":1073000000000,"state":"active","ping":103},{"user_id":452,"name":"ya boi","steam_id":76561198420218460,"connected_time":510000000000,"state":"active","ping":47},{"user_id":442,"name":"Elm","steam_id":76561198098589740,"connected_time":1088000000000,"state":"active","ping":106},{"user_id":408,"name":"Metatron","steam_id":76561198332386371,"connected_time":4742000000000,"state":"active","ping":64},{"user_id":438,"name":"Satori Komeiji","steam_id":76561198158211423,"connected_time":1538000000000,"state":"active","ping":72},{"user_id":421,"name":"Ryo31337","steam_id":76561198063083553,"connected_time":3544000000000,"state":"active","ping":58},{"user_id":395,"name":"Young, Hot, and Full of Grease","steam_id":76561198101092551,"connected_time":5507000000000,"state":"active","ping":78},{"user_id":414,"name":"Rosemaryüåô ÂπΩÈúä [ 1 9 9 8 ","steam_id":76561198807726226,"connected_time":4075000000000,"state":"active","ping":111},{"user_id":453,"name":"Demianeithor","steam_id":76561198800036537,"connected_time":256000000000,"state":"active","ping":62},{"user_id":451,"name":"[LINUX] Purple Penguin Pybro","steam_id":76561198093538786,"connected_time":568000000000,"state":"active","ping":46},{"user_id":446,"name":"SirArza","steam_id":76561198196214655,"connected_time":973000000000,"state":"active","ping":74},{"user_id":387,"name":"Lemon Demon Enthusiast","steam_id":76561199026721822,"connected_time":6208000000000,"state":"active","ping":86},{"user_id":431,"name":"[ŸäŸáŸàÿØŸä] Bill Clinton [◊ê◊ú","steam_id":76561198163291190,"connected_time":2316000000000,"state":"active","ping":102},{"user_id":427,"name":"Locomotive","steam_id":76561199152926930,"connected_time":2434000000000,"state":"active","ping":137},{"user_id":359,"name":"Ballista","steam_id":76561197983182562,"connected_time":8558000000000,"state":"active","ping":53},{"user_id":447,"name":"Nugakku","steam_id":76561198082346219,"connected_time":965000000000,"state":"active","ping":76},{"user_id":398,"name":"Noble Sax","steam_id":76561198183283495,"connected_time":5016000000000,"state":"active","ping":66},{"user_id":448,"name":"I Am Alpharius","steam_id":76561198033100226,"connected_time":954000000000,"state":"active","ping":95},{"user_id":428,"name":"pour","steam_id":76561198127525888,"connected_time":2351000000000,"state":"active","ping":57},{"user_id":436,"name":"NOT Susie Deltarune (not real)","steam_id":76561199007365488,"connected_time":1734000000000,"state":"active","ping":71},{"user_id":423,"name":"radiohead enjoyer","steam_id":76561198397662124,"connected_time":3451000000000,"state":"active","ping":64},{"user_id":441,"name":"inzang","steam_id":76561198088318074,"connected_time":1150000000000,"state":"active","ping":55},{"user_id":426,"name":"jturner1nm","steam_id":76561198344493652,"connected_time":2629000000000,"state":"active","ping":102},{"user_id":449,"name":"Jamersjam","steam_id":76561198055322344,"connected_time":940000000000,"state":"active","ping":96}]},{"server_id":108,"name":"Uncletopia | Dallas | 2 | All Maps","name_short":"dal-2","host":"dal-1.us.uncletopia.com","port":27025,"enabled":true,"region":"us-central","cc":"us","latitude":32.779167,"longitude":-96.80889,"reserved":0,"last_update":"0001-01-01T00:00:00Z","name_a2s":"Uncletopia | Dallas | 2 | All Maps","protocol":17,"map":"pl_borneo","folder":"tf","game":"Team Fortress","app_id":440,"player_count":24,"max_players":24,"Bots":0,"server_type":"Dedicated","server_os":"Linux","password":true,"vac":true,"version":"7757534","steam_id":85568392924469988,"keywords":["nocrits","nodmgspread","payload","uncletopia"],"game_id":440,"stv_port":27026,"stv_name":"Uncletopia | Dallas | 2 | All Maps | STV","players":[{"user_id":255,"name":"your mom calls me princess too","steam_id":76561198020400899,"connected_time":1691000000000,"state":"active","ping":57},{"user_id":270,"name":"FearTheJynx","steam_id":76561198136487957,"connected_time":243000000000,"state":"active","ping":63},{"user_id":261,"name":"trashboat","steam_id":76561199067882406,"connected_time":1542000000000,"state":"active","ping":124},{"user_id":266,"name":"Can You Feel It Mr.Krabs","steam_id":76561198128302414,"connected_time":1021000000000,"state":"active","ping":69},{"user_id":178,"name":"Antifa Supersoldier","steam_id":76561198141816516,"connected_time":5907000000000,"state":"active","ping":45},{"user_id":213,"name":"plink","steam_id":76561198057829889,"connected_time":4452000000000,"state":"active","ping":105},{"user_id":274,"name":"Yams","steam_id":76561198068084541,"connected_time":179000000000,"state":"active","ping":51},{"user_id":254,"name":"todd","steam_id":76561198140689842,"connected_time":1744000000000,"state":"active","ping":47},{"user_id":243,"name":"-W3E- grim10465","steam_id":76561198045698581,"connected_time":3009000000000,"state":"active","ping":75},{"user_id":256,"name":"Poopie Babie","steam_id":76561198047500494,"connected_time":1682000000000,"state":"active","ping":58},{"user_id":151,"name":"Oh Captain","steam_id":76561198143992609,"connected_time":8216000000000,"state":"active","ping":93},{"user_id":251,"name":"Furrio","steam_id":76561198174104607,"connected_time":2295000000000,"state":"active","ping":69},{"user_id":275,"name":"Unregistered Hypercam 2","steam_id":76561198046895822,"connected_time":61000000000,"state":"active","ping":67},{"user_id":276,"name":"hud_saytext_time 0","steam_id":76561198010327228,"connected_time":26000000000,"state":"active","ping":178},{"user_id":263,"name":"Monster","steam_id":76561198189429665,"connected_time":1332000000000,"state":"active","ping":74},{"user_id":240,"name":"mkl","steam_id":76561197986401685,"connected_time":3142000000000,"state":"active","ping":54},{"user_id":258,"name":"hard dancing","steam_id":76561198868600487,"connected_time":1619000000000,"state":"active","ping":93},{"user_id":235,"name":"Ozone-Flavored Starburst","steam_id":76561199163688421,"connected_time":3355000000000,"state":"active","ping":82},{"user_id":272,"name":"Also","steam_id":76561199033216399,"connected_time":211000000000,"state":"active","ping":58},{"user_id":253,"name":"bird doctor","steam_id":76561199144340440,"connected_time":1896000000000,"state":"active","ping":61},{"user_id":89,"name":"Ghaeril","steam_id":76561198047880019,"connected_time":13391000000000,"state":"active","ping":67},{"user_id":267,"name":"Zeigos","steam_id":76561198093447461,"connected_time":924000000000,"state":"active","ping":77},{"user_id":260,"name":"Trashgaming","steam_id":76561199184268442,"connected_time":1591000000000,"state":"active","ping":110},{"user_id":273,"name":"rice white","steam_id":76561198320732910,"connected_time":211000000000,"state":"active","ping":91}]},{"server_id":5,"name":"Uncletopia | Frankfurt | 1 | All Maps","name_short":"frk-1","host":"frk-1.de.uncletopia.com","port":27015,"enabled":true,"region":"eu","cc":"de","latitude":50.110924,"longitude":8.682127,"reserved":0,"last_update":"0001-01-01T00:00:00Z","name_a2s":"Uncletopia | Frankfurt | 1 | All Maps","protocol":17,"map":"koth_cascade","folder":"tf","game":"Team Fortress","app_id":440,"player_count":0,"max_players":24,"Bots":0,"server_type":"Dedicated","server_os":"Linux","password":true,"vac":true,"version":"7757534","steam_id":85568392924469989,"keywords":["cp","nocrits","nodmgspread","uncletopia"],"game_id":440,"stv_port":27016,"stv_name":"Uncletopia | Frankfurt | 1 | All Maps | STV","players":null},{"server_id":110,"name":"Uncletopia | Frankfurt | 2 | All Maps","name_short":"frk-2","host":"frk-1.de.uncletopia.com","port":27025,"enabled":true,"region":"eu","cc":"de","latitude":50.110924,"longitude":8.682127,"reserved":0,"last_update":"0001-01-01T00:00:00Z","name_a2s":"Uncletopia | Frankfurt | 2 | All Maps","protocol":17,"map":"cp_dustbowl","folder":"tf","game":"Team Fortress","app_id":440,"player_count":0,"max_players":24,"Bots":0,"server_type":"Dedicated","server_os":"Linux","password":true,"vac":true,"version":"7757534","steam_id":85568392924469990,"keywords":["cp","nocrits","nodmgspread","uncletopia"],"game_id":440,"stv_port":27026,"stv_name":"Uncletopia | Frankfurt | 2 | All Maps | STV","players":null},{"server_id":308,"name":"Uncletopia | Frankfurt | 3 | All Maps","name_short":"frk-3","host":"frk-1.de.uncletopia.com","port":27035,"enabled":true,"region":"eu","cc":"de","latitude":50.110924,"longitude":8.682127,"reserved":0,"last_update":"0001-01-01T00:00:00Z","name_a2s":"Uncletopia | Frankfurt | 3 | All Maps","protocol":17,"map":"koth_lakeside_final","folder":"tf","game":"Team Fortress","app_id":440,"player_count":0,"max_players":24,"Bots":0,"server_type":"Dedicated","server_os":"Linux","password":true,"vac":true,"version":"7757534","steam_id":85568392924504274,"keywords":["cp","nocrits","nodmgspread","uncletopia"],"game_id":440,"stv_port":27036,"stv_name":"Uncletopia | Frankfurt | 3 | All Maps | STV","players":null},{"server_id":309,"name":"Uncletopia | Frankfurt | 4 | All Maps","name_short":"frk-4","host":"frk-1.de.uncletopia.com","port":27045,"enabled":true,"region":"eu","cc":"de","latitude":50.110924,"longitude":8.682127,"reserved":0,"last_update":"0001-01-01T00:00:00Z","name_a2s":"Uncletopia | Frankfurt | 4 | All Maps","protocol":17,"map":"koth_lakeside_final","folder":"tf","game":"Team Fortress","app_id":440,"player_count":3,"max_players":24,"Bots":0,"server_type":"Dedicated","server_os":"Linux","password":true,"vac":true,"version":"7757534","steam_id":85568392924504275,"keywords":["cp","nocrits","nodmgspread","uncletopia"],"game_id":440,"stv_port":27046,"stv_name":"Uncletopia | Frankfurt | 4 | All Maps | STV","players":[{"user_id":579,"name":"Doktor Drip","steam_id":76561198843329045,"connected_time":528000000000,"state":"active","ping":107},{"user_id":580,"name":"Pyro Gaming","steam_id":76561198291447088,"connected_time":298000000000,"state":"active","ping":71},{"user_id":567,"name":"Truegr","steam_id":76561198811912339,"connected_time":3102000000000,"state":"active","ping":61}]},{"server_id":310,"name":"Uncletopia | Frankfurt | 5 | All Maps","name_short":"frk-5","host":"frk-1.de.uncletopia.com","port":27055,"enabled":true,"region":"eu","cc":"de","latitude":50.110924,"longitude":8.682127,"reserved":0,"last_update":"0001-01-01T00:00:00Z","name_a2s":"Uncletopia | Frankfurt | 5 | All Maps","protocol":17,"map":"pl_barnblitz","folder":"tf","game":"Team Fortress","app_id":440,"player_count":0,"max_players":24,"Bots":0,"server_type":"Dedicated","server_os":"Linux","password":true,"vac":true,"version":"7757534","steam_id":85568392924504277,"keywords":["nocrits","nodmgspread","payload","uncletopia"],"game_id":440,"stv_port":27056,"stv_name":"Uncletopia | Frankfurt | 5 | All Maps | STV","players":null},{"server_id":311,"name":"Uncletopia | Frankfurt | 6 | All Maps","name_short":"frk-6","host":"frk-1.de.uncletopia.com","port":27065,"enabled":true,"region":"eu","cc":"de","latitude":50.110924,"longitude":8.682127,"reserved":0,"last_update":"0001-01-01T00:00:00Z","name_a2s":"Uncletopia | Frankfurt | 6 | All Maps","protocol":17,"map":"koth_highpass","folder":"tf","game":"Team Fortress","app_id":440,"player_count":0,"max_players":24,"Bots":0,"server_type":"Dedicated","server_os":"Linux","password":true,"vac":true,"version":"7757534","steam_id":85568392924504278,"keywords":["cp","nocrits","nodmgspread","uncletopia"],"game_id":440,"stv_port":27066,"stv_name":"Uncletopia | Frankfurt | 6 | All Maps | STV","players":null},{"server_id":23,"name":"Uncletopia | Frankfurt | 7 | Stopwatch Beta","name_short":"frk-7","host":"frk-1.de.uncletopia.com","port":27075,"enabled":true,"region":"eu","cc":"de","latitude":50.110924,"longitude":8.682127,"reserved":0,"last_update":"0001-01-01T00:00:00Z","name_a2s":"Uncletopia | Frankfurt | 7 | Stopwatch Beta","protocol":17,"map":"workshop/koth_ashville_final.ugc2130459942","folder":"tf","game":"Team Fortress","app_id":440,"player_count":0,"max_players":24,"Bots":0,"server_type":"Dedicated","server_os":"Linux","password":true,"vac":true,"version":"7757534","steam_id":85568392924742827,"keywords":["cp","nocrits","nodmgspread","uncletopia"],"game_id":440,"stv_port":27076,"stv_name":"Uncletopia | Frankfurt | 7 | Stopwatch Beta | STV","players":null},{"server_id":24,"name":"Uncletopia | Frankfurt | 8 | Community","name_short":"frk-8","host":"frk-1.de.uncletopia.com","port":27085,"enabled":true,"region":"eu","cc":"de","latitude":50.110924,"longitude":8.682127,"reserved":0,"last_update":"0001-01-01T00:00:00Z","name_a2s":"Uncletopia | Frankfurt | 8 | Community","protocol":17,"map":"workshop/cp_caldera_rc2.ugc2834196889","folder":"tf","game":"Team Fortress","app_id":440,"player_count":0,"max_players":24,"Bots":0,"server_type":"Dedicated","server_os":"Linux","password":true,"vac":true,"version":"7757534","steam_id":85568392924742828,"keywords":["cp","nocrits","nodmgspread","uncletopia"],"game_id":440,"stv_port":27086,"stv_name":"Uncletopia | Frankfurt | 8 | Community | STV","players":null},{"server_id":202,"name":"Uncletopia | Hong Kong | 1 | All Maps","name_short":"hgk-1","host":"hgk-1.hk.uncletopia.com","port":27015,"enabled":true,"region":"asia","cc":"hk","latitude":22.302711,"longitude":114.177216,"reserved":0,"last_update":"0001-01-01T00:00:00Z","name_a2s":"Uncletopia | Hong Kong | 1 | All Maps","protocol":17,"map":"cp_mountainlab","folder":"tf","game":"Team Fortress","app_id":440,"player_count":0,"max_players":24,"Bots":0,"server_type":"Dedicated","server_os":"Linux","password":true,"vac":true,"version":"7757534","steam_id":85568392924494504,"keywords":["cp","nocrits","nodmgspread","uncletopia"],"game_id":440,"stv_port":27016,"stv_name":"Uncletopia | Hong Kong | 1 | All Maps | STV","players":null},{"server_id":1,"name":"Uncletopia | Los Angeles | 1 | All Maps","name_short":"lax-1","host":"lax-1.us.uncletopia.com","port":27015,"enabled":true,"region":"us-west","cc":"us","latitude":33.94279,"longitude":-118.41004,"reserved":0,"last_update":"0001-01-01T00:00:00Z","name_a2s":"Uncletopia | Los Angeles | 1 | All Maps","protocol":17,"map":"pl_frontier_final","folder":"tf","game":"Team Fortress","app_id":440,"player_count":24,"max_players":24,"Bots":0,"server_type":"Dedicated","server_os":"Linux","password":true,"vac":true,"version":"7757534","steam_id":85568392924469991,"keywords":["nocrits","nodmgspread","payload","uncletopia"],"game_id":440,"stv_port":27016,"stv_name":"Uncletopia | Los Angeles | 1 | All Maps | STV","players":[{"user_id":70,"name":"Fuulip","steam_id":76561199109275013,"connected_time":1509000000000,"state":"active","ping":51},{"user_id":66,"name":"yoyo","steam_id":76561198285758098,"connected_time":1642000000000,"state":"active","ping":51},{"user_id":11,"name":"Manx","steam_id":76561197977134062,"connected_time":5027000000000,"state":"active","ping":87},{"user_id":12,"name":"Nibotshooter","steam_id":76561199284825579,"connected_time":4995000000000,"state":"active","ping":88},{"user_id":75,"name":"mrjibjaber","steam_id":76561198025229908,"connected_time":1299000000000,"state":"active","ping":62},{"user_id":57,"name":"sora","steam_id":76561198094256973,"connected_time":1783000000000,"state":"active","ping":61},{"user_id":55,"name":"Uprightmoss7528","steam_id":76561199200138486,"connected_time":1807000000000,"state":"active","ping":73},{"user_id":69,"name":"Big White Delight","steam_id":76561198005301688,"connected_time":1518000000000,"state":"active","ping":84},{"user_id":83,"name":" Ä.Íï§ÔΩ°.","steam_id":76561198029580420,"connected_time":611000000000,"state":"active","ping":154},{"user_id":59,"name":"oil","steam_id":76561198099980149,"connected_time":1774000000000,"state":"active","ping":55},{"user_id":81,"name":"rock gaming","steam_id":76561199402868311,"connected_time":880000000000,"state":"active","ping":61},{"user_id":84,"name":"HeroOfTime","steam_id":76561199096218001,"connected_time":589000000000,"state":"active","ping":54},{"user_id":35,"name":"BoringBeing","steam_id":76561199239564665,"connected_time":2897000000000,"state":"active","ping":102},{"user_id":76,"name":"hummusexual !Bye Bye!","steam_id":76561198063403549,"connected_time":1100000000000,"state":"active","ping":54},{"user_id":78,"name":"Gabe","steam_id":76561198081153719,"connected_time":1029000000000,"state":"active","ping":62},{"user_id":63,"name":"‚ù§ Ashley ‚ù§","steam_id":76561198056428303,"connected_time":1724000000000,"state":"active","ping":49},{"user_id":79,"name":"Arsonist Goose","steam_id":76561198147441830,"connected_time":1022000000000,"state":"active","ping":45},{"user_id":80,"name":"tie dye die guy","steam_id":76561198049845337,"connected_time":959000000000,"state":"active","ping":64},{"user_id":67,"name":"the biggest bird","steam_id":76561198361999761,"connected_time":1635000000000,"state":"active","ping":51},{"user_id":82,"name":"OG Mando","steam_id":76561198799439774,"connected_time":829000000000,"state":"active","ping":48},{"user_id":68,"name":"Demopirate Virus","steam_id":76561198050159379,"connected_time":1605000000000,"state":"active","ping":102},{"user_id":45,"name":"chanoc","steam_id":76561198026734746,"connected_time":2654000000000,"state":"active","ping":57},{"user_id":87,"name":"PianoDeep","steam_id":76561199182813963,"connected_time":237000000000,"state":"active","ping":93},{"user_id":74,"name":"mellowhype","steam_id":76561198040675606,"connected_time":1345000000000,"state":"active","ping":91}]},{"server_id":112,"name":"Uncletopia | Los Angeles | 2 | All Maps","name_short":"lax-2","host":"lax-1.us.uncletopia.com","port":27025,"enabled":true,"region":"us-west","cc":"us","latitude":33.94279,"longitude":-118.41004,"reserved":0,"last_update":"0001-01-01T00:00:00Z","name_a2s":"Uncletopia | Los Angeles | 2 | All Maps","protocol":17,"map":"koth_viaduct","folder":"tf","game":"Team Fortress","app_id":440,"player_count":0,"max_players":24,"Bots":0,"server_type":"Dedicated","server_os":"Linux","password":true,"vac":true,"version":"7757534","steam_id":85568392924469992,"keywords":["cp","nocrits","nodmgspread","uncletopia"],"game_id":440,"stv_port":27026,"stv_name":"Uncletopia | Los Angeles | 2 | All Maps | STV","players":null},{"server_id":324,"name":"Uncletopia | Los Angeles | 3 | All Maps","name_short":"lax-3","host":"lax-1.us.uncletopia.com","port":27035,"enabled":true,"region":"us-west","cc":"us","latitude":33.94279,"longitude":-118.41004,"reserved":0,"last_update":"0001-01-01T00:00:00Z","name_a2s":"Uncletopia | Los Angeles | 3 | All Maps","protocol":17,"map":"koth_lakeside_final","folder":"tf","game":"Team Fortress","app_id":440,"player_count":21,"max_players":24,"Bots":0,"server_type":"Dedicated","server_os":"Linux","password":true,"vac":true,"version":"7757534","steam_id":85568392924510198,"keywords":["cp","nocrits","nodmgspread","uncletopia"],"game_id":440,"stv_port":27036,"stv_name":"Uncletopia | Los Angeles | 3 | All Maps | STV","players":[{"user_id":22,"name":"Tummy Sunday","steam_id":76561198031336957,"connected_time":565000000000,"state":"active","ping":88},{"user_id":23,"name":"BroDuck","steam_id":76561198000217789,"connected_time":496000000000,"state":"active","ping":107},{"user_id":18,"name":"FezRequiem","steam_id":76561198070066667,"connected_time":742000000000,"state":"active","ping":55},{"user_id":19,"name":"aniket11.aniket11","steam_id":76561198985867789,"connected_time":720000000000,"state":"active","ping":64},{"user_id":20,"name":"johnman gooberguy","steam_id":76561199014859764,"connected_time":674000000000,"state":"active","ping":67},{"user_id":33,"name":"NVM!!!","steam_id":76561198432721568,"connected_time":193000000000,"state":"active","ping":93},{"user_id":24,"name":"pretty lady","steam_id":76561198042337127,"connected_time":495000000000,"state":"active","ping":103},{"user_id":25,"name":"Milk Testing Man","steam_id":76561198013841873,"connected_time":495000000000,"state":"active","ping":131},{"user_id":26,"name":"Gleepdorf","steam_id":76561198027137460,"connected_time":483000000000,"state":"active","ping":57},{"user_id":28,"name":"Badfish","steam_id":76561198072396970,"connected_time":385000000000,"state":"active","ping":66},{"user_id":29,"name":"IKEA Meatballs","steam_id":76561198025012508,"connected_time":334000000000,"state":"active","ping":43},{"user_id":30,"name":"\u003c3 grace","steam_id":76561198087472085,"connected_time":303000000000,"state":"active","ping":49},{"user_id":31,"name":"krisness27","steam_id":76561198840775748,"connected_time":293000000000,"state":"active","ping":70},{"user_id":32,"name":"M3tr0idPrim3","steam_id":76561198138329107,"connected_time":285000000000,"state":"active","ping":68},{"user_id":34,"name":"GAME GAMING","steam_id":76561199222119901,"connected_time":134000000000,"state":"active","ping":94},{"user_id":35,"name":"Cheezbeargur","steam_id":76561198164702899,"connected_time":125000000000,"state":"active","ping":53},{"user_id":36,"name":"rose","steam_id":76561197995200743,"connected_time":117000000000,"state":"active","ping":42},{"user_id":38,"name":"Local","steam_id":76561198069537437,"connected_time":94000000000,"state":"active","ping":53},{"user_id":39,"name":"walrooos","steam_id":76561198024521839,"connected_time":75000000000,"state":"active","ping":43},{"user_id":40,"name":"ahazz","steam_id":76561198138161605,"connected_time":63000000000,"state":"active","ping":51},{"user_id":41,"name":"evlallthetime","steam_id":76561198007896273,"connected_time":47000000000,"state":"active","ping":115}]},{"server_id":25,"name":"Uncletopia | Los Angeles | 4 | Stopwatch Beta","name_short":"lax-4","host":"lax-1.us.uncletopia.com","port":27045,"enabled":true,"region":"us-west","cc":"us","latitude":33.94279,"longitude":-118.41004,"reserved":0,"last_update":"0001-01-01T00:00:00Z","name_a2s":"Uncletopia | Los Angeles | 4 | Stopwatch Beta","protocol":17,"map":"cp_dustbowl","folder":"tf","game":"Team Fortress","app_id":440,"player_count":0,"max_players":24,"Bots":0,"server_type":"Dedicated","server_os":"Linux","password":true,"vac":true,"version":"7757534","steam_id":85568392924510199,"keywords":["cp","nocrits","nodmgspread","uncletopia"],"game_id":440,"stv_port":27046,"stv_name":"Uncletopia | Los Angeles | 4 | Stopwatch Beta | STV","players":null},{"server_id":11,"name":"Uncletopia | London | 1 | All Maps","name_short":"lon-1","host":"lon-1.uk.uncletopia.com","port":27015,"enabled":true,"region":"eu","cc":"gb","latitude":51.509865,"longitude":-0.118092,"reserved":0,"last_update":"0001-01-01T00:00:00Z","name_a2s":"Uncletopia | London | 1 | All Maps","protocol":17,"map":"pl_frontier_final","folder":"tf","game":"Team Fortress","app_id":440,"player_count":0,"max_players":24,"Bots":0,"server_type":"Dedicated","server_os":"Linux","password":true,"vac":true,"version":"7757534","steam_id":85568392924367362,"keywords":["nocrits","nodmgspread","payload","uncletopia"],"game_id":440,"stv_port":27016,"stv_name":"Uncletopia | London | 1 | All Maps | STV","players":null},{"server_id":114,"name":"Uncletopia | London | 2 | All Maps","name_short":"lon-2","host":"lon-1.uk.uncletopia.com","port":27025,"enabled":true,"region":"eu","cc":"gb","latitude":51.509865,"longitude":-0.118092,"reserved":0,"last_update":"0001-01-01T00:00:00Z","name_a2s":"Uncletopia | London | 2 | All Maps","protocol":17,"map":"pl_barnblitz","folder":"tf","game":"Team Fortress","app_id":440,"player_count":0,"max_players":24,"Bots":0,"server_type":"Dedicated","server_os":"Linux","password":true,"vac":true,"version":"7757534","steam_id":85568392924470941,"keywords":["nocrits","nodmgspread","payload","uncletopia"],"game_id":440,"stv_port":27026,"stv_name":"Uncletopia | London | 2 | All Maps | STV","players":null},{"server_id":320,"name":"Uncletopia | London | 3 | All Maps","name_short":"lon-3","host":"lon-1.uk.uncletopia.com","port":27035,"enabled":true,"region":"eu","cc":"gb","latitude":51.509865,"longitude":-0.118092,"reserved":0,"last_update":"0001-01-01T00:00:00Z","name_a2s":"Uncletopia | London | 3 | All Maps","protocol":17,"map":"pl_swiftwater_final1","folder":"tf","game":"Team Fortress","app_id":440,"player_count":0,"max_players":24,"Bots":0,"server_type":"Dedicated","server_os":"Linux","password":true,"vac":true,"version":"7757534","steam_id":85568392924510192,"keywords":["nocrits","nodmgspread","payload","uncletopia"],"game_id":440,"stv_port":27036,"stv_name":"Uncletopia | London | 3 | All Maps | STV","players":null},{"server_id":321,"name":"Uncletopia | London | 4 | All Maps","name_short":"lon-4","host":"lon-1.uk.uncletopia.com","port":27045,"enabled":true,"region":"eu","cc":"gb","latitude":51.509865,"longitude":-0.118092,"reserved":0,"last_update":"0001-01-01T00:00:00Z","name_a2s":"Uncletopia | London | 4 | All Maps","protocol":17,"map":"cp_dustbowl","folder":"tf","game":"Team Fortress","app_id":440,"player_count":0,"max_players":24,"Bots":0,"server_type":"Dedicated","server_os":"Linux","password":true,"vac":true,"version":"7757534","steam_id":85568392924510193,"keywords":["cp","nocrits","nodmgspread","uncletopia"],"game_id":440,"stv_port":27046,"stv_name":"Uncletopia | London | 4 | All Maps | STV","players":null},{"server_id":21,"name":"Uncletopia | London | 5 | All Maps","name_short":"lon-5","host":"lon-1.uk.uncletopia.com","port":27055,"enabled":true,"region":"eu","cc":"gb","latitude":51.509865,"longitude":-0.118092,"reserved":0,"last_update":"0001-01-01T00:00:00Z","name_a2s":"Uncletopia | London | 5 | All Maps","protocol":17,"map":"cp_altitude","folder":"tf","game":"Team Fortress","app_id":440,"player_count":0,"max_players":24,"Bots":0,"server_type":"Dedicated","server_os":"Linux","password":true,"vac":true,"version":"7757534","steam_id":85568392924742829,"keywords":["cp","nocrits","nodmgspread","uncletopia"],"game_id":440,"stv_port":27056,"stv_name":"Uncletopia | London | 5 | All Maps | STV","players":null},{"server_id":22,"name":"Uncletopia | London | 6 | All Maps","name_short":"lon-6","host":"lon-1.uk.uncletopia.com","port":27065,"enabled":true,"region":"eu","cc":"gb","latitude":51.509865,"longitude":-0.118092,"reserved":0,"last_update":"0001-01-01T00:00:00Z","name_a2s":"Uncletopia | London | 6 | All Maps","protocol":17,"map":"cp_altitude","folder":"tf","game":"Team Fortress","app_id":440,"player_count":0,"max_players":24,"Bots":0,"server_type":"Dedicated","server_os":"Linux","password":true,"vac":true,"version":"7757534","steam_id":85568392924742830,"keywords":["cp","nocrits","nodmgspread","uncletopia"],"game_id":440,"stv_port":27066,"stv_name":"Uncletopia | London | 6 | All Maps | STV","players":null},{"server_id":40,"name":"Uncletopia | London | 7 | No Payload","name_short":"lon-7","host":"lon-1.uk.uncletopia.com","port":27075,"enabled":true,"region":"eu","cc":"gb","latitude":51.509865,"longitude":-0.118092,"reserved":0,"last_update":"0001-01-01T00:00:00Z","name_a2s":"Uncletopia | London | 7 | No Payload","protocol":17,"map":"koth_highpass","folder":"tf","game":"Team Fortress","app_id":440,"player_count":0,"max_players":24,"Bots":0,"server_type":"Dedicated","server_os":"Linux","password":true,"vac":true,"version":"7757534","steam_id":85568392924964314,"keywords":["cp","nocrits","nodmgspread","uncletopia"],"game_id":440,"stv_port":27076,"stv_name":"Uncletopia | London | 7 | No Payload | STV","players":null},{"server_id":41,"name":"Uncletopia | London | 8 | Community","name_short":"lon-8","host":"lon-1.uk.uncletopia.com","port":27085,"enabled":true,"region":"eu","cc":"gb","latitude":51.509865,"longitude":-0.118092,"reserved":0,"last_update":"0001-01-01T00:00:00Z","name_a2s":"Uncletopia | London | 8 | Community","protocol":17,"map":"workshop/rd_asteroid_redux_b1.ugc2154902912","folder":"tf","game":"Team Fortress","app_id":440,"player_count":0,"max_players":24,"Bots":0,"server_type":"Dedicated","server_os":"Linux","password":true,"vac":true,"version":"7757534","steam_id":85568392924964315,"keywords":["beta","nocrits","nodmgspread","rd","uncletopia"],"game_id":440,"stv_port":27086,"stv_name":"Uncletopia | London | 8 | Community | STV","players":null},{"server_id":300,"name":"Uncletopia | Montr√©al | 1 | All Maps","name_short":"mtl-1","host":"mtl-1.ca.uncletopia.com","port":27015,"enabled":true,"region":"us-east","cc":"ca","latitude":45.50889,"longitude":-73.56167,"reserved":0,"last_update":"0001-01-01T00:00:00Z","name_a2s":"Uncletopia | Montr√©al | 1 | All Maps","protocol":17,"map":"koth_highpass","folder":"tf","game":"Team Fortress","app_id":440,"player_count":0,"max_players":24,"Bots":0,"server_type":"Dedicated","server_os":"Linux","password":true,"vac":true,"version":"7757534","steam_id":85568392924500087,"keywords":["cp","nocrits","nodmgspread","uncletopia"],"game_id":440,"stv_port":27016,"stv_name":"Uncletopia | Montr√©al | 1 | All Maps | STV","players":null},{"server_id":301,"name":"Uncletopia | Montr√©al | 2 | All Maps","name_short":"mtl-2","host":"mtl-1.ca.uncletopia.com","port":27025,"enabled":true,"region":"us-east","cc":"ca","latitude":45.50889,"longitude":-73.56167,"reserved":0,"last_update":"0001-01-01T00:00:00Z","name_a2s":"Uncletopia | Montr√©al | 2 | All Maps","protocol":17,"map":"cp_mountainlab","folder":"tf","game":"Team Fortress","app_id":440,"player_count":0,"max_players":24,"Bots":0,"server_type":"Dedicated","server_os":"Linux","password":true,"vac":true,"version":"7757534","steam_id":85568392924500088,"keywords":["cp","nocrits","nodmgspread","uncletopia"],"game_id":440,"stv_port":27026,"stv_name":"Uncletopia | Montr√©al | 2 | All Maps | STV","players":null},{"server_id":302,"name":"Uncletopia | Montr√©al | 3 | All Maps","name_short":"mtl-3","host":"mtl-1.ca.uncletopia.com","port":27035,"enabled":true,"region":"us-east","cc":"ca","latitude":45.50889,"longitude":-73.56167,"reserved":0,"last_update":"0001-01-01T00:00:00Z","name_a2s":"Uncletopia | Montr√©al | 3 | All Maps","protocol":17,"map":"cp_dustbowl","folder":"tf","game":"Team Fortress","app_id":440,"player_count":0,"max_players":24,"Bots":0,"server_type":"Dedicated","server_os":"Linux","password":true,"vac":true,"version":"7757534","steam_id":85568392924500089,"keywords":["cp","nocrits","nodmgspread","uncletopia"],"game_id":440,"stv_port":27036,"stv_name":"Uncletopia | Montr√©al | 3 | All Maps | STV","players":null},{"server_id":303,"name":"Uncletopia | Montr√©al | 4 | No Payload","name_short":"mtl-4","host":"mtl-1.ca.uncletopia.com","port":27045,"enabled":true,"region":"us-east","cc":"ca","latitude":45.50889,"longitude":-73.56167,"reserved":0,"last_update":"0001-01-01T00:00:00Z","name_a2s":"Uncletopia | Montr√©al | 4 | No Payload","protocol":17,"map":"koth_highpass","folder":"tf","game":"Team Fortress","app_id":440,"player_count":0,"max_players":24,"Bots":0,"server_type":"Dedicated","server_os":"Linux","password":true,"vac":true,"version":"7757534","steam_id":85568392924500090,"keywords":["cp","nocrits","nodmgspread","uncletopia"],"game_id":440,"stv_port":27046,"stv_name":"Uncletopia | Montr√©al | 4 | No Payload | STV","players":null},{"server_id":13,"name":"Uncletopia | New York City | 1 | All Maps","name_short":"nyc-1","host":"nyc-1.us.uncletopia.com","port":27015,"enabled":true,"region":"us-east","cc":"us","latitude":40.73061,"longitude":-73.93524,"reserved":0,"last_update":"0001-01-01T00:00:00Z","name_a2s":"Uncletopia | New York City | 1 | All Maps","protocol":17,"map":"pl_barnblitz","folder":"tf","game":"Team Fortress","app_id":440,"player_count":19,"max_players":24,"Bots":0,"server_type":"Dedicated","server_os":"Linux","password":true,"vac":true,"version":"7757534","steam_id":85568392924469993,"keywords":["nocrits","nodmgspread","payload","uncletopia"],"game_id":440,"stv_port":27016,"stv_name":"Uncletopia | New York City | 1 | All Maps | STV","players":[{"user_id":301,"name":"Colin102004","steam_id":76561198202384334,"connected_time":36000000000,"state":"active","ping":37},{"user_id":287,"name":"Colepie","steam_id":76561198037853211,"connected_time":909000000000,"state":"active","ping":90},{"user_id":209,"name":"ExoTheFlyingFish","steam_id":76561198034388243,"connected_time":7888000000000,"state":"active","ping":42},{"user_id":237,"name":"Dross","steam_id":76561198042172372,"connected_time":5891000000000,"state":"active","ping":52},{"user_id":297,"name":"nabroleon","steam_id":76561198038080028,"connected_time":394000000000,"state":"active","ping":120},{"user_id":300,"name":"WibbyOne","steam_id":76561198052843846,"connected_time":129000000000,"state":"active","ping":36},{"user_id":278,"name":"Chechens Spotted","steam_id":76561199028910893,"connected_time":1774000000000,"state":"active","ping":66},{"user_id":262,"name":"The Necronomiconeconomist","steam_id":76561198010358323,"connected_time":3298000000000,"state":"active","ping":83},{"user_id":245,"name":"Sapphireblitz","steam_id":76561198272635379,"connected_time":5067000000000,"state":"active","ping":61},{"user_id":270,"name":"Glitchy stick","steam_id":76561199013429386,"connected_time":1886000000000,"state":"active","ping":58},{"user_id":288,"name":"walterhwhite","steam_id":76561199433675789,"connected_time":886000000000,"state":"spawning","ping":103},{"user_id":292,"name":"PeekaBoo","steam_id":76561198134816486,"connected_time":802000000000,"state":"active","ping":95},{"user_id":290,"name":"lots of people respect cats","steam_id":76561198043305248,"connected_time":867000000000,"state":"active","ping":151},{"user_id":291,"name":"Daddy Al","steam_id":76561199468060032,"connected_time":858000000000,"state":"active","ping":49},{"user_id":244,"name":"The Drunk Clown","steam_id":76561197986850426,"connected_time":5198000000000,"state":"active","ping":75},{"user_id":218,"name":"A Puppy","steam_id":76561198828184456,"connected_time":7742000000000,"state":"active","ping":46},{"user_id":283,"name":"Thebestsock","steam_id":76561198819141894,"connected_time":1418000000000,"state":"active","ping":112},{"user_id":249,"name":"Spirosity","steam_id":76561198013485753,"connected_time":4402000000000,"state":"active","ping":59},{"user_id":294,"name":"FUSION","steam_id":76561197972659738,"connected_time":787000000000,"state":"active","ping":31}]},{"server_id":14,"name":"Uncletopia | New York City | 2 | All Maps","name_short":"nyc-2","host":"nyc-1.us.uncletopia.com","port":27025,"enabled":true,"region":"us-east","cc":"us","latitude":40.73061,"longitude":-73.93524,"reserved":0,"last_update":"0001-01-01T00:00:00Z","name_a2s":"Uncletopia | New York City | 2 | All Maps","protocol":17,"map":"pl_borneo","folder":"tf","game":"Team Fortress","app_id":440,"player_count":24,"max_players":24,"Bots":0,"server_type":"Dedicated","server_os":"Linux","password":true,"vac":true,"version":"7757534","steam_id":85568392924469994,"keywords":["nocrits","nodmgspread","payload","uncletopia"],"game_id":440,"stv_port":27026,"stv_name":"Uncletopia | New York City | 2 | All Maps | STV","players":[{"user_id":604,"name":"Bulk","steam_id":76561199009814535,"connected_time":739000000000,"state":"active","ping":49},{"user_id":603,"name":"francis gaming","steam_id":76561198218007693,"connected_time":846000000000,"state":"active","ping":38},{"user_id":579,"name":"guyinatophat51","steam_id":76561198180230694,"connected_time":2378000000000,"state":"active","ping":57},{"user_id":542,"name":"Forest_Dragon93","steam_id":76561199064900666,"connected_time":5820000000000,"state":"active","ping":96},{"user_id":598,"name":"Horrizan","steam_id":76561197965028480,"connected_time":1005000000000,"state":"active","ping":99},{"user_id":587,"name":"Rockguy21","steam_id":76561198121303359,"connected_time":1762000000000,"state":"active","ping":47},{"user_id":605,"name":"matt","steam_id":76561198151093701,"connected_time":737000000000,"state":"active","ping":91},{"user_id":600,"name":"macironi and chesse","steam_id":76561199098060805,"connected_time":908000000000,"state":"active","ping":79},{"user_id":616,"name":"dog (real)","steam_id":76561198041770884,"connected_time":502000000000,"state":"active","ping":109},{"user_id":592,"name":"Schizo Femboy","steam_id":76561199162627150,"connected_time":1452000000000,"state":"active","ping":151},{"user_id":599,"name":"Fletcher","steam_id":76561198317846538,"connected_time":977000000000,"state":"active","ping":60},{"user_id":606,"name":"Pennis the Menace","steam_id":76561198254878037,"connected_time":706000000000,"state":"active","ping":98},{"user_id":615,"name":"The Giggler!","steam_id":76561198053046161,"connected_time":591000000000,"state":"active","ping":45},{"user_id":611,"name":"GatorAIDS","steam_id":76561198043220092,"connected_time":675000000000,"state":"active","ping":82},{"user_id":609,"name":"melvyn lft","steam_id":76561198113226381,"connected_time":684000000000,"state":"active","ping":68},{"user_id":610,"name":"Bronxi","steam_id":76561198044530252,"connected_time":680000000000,"state":"active","ping":77},{"user_id":597,"name":"potty trained","steam_id":76561198141557766,"connected_time":1139000000000,"state":"active","ping":77},{"user_id":601,"name":"champion  turkey","steam_id":76561198151338482,"connected_time":908000000000,"state":"active","ping":108},{"user_id":595,"name":"Chicken1178","steam_id":76561199396985158,"connected_time":1363000000000,"state":"active","ping":123},{"user_id":586,"name":"Techo","steam_id":76561199169405285,"connected_time":1883000000000,"state":"active","ping":125},{"user_id":618,"name":"Brass beast heavy","steam_id":76561198274197623,"connected_time":168000000000,"state":"active","ping":135},{"user_id":533,"name":"Nichnolte","steam_id":76561198051811176,"connected_time":6829000000000,"state":"active","ping":187},{"user_id":578,"name":"THRILLHO","steam_id":76561198371663047,"connected_time":2596000000000,"state":"active","ping":44},{"user_id":617,"name":"Old Mann Overgrowth","steam_id":76561198020397139,"connected_time":357000000000,"state":"active","ping":64}]},{"server_id":15,"name":"Uncletopia | New York City | 3 | Stopwatch Beta","name_short":"nyc-3","host":"nyc-1.us.uncletopia.com","port":27035,"enabled":true,"region":"us-east","cc":"us","latitude":40.73061,"longitude":-73.93524,"reserved":0,"last_update":"0001-01-01T00:00:00Z","name_a2s":"Uncletopia | New York City | 3 | Stopwatch Beta","protocol":17,"map":"koth_lakeside_final","folder":"tf","game":"Team Fortress","app_id":440,"player_count":0,"max_players":24,"Bots":0,"server_type":"Dedicated","server_os":"Linux","password":true,"vac":true,"version":"7757534","steam_id":85568392924742820,"keywords":["cp","nocrits","nodmgspread","uncletopia"],"game_id":440,"stv_port":27036,"stv_name":"Uncletopia | New York City | 3 | Stopwatch Beta | STV","players":null},{"server_id":16,"name":"Uncletopia | New York City | 4 | Community","name_short":"nyc-4","host":"nyc-1.us.uncletopia.com","port":27045,"enabled":true,"region":"us-east","cc":"us","latitude":40.73061,"longitude":-73.93524,"reserved":0,"last_update":"0001-01-01T00:00:00Z","name_a2s":"Uncletopia | New York City | 4 | Community","protocol":17,"map":"workshop/cp_propaganda_b18.ugc1603743849","folder":"tf","game":"Team Fortress","app_id":440,"player_count":0,"max_players":24,"Bots":0,"server_type":"Dedicated","server_os":"Linux","password":true,"vac":true,"version":"7757534","steam_id":85568392924742821,"keywords":["cp","nocrits","nodmgspread","uncletopia"],"game_id":440,"stv_port":27046,"stv_name":"Uncletopia | New York City | 4 | Community | STV","players":null},{"server_id":142,"name":"Uncletopia | S√£o Paulo | 1 | All Maps","name_short":"sao-1","host":"sao-1.br.uncletopia.com","port":27015,"enabled":true,"region":"sa","cc":"br","latitude":-23.533773,"longitude":-46.62529,"reserved":0,"last_update":"0001-01-01T00:00:00Z","name_a2s":"Uncletopia | S√£o Paulo | 1 | All Maps","protocol":17,"map":"koth_cascade","folder":"tf","game":"Team Fortress","app_id":440,"player_count":0,"max_players":24,"Bots":0,"server_type":"Dedicated","server_os":"Linux","password":true,"vac":true,"version":"7757534","steam_id":85568392924469996,"keywords":["cp","nocrits","nodmgspread","uncletopia"],"game_id":440,"stv_port":27016,"stv_name":"Uncletopia | S√£o Paulo | 1 | All Maps | STV","players":null},{"server_id":143,"name":"Uncletopia | S√£o Paulo | 2 | All Maps","name_short":"sao-2","host":"sao-2.br.uncletopia.com","port":27015,"enabled":true,"region":"sa","cc":"br","latitude":-23.533773,"longitude":-46.62529,"reserved":0,"last_update":"0001-01-01T00:00:00Z","name_a2s":"Uncletopia | S√£o Paulo | 2 | All Maps","protocol":17,"map":"koth_viaduct","folder":"tf","game":"Team Fortress","app_id":440,"player_count":0,"max_players":24,"Bots":0,"server_type":"Dedicated","server_os":"Linux","password":true,"vac":true,"version":"7757534","steam_id":85568392924485349,"keywords":["cp","nocrits","nodmgspread","uncletopia"],"game_id":440,"stv_port":27016,"stv_name":"Uncletopia | S√£o Paulo | 2 | All Maps | STV","players":null},{"server_id":7,"name":"Uncletopia | Seattle | 1 | All Maps","name_short":"sea-1","host":"sea-1.us.uncletopia.com","port":27015,"enabled":true,"region":"us-west","cc":"us","latitude":47.608013,"longitude":-122.33517,"reserved":0,"last_update":"0001-01-01T00:00:00Z","name_a2s":"Uncletopia | Seattle | 1 | All Maps","protocol":17,"map":"pl_rumford_event","folder":"tf","game":"Team Fortress","app_id":440,"player_count":24,"max_players":24,"Bots":0,"server_type":"Dedicated","server_os":"Linux","password":true,"vac":true,"version":"7757534","steam_id":85568392924469997,"keywords":["nocrits","nodmgspread","payload","uncletopia"],"game_id":440,"stv_port":27016,"stv_name":"Uncletopia | Seattle | 1 | All Maps | STV","players":[{"user_id":477,"name":"TROY","steam_id":76561197983852176,"connected_time":2784000000000,"state":"active","ping":74},{"user_id":482,"name":"Mico (ENA Enthusiast)","steam_id":76561198125462953,"connected_time":2343000000000,"state":"active","ping":46},{"user_id":513,"name":"Sweatpants","steam_id":76561198097188001,"connected_time":189000000000,"state":"active","ping":54},{"user_id":501,"name":"Tungsten","steam_id":76561198312854342,"connected_time":1190000000000,"state":"active","ping":69},{"user_id":510,"name":"Reiidaya","steam_id":76561198325306660,"connected_time":687000000000,"state":"active","ping":56},{"user_id":491,"name":"ORANGE","steam_id":76561198000401769,"connected_time":1827000000000,"state":"active","ping":51},{"user_id":497,"name":"p9 SUNLIT WITCH ANARCHY GATHER","steam_id":76561198131166135,"connected_time":1548000000000,"state":"active","ping":41},{"user_id":455,"name":"[Sc.B.V.G] Eagley Beagley Eagle","steam_id":76561198166730618,"connected_time":3871000000000,"state":"active","ping":123},{"user_id":514,"name":"Crake","steam_id":76561198001959071,"connected_time":134000000000,"state":"active","ping":59},{"user_id":493,"name":"Tom Skirrett","steam_id":76561198014600788,"connected_time":1780000000000,"state":"active","ping":68},{"user_id":456,"name":"The Toucher","steam_id":76561198263739357,"connected_time":3868000000000,"state":"active","ping":82},{"user_id":499,"name":"DeckofDragons","steam_id":76561198057398213,"connected_time":1383000000000,"state":"active","ping":86},{"user_id":483,"name":"Flyingcat9000","steam_id":76561198179561797,"connected_time":2296000000000,"state":"active","ping":60},{"user_id":503,"name":"GoldtoothFour","steam_id":76561198055529332,"connected_time":1096000000000,"state":"active","ping":113},{"user_id":486,"name":"Infuzion4","steam_id":76561198119664203,"connected_time":2127000000000,"state":"active","ping":100},{"user_id":509,"name":"Angry Shoes","steam_id":76561197980385816,"connected_time":846000000000,"state":"active","ping":57},{"user_id":504,"name":"Quietsharp","steam_id":76561198277968438,"connected_time":1094000000000,"state":"active","ping":89},{"user_id":505,"name":"Hassium","steam_id":76561198162541373,"connected_time":1080000000000,"state":"active","ping":59},{"user_id":459,"name":"Smashy","steam_id":76561198030704307,"connected_time":3745000000000,"state":"active","ping":62},{"user_id":495,"name":"absolutelynot9998","steam_id":76561199066813922,"connected_time":1719000000000,"state":"active","ping":101},{"user_id":506,"name":"spiderland","steam_id":76561198335992132,"connected_time":1046000000000,"state":"active","ping":57},{"user_id":507,"name":"MericTheMadFox","steam_id":76561198353136959,"connected_time":1010000000000,"state":"active","ping":112},{"user_id":512,"name":"rat gets the cheese","steam_id":76561198031234032,"connected_time":286000000000,"state":"active","ping":105},{"user_id":479,"name":"toilet thief","steam_id":76561198057486874,"connected_time":2657000000000,"state":"active","ping":78}]},{"server_id":119,"name":"Uncletopia | Seattle | 2 | All Maps","name_short":"sea-2","host":"sea-1.us.uncletopia.com","port":27025,"enabled":true,"region":"us-west","cc":"us","latitude":47.608013,"longitude":-122.33517,"reserved":0,"last_update":"0001-01-01T00:00:00Z","name_a2s":"Uncletopia | Seattle | 2 | All Maps","protocol":17,"map":"pl_upward","folder":"tf","game":"Team Fortress","app_id":440,"player_count":24,"max_players":24,"Bots":0,"server_type":"Dedicated","server_os":"Linux","password":true,"vac":true,"version":"7757534","steam_id":85568392924469998,"keywords":["nocrits","nodmgspread","payload","uncletopia"],"game_id":440,"stv_port":27026,"stv_name":"Uncletopia | Seattle | 2 | All Maps | STV","players":[{"user_id":736,"name":"Grand Piano Tuna","steam_id":76561198135137213,"connected_time":3791000000000,"state":"active","ping":99},{"user_id":772,"name":"BBL Sponsor","steam_id":76561199093733603,"connected_time":900000000000,"state":"active","ping":94},{"user_id":760,"name":"mari_","steam_id":76561198137855741,"connected_time":1307000000000,"state":"active","ping":91},{"user_id":768,"name":"ulysses","steam_id":76561198059313367,"connected_time":1170000000000,"state":"active","ping":35},{"user_id":775,"name":"MonteJT","steam_id":76561198055409360,"connected_time":464000000000,"state":"active","ping":47},{"user_id":731,"name":"soda","steam_id":76561198105924953,"connected_time":4020000000000,"state":"active","ping":76},{"user_id":725,"name":"Gary, 40, soul sucking 9-5","steam_id":76561198073812888,"connected_time":4923000000000,"state":"active","ping":44},{"user_id":767,"name":"≈ölimak","steam_id":76561198296476784,"connected_time":1189000000000,"state":"active","ping":57},{"user_id":778,"name":"Adobe Premiere","steam_id":76561198411025724,"connected_time":155000000000,"state":"active","ping":81},{"user_id":750,"name":"A Duck With Socks","steam_id":76561198018844227,"connected_time":2910000000000,"state":"active","ping":59},{"user_id":761,"name":"SwoopShoot","steam_id":76561199024079388,"connected_time":1304000000000,"state":"active","ping":48},{"user_id":777,"name":"Boomzoom900","steam_id":76561198112196414,"connected_time":254000000000,"state":"active","ping":53},{"user_id":705,"name":"FiddyFoMike","steam_id":76561198057072581,"connected_time":5755000000000,"state":"active","ping":69},{"user_id":743,"name":"shibaba bababool","steam_id":76561197972601902,"connected_time":3595000000000,"state":"active","ping":88},{"user_id":764,"name":"Try Meditation","steam_id":76561199059653595,"connected_time":1278000000000,"state":"active","ping":51},{"user_id":748,"name":"non menthol newport","steam_id":76561198041907345,"connected_time":3457000000000,"state":"active","ping":85},{"user_id":652,"name":"worker","steam_id":76561198039608940,"connected_time":10300000000000,"state":"active","ping":73},{"user_id":765,"name":"Cresty","steam_id":76561199118643461,"connected_time":1247000000000,"state":"active","ping":73},{"user_id":716,"name":"Moychel","steam_id":76561198135551500,"connected_time":5441000000000,"state":"active","ping":90},{"user_id":738,"name":"Keamy","steam_id":76561199471434875,"connected_time":3742000000000,"state":"active","ping":41},{"user_id":769,"name":"Greskrendtregk","steam_id":76561197969553142,"connected_time":1034000000000,"state":"active","ping":53},{"user_id":776,"name":"Jigg","steam_id":76561198051140705,"connected_time":403000000000,"state":"active","ping":44},{"user_id":780,"name":"goldhed","steam_id":76561198051751133,"connected_time":150000000000,"state":"active","ping":61},{"user_id":758,"name":"YahYeeterson","steam_id":76561198120480906,"connected_time":2289000000000,"state":"active","ping":66}]},{"server_id":406,"name":"Uncletopia | Seattle | 3 | Stopwatch Beta","name_short":"sea-3","host":"sea-1.us.uncletopia.com","port":27035,"enabled":true,"region":"us-west","cc":"us","latitude":47.608013,"longitude":-122.33517,"reserved":0,"last_update":"0001-01-01T00:00:00Z","name_a2s":"Uncletopia | Seattle | 3 | Stopwatch Beta","protocol":17,"map":"koth_highpass","folder":"tf","game":"Team Fortress","app_id":440,"player_count":1,"max_players":24,"Bots":0,"server_type":"Dedicated","server_os":"Linux","password":true,"vac":true,"version":"7757534","steam_id":85568392924515217,"keywords":["cp","nocrits","nodmgspread","uncletopia"],"game_id":440,"stv_port":27036,"stv_name":"Uncletopia | Seattle | 3 | Stopwatch Beta | STV","players":[{"user_id":112,"name":"Escorpio","steam_id":76561198168519567,"connected_time":123000000000,"state":"active","ping":87}]},{"server_id":17,"name":"Uncletopia | San Francisco | 1 | All Maps","name_short":"sfo-1","host":"sfo-1.us.uncletopia.com","port":27015,"enabled":true,"region":"us-west","cc":"us","latitude":37.77397,"longitude":-122.4313,"reserved":0,"last_update":"0001-01-01T00:00:00Z","name_a2s":"Uncletopia | San Francisco | 1 | All Maps","protocol":17,"map":"pl_thundermountain","folder":"tf","game":"Team Fortress","app_id":440,"player_count":24,"max_players":24,"Bots":0,"server_type":"Dedicated","server_os":"Linux","password":true,"vac":true,"version":"7757534","steam_id":85568392924469999,"keywords":["nocrits","nodmgspread","payload","uncletopia"],"game_id":440,"stv_port":27016,"stv_name":"Uncletopia | San Francisco | 1 | All Maps | STV","players":[{"user_id":260,"name":"tum","steam_id":76561198084712019,"connected_time":1244000000000,"state":"active","ping":59},{"user_id":254,"name":"teh mummy","steam_id":76561198044123636,"connected_time":1489000000000,"state":"active","ping":40},{"user_id":258,"name":"dirty30","steam_id":76561198021226566,"connected_time":1288000000000,"state":"active","ping":61},{"user_id":282,"name":"murder is OK","steam_id":76561199041466962,"connected_time":662000000000,"state":"active","ping":35},{"user_id":264,"name":"Frazzer","steam_id":76561198088679707,"connected_time":994000000000,"state":"active","ping":53},{"user_id":252,"name":"Festive Bastard","steam_id":76561198094512904,"connected_time":1649000000000,"state":"active","ping":84},{"user_id":255,"name":"vareh","steam_id":76561197993190926,"connected_time":1359000000000,"state":"active","ping":82},{"user_id":286,"name":"Lundendroff2005","steam_id":76561198894675059,"connected_time":632000000000,"state":"active","ping":73},{"user_id":262,"name":"Interrobang","steam_id":76561198385044529,"connected_time":1037000000000,"state":"active","ping":119},{"user_id":300,"name":"Super3D","steam_id":76561199297779078,"connected_time":190000000000,"state":"active","ping":75},{"user_id":259,"name":"Mud (rip apetor)","steam_id":76561198356426602,"connected_time":1266000000000,"state":"active","ping":45},{"user_id":238,"name":"Dali","steam_id":76561198077593486,"connected_time":2928000000000,"state":"active","ping":98},{"user_id":261,"name":"jungus","steam_id":76561198129862008,"connected_time":1122000000000,"state":"active","ping":59},{"user_id":276,"name":"JackAttack","steam_id":76561198929145399,"connected_time":859000000000,"state":"active","ping":78},{"user_id":298,"name":"ScoutBox","steam_id":76561198111539895,"connected_time":320000000000,"state":"active","ping":62},{"user_id":267,"name":"Delimeat","steam_id":76561198043824595,"connected_time":948000000000,"state":"active","ping":52},{"user_id":269,"name":"Frisk Weatherfield","steam_id":76561198146435800,"connected_time":941000000000,"state":"active","ping":71},{"user_id":270,"name":"oof ow owchie","steam_id":76561198202378837,"connected_time":891000000000,"state":"active","ping":81},{"user_id":283,"name":"GnafS","steam_id":76561199101583864,"connected_time":661000000000,"state":"active","ping":80},{"user_id":289,"name":"1 Bladee Fan","steam_id":76561199135213338,"connected_time":406000000000,"state":"active","ping":64},{"user_id":287,"name":"BulgyBichael","steam_id":76561198094503981,"connected_time":472000000000,"state":"active","ping":84},{"user_id":284,"name":"WazL","steam_id":76561198065113895,"connected_time":653000000000,"state":"active","ping":70},{"user_id":299,"name":"Adeeta #SaveTF2 (again)","steam_id":76561199151324698,"connected_time":273000000000,"state":"active","ping":74},{"user_id":277,"name":"Aztea","steam_id":76561198982089893,"connected_time":858000000000,"state":"active","ping":92}]},{"server_id":18,"name":"Uncletopia | San Francisco | 2 | All Maps","name_short":"sfo-2","host":"sfo-1.us.uncletopia.com","port":27025,"enabled":true,"region":"us-west","cc":"us","latitude":37.77397,"longitude":-122.4313,"reserved":0,"last_update":"0001-01-01T00:00:00Z","name_a2s":"Uncletopia | San Francisco | 2 | All Maps","protocol":17,"map":"koth_viaduct","folder":"tf","game":"Team Fortress","app_id":440,"player_count":0,"max_players":24,"Bots":0,"server_type":"Dedicated","server_os":"Linux","password":true,"vac":true,"version":"7757534","steam_id":85568392924470000,"keywords":["cp","nocrits","nodmgspread","uncletopia"],"game_id":440,"stv_port":27026,"stv_name":"Uncletopia | San Francisco | 2 | All Maps | STV","players":null},{"server_id":19,"name":"Uncletopia | San Francisco | 3 | Stopwatch Beta","name_short":"sfo-3","host":"sfo-1.us.uncletopia.com","port":27035,"enabled":true,"region":"us-west","cc":"us","latitude":37.77397,"longitude":-122.4313,"reserved":0,"last_update":"0001-01-01T00:00:00Z","name_a2s":"Uncletopia | San Francisco | 3 | Stopwatch Beta","protocol":17,"map":"cp_snakewater_final1","folder":"tf","game":"Team Fortress","app_id":440,"player_count":0,"max_players":24,"Bots":0,"server_type":"Dedicated","server_os":"Linux","password":true,"vac":true,"version":"7757534","steam_id":85568392924742824,"keywords":["cp","nocrits","nodmgspread","uncletopia"],"game_id":440,"stv_port":27036,"stv_name":"Uncletopia | San Francisco | 3 | Stopwatch Beta | STV","players":null},{"server_id":20,"name":"Uncletopia | San Francisco | 4 | Community","name_short":"sfo-4","host":"sfo-1.us.uncletopia.com","port":27045,"enabled":true,"region":"us-west","cc":"us","latitude":37.77397,"longitude":-122.4313,"reserved":0,"last_update":"0001-01-01T00:00:00Z","name_a2s":"Uncletopia | San Francisco | 4 | Community","protocol":17,"map":"workshop/cp_overgrown_rc7b.ugc503939302","folder":"tf","game":"Team Fortress","app_id":440,"player_count":24,"max_players":24,"Bots":0,"server_type":"Dedicated","server_os":"Linux","password":true,"vac":true,"version":"7757534","steam_id":85568392924742826,"keywords":["cp","nocrits","nodmgspread","uncletopia"],"game_id":440,"stv_port":27046,"stv_name":"Uncletopia | San Francisco | 4 | Community | STV","players":[{"user_id":420,"name":"American freedom bird","steam_id":76561198366142388,"connected_time":997000000000,"state":"active","ping":70},{"user_id":361,"name":"Eden","steam_id":76561198075587475,"connected_time":4772000000000,"state":"active","ping":95},{"user_id":429,"name":"YASAI JUICE","steam_id":76561198131971992,"connected_time":446000000000,"state":"active","ping":86},{"user_id":433,"name":"tr","steam_id":76561198046944222,"connected_time":104000000000,"state":"active","ping":66},{"user_id":381,"name":"[B.A.L.S.]nut blast man","steam_id":76561198438402468,"connected_time":3779000000000,"state":"active","ping":60},{"user_id":418,"name":"Duncle Frazzle","steam_id":76561198145596626,"connected_time":1121000000000,"state":"active","ping":59},{"user_id":407,"name":"Buuw","steam_id":76561198085707714,"connected_time":1558000000000,"state":"active","ping":60},{"user_id":360,"name":"Wacks","steam_id":76561198079476100,"connected_time":5046000000000,"state":"active","ping":56},{"user_id":427,"name":"Quantum Brain","steam_id":76561198080169497,"connected_time":499000000000,"state":"active","ping":90},{"user_id":403,"name":"II HASH II 2-6","steam_id":76561198996233677,"connected_time":1981000000000,"state":"active","ping":62},{"user_id":408,"name":"MetalTao","steam_id":76561198189408110,"connected_time":1462000000000,"state":"active","ping":138},{"user_id":428,"name":"omugai_","steam_id":76561198086481768,"connected_time":489000000000,"state":"active","ping":47},{"user_id":417,"name":"Rich Homie Rob","steam_id":76561198046570914,"connected_time":1158000000000,"state":"active","ping":57},{"user_id":287,"name":"EL JEFE","steam_id":76561198077618439,"connected_time":11962000000000,"state":"active","ping":47},{"user_id":430,"name":"Cappuccino","steam_id":76561198046658536,"connected_time":305000000000,"state":"active","ping":107},{"user_id":431,"name":"Type Three Dabeetus","steam_id":76561198062710038,"connected_time":301000000000,"state":"active","ping":60},{"user_id":432,"name":"Antithesis","steam_id":76561199205491382,"connected_time":222000000000,"state":"active","ping":66},{"user_id":409,"name":"AWoodTypewriter","steam_id":76561198357674970,"connected_time":1455000000000,"state":"active","ping":125},{"user_id":423,"name":"lots of irreparable brain damag","steam_id":76561198068190834,"connected_time":686000000000,"state":"active","ping":74},{"user_id":391,"name":"iamsohardrn","steam_id":76561199147510427,"connected_time":3301000000000,"state":"active","ping":65},{"user_id":414,"name":"Al3x","steam_id":76561198056006234,"connected_time":1250000000000,"state":"active","ping":121},{"user_id":415,"name":"Indicative","steam_id":76561199076612537,"connected_time":1238000000000,"state":"active","ping":83},{"user_id":416,"name":"intek","steam_id":76561198052705291,"connected_time":1234000000000,"state":"active","ping":85},{"user_id":422,"name":"Sal In Haiti","steam_id":76561198055452939,"connected_time":962000000000,"state":"active","ping":69}]},{"server_id":141,"name":"Uncletopia | Sydney | 1 | All Maps","name_short":"syd-1","host":"syd-1.au.uncletopia.com","port":27015,"enabled":true,"region":"au","cc":"au","latitude":-33.865143,"longitude":151.2099,"reserved":0,"last_update":"0001-01-01T00:00:00Z","name_a2s":"Uncletopia | Sydney | 1 | All Maps","protocol":17,"map":"pl_badwater","folder":"tf","game":"Team Fortress","app_id":440,"player_count":24,"max_players":24,"Bots":0,"server_type":"Dedicated","server_os":"Linux","password":true,"vac":true,"version":"7757534","steam_id":85568392924470001,"keywords":["nocrits","nodmgspread","payload","uncletopia"],"game_id":440,"stv_port":27016,"stv_name":"Uncletopia | Sydney | 1 | All Maps | STV","players":[{"user_id":297,"name":"4 Day Old Meat","steam_id":76561198992922627,"connected_time":822000000000,"state":"active","ping":98},{"user_id":276,"name":"Racc-Off","steam_id":76561198401371450,"connected_time":2094000000000,"state":"active","ping":72},{"user_id":282,"name":"Bob Ross","steam_id":76561198081686896,"connected_time":1656000000000,"state":"active","ping":66},{"user_id":264,"name":"Dynamite Chimp (Messedupotato)","steam_id":76561198122066100,"connected_time":2606000000000,"state":"active","ping":45},{"user_id":290,"name":"Raypest","steam_id":76561197980678745,"connected_time":1016000000000,"state":"active","ping":40},{"user_id":302,"name":"weeyamumbaweh","steam_id":76561198061960926,"connected_time":718000000000,"state":"active","ping":94},{"user_id":245,"name":"sweet","steam_id":76561198075311236,"connected_time":3232000000000,"state":"active","ping":49},{"user_id":278,"name":"shaymii","steam_id":76561198058562392,"connected_time":1966000000000,"state":"active","ping":84},{"user_id":237,"name":"Jett","steam_id":76561198969434128,"connected_time":3577000000000,"state":"active","ping":73},{"user_id":287,"name":"Micromuffin","steam_id":76561198209370423,"connected_time":1293000000000,"state":"active","ping":59},{"user_id":305,"name":"J959","steam_id":76561198855585931,"connected_time":561000000000,"state":"active","ping":59},{"user_id":280,"name":"Dad","steam_id":76561198190255859,"connected_time":1935000000000,"state":"active","ping":68},{"user_id":260,"name":"fumble","steam_id":76561198360643770,"connected_time":2711000000000,"state":"active","ping":44},{"user_id":263,"name":"Dragonite","steam_id":76561199185507683,"connected_time":2641000000000,"state":"active","ping":48},{"user_id":292,"name":"Lincoln2603","steam_id":76561198170236666,"connected_time":957000000000,"state":"active","ping":44},{"user_id":306,"name":"Cup","steam_id":76561198038485845,"connected_time":232000000000,"state":"active","ping":44},{"user_id":257,"name":"WinterPizza850","steam_id":76561199043352840,"connected_time":2761000000000,"state":"active","ping":96},{"user_id":269,"name":"Mister Heavy 2012","steam_id":76561198911542330,"connected_time":2456000000000,"state":"active","ping":79},{"user_id":294,"name":"Sentry Gun","steam_id":76561199196324815,"connected_time":936000000000,"state":"active","ping":95},{"user_id":309,"name":"jim :)","steam_id":76561198127508905,"connected_time":190000000000,"state":"active","ping":42},{"user_id":299,"name":"Bigfluffy","steam_id":76561198196339186,"connected_time":795000000000,"state":"active","ping":66},{"user_id":300,"name":"calculusfish","steam_id":76561198067205959,"connected_time":771000000000,"state":"active","ping":68},{"user_id":301,"name":"shredda264","steam_id":76561198079873281,"connected_time":739000000000,"state":"active","ping":54},{"user_id":307,"name":"Eski","steam_id":76561198058713958,"connected_time":219000000000,"state":"active","ping":60}]},{"server_id":123,"name":"Uncletopia | Sydney | 2 | All Maps","name_short":"syd-2","host":"syd-1.au.uncletopia.com","port":27025,"enabled":true,"region":"au","cc":"au","latitude":-33.865143,"longitude":151.2099,"reserved":0,"last_update":"0001-01-01T00:00:00Z","name_a2s":"Uncletopia | Sydney | 2 | All Maps","protocol":17,"map":"koth_highpass","folder":"tf","game":"Team Fortress","app_id":440,"player_count":0,"max_players":24,"Bots":0,"server_type":"Dedicated","server_os":"Linux","password":true,"vac":true,"version":"7757534","steam_id":85568392924470002,"keywords":["cp","nocrits","nodmgspread","uncletopia"],"game_id":440,"stv_port":27026,"stv_name":"Uncletopia | Sydney | 2 | All Maps | STV","players":null},{"server_id":395,"name":"Uncletopia | Sydney | 3 | All Maps","name_short":"syd-3","host":"syd-1.au.uncletopia.com","port":27035,"enabled":true,"region":"au","cc":"au","latitude":-33.865143,"longitude":151.2099,"reserved":0,"last_update":"0001-01-01T00:00:00Z","name_a2s":"Uncletopia | Sydney | 3 | All Maps","protocol":17,"map":"cp_altitude","folder":"tf","game":"Team Fortress","app_id":440,"player_count":0,"max_players":24,"Bots":0,"server_type":"Dedicated","server_os":"Linux","password":true,"vac":true,"version":"7757534","steam_id":85568392925194467,"keywords":["cp","nocrits","nodmgspread","uncletopia"],"game_id":440,"stv_port":27036,"stv_name":"Uncletopia | Sydney | 3 | All Maps | STV","players":null},{"server_id":396,"name":"Uncletopia | Sydney | 4 | All Maps","name_short":"syd-4","host":"syd-1.au.uncletopia.com","port":27045,"enabled":true,"region":"au","cc":"au","latitude":-33.865143,"longitude":151.2099,"reserved":0,"last_update":"0001-01-01T00:00:00Z","name_a2s":"Uncletopia | Sydney | 4 | All Maps","protocol":17,"map":"pl_barnblitz","folder":"tf","game":"Team Fortress","app_id":440,"player_count":0,"max_players":24,"Bots":0,"server_type":"Dedicated","server_os":"Linux","password":true,"vac":true,"version":"7757534","steam_id":85568392925397958,"keywords":["nocrits","nodmgspread","payload","uncletopia"],"game_id":440,"stv_port":27046,"stv_name":"Uncletopia | Sydney | 4 | All Maps | STV","players":null},{"server_id":58,"name":"Uncletopia | Sydney | 5 | Stopwatch Beta","name_short":"syd-5","host":"syd-1.au.uncletopia.com","port":27055,"enabled":true,"region":"au","cc":"au","latitude":-33.865143,"longitude":151.2099,"reserved":0,"last_update":"0001-01-01T00:00:00Z","name_a2s":"Uncletopia | Sydney | 5 | Stopwatch Beta","protocol":17,"map":"koth_cascade","folder":"tf","game":"Team Fortress","app_id":440,"player_count":0,"max_players":24,"Bots":0,"server_type":"Dedicated","server_os":"Linux","password":true,"vac":true,"version":"7757534","steam_id":85568392925397959,"keywords":["cp","nocrits","nodmgspread","uncletopia"],"game_id":440,"stv_port":27056,"stv_name":"Uncletopia | Sydney | 5 | Stopwatch Beta | STV","players":null},{"server_id":59,"name":"Uncletopia | Sydney | 6 | Community","name_short":"syd-6","host":"syd-1.au.uncletopia.com","port":27065,"enabled":true,"region":"au","cc":"au","latitude":-33.865143,"longitude":151.2099,"reserved":0,"last_update":"0001-01-01T00:00:00Z","name_a2s":"Uncletopia | Sydney | 6 | Community","protocol":17,"map":"workshop/pl_corrode_rc2.ugc546577989","folder":"tf","game":"Team Fortress","app_id":440,"player_count":0,"max_players":24,"Bots":0,"server_type":"Dedicated","server_os":"Linux","password":true,"vac":true,"version":"7757534","steam_id":85568392925397960,"keywords":["nocrits","nodmgspread","payload","uncletopia"],"game_id":440,"stv_port":27066,"stv_name":"Uncletopia | Sydney | 6 | Community | STV","players":null},{"server_id":49,"name":"Uncletopia | Warsaw | 1 | All Maps","name_short":"waw-1","host":"waw-1.pl.uncletopia.com","port":27015,"enabled":true,"region":"eu","cc":"pl","latitude":52.2297,"longitude":21.017532,"reserved":0,"last_update":"0001-01-01T00:00:00Z","name_a2s":"","protocol":0,"map":"","folder":"","game":"","app_id":0,"player_count":0,"max_players":0,"Bots":0,"server_type":"","server_os":"","password":false,"vac":false,"version":"","steam_id":0,"keywords":null,"game_id":0,"stv_port":0,"stv_name":"","players":null},{"server_id":50,"name":"Uncletopia | Warsaw | 2 | All Maps","name_short":"waw-2","host":"waw-1.pl.uncletopia.com","port":27025,"enabled":true,"region":"eu","cc":"pl","latitude":52.2297,"longitude":21.017532,"reserved":0,"last_update":"0001-01-01T00:00:00Z","name_a2s":"Uncletopia | Warsaw | 2 | All Maps","protocol":17,"map":"koth_lakeside_final","folder":"tf","game":"Team Fortress","app_id":440,"player_count":0,"max_players":24,"Bots":0,"server_type":"Dedicated","server_os":"Linux","password":true,"vac":true,"version":"7757534","steam_id":85568392925397851,"keywords":["cp","nocrits","nodmgspread","uncletopia"],"game_id":440,"stv_port":27026,"stv_name":"Uncletopia | Warsaw | 2 | All Maps | STV","players":null},{"server_id":51,"name":"Uncletopia | Warsaw | 3 | All Maps","name_short":"waw-3","host":"waw-1.pl.uncletopia.com","port":27035,"enabled":true,"region":"eu","cc":"pl","latitude":52.2297,"longitude":21.017532,"reserved":0,"last_update":"0001-01-01T00:00:00Z","name_a2s":"Uncletopia | Warsaw | 3 | All Maps","protocol":17,"map":"pl_badwater","folder":"tf","game":"Team Fortress","app_id":440,"player_count":0,"max_players":24,"Bots":0,"server_type":"Dedicated","server_os":"Linux","password":true,"vac":true,"version":"7757534","steam_id":85568392925397852,"keywords":["nocrits","nodmgspread","payload","uncletopia"],"game_id":440,"stv_port":27036,"stv_name":"Uncletopia | Warsaw | 3 | All Maps | STV","players":null},{"server_id":52,"name":"Uncletopia | Warsaw | 4 | All Maps","name_short":"waw-4","host":"waw-1.pl.uncletopia.com","port":27045,"enabled":true,"region":"eu","cc":"pl","latitude":52.2297,"longitude":21.017532,"reserved":0,"last_update":"0001-01-01T00:00:00Z","name_a2s":"Uncletopia | Warsaw | 4 | All Maps","protocol":17,"map":"pl_borneo","folder":"tf","game":"Team Fortress","app_id":440,"player_count":0,"max_players":24,"Bots":0,"server_type":"Dedicated","server_os":"Linux","password":true,"vac":true,"version":"7757534","steam_id":85568392925397853,"keywords":["nocrits","nodmgspread","payload","uncletopia"],"game_id":440,"stv_port":27046,"stv_name":"Uncletopia | Warsaw | 4 | All Maps | STV","players":null},{"server_id":53,"name":"Uncletopia | Warsaw | 5 | Stopwatch Beta","name_short":"waw-5","host":"waw-1.pl.uncletopia.com","port":27055,"enabled":true,"region":"eu","cc":"pl","latitude":52.2297,"longitude":21.017532,"reserved":0,"last_update":"0001-01-01T00:00:00Z","name_a2s":"Uncletopia | Warsaw | 5 | Stopwatch Beta","protocol":17,"map":"workshop/pl_badwater_pro_v12.ugc2142942074","folder":"tf","game":"Team Fortress","app_id":440,"player_count":0,"max_players":24,"Bots":0,"server_type":"Dedicated","server_os":"Linux","password":true,"vac":true,"version":"7757534","steam_id":85568392925397854,"keywords":["nocrits","nodmgspread","payload","uncletopia"],"game_id":440,"stv_port":27056,"stv_name":"Uncletopia | Warsaw | 5 | Stopwatch Beta | STV","players":null},{"server_id":54,"name":"Uncletopia | Warsaw | 6 | Community","name_short":"waw-6","host":"waw-1.pl.uncletopia.com","port":27065,"enabled":true,"region":"eu","cc":"pl","latitude":52.2297,"longitude":21.017532,"reserved":0,"last_update":"0001-01-01T00:00:00Z","name_a2s":"Uncletopia | Warsaw | 6 | Community","protocol":17,"map":"koth_highpass","folder":"tf","game":"Team Fortress","app_id":440,"player_count":0,"max_players":24,"Bots":0,"server_type":"Dedicated","server_os":"Linux","password":true,"vac":true,"version":"7757534","steam_id":85568392925397856,"keywords":["cp","nocrits","nodmgspread","uncletopia"],"game_id":440,"stv_port":27066,"stv_name":"Uncletopia | Warsaw | 6 | Community | STV","players":null}]}