{"status":true,"message":"","result":[{"server_id":9,"name":"Uncletopia | Atlanta | 1 | All Maps","name_short":"atl-1","host":"atl-1.us.uncletopia.com","port":27015,"enabled":true,"region":"us-east","cc":"us","latitude":33.753746,"longitude":-84.38633,"reserved":0,"last_update":"0001-01-01T00:00:00Z","name_a2s":"Uncletopia | Atlanta | 1 | All Maps","protocol":17,"map":"pl_snowycoast","folder":"tf","game":"Team Fortress","app_id":440,"player_count":2,"max_players":24,"Bots":0,"server_type":"Dedicated","server_os":"Linux","password":true,"vac":true,"version":"7742253","steam_id":85568392924469982,"keywords":["nocrits","nodmgspread","payload","uncletopia"],"game_id":440,"stv_port":27016,"stv_name":"Uncletopia | Atlanta | 1 | All Maps | STV","players":[{"user_id":11,"name":"ATL1 | to4st","steam_id":76561198981009008,"connected_time":557000000000,"state":"active","ping":61},{"user_id":12,"name":"Alkivo","steam_id":76561198315999766,"connected_time":168000000000,"state":"active","ping":71}]},{"server_id":400,"name":"Uncletopia | Atlanta | 3 | Stopwatch Beta","name_short":"atl-3","host":"atl-1.us.uncletopia.com","port":27035,"enabled":true,"region":"us-east","cc":"us","latitude":33.753746,"longitude":-84.38633,"reserved":0,"last_update":"0001-01-01T00:00:00Z","name_a2s":"Uncletopia | Atlanta | 3 | Stopwatch Beta","protocol":17,"map":"pl_pier","folder":"tf","game":"Team Fortress","app_id":440,"player_count":0,"max_players":24,"Bots":0,"server_type":"Dedicated","server_os":"Linux","password":true,"vac":true,"version":"7742253","steam_id":85568392924515187,"keywords":["nocrits","nodmgspread","payload","uncletopia"],"game_id":440,"stv_port":27036,"stv_name":"Uncletopia | Atlanta | 3 | Stopwatch Beta | STV","players":null},{"server_id":401,"name":"Uncletopia | Atlanta | 4 | No Payload","name_short":"atl-4","host":"atl-1.us.uncletopia.com","port":27045,"enabled":true,"region":"us-east","cc":"us","latitude":33.753746,"longitude":-84.38633,"reserved":0,"last_update":"0001-01-01T00:00:00Z","name_a2s":"Uncletopia | Atlanta | 4 | No Payload","protocol":17,"map":"pl_pier","folder":"tf","game":"Team Fortress","app_id":440,"player_count":0,"max_players":24,"Bots":0,"server_type":"Dedicated","server_os":"Linux","password":true,"vac":true,"version":"7723704","steam_id":85568392924515188,"keywords":["nocrits","nodmgspread","payload","uncletopia"],"game_id":440,"stv_port":27046,"stv_name":"Uncletopia | Atlanta | 4 | No Payload | STV","players":null},{"server_id":2,"name":"Uncletopia | Chicago | 1 | All Maps","name_short":"chi-1","host":"chi-1.us.uncletopia.com","port":27015,"enabled":true,"region":"us-central","cc":"us","latitude":41.881832,"longitude":-87.62318,"reserved":0,"last_update":"0001-01-01T00:00:00Z","name_a2s":"Uncletopia | Chicago | 1 | All Maps","protocol":17,"map":"ctf_doublecross_snowy","folder":"tf","game":"Team Fortress","app_id":440,"player_count":23,"max_players":24,"Bots":0,"server_type":"Dedicated","server_os":"Linux","password":true,"vac":true,"version":"7742253","steam_id":85568392924469984,"keywords":["ctf","nocrits","nodmgspread","uncletopia"],"game_id":440,"stv_port":27016,"stv_name":"Uncletopia | Chicago | 1 | All Maps | STV","players":[{"user_id":11,"name":"stop","steam_id":76561198268686419,"connected_time":2124000000000,"state":"active","ping":52},{"user_id":8,"name":"Rin \"Hindwing\" Redtail","steam_id":76561199074865638,"connected_time":2422000000000,"state":"active","ping":69},{"user_id":32,"name":"Box","steam_id":76561198973425038,"connected_time":166000000000,"state":"active","ping":101},{"user_id":14,"name":"beta central","steam_id":76561198301876831,"connected_time":1401000000000,"state":"active","ping":59},{"user_id":36,"name":"Eins","steam_id":76561199030343810,"connected_time":99000000000,"state":"active","ping":54},{"user_id":16,"name":"AshBoomstick1","steam_id":76561198373230261,"connected_time":1249000000000,"state":"active","ping":94},{"user_id":17,"name":"spy main no. 69420","steam_id":76561199416694935,"connected_time":1080000000000,"state":"active","ping":79},{"user_id":21,"name":"Captian Wobbs","steam_id":76561198142884936,"connected_time":667000000000,"state":"active","ping":77},{"user_id":22,"name":"e.qkova","steam_id":76561199437076233,"connected_time":595000000000,"state":"active","ping":179},{"user_id":23,"name":"Jones Brand Soda","steam_id":76561198049553885,"connected_time":501000000000,"state":"active","ping":86},{"user_id":24,"name":"Chickenwing","steam_id":76561199347103141,"connected_time":471000000000,"state":"active","ping":68},{"user_id":25,"name":"JamesR","steam_id":76561199436941161,"connected_time":431000000000,"state":"active","ping":64},{"user_id":26,"name":"Garfield","steam_id":76561198037803087,"connected_time":390000000000,"state":"active","ping":70},{"user_id":27,"name":"-TL- swarm","steam_id":76561198019435762,"connected_time":361000000000,"state":"active","ping":107},{"user_id":28,"name":"skrt","steam_id":76561198233984300,"connected_time":343000000000,"state":"active","ping":50},{"user_id":29,"name":"Mr. Ruckus","steam_id":76561198339566190,"connected_time":300000000000,"state":"active","ping":81},{"user_id":30,"name":"Blagoni","steam_id":76561198079134230,"connected_time":268000000000,"state":"active","ping":92},{"user_id":31,"name":"Pixler544","steam_id":76561198240575132,"connected_time":234000000000,"state":"active","ping":81},{"user_id":40,"name":"howdidienduphere","steam_id":76561199067925855,"connected_time":31000000000,"state":"active","ping":55},{"user_id":35,"name":"Mr. Tickle","steam_id":76561198126684647,"connected_time":131000000000,"state":"active","ping":49},{"user_id":37,"name":"rubb3r","steam_id":76561198096874230,"connected_time":92000000000,"state":"active","ping":61},{"user_id":38,"name":"Okas8","steam_id":76561198100697096,"connected_time":88000000000,"state":"active","ping":52},{"user_id":39,"name":"nicolas the mercenary","steam_id":76561199077641644,"connected_time":59000000000,"state":"active","ping":51}]},{"server_id":106,"name":"Uncletopia | Chicago | 2 | All Maps","name_short":"chi-2","host":"chi-1.us.uncletopia.com","port":27025,"enabled":true,"region":"us-central","cc":"us","latitude":41.881832,"longitude":-87.62318,"reserved":0,"last_update":"0001-01-01T00:00:00Z","name_a2s":"Uncletopia | Chicago | 2 | All Maps","protocol":17,"map":"pl_snowycoast","folder":"tf","game":"Team Fortress","app_id":440,"player_count":0,"max_players":24,"Bots":0,"server_type":"Dedicated","server_os":"Linux","password":true,"vac":true,"version":"7742253","steam_id":85568392924469985,"keywords":["nocrits","nodmgspread","payload","uncletopia"],"game_id":440,"stv_port":27026,"stv_name":"Uncletopia | Chicago | 2 | All Maps | STV","players":null},{"server_id":402,"name":"Uncletopia | Chicago | 3 | All Maps","name_short":"chi-3","host":"chi-1.us.uncletopia.com","port":27035,"enabled":true,"region":"us-central","cc":"us","latitude":41.881832,"longitude":-87.62318,"reserved":0,"last_update":"0001-01-01T00:00:00Z","name_a2s":"Uncletopia | Chicago | 3 | All Maps","protocol":17,"map":"koth_viaduct","folder":"tf","game":"Team Fortress","app_id":440,"player_count":0,"max_players":24,"Bots":0,"server_type":"Dedicated","server_os":"Linux","password":true,"vac":true,"version":"7742253","steam_id":85568392924515191,"keywords":["cp","nocrits","nodmgspread","uncletopia"],"game_id":440,"stv_port":27036,"stv_name":"Uncletopia | Chicago | 3 | All Maps | STV","players":null},{"server_id":403,"name":"Uncletopia | Chicago | 4 | All Maps","name_short":"chi-4","host":"chi-1.us.uncletopia.com","port":27045,"enabled":true,"region":"us-central","cc":"us","latitude":41.881832,"longitude":-87.62318,"reserved":0,"last_update":"0001-01-01T00:00:00Z","name_a2s":"Uncletopia | Chicago | 4 | All Maps","protocol":17,"map":"cp_mountainlab","folder":"tf","game":"Team Fortress","app_id":440,"player_count":0,"max_players":24,"Bots":0,"server_type":"Dedicated","server_os":"Linux","password":true,"vac":true,"version":"7742253","steam_id":85568392924515193,"keywords":["cp","nocrits","nodmgspread","uncletopia"],"game_id":440,"stv_port":27046,"stv_name":"Uncletopia | Chicago | 4 | All Maps | STV","players":null},{"server_id":36,"name":"Uncletopia | Chicago | 5 | All Maps","name_short":"chi-5","host":"chi-2.us.uncletopia.com","port":27015,"enabled":true,"region":"us-central","cc":"us","latitude":41.881832,"longitude":-87.62318,"reserved":0,"last_update":"0001-01-01T00:00:00Z","name_a2s":"Uncletopia | Chicago | 5 | All Maps","protocol":17,"map":"pl_borneo","folder":"tf","game":"Team Fortress","app_id":440,"player_count":0,"max_players":24,"Bots":0,"server_type":"Dedicated","server_os":"Linux","password":true,"vac":true,"version":"7742253","steam_id":85568392924866362,"keywords":["nocrits","nodmgspread","payload","uncletopia"],"game_id":440,"stv_port":27016,"stv_name":"Uncletopia | Chicago | 5 | All Maps | STV","players":null},{"server_id":37,"name":"Uncletopia | Chicago | 6 | All Maps","name_short":"chi-6","host":"chi-2.us.uncletopia.com","port":27025,"enabled":true,"region":"us-central","cc":"us","latitude":41.881832,"longitude":-87.62318,"reserved":0,"last_update":"0001-01-01T00:00:00Z","name_a2s":"Uncletopia | Chicago | 6 | All Maps","protocol":17,"map":"cp_sunshine","folder":"tf","game":"Team Fortress","app_id":440,"player_count":0,"max_players":24,"Bots":0,"server_type":"Dedicated","server_os":"Linux","password":true,"vac":true,"version":"7742253","steam_id":85568392924866363,"keywords":["cp","nocrits","nodmgspread","uncletopia"],"game_id":440,"stv_port":27026,"stv_name":"Uncletopia | Chicago | 6 | All Maps | STV","players":null},{"server_id":38,"name":"Uncletopia | Chicago | 7 | Stopwatch Beta","name_short":"chi-7","host":"chi-2.us.uncletopia.com","port":27035,"enabled":true,"region":"us-central","cc":"us","latitude":41.881832,"longitude":-87.62318,"reserved":0,"last_update":"0001-01-01T00:00:00Z","name_a2s":"Uncletopia | Chicago | 7 | Stopwatch Beta","protocol":17,"map":"koth_lakeside_final","folder":"tf","game":"Team Fortress","app_id":440,"player_count":0,"max_players":24,"Bots":0,"server_type":"Dedicated","server_os":"Linux","password":true,"vac":true,"version":"7742253","steam_id":85568392924866364,"keywords":["cp","nocrits","nodmgspread","uncletopia"],"game_id":440,"stv_port":27036,"stv_name":"Uncletopia | Chicago | 7 | Stopwatch Beta | STV","players":null},{"server_id":39,"name":"Uncletopia | Chicago | 8 | Community","name_short":"chi-8","host":"chi-2.us.uncletopia.com","port":27045,"enabled":true,"region":"us-central","cc":"us","latitude":41.881832,"longitude":-87.62318,"reserved":0,"last_update":"0001-01-01T00:00:00Z","name_a2s":"Uncletopia | Chicago | 8 | Community","protocol":17,"map":"koth_lakeside_final","folder":"tf","game":"Team Fortress","app_id":440,"player_count":0,"max_players":24,"Bots":0,"server_type":"Dedicated","server_os":"Linux","password":true,"vac":true,"version":"7742253","steam_id":85568392924866365,"keywords":["cp","nocrits","nodmgspread","uncletopia"],"game_id":440,"stv_port":27046,"stv_name":"Uncletopia | Chicago | 8 | Community | STV","players":null},{"server_id":8,"name":"Uncletopia | Dallas | 1 | All Maps","name_short":"dal-1","host":"dal-1.us.uncletopia.com","port":27015,"enabled":true,"region":"us-central","cc":"us","latitude":32.779167,"longitude":-96.80889,"reserved":0,"last_update":"0001-01-01T00:00:00Z","name_a2s":"Uncletopia | Dallas | 1 | All Maps","protocol":17,"map":"cp_process_final","folder":"tf","game":"Team Fortress","app_id":440,"player_count":0,"max_players":24,"Bots":0,"server_type":"Dedicated","server_os":"Linux","password":true,"vac":true,"version":"7742253","steam_id":85568392924469986,"keywords":["cp","nocrits","nodmgspread","uncletopia"],"game_id":440,"stv_port":27016,"stv_name":"Uncletopia | Dallas | 1 | All Maps | STV","players":null},{"server_id":108,"name":"Uncletopia | Dallas | 2 | All Maps","name_short":"dal-2","host":"dal-1.us.uncletopia.com","port":27025,"enabled":true,"region":"us-central","cc":"us","latitude":32.779167,"longitude":-96.80889,"reserved":0,"last_update":"0001-01-01T00:00:00Z","name_a2s":"Uncletopia | Dallas | 2 | All Maps","protocol":17,"map":"cp_mountainlab","folder":"tf","game":"Team Fortress","app_id":440,"player_count":0,"max_players":24,"Bots":0,"server_type":"Dedicated","server_os":"Linux","password":true,"vac":true,"version":"7742253","steam_id":85568392924469988,"keywords":["cp","nocrits","nodmgspread","uncletopia"],"game_id":440,"stv_port":27026,"stv_name":"Uncletopia | Dallas | 2 | All Maps | STV","players":null},{"server_id":5,"name":"Uncletopia | Frankfurt | 1 | All Maps","name_short":"frk-1","host":"frk-1.de.uncletopia.com","port":27015,"enabled":true,"region":"eu","cc":"de","latitude":50.110924,"longitude":8.682127,"reserved":0,"last_update":"0001-01-01T00:00:00Z","name_a2s":"Uncletopia | Frankfurt | 1 | All Maps","protocol":17,"map":"koth_viaduct","folder":"tf","game":"Team Fortress","app_id":440,"player_count":23,"max_players":24,"Bots":0,"server_type":"Dedicated","server_os":"Linux","password":true,"vac":true,"version":"7742253","steam_id":85568392924469989,"keywords":["cp","nocrits","nodmgspread","uncletopia"],"game_id":440,"stv_port":27016,"stv_name":"Uncletopia | Frankfurt | 1 | All Maps | STV","players":[{"user_id":423,"name":"desoo","steam_id":76561198052878585,"connected_time":105000000000,"state":"active","ping":139},{"user_id":396,"name":"Ven_0","steam_id":76561199142511202,"connected_time":1648000000000,"state":"active","ping":62},{"user_id":417,"name":"stoppen","steam_id":76561197960281482,"connected_time":293000000000,"state":"active","ping":65},{"user_id":354,"name":"Moobin","steam_id":76561198099999156,"connected_time":4607000000000,"state":"active","ping":66},{"user_id":407,"name":"Whoovy","steam_id":76561198299565616,"connected_time":883000000000,"state":"active","ping":93},{"user_id":331,"name":"The Lime Degen","steam_id":76561198839259306,"connected_time":7003000000000,"state":"active","ping":93},{"user_id":315,"name":"üòà COCKDESTROYER üòà","steam_id":76561198042846999,"connected_time":7831000000000,"state":"active","ping":61},{"user_id":419,"name":"DeCypher","steam_id":76561198171992619,"connected_time":218000000000,"state":"active","ping":67},{"user_id":408,"name":"Mal ‚òÖ","steam_id":76561198262337669,"connected_time":880000000000,"state":"active","ping":66},{"user_id":392,"name":"Chrissto","steam_id":76561198397165242,"connected_time":1773000000000,"state":"active","ping":49},{"user_id":420,"name":"NEVER STOP GAMBLING üôèüèº\ufffd\ufffd\ufffd","steam_id":76561198132995289,"connected_time":164000000000,"state":"active","ping":61},{"user_id":410,"name":"foursixsixseven","steam_id":76561199123727043,"connected_time":848000000000,"state":"active","ping":57},{"user_id":369,"name":"punchmypotatoes","steam_id":76561198091255731,"connected_time":3837000000000,"state":"active","ping":67},{"user_id":357,"name":"Artock","steam_id":76561198808599713,"connected_time":4453000000000,"state":"active","ping":80},{"user_id":421,"name":"sugcs","steam_id":76561199032984087,"connected_time":164000000000,"state":"active","ping":48},{"user_id":411,"name":"Pyrolander","steam_id":76561198050785450,"connected_time":848000000000,"state":"active","ping":59},{"user_id":422,"name":"punk","steam_id":76561199053880024,"connected_time":153000000000,"state":"active","ping":46},{"user_id":363,"name":"Ali","steam_id":76561199133701271,"connected_time":4258000000000,"state":"active","ping":74},{"user_id":412,"name":"d00bie","steam_id":76561198025295218,"connected_time":827000000000,"state":"active","ping":61},{"user_id":399,"name":"yuh","steam_id":76561199005555839,"connected_time":1550000000000,"state":"active","ping":75},{"user_id":424,"name":"skill issue detector","steam_id":76561198018056171,"connected_time":95000000000,"state":"spawning","ping":118},{"user_id":414,"name":"Oliver","steam_id":76561198063523419,"connected_time":764000000000,"state":"active","ping":60},{"user_id":405,"name":"nobody","steam_id":76561198180637374,"connected_time":1336000000000,"state":"active","ping":78}]},{"server_id":110,"name":"Uncletopia | Frankfurt | 2 | All Maps","name_short":"frk-2","host":"frk-1.de.uncletopia.com","port":27025,"enabled":true,"region":"eu","cc":"de","latitude":50.110924,"longitude":8.682127,"reserved":0,"last_update":"0001-01-01T00:00:00Z","name_a2s":"Uncletopia | Frankfurt | 2 | All Maps","protocol":17,"map":"pl_upward","folder":"tf","game":"Team Fortress","app_id":440,"player_count":24,"max_players":24,"Bots":0,"server_type":"Dedicated","server_os":"Linux","password":true,"vac":true,"version":"7742253","steam_id":85568392924469990,"keywords":["nocrits","nodmgspread","payload","uncletopia"],"game_id":440,"stv_port":27026,"stv_name":"Uncletopia | Frankfurt | 2 | All Maps | STV","players":[{"user_id":284,"name":"eX. FTH","steam_id":76561198066287815,"connected_time":135000000000,"state":"active","ping":121},{"user_id":243,"name":"Deathpunch212","steam_id":76561198019767288,"connected_time":3385000000000,"state":"active","ping":67},{"user_id":179,"name":"Penis Contortionist","steam_id":76561198073663784,"connected_time":7939000000000,"state":"active","ping":53},{"user_id":276,"name":"ASS?!?!?!?!?","steam_id":76561199159262388,"connected_time":1205000000000,"state":"active","ping":90},{"user_id":270,"name":"Mankor","steam_id":76561198020439322,"connected_time":1754000000000,"state":"active","ping":51},{"user_id":277,"name":"Gary Oak","steam_id":76561198013622878,"connected_time":1199000000000,"state":"active","ping":45},{"user_id":264,"name":"Sleetler","steam_id":76561198021646640,"connected_time":2712000000000,"state":"active","ping":62},{"user_id":233,"name":"the joy of recycling","steam_id":76561198138509827,"connected_time":4254000000000,"state":"active","ping":83},{"user_id":266,"name":"Nicaea Sera","steam_id":76561198805876471,"connected_time":2314000000000,"state":"active","ping":94},{"user_id":241,"name":"Rose-Marie","steam_id":76561198055611092,"connected_time":3465000000000,"state":"active","ping":52},{"user_id":279,"name":"Pizzamancer, Lord of Toppings","steam_id":76561197999338989,"connected_time":1021000000000,"state":"active","ping":59},{"user_id":253,"name":"Nameless_Mann","steam_id":76561198015543601,"connected_time":2981000000000,"state":"active","ping":73},{"user_id":286,"name":"Lazor","steam_id":76561198310376869,"connected_time":34000000000,"state":"active","ping":124},{"user_id":283,"name":"Mao Zedong","steam_id":76561198347020945,"connected_time":139000000000,"state":"active","ping":105},{"user_id":285,"name":"ishgiftig","steam_id":76561199045633708,"connected_time":73000000000,"state":"active","ping":90},{"user_id":263,"name":"dr.cumfart","steam_id":76561198045330758,"connected_time":2782000000000,"state":"active","ping":138},{"user_id":275,"name":"confused","steam_id":76561198079277466,"connected_time":1427000000000,"state":"active","ping":58},{"user_id":272,"name":"hey (rizzes all over the place)","steam_id":76561199044577029,"connected_time":1719000000000,"state":"active","ping":88},{"user_id":287,"name":"Fluxier","steam_id":76561198812649243,"connected_time":9000000000,"state":"spawning","ping":92},{"user_id":274,"name":"G/3","steam_id":76561198234844188,"connected_time":1545000000000,"state":"active","ping":59},{"user_id":273,"name":"just a cat","steam_id":76561198328023740,"connected_time":1633000000000,"state":"active","ping":51},{"user_id":267,"name":"lyra","steam_id":76561198043601838,"connected_time":2289000000000,"state":"active","ping":60},{"user_id":220,"name":"breakfast","steam_id":76561198106049954,"connected_time":5301000000000,"state":"active","ping":85},{"user_id":250,"name":"GZimmer","steam_id":76561198088794767,"connected_time":3202000000000,"state":"active","ping":52}]},{"server_id":308,"name":"Uncletopia | Frankfurt | 3 | All Maps","name_short":"frk-3","host":"frk-1.de.uncletopia.com","port":27035,"enabled":true,"region":"eu","cc":"de","latitude":50.110924,"longitude":8.682127,"reserved":0,"last_update":"0001-01-01T00:00:00Z","name_a2s":"Uncletopia | Frankfurt | 3 | All Maps","protocol":17,"map":"cp_mountainlab","folder":"tf","game":"Team Fortress","app_id":440,"player_count":24,"max_players":24,"Bots":0,"server_type":"Dedicated","server_os":"Linux","password":true,"vac":true,"version":"7742253","steam_id":85568392924504274,"keywords":["cp","nocrits","nodmgspread","uncletopia"],"game_id":440,"stv_port":27036,"stv_name":"Uncletopia | Frankfurt | 3 | All Maps | STV","players":[{"user_id":198,"name":"King Jizzard","steam_id":76561198047725816,"connected_time":376000000000,"state":"active","ping":63},{"user_id":201,"name":"Michael Jesus","steam_id":76561198060895626,"connected_time":346000000000,"state":"active","ping":66},{"user_id":197,"name":"cat","steam_id":76561199403426930,"connected_time":386000000000,"state":"active","ping":52},{"user_id":176,"name":"Louki","steam_id":76561198150080041,"connected_time":836000000000,"state":"active","ping":56},{"user_id":142,"name":"citronous","steam_id":76561198093290934,"connected_time":3436000000000,"state":"active","ping":54},{"user_id":202,"name":"Û†Ä°Û†Ä°","steam_id":76561198015585266,"connected_time":334000000000,"state":"active","ping":80},{"user_id":174,"name":"alleopold","steam_id":76561199055478676,"connected_time":880000000000,"state":"active","ping":141},{"user_id":160,"name":"john smith","steam_id":76561198241894636,"connected_time":1998000000000,"state":"active","ping":50},{"user_id":154,"name":"1ggy","steam_id":76561199051285912,"connected_time":2399000000000,"state":"active","ping":76},{"user_id":196,"name":"Cillian","steam_id":76561199046965320,"connected_time":386000000000,"state":"active","ping":86},{"user_id":162,"name":"TheNothinkness","steam_id":76561199063416016,"connected_time":1929000000000,"state":"active","ping":101},{"user_id":156,"name":"GIGA 1939","steam_id":76561198875472890,"connected_time":2209000000000,"state":"active","ping":78},{"user_id":180,"name":"‚ô• Cirno ‚ô•","steam_id":76561198834982738,"connected_time":783000000000,"state":"active","ping":66},{"user_id":192,"name":"ViktorYoshi","steam_id":76561199157555246,"connected_time":509000000000,"state":"active","ping":60},{"user_id":185,"name":"Burrito","steam_id":76561198023919089,"connected_time":722000000000,"state":"active","ping":81},{"user_id":184,"name":"NotFionn","steam_id":76561198890525176,"connected_time":732000000000,"state":"active","ping":84},{"user_id":169,"name":"goodguydragg","steam_id":76561198305104891,"connected_time":1157000000000,"state":"active","ping":69},{"user_id":136,"name":"‚ò£Strale‚ò£","steam_id":76561198026578820,"connected_time":3727000000000,"state":"active","ping":69},{"user_id":204,"name":"=da63a202293497dccd5110071d0d43","steam_id":76561198390666516,"connected_time":83000000000,"state":"spawning","ping":90},{"user_id":155,"name":"Cuthbert","steam_id":76561198204649481,"connected_time":2350000000000,"state":"active","ping":87},{"user_id":188,"name":"Random Cap","steam_id":76561198129271321,"connected_time":684000000000,"state":"active","ping":58},{"user_id":193,"name":"Lempii","steam_id":76561198433507634,"connected_time":427000000000,"state":"active","ping":92},{"user_id":194,"name":"Abdirahim","steam_id":76561198050369473,"connected_time":404000000000,"state":"active","ping":64},{"user_id":203,"name":"brtaba","steam_id":76561198796334790,"connected_time":244000000000,"state":"active","ping":61}]},{"server_id":309,"name":"Uncletopia | Frankfurt | 4 | All Maps","name_short":"frk-4","host":"frk-1.de.uncletopia.com","port":27045,"enabled":true,"region":"eu","cc":"de","latitude":50.110924,"longitude":8.682127,"reserved":0,"last_update":"0001-01-01T00:00:00Z","name_a2s":"Uncletopia | Frankfurt | 4 | All Maps","protocol":17,"map":"pl_pier","folder":"tf","game":"Team Fortress","app_id":440,"player_count":24,"max_players":24,"Bots":0,"server_type":"Dedicated","server_os":"Linux","password":true,"vac":true,"version":"7742253","steam_id":85568392924504275,"keywords":["nocrits","nodmgspread","payload","uncletopia"],"game_id":440,"stv_port":27046,"stv_name":"Uncletopia | Frankfurt | 4 | All Maps | STV","players":[{"user_id":123,"name":"LordTrap.exe","steam_id":76561198318089716,"connected_time":12440000000000,"state":"active","ping":59},{"user_id":256,"name":"Lord Sykens","steam_id":76561198098493344,"connected_time":2774000000000,"state":"active","ping":58},{"user_id":287,"name":"Waffles","steam_id":76561198178441338,"connected_time":1098000000000,"state":"active","ping":60},{"user_id":286,"name":"Û†Ä∞Û†Ä∞","steam_id":76561198891698133,"connected_time":1110000000000,"state":"active","ping":71},{"user_id":299,"name":"Michamya","steam_id":76561198116338844,"connected_time":347000000000,"state":"active","ping":60},{"user_id":271,"name":"del2o","steam_id":76561199072601822,"connected_time":2116000000000,"state":"active","ping":111},{"user_id":296,"name":"üåº HugeE","steam_id":76561198245495152,"connected_time":514000000000,"state":"active","ping":61},{"user_id":249,"name":"DE4DS3C","steam_id":76561198869218678,"connected_time":3824000000000,"state":"active","ping":49},{"user_id":255,"name":"sauli01","steam_id":76561198069149120,"connected_time":2780000000000,"state":"active","ping":74},{"user_id":275,"name":"Frazzle","steam_id":76561198262577951,"connected_time":1829000000000,"state":"active","ping":74},{"user_id":246,"name":"Tywhip","steam_id":76561199207545191,"connected_time":3953000000000,"state":"active","ping":60},{"user_id":258,"name":"Pablo \"No Hablo\" Badonk","steam_id":76561198165151214,"connected_time":2758000000000,"state":"active","ping":45},{"user_id":291,"name":"Fesesnisco","steam_id":76561198171213241,"connected_time":936000000000,"state":"active","ping":71},{"user_id":262,"name":"poliakov.noam","steam_id":76561199259322961,"connected_time":2695000000000,"state":"active","ping":98},{"user_id":298,"name":"Dolcelatte","steam_id":76561198038501770,"connected_time":408000000000,"state":"active","ping":58},{"user_id":279,"name":"Minister of cocks","steam_id":76561198829740342,"connected_time":1517000000000,"state":"active","ping":82},{"user_id":295,"name":"√Ñ√§rik ‚ô£","steam_id":76561198131871737,"connected_time":524000000000,"state":"active","ping":59},{"user_id":251,"name":"Mr.Fosty","steam_id":76561198045212783,"connected_time":3731000000000,"state":"active","ping":83},{"user_id":300,"name":"Blink","steam_id":76561198144033005,"connected_time":172000000000,"state":"active","ping":61},{"user_id":268,"name":"Cosmetic brain","steam_id":76561198055936410,"connected_time":2316000000000,"state":"active","ping":81},{"user_id":274,"name":"jakov inwestowaƒá","steam_id":76561198052282542,"connected_time":1869000000000,"state":"active","ping":70},{"user_id":273,"name":"wit tijgerbrood","steam_id":76561198316462394,"connected_time":1961000000000,"state":"active","ping":69},{"user_id":247,"name":"Marko Rutto","steam_id":76561198124226614,"connected_time":3949000000000,"state":"active","ping":65},{"user_id":293,"name":"marsel","steam_id":76561198116168271,"connected_time":911000000000,"state":"active","ping":75}]},{"server_id":310,"name":"Uncletopia | Frankfurt | 5 | All Maps","name_short":"frk-5","host":"frk-1.de.uncletopia.com","port":27055,"enabled":true,"region":"eu","cc":"de","latitude":50.110924,"longitude":8.682127,"reserved":0,"last_update":"0001-01-01T00:00:00Z","name_a2s":"Uncletopia | Frankfurt | 5 | All Maps","protocol":17,"map":"pl_barnblitz","folder":"tf","game":"Team Fortress","app_id":440,"player_count":24,"max_players":24,"Bots":0,"server_type":"Dedicated","server_os":"Linux","password":true,"vac":true,"version":"7742253","steam_id":85568392924504277,"keywords":["nocrits","nodmgspread","payload","uncletopia"],"game_id":440,"stv_port":27056,"stv_name":"Uncletopia | Frankfurt | 5 | All Maps | STV","players":[{"user_id":157,"name":"[HOL] Solringen","steam_id":76561198003584681,"connected_time":1676000000000,"state":"active","ping":65},{"user_id":166,"name":"Echo of Abyss","steam_id":76561198981841782,"connected_time":823000000000,"state":"active","ping":77},{"user_id":172,"name":"Hanƒ±mSever23","steam_id":76561198142124751,"connected_time":53000000000,"state":"active","ping":115},{"user_id":145,"name":"Dzigi2014","steam_id":76561198146147595,"connected_time":2629000000000,"state":"active","ping":55},{"user_id":152,"name":"bigwish | bmod.tf","steam_id":76561197997859723,"connected_time":2450000000000,"state":"active","ping":68},{"user_id":160,"name":"LOBZIK","steam_id":76561198114830120,"connected_time":1262000000000,"state":"active","ping":81},{"user_id":165,"name":"WhiteFountain","steam_id":76561198131996194,"connected_time":1118000000000,"state":"active","ping":90},{"user_id":161,"name":"Cobb Salads","steam_id":76561197971140507,"connected_time":1259000000000,"state":"active","ping":75},{"user_id":168,"name":"galad.game","steam_id":76561198336324159,"connected_time":299000000000,"state":"active","ping":60},{"user_id":99,"name":"O=(‚Äò-‚ÄôQ)","steam_id":76561198069685870,"connected_time":6064000000000,"state":"active","ping":77},{"user_id":162,"name":"ricorno","steam_id":76561199441603388,"connected_time":1221000000000,"state":"active","ping":75},{"user_id":159,"name":"Vibing Wave [IRAN]","steam_id":76561198866358613,"connected_time":1588000000000,"state":"active","ping":149},{"user_id":170,"name":"System","steam_id":76561199442503973,"connected_time":102000000000,"state":"active","ping":57},{"user_id":171,"name":"frying pan (real)","steam_id":76561198875409640,"connected_time":95000000000,"state":"active","ping":71},{"user_id":103,"name":"wouris","steam_id":76561198876188003,"connected_time":4866000000000,"state":"active","ping":65},{"user_id":150,"name":"vertman90210","steam_id":76561199000067805,"connected_time":2472000000000,"state":"active","ping":66},{"user_id":97,"name":"VIN WEASEL","steam_id":76561198014387066,"connected_time":6311000000000,"state":"active","ping":50},{"user_id":163,"name":"cuteacidUwU","steam_id":76561199257510555,"connected_time":1213000000000,"state":"active","ping":148},{"user_id":164,"name":"Platform666","steam_id":76561198314266851,"connected_time":1190000000000,"state":"active","ping":89},{"user_id":155,"name":"the joy of recycling","steam_id":76561198415564349,"connected_time":2053000000000,"state":"active","ping":68},{"user_id":154,"name":"pepper","steam_id":76561198059782462,"connected_time":2283000000000,"state":"active","ping":59},{"user_id":110,"name":"666sammy","steam_id":76561198016607625,"connected_time":4221000000000,"state":"active","ping":102},{"user_id":88,"name":"subway vergil","steam_id":76561199110064166,"connected_time":6896000000000,"state":"active","ping":70},{"user_id":174,"name":"Kid named finger","steam_id":76561199213971402,"connected_time":25000000000,"state":"spawning","ping":91}]},{"server_id":311,"name":"Uncletopia | Frankfurt | 6 | All Maps","name_short":"frk-6","host":"frk-1.de.uncletopia.com","port":27065,"enabled":true,"region":"eu","cc":"de","latitude":50.110924,"longitude":8.682127,"reserved":0,"last_update":"0001-01-01T00:00:00Z","name_a2s":"Uncletopia | Frankfurt | 6 | All Maps","protocol":17,"map":"koth_lakeside_final","folder":"tf","game":"Team Fortress","app_id":440,"player_count":0,"max_players":24,"Bots":0,"server_type":"Dedicated","server_os":"Linux","password":true,"vac":true,"version":"7742253","steam_id":85568392924504278,"keywords":["cp","nocrits","nodmgspread","uncletopia"],"game_id":440,"stv_port":27066,"stv_name":"Uncletopia | Frankfurt | 6 | All Maps | STV","players":null},{"server_id":23,"name":"Uncletopia | Frankfurt | 7 | Stopwatch Beta","name_short":"frk-7","host":"frk-1.de.uncletopia.com","port":27075,"enabled":true,"region":"eu","cc":"de","latitude":50.110924,"longitude":8.682127,"reserved":0,"last_update":"0001-01-01T00:00:00Z","name_a2s":"Uncletopia | Frankfurt | 7 | Stopwatch Beta","protocol":17,"map":"pl_badwater","folder":"tf","game":"Team Fortress","app_id":440,"player_count":0,"max_players":24,"Bots":0,"server_type":"Dedicated","server_os":"Linux","password":true,"vac":true,"version":"7742253","steam_id":85568392924742827,"keywords":["nocrits","nodmgspread","payload","uncletopia"],"game_id":440,"stv_port":27076,"stv_name":"Uncletopia | Frankfurt | 7 | Stopwatch Beta | STV","players":null},{"server_id":24,"name":"Uncletopia | Frankfurt | 8 | Community","name_short":"frk-8","host":"frk-1.de.uncletopia.com","port":27085,"enabled":true,"region":"eu","cc":"de","latitude":50.110924,"longitude":8.682127,"reserved":0,"last_update":"0001-01-01T00:00:00Z","name_a2s":"Uncletopia | Frankfurt | 8 | Community","protocol":17,"map":"koth_cascade","folder":"tf","game":"Team Fortress","app_id":440,"player_count":0,"max_players":24,"Bots":0,"server_type":"Dedicated","server_os":"Linux","password":true,"vac":true,"version":"7742253","steam_id":85568392924742828,"keywords":["cp","nocrits","nodmgspread","uncletopia"],"game_id":440,"stv_port":27086,"stv_name":"Uncletopia | Frankfurt | 8 | Community | STV","players":null},{"server_id":202,"name":"Uncletopia | Hong Kong | 1 | All Maps","name_short":"hgk-1","host":"hgk-1.hk.uncletopia.com","port":27015,"enabled":true,"region":"asia","cc":"hk","latitude":22.302711,"longitude":114.177216,"reserved":0,"last_update":"0001-01-01T00:00:00Z","name_a2s":"Uncletopia | Hong Kong | 1 | All Maps","protocol":17,"map":"pl_snowycoast","folder":"tf","game":"Team Fortress","app_id":440,"player_count":11,"max_players":24,"Bots":0,"server_type":"Dedicated","server_os":"Linux","password":true,"vac":true,"version":"7742253","steam_id":85568392924494504,"keywords":["nocrits","nodmgspread","payload","uncletopia"],"game_id":440,"stv_port":27016,"stv_name":"Uncletopia | Hong Kong | 1 | All Maps | STV","players":[{"user_id":883,"name":"c.na4","steam_id":76561198965889429,"connected_time":1439000000000,"state":"active","ping":95},{"user_id":894,"name":"Rain.","steam_id":76561198843129303,"connected_time":877000000000,"state":"active","ping":48},{"user_id":898,"name":"ƒê·∫£ng C·ªông S·∫£n Vi·ªát Nam","steam_id":76561199113304832,"connected_time":668000000000,"state":"active","ping":67},{"user_id":903,"name":"IHatePronouns","steam_id":76561199233418741,"connected_time":43000000000,"state":"active","ping":816},{"user_id":896,"name":"Stefan32","steam_id":76561199209619786,"connected_time":705000000000,"state":"active","ping":296},{"user_id":888,"name":"Waltuh (CEO of Chicanery)","steam_id":76561199257300024,"connected_time":1148000000000,"state":"active","ping":77},{"user_id":889,"name":"joeymamoey","steam_id":76561199054921351,"connected_time":1119000000000,"state":"active","ping":266},{"user_id":890,"name":"Zacy","steam_id":76561198114841670,"connected_time":1115000000000,"state":"active","ping":63},{"user_id":899,"name":"Tomboy enjoyer","steam_id":76561198211125575,"connected_time":621000000000,"state":"active","ping":142},{"user_id":902,"name":"\u003cNULL\u003e","steam_id":76561198079489150,"connected_time":294000000000,"state":"active","ping":314},{"user_id":880,"name":"gilsomnia","steam_id":76561198830813639,"connected_time":1960000000000,"state":"active","ping":112}]},{"server_id":1,"name":"Uncletopia | Los Angeles | 1 | All Maps","name_short":"lax-1","host":"lax-1.us.uncletopia.com","port":27015,"enabled":true,"region":"us-west","cc":"us","latitude":33.94279,"longitude":-118.41004,"reserved":0,"last_update":"0001-01-01T00:00:00Z","name_a2s":"Uncletopia | Los Angeles | 1 | All Maps","protocol":17,"map":"cp_dustbowl","folder":"tf","game":"Team Fortress","app_id":440,"player_count":0,"max_players":24,"Bots":0,"server_type":"Dedicated","server_os":"Linux","password":true,"vac":true,"version":"7742253","steam_id":85568392924469991,"keywords":["cp","nocrits","nodmgspread","uncletopia"],"game_id":440,"stv_port":27016,"stv_name":"Uncletopia | Los Angeles | 1 | All Maps | STV","players":null},{"server_id":112,"name":"Uncletopia | Los Angeles | 2 | All Maps","name_short":"lax-2","host":"lax-1.us.uncletopia.com","port":27025,"enabled":true,"region":"us-west","cc":"us","latitude":33.94279,"longitude":-118.41004,"reserved":0,"last_update":"0001-01-01T00:00:00Z","name_a2s":"Uncletopia | Los Angeles | 2 | All Maps","protocol":17,"map":"pl_frontier_final","folder":"tf","game":"Team Fortress","app_id":440,"player_count":0,"max_players":24,"Bots":0,"server_type":"Dedicated","server_os":"Linux","password":true,"vac":true,"version":"7742253","steam_id":85568392924469992,"keywords":["nocrits","nodmgspread","payload","uncletopia"],"game_id":440,"stv_port":27026,"stv_name":"Uncletopia | Los Angeles | 2 | All Maps | STV","players":null},{"server_id":324,"name":"Uncletopia | Los Angeles | 3 | All Maps","name_short":"lax-3","host":"lax-1.us.uncletopia.com","port":27035,"enabled":true,"region":"us-west","cc":"us","latitude":33.94279,"longitude":-118.41004,"reserved":0,"last_update":"0001-01-01T00:00:00Z","name_a2s":"Uncletopia | Los Angeles | 3 | All Maps","protocol":17,"map":"cp_snakewater_final1","folder":"tf","game":"Team Fortress","app_id":440,"player_count":0,"max_players":24,"Bots":0,"server_type":"Dedicated","server_os":"Linux","password":true,"vac":true,"version":"7742253","steam_id":85568392924510198,"keywords":["cp","nocrits","nodmgspread","uncletopia"],"game_id":440,"stv_port":27036,"stv_name":"Uncletopia | Los Angeles | 3 | All Maps | STV","players":null},{"server_id":25,"name":"Uncletopia | Los Angeles | 4 | Stopwatch Beta","name_short":"lax-4","host":"lax-1.us.uncletopia.com","port":27045,"enabled":true,"region":"us-west","cc":"us","latitude":33.94279,"longitude":-118.41004,"reserved":0,"last_update":"0001-01-01T00:00:00Z","name_a2s":"Uncletopia | Los Angeles | 4 | Stopwatch Beta","protocol":17,"map":"cp_snakewater_final1","folder":"tf","game":"Team Fortress","app_id":440,"player_count":0,"max_players":24,"Bots":0,"server_type":"Dedicated","server_os":"Linux","password":true,"vac":true,"version":"7742253","steam_id":85568392924510199,"keywords":["cp","nocrits","nodmgspread","uncletopia"],"game_id":440,"stv_port":27046,"stv_name":"Uncletopia | Los Angeles | 4 | Stopwatch Beta | STV","players":null},{"server_id":11,"name":"Uncletopia | London | 1 | All Maps","name_short":"lon-1","host":"lon-1.uk.uncletopia.com","port":27015,"enabled":true,"region":"eu","cc":"gb","latitude":51.509865,"longitude":-0.118092,"reserved":0,"last_update":"0001-01-01T00:00:00Z","name_a2s":"Uncletopia | London | 1 | All Maps","protocol":17,"map":"pl_frontier_final","folder":"tf","game":"Team Fortress","app_id":440,"player_count":24,"max_players":24,"Bots":0,"server_type":"Dedicated","server_os":"Linux","password":true,"vac":true,"version":"7742253","steam_id":85568392924367362,"keywords":["nocrits","nodmgspread","payload","uncletopia"],"game_id":440,"stv_port":27016,"stv_name":"Uncletopia | London | 1 | All Maps | STV","players":[{"user_id":403,"name":"One Hop Dis Time *BWRAB*","steam_id":76561198146081601,"connected_time":2455000000000,"state":"active","ping":52},{"user_id":429,"name":"Posho","steam_id":76561198062396436,"connected_time":1303000000000,"state":"active","ping":39},{"user_id":408,"name":"Drawner","steam_id":76561199031355711,"connected_time":2309000000000,"state":"active","ping":43},{"user_id":386,"name":"Abby","steam_id":76561198170528489,"connected_time":3549000000000,"state":"active","ping":64},{"user_id":387,"name":"Nemium","steam_id":76561198070757635,"connected_time":3531000000000,"state":"active","ping":65},{"user_id":401,"name":"Fish person [less endangered]","steam_id":76561198390645507,"connected_time":2560000000000,"state":"active","ping":41},{"user_id":422,"name":"lisivi","steam_id":76561198365503306,"connected_time":1627000000000,"state":"active","ping":45},{"user_id":435,"name":"Snehashish Banerjee","steam_id":76561198081356300,"connected_time":641000000000,"state":"active","ping":66},{"user_id":430,"name":"Brownieboi217","steam_id":76561199316891777,"connected_time":1249000000000,"state":"active","ping":56},{"user_id":416,"name":"wamw","steam_id":76561199206660048,"connected_time":1985000000000,"state":"active","ping":67},{"user_id":402,"name":"jessica","steam_id":76561198116981188,"connected_time":2540000000000,"state":"active","ping":64},{"user_id":441,"name":"Lamorfomeba","steam_id":76561199063593524,"connected_time":2000000000,"state":"spawning","ping":69},{"user_id":413,"name":"Swayer","steam_id":76561198056192460,"connected_time":2155000000000,"state":"active","ping":57},{"user_id":414,"name":"Mass","steam_id":76561198432195204,"connected_time":2110000000000,"state":"active","ping":58},{"user_id":438,"name":"john fortress","steam_id":76561198202668788,"connected_time":111000000000,"state":"active","ping":65},{"user_id":415,"name":"sesw","steam_id":76561198057332404,"connected_time":2077000000000,"state":"active","ping":52},{"user_id":434,"name":"SLoW","steam_id":76561198032650972,"connected_time":854000000000,"state":"active","ping":105},{"user_id":432,"name":"spxcy","steam_id":76561198080296853,"connected_time":1140000000000,"state":"active","ping":96},{"user_id":439,"name":"Shirogame","steam_id":76561198126154697,"connected_time":30000000000,"state":"spawning","ping":84},{"user_id":425,"name":"Cu713","steam_id":76561198175463442,"connected_time":1558000000000,"state":"active","ping":80},{"user_id":419,"name":"Lord","steam_id":76561198024964817,"connected_time":1887000000000,"state":"active","ping":45},{"user_id":421,"name":"Austino Inc.","steam_id":76561198359552677,"connected_time":1814000000000,"state":"active","ping":428},{"user_id":440,"name":"Sipsu","steam_id":76561198059424107,"connected_time":18000000000,"state":"spawning","ping":110},{"user_id":428,"name":"starsync","steam_id":76561198176766595,"connected_time":1498000000000,"state":"active","ping":97}]},{"server_id":114,"name":"Uncletopia | London | 2 | All Maps","name_short":"lon-2","host":"lon-1.uk.uncletopia.com","port":27025,"enabled":true,"region":"eu","cc":"gb","latitude":51.509865,"longitude":-0.118092,"reserved":0,"last_update":"0001-01-01T00:00:00Z","name_a2s":"Uncletopia | London | 2 | All Maps","protocol":17,"map":"pl_badwater","folder":"tf","game":"Team Fortress","app_id":440,"player_count":24,"max_players":24,"Bots":0,"server_type":"Dedicated","server_os":"Linux","password":true,"vac":true,"version":"7742253","steam_id":85568392924470941,"keywords":["nocrits","nodmgspread","payload","uncletopia"],"game_id":440,"stv_port":27026,"stv_name":"Uncletopia | London | 2 | All Maps | STV","players":[{"user_id":343,"name":"Gaattori","steam_id":76561198065624683,"connected_time":2715000000000,"state":"active","ping":91},{"user_id":350,"name":"homeinvasion$","steam_id":76561199111905021,"connected_time":2219000000000,"state":"active","ping":107},{"user_id":364,"name":"Accident","steam_id":76561198115160396,"connected_time":795000000000,"state":"active","ping":76},{"user_id":320,"name":"Hydro","steam_id":76561199081791855,"connected_time":4726000000000,"state":"active","ping":55},{"user_id":353,"name":"meriones","steam_id":76561198034234373,"connected_time":1494000000000,"state":"active","ping":39},{"user_id":329,"name":"Val23","steam_id":76561198099480715,"connected_time":4613000000000,"state":"active","ping":48},{"user_id":260,"name":"Thesis","steam_id":76561199308784371,"connected_time":10112000000000,"state":"active","ping":61},{"user_id":322,"name":"agent creep","steam_id":76561198059933595,"connected_time":4697000000000,"state":"active","ping":46},{"user_id":363,"name":"cherry","steam_id":76561199006915718,"connected_time":903000000000,"state":"active","ping":60},{"user_id":362,"name":"Xoriss","steam_id":76561198045892147,"connected_time":1124000000000,"state":"active","ping":74},{"user_id":373,"name":"Teddy K","steam_id":76561198361429984,"connected_time":79000000000,"state":"active","ping":76},{"user_id":371,"name":"Hann√º","steam_id":76561197969886128,"connected_time":328000000000,"state":"active","ping":52},{"user_id":335,"name":"kpn","steam_id":76561198063512694,"connected_time":3964000000000,"state":"active","ping":46},{"user_id":333,"name":"–ì–¥–µ –º–æ—Ä–µ?","steam_id":76561197979625544,"connected_time":4204000000000,"state":"active","ping":95},{"user_id":356,"name":"olsaan","steam_id":76561198045216309,"connected_time":1427000000000,"state":"active","ping":51},{"user_id":358,"name":"Comunisation","steam_id":76561199131568273,"connected_time":1326000000000,"state":"active","ping":71},{"user_id":367,"name":"Rosehip","steam_id":76561198860690846,"connected_time":549000000000,"state":"active","ping":104},{"user_id":334,"name":"Jendos","steam_id":76561198026471272,"connected_time":4001000000000,"state":"active","ping":119},{"user_id":372,"name":"Tickleshits","steam_id":76561198159197241,"connected_time":322000000000,"state":"active","ping":132},{"user_id":361,"name":"Searching...","steam_id":76561198191078771,"connected_time":1199000000000,"state":"active","ping":72},{"user_id":366,"name":"Hangaro","steam_id":76561198045849684,"connected_time":580000000000,"state":"active","ping":100},{"user_id":369,"name":"„ÉÜ„Ç§„É´„Çπ","steam_id":76561198022403271,"connected_time":499000000000,"state":"active","ping":48},{"user_id":326,"name":"agent weirdo","steam_id":76561198105707824,"connected_time":4666000000000,"state":"active","ping":104},{"user_id":173,"name":"Welder","steam_id":76561198355300561,"connected_time":17944000000000,"state":"active","ping":74}]},{"server_id":320,"name":"Uncletopia | London | 3 | All Maps","name_short":"lon-3","host":"lon-1.uk.uncletopia.com","port":27035,"enabled":true,"region":"eu","cc":"gb","latitude":51.509865,"longitude":-0.118092,"reserved":0,"last_update":"0001-01-01T00:00:00Z","name_a2s":"Uncletopia | London | 3 | All Maps","protocol":17,"map":"pl_pier","folder":"tf","game":"Team Fortress","app_id":440,"player_count":24,"max_players":24,"Bots":0,"server_type":"Dedicated","server_os":"Linux","password":true,"vac":true,"version":"7742253","steam_id":85568392924510192,"keywords":["nocrits","nodmgspread","payload","uncletopia"],"game_id":440,"stv_port":27036,"stv_name":"Uncletopia | London | 3 | All Maps | STV","players":[{"user_id":165,"name":"The","steam_id":76561198359311605,"connected_time":1452000000000,"state":"active","ping":81},{"user_id":166,"name":"cropping","steam_id":76561198026586456,"connected_time":1418000000000,"state":"active","ping":59},{"user_id":81,"name":"wheelie bin","steam_id":76561198040040328,"connected_time":5357000000000,"state":"active","ping":52},{"user_id":190,"name":"green_frog","steam_id":76561199202028346,"connected_time":356000000000,"state":"active","ping":197},{"user_id":179,"name":"It hurts when i pee (real)","steam_id":76561198139404261,"connected_time":1068000000000,"state":"active","ping":42},{"user_id":167,"name":"Saken","steam_id":76561198049075295,"connected_time":1402000000000,"state":"active","ping":61},{"user_id":172,"name":"Kilowai","steam_id":76561198040922142,"connected_time":1356000000000,"state":"active","ping":75},{"user_id":163,"name":"birchsearch!","steam_id":76561198037134053,"connected_time":1638000000000,"state":"active","ping":76},{"user_id":182,"name":"Bepis","steam_id":76561198079207888,"connected_time":1033000000000,"state":"active","ping":52},{"user_id":161,"name":"Fryden","steam_id":76561198208064564,"connected_time":1784000000000,"state":"active","ping":88},{"user_id":168,"name":"homestuck on main","steam_id":76561198820197253,"connected_time":1395000000000,"state":"active","ping":69},{"user_id":112,"name":"Wehemmesu","steam_id":76561199446098244,"connected_time":4037000000000,"state":"active","ping":81},{"user_id":188,"name":"Negurescu","steam_id":76561198128777349,"connected_time":394000000000,"state":"active","ping":86},{"user_id":181,"name":"DOMAIN","steam_id":76561199095640319,"connected_time":1046000000000,"state":"active","ping":90},{"user_id":171,"name":"Fatzkuh! üêÑ","steam_id":76561197977199598,"connected_time":1367000000000,"state":"active","ping":51},{"user_id":99,"name":"Engie gaming","steam_id":76561198003366826,"connected_time":4701000000000,"state":"active","ping":66},{"user_id":152,"name":"Coac","steam_id":76561198085265740,"connected_time":2165000000000,"state":"active","ping":70},{"user_id":131,"name":"Zateske","steam_id":76561198047446276,"connected_time":2990000000000,"state":"active","ping":71},{"user_id":185,"name":"lark","steam_id":76561198091724522,"connected_time":783000000000,"state":"active","ping":59},{"user_id":58,"name":"Frazzles","steam_id":76561199228009586,"connected_time":6187000000000,"state":"active","ping":44},{"user_id":191,"name":"SpaceGoat","steam_id":76561198091774304,"connected_time":281000000000,"state":"active","ping":50},{"user_id":141,"name":"Asfreild","steam_id":76561198055901120,"connected_time":2734000000000,"state":"active","ping":73},{"user_id":164,"name":"gogu","steam_id":76561198271945503,"connected_time":1613000000000,"state":"active","ping":64},{"user_id":177,"name":"Pain","steam_id":76561198106997949,"connected_time":1142000000000,"state":"active","ping":79}]},{"server_id":321,"name":"Uncletopia | London | 4 | All Maps","name_short":"lon-4","host":"lon-1.uk.uncletopia.com","port":27045,"enabled":true,"region":"eu","cc":"gb","latitude":51.509865,"longitude":-0.118092,"reserved":0,"last_update":"0001-01-01T00:00:00Z","name_a2s":"Uncletopia | London | 4 | All Maps","protocol":17,"map":"koth_highpass","folder":"tf","game":"Team Fortress","app_id":440,"player_count":1,"max_players":24,"Bots":0,"server_type":"Dedicated","server_os":"Linux","password":true,"vac":true,"version":"7742253","steam_id":85568392924510193,"keywords":["cp","nocrits","nodmgspread","uncletopia"],"game_id":440,"stv_port":27046,"stv_name":"Uncletopia | London | 4 | All Maps | STV","players":[{"user_id":7,"name":"Jaggy Snake","steam_id":76561197972779231,"connected_time":510000000000,"state":"active","ping":44}]},{"server_id":21,"name":"Uncletopia | London | 5 | All Maps","name_short":"lon-5","host":"lon-1.uk.uncletopia.com","port":27055,"enabled":true,"region":"eu","cc":"gb","latitude":51.509865,"longitude":-0.118092,"reserved":0,"last_update":"0001-01-01T00:00:00Z","name_a2s":"Uncletopia | London | 5 | All Maps","protocol":17,"map":"koth_highpass","folder":"tf","game":"Team Fortress","app_id":440,"player_count":0,"max_players":24,"Bots":0,"server_type":"Dedicated","server_os":"Linux","password":true,"vac":true,"version":"7742253","steam_id":85568392924742829,"keywords":["cp","nocrits","nodmgspread","uncletopia"],"game_id":440,"stv_port":27056,"stv_name":"Uncletopia | London | 5 | All Maps | STV","players":null},{"server_id":22,"name":"Uncletopia | London | 6 | All Maps","name_short":"lon-6","host":"lon-1.uk.uncletopia.com","port":27065,"enabled":true,"region":"eu","cc":"gb","latitude":51.509865,"longitude":-0.118092,"reserved":0,"last_update":"0001-01-01T00:00:00Z","name_a2s":"Uncletopia | London | 6 | All Maps","protocol":17,"map":"pl_upward","folder":"tf","game":"Team Fortress","app_id":440,"player_count":22,"max_players":24,"Bots":0,"server_type":"Dedicated","server_os":"Linux","password":true,"vac":true,"version":"7742253","steam_id":85568392924742830,"keywords":["nocrits","nodmgspread","payload","uncletopia"],"game_id":440,"stv_port":27066,"stv_name":"Uncletopia | London | 6 | All Maps | STV","players":[{"user_id":52,"name":"[G.E.W.P.] | Gr0t0s","steam_id":76561198157368331,"connected_time":3686000000000,"state":"active","ping":79},{"user_id":74,"name":"Stitch","steam_id":76561198034169403,"connected_time":1413000000000,"state":"active","ping":52},{"user_id":72,"name":"FishNachoz","steam_id":76561198026519426,"connected_time":1589000000000,"state":"active","ping":35},{"user_id":16,"name":"chopsticks","steam_id":76561198045899345,"connected_time":5224000000000,"state":"active","ping":106},{"user_id":56,"name":"nvmHastee","steam_id":76561199371458295,"connected_time":3473000000000,"state":"active","ping":103},{"user_id":18,"name":"Havelyn","steam_id":76561198036159862,"connected_time":5155000000000,"state":"active","ping":137},{"user_id":69,"name":"RelatableiLLness","steam_id":76561198441669772,"connected_time":1903000000000,"state":"active","ping":144},{"user_id":78,"name":"waddle dork","steam_id":76561198297349985,"connected_time":960000000000,"state":"active","ping":60},{"user_id":65,"name":"macauw","steam_id":76561198010467088,"connected_time":2213000000000,"state":"active","ping":53},{"user_id":79,"name":"silly","steam_id":76561198145055526,"connected_time":960000000000,"state":"active","ping":122},{"user_id":53,"name":"ZOMBINŒ£","steam_id":76561198151057964,"connected_time":3685000000000,"state":"active","ping":85},{"user_id":48,"name":"Tugazu","steam_id":76561198144223649,"connected_time":4120000000000,"state":"active","ping":75},{"user_id":81,"name":"Gaming memes","steam_id":76561198122306142,"connected_time":794000000000,"state":"active","ping":52},{"user_id":68,"name":"The Subway Scientist","steam_id":76561198193757646,"connected_time":1949000000000,"state":"active","ping":45},{"user_id":82,"name":"Asphi","steam_id":76561198071606547,"connected_time":606000000000,"state":"active","ping":49},{"user_id":70,"name":"Espa√±aa","steam_id":76561198879587832,"connected_time":1721000000000,"state":"active","ping":61},{"user_id":71,"name":"xfolo","steam_id":76561198219022400,"connected_time":1656000000000,"state":"active","ping":39},{"user_id":34,"name":"‚ú™ Sneaky Goat","steam_id":76561198073218119,"connected_time":4536000000000,"state":"active","ping":73},{"user_id":61,"name":"ACasualWalnut","steam_id":76561198811827496,"connected_time":2763000000000,"state":"active","ping":133},{"user_id":83,"name":"juicymangoes","steam_id":76561198131670413,"connected_time":44000000000,"state":"active","ping":62},{"user_id":59,"name":"Butt Fangs Fetish","steam_id":76561198038130063,"connected_time":3379000000000,"state":"active","ping":81},{"user_id":41,"name":"wickEd_","steam_id":76561198048068999,"connected_time":4430000000000,"state":"active","ping":136}]},{"server_id":40,"name":"Uncletopia | London | 7 | No Payload","name_short":"lon-7","host":"lon-1.uk.uncletopia.com","port":27075,"enabled":true,"region":"eu","cc":"gb","latitude":51.509865,"longitude":-0.118092,"reserved":0,"last_update":"0001-01-01T00:00:00Z","name_a2s":"Uncletopia | London | 7 | No Payload","protocol":17,"map":"koth_viaduct","folder":"tf","game":"Team Fortress","app_id":440,"player_count":0,"max_players":24,"Bots":0,"server_type":"Dedicated","server_os":"Linux","password":true,"vac":true,"version":"7742253","steam_id":85568392924964314,"keywords":["cp","nocrits","nodmgspread","uncletopia"],"game_id":440,"stv_port":27076,"stv_name":"Uncletopia | London | 7 | No Payload | STV","players":null},{"server_id":41,"name":"Uncletopia | London | 8 | Community","name_short":"lon-8","host":"lon-1.uk.uncletopia.com","port":27085,"enabled":true,"region":"eu","cc":"gb","latitude":51.509865,"longitude":-0.118092,"reserved":0,"last_update":"0001-01-01T00:00:00Z","name_a2s":"Uncletopia | London | 8 | Community","protocol":17,"map":"workshop/cp_sulfur_rc2.ugc619869471","folder":"tf","game":"Team Fortress","app_id":440,"player_count":0,"max_players":24,"Bots":0,"server_type":"Dedicated","server_os":"Linux","password":true,"vac":true,"version":"7742253","steam_id":85568392924964315,"keywords":["cp","nocrits","nodmgspread","uncletopia"],"game_id":440,"stv_port":27086,"stv_name":"Uncletopia | London | 8 | Community | STV","players":null},{"server_id":300,"name":"Uncletopia | Montr√©al | 1 | All Maps","name_short":"mtl-1","host":"mtl-1.ca.uncletopia.com","port":27015,"enabled":true,"region":"us-east","cc":"ca","latitude":45.50889,"longitude":-73.56167,"reserved":0,"last_update":"0001-01-01T00:00:00Z","name_a2s":"Uncletopia | Montr√©al | 1 | All Maps","protocol":17,"map":"cp_snakewater_final1","folder":"tf","game":"Team Fortress","app_id":440,"player_count":0,"max_players":24,"Bots":0,"server_type":"Dedicated","server_os":"Linux","password":true,"vac":true,"version":"7742253","steam_id":85568392924500087,"keywords":["cp","nocrits","nodmgspread","uncletopia"],"game_id":440,"stv_port":27016,"stv_name":"Uncletopia | Montr√©al | 1 | All Maps | STV","players":null},{"server_id":301,"name":"Uncletopia | Montr√©al | 2 | All Maps","name_short":"mtl-2","host":"mtl-1.ca.uncletopia.com","port":27025,"enabled":true,"region":"us-east","cc":"ca","latitude":45.50889,"longitude":-73.56167,"reserved":0,"last_update":"0001-01-01T00:00:00Z","name_a2s":"Uncletopia | Montr√©al | 2 | All Maps","protocol":17,"map":"koth_highpass","folder":"tf","game":"Team Fortress","app_id":440,"player_count":0,"max_players":24,"Bots":0,"server_type":"Dedicated","server_os":"Linux","password":true,"vac":true,"version":"7742253","steam_id":85568392924500088,"keywords":["cp","nocrits","nodmgspread","uncletopia"],"game_id":440,"stv_port":27026,"stv_name":"Uncletopia | Montr√©al | 2 | All Maps | STV","players":null},{"server_id":302,"name":"Uncletopia | Montr√©al | 3 | All Maps","name_short":"mtl-3","host":"mtl-1.ca.uncletopia.com","port":27035,"enabled":true,"region":"us-east","cc":"ca","latitude":45.50889,"longitude":-73.56167,"reserved":0,"last_update":"0001-01-01T00:00:00Z","name_a2s":"Uncletopia | Montr√©al | 3 | All Maps","protocol":17,"map":"cp_mountainlab","folder":"tf","game":"Team Fortress","app_id":440,"player_count":0,"max_players":24,"Bots":0,"server_type":"Dedicated","server_os":"Linux","password":true,"vac":true,"version":"7742253","steam_id":85568392924500089,"keywords":["cp","nocrits","nodmgspread","uncletopia"],"game_id":440,"stv_port":27036,"stv_name":"Uncletopia | Montr√©al | 3 | All Maps | STV","players":null},{"server_id":303,"name":"Uncletopia | Montr√©al | 4 | No Payload","name_short":"mtl-4","host":"mtl-1.ca.uncletopia.com","port":27045,"enabled":true,"region":"us-east","cc":"ca","latitude":45.50889,"longitude":-73.56167,"reserved":0,"last_update":"0001-01-01T00:00:00Z","name_a2s":"Uncletopia | Montr√©al | 4 | No Payload","protocol":17,"map":"cp_snakewater_final1","folder":"tf","game":"Team Fortress","app_id":440,"player_count":0,"max_players":24,"Bots":0,"server_type":"Dedicated","server_os":"Linux","password":true,"vac":true,"version":"7742253","steam_id":85568392924500090,"keywords":["cp","nocrits","nodmgspread","uncletopia"],"game_id":440,"stv_port":27046,"stv_name":"Uncletopia | Montr√©al | 4 | No Payload | STV","players":null},{"server_id":13,"name":"Uncletopia | New York City | 1 | All Maps","name_short":"nyc-1","host":"nyc-1.us.uncletopia.com","port":27015,"enabled":true,"region":"us-east","cc":"us","latitude":40.73061,"longitude":-73.93524,"reserved":0,"last_update":"0001-01-01T00:00:00Z","name_a2s":"Uncletopia | New York City | 1 | All Maps","protocol":17,"map":"cp_sunshine","folder":"tf","game":"Team Fortress","app_id":440,"player_count":23,"max_players":24,"Bots":0,"server_type":"Dedicated","server_os":"Linux","password":true,"vac":true,"version":"7742253","steam_id":85568392924469993,"keywords":["cp","nocrits","nodmgspread","uncletopia"],"game_id":440,"stv_port":27016,"stv_name":"Uncletopia | New York City | 1 | All Maps | STV","players":[{"user_id":105,"name":"Draconic Ballad","steam_id":76561198027191515,"connected_time":2325000000000,"state":"active","ping":60},{"user_id":34,"name":"NoShen","steam_id":76561198147434663,"connected_time":6427000000000,"state":"active","ping":74},{"user_id":115,"name":"jhatzy","steam_id":76561198853607142,"connected_time":1112000000000,"state":"active","ping":48},{"user_id":118,"name":"*yro'ue","steam_id":76561199075832935,"connected_time":809000000000,"state":"active","ping":77},{"user_id":111,"name":"hi","steam_id":76561198809577048,"connected_time":1505000000000,"state":"active","ping":120},{"user_id":98,"name":"zaleek69","steam_id":76561198058877595,"connected_time":2729000000000,"state":"active","ping":144},{"user_id":108,"name":"Blu Medic","steam_id":76561198213856219,"connected_time":1678000000000,"state":"active","ping":113},{"user_id":50,"name":"uncle kringle gaming","steam_id":76561198063024859,"connected_time":5603000000000,"state":"active","ping":56},{"user_id":117,"name":"googy doogy","steam_id":76561199025852100,"connected_time":1035000000000,"state":"active","ping":66},{"user_id":122,"name":"Vem","steam_id":76561198117273112,"connected_time":383000000000,"state":"active","ping":64},{"user_id":91,"name":"kripie","steam_id":76561198057124378,"connected_time":3629000000000,"state":"active","ping":165},{"user_id":102,"name":"Zeenobae","steam_id":76561198042537808,"connected_time":2446000000000,"state":"active","ping":78},{"user_id":107,"name":"A Feline Witch","steam_id":76561198073434502,"connected_time":1790000000000,"state":"active","ping":87},{"user_id":119,"name":"srv","steam_id":76561198026589960,"connected_time":649000000000,"state":"active","ping":75},{"user_id":74,"name":"KORF","steam_id":76561197981904410,"connected_time":4287000000000,"state":"active","ping":78},{"user_id":124,"name":"LightBulbGlue #SaveTF2","steam_id":76561198329573529,"connected_time":257000000000,"state":"active","ping":81},{"user_id":116,"name":"Maniaa","steam_id":76561198257140802,"connected_time":1110000000000,"state":"active","ping":46},{"user_id":72,"name":"ThatGuyFromClass","steam_id":76561198445601688,"connected_time":4556000000000,"state":"active","ping":79},{"user_id":113,"name":"sentientpieceoftoast(they/them)","steam_id":76561199032992123,"connected_time":1127000000000,"state":"active","ping":69},{"user_id":110,"name":"Quentin","steam_id":76561198032941413,"connected_time":1648000000000,"state":"active","ping":77},{"user_id":125,"name":"CoolFnafDude","steam_id":76561199105479508,"connected_time":175000000000,"state":"active","ping":78},{"user_id":120,"name":"amablehughes","steam_id":76561199007131236,"connected_time":606000000000,"state":"active","ping":53},{"user_id":121,"name":"Elena Manetta","steam_id":76561197998344054,"connected_time":520000000000,"state":"active","ping":44}]},{"server_id":14,"name":"Uncletopia | New York City | 2 | All Maps","name_short":"nyc-2","host":"nyc-1.us.uncletopia.com","port":27025,"enabled":true,"region":"us-east","cc":"us","latitude":40.73061,"longitude":-73.93524,"reserved":0,"last_update":"0001-01-01T00:00:00Z","name_a2s":"Uncletopia | New York City | 2 | All Maps","protocol":17,"map":"pl_borneo","folder":"tf","game":"Team Fortress","app_id":440,"player_count":24,"max_players":24,"Bots":0,"server_type":"Dedicated","server_os":"Linux","password":true,"vac":true,"version":"7742253","steam_id":85568392924469994,"keywords":["nocrits","nodmgspread","payload","uncletopia"],"game_id":440,"stv_port":27026,"stv_name":"Uncletopia | New York City | 2 | All Maps | STV","players":[{"user_id":28,"name":"beanz","steam_id":76561198023357154,"connected_time":1235000000000,"state":"active","ping":69},{"user_id":6,"name":"octo girl 539","steam_id":76561199169548181,"connected_time":2363000000000,"state":"active","ping":50},{"user_id":54,"name":"yitz","steam_id":76561198375575841,"connected_time":121000000000,"state":"active","ping":69},{"user_id":41,"name":"reis","steam_id":76561199232952016,"connected_time":955000000000,"state":"active","ping":176},{"user_id":36,"name":"vk-AA-","steam_id":76561199049865601,"connected_time":1145000000000,"state":"active","ping":43},{"user_id":50,"name":"Cayenne","steam_id":76561198004614086,"connected_time":499000000000,"state":"active","ping":75},{"user_id":53,"name":"chimp the pimp","steam_id":76561198195582942,"connected_time":215000000000,"state":"active","ping":91},{"user_id":13,"name":"nox","steam_id":76561198054390505,"connected_time":1891000000000,"state":"active","ping":65},{"user_id":52,"name":"flapjack","steam_id":76561199135600709,"connected_time":283000000000,"state":"active","ping":71},{"user_id":22,"name":"sppmorris","steam_id":76561199055512312,"connected_time":1403000000000,"state":"active","ping":75},{"user_id":55,"name":"funny","steam_id":76561198041026017,"connected_time":79000000000,"state":"active","ping":50},{"user_id":47,"name":"farus","steam_id":76561198066521617,"connected_time":564000000000,"state":"active","ping":45},{"user_id":18,"name":"LukeLeal","steam_id":76561198049822995,"connected_time":1529000000000,"state":"active","ping":151},{"user_id":29,"name":"Octo","steam_id":76561198444835257,"connected_time":1227000000000,"state":"active","ping":58},{"user_id":20,"name":"GuyGoom","steam_id":76561198254522178,"connected_time":1464000000000,"state":"active","ping":72},{"user_id":21,"name":"ash monte","steam_id":76561198382343820,"connected_time":1458000000000,"state":"active","ping":42},{"user_id":42,"name":"Kanye is my Biggest Fan","steam_id":76561198162363747,"connected_time":799000000000,"state":"active","ping":72},{"user_id":25,"name":"Loan","steam_id":76561198349921505,"connected_time":1282000000000,"state":"active","ping":106},{"user_id":32,"name":"dudeer733","steam_id":76561198030319392,"connected_time":1184000000000,"state":"active","ping":70},{"user_id":33,"name":"Gooster","steam_id":76561198255311543,"connected_time":1182000000000,"state":"active","ping":146},{"user_id":34,"name":"Final_MarioXD","steam_id":76561199184862419,"connected_time":1168000000000,"state":"active","ping":98},{"user_id":35,"name":"TTV/TheOnlyWit","steam_id":76561199211794957,"connected_time":1165000000000,"state":"active","ping":107},{"user_id":39,"name":"Tourmaline Lazuli","steam_id":76561198987049358,"connected_time":1027000000000,"state":"active","ping":71},{"user_id":51,"name":"DO NOT call me BART SIMPSON!!","steam_id":76561198069113375,"connected_time":479000000000,"state":"active","ping":62}]},{"server_id":15,"name":"Uncletopia | New York City | 3 | Stopwatch Beta","name_short":"nyc-3","host":"nyc-1.us.uncletopia.com","port":27035,"enabled":true,"region":"us-east","cc":"us","latitude":40.73061,"longitude":-73.93524,"reserved":0,"last_update":"0001-01-01T00:00:00Z","name_a2s":"Uncletopia | New York City | 3 | Stopwatch Beta","protocol":17,"map":"pl_pier","folder":"tf","game":"Team Fortress","app_id":440,"player_count":0,"max_players":24,"Bots":0,"server_type":"Dedicated","server_os":"Linux","password":true,"vac":true,"version":"7742253","steam_id":85568392924742820,"keywords":["nocrits","nodmgspread","payload","uncletopia"],"game_id":440,"stv_port":27036,"stv_name":"Uncletopia | New York City | 3 | Stopwatch Beta | STV","players":null},{"server_id":16,"name":"Uncletopia | New York City | 4 | Community","name_short":"nyc-4","host":"nyc-1.us.uncletopia.com","port":27045,"enabled":true,"region":"us-east","cc":"us","latitude":40.73061,"longitude":-73.93524,"reserved":0,"last_update":"0001-01-01T00:00:00Z","name_a2s":"Uncletopia | New York City | 4 | Community","protocol":17,"map":"koth_viaduct","folder":"tf","game":"Team Fortress","app_id":440,"player_count":0,"max_players":24,"Bots":0,"server_type":"Dedicated","server_os":"Linux","password":true,"vac":true,"version":"7742253","steam_id":85568392924742821,"keywords":["cp","nocrits","nodmgspread","uncletopia"],"game_id":440,"stv_port":27046,"stv_name":"Uncletopia | New York City | 4 | Community | STV","players":null},{"server_id":142,"name":"Uncletopia | S√£o Paulo | 1 | All Maps","name_short":"sao-1","host":"sao-1.br.uncletopia.com","port":27015,"enabled":true,"region":"sa","cc":"br","latitude":-23.533773,"longitude":-46.62529,"reserved":0,"last_update":"0001-01-01T00:00:00Z","name_a2s":"Uncletopia | S√£o Paulo | 1 | All Maps","protocol":17,"map":"koth_viaduct","folder":"tf","game":"Team Fortress","app_id":440,"player_count":0,"max_players":24,"Bots":0,"server_type":"Dedicated","server_os":"Linux","password":true,"vac":true,"version":"7742253","steam_id":85568392924469996,"keywords":["cp","nocrits","nodmgspread","uncletopia"],"game_id":440,"stv_port":27016,"stv_name":"Uncletopia | S√£o Paulo | 1 | All Maps | STV","players":null},{"server_id":143,"name":"Uncletopia | S√£o Paulo | 2 | All Maps","name_short":"sao-2","host":"sao-2.br.uncletopia.com","port":27015,"enabled":true,"region":"sa","cc":"br","latitude":-23.533773,"longitude":-46.62529,"reserved":0,"last_update":"0001-01-01T00:00:00Z","name_a2s":"Uncletopia | S√£o Paulo | 2 | All Maps","protocol":17,"map":"koth_viaduct","folder":"tf","game":"Team Fortress","app_id":440,"player_count":0,"max_players":24,"Bots":0,"server_type":"Dedicated","server_os":"Linux","password":true,"vac":true,"version":"7742253","steam_id":85568392924485349,"keywords":["cp","nocrits","nodmgspread","uncletopia"],"game_id":440,"stv_port":27016,"stv_name":"Uncletopia | S√£o Paulo | 2 | All Maps | STV","players":null},{"server_id":7,"name":"Uncletopia | Seattle | 1 | All Maps","name_short":"sea-1","host":"sea-1.us.uncletopia.com","port":27015,"enabled":true,"region":"us-west","cc":"us","latitude":47.608013,"longitude":-122.33517,"reserved":0,"last_update":"0001-01-01T00:00:00Z","name_a2s":"Uncletopia | Seattle | 1 | All Maps","protocol":17,"map":"pl_barnblitz","folder":"tf","game":"Team Fortress","app_id":440,"player_count":24,"max_players":24,"Bots":0,"server_type":"Dedicated","server_os":"Linux","password":true,"vac":true,"version":"7742253","steam_id":85568392924469997,"keywords":["nocrits","nodmgspread","payload","uncletopia"],"game_id":440,"stv_port":27016,"stv_name":"Uncletopia | Seattle | 1 | All Maps | STV","players":[{"user_id":59,"name":"SuperJagops","steam_id":76561198034689716,"connected_time":1520000000000,"state":"active","ping":114},{"user_id":50,"name":"AnalConquest666","steam_id":76561198218558897,"connected_time":2135000000000,"state":"active","ping":61},{"user_id":74,"name":"zure2131","steam_id":76561199287480075,"connected_time":659000000000,"state":"active","ping":146},{"user_id":71,"name":"C papi","steam_id":76561198027779564,"connected_time":805000000000,"state":"active","ping":107},{"user_id":57,"name":"Delacroix","steam_id":76561198842964669,"connected_time":1555000000000,"state":"active","ping":110},{"user_id":8,"name":"jon","steam_id":76561198065314212,"connected_time":4455000000000,"state":"active","ping":59},{"user_id":51,"name":"Vladikr1","steam_id":76561198401495362,"connected_time":2089000000000,"state":"active","ping":101},{"user_id":10,"name":"Eggs","steam_id":76561199094378158,"connected_time":4439000000000,"state":"active","ping":95},{"user_id":52,"name":"Fire Wizard","steam_id":76561198972006814,"connected_time":2029000000000,"state":"active","ping":107},{"user_id":12,"name":"Soap Man","steam_id":76561198000490235,"connected_time":4425000000000,"state":"active","ping":63},{"user_id":56,"name":"goop","steam_id":76561198311256085,"connected_time":1611000000000,"state":"active","ping":101},{"user_id":43,"name":"beatrix","steam_id":76561199057103062,"connected_time":3238000000000,"state":"active","ping":91},{"user_id":53,"name":"Jeffenthropus","steam_id":76561198134204248,"connected_time":1985000000000,"state":"active","ping":110},{"user_id":58,"name":"blood bitch","steam_id":76561198325306660,"connected_time":1522000000000,"state":"active","ping":53},{"user_id":66,"name":"Mcfighter2","steam_id":76561198168073956,"connected_time":1122000000000,"state":"active","ping":109},{"user_id":18,"name":"Prestoneon003","steam_id":76561198348279581,"connected_time":4332000000000,"state":"active","ping":95},{"user_id":75,"name":"Cap N' Crunch","steam_id":76561198917309036,"connected_time":498000000000,"state":"active","ping":183},{"user_id":47,"name":"earthtraveler413","steam_id":76561198865139926,"connected_time":2656000000000,"state":"active","ping":47},{"user_id":72,"name":"Jebby","steam_id":76561198300150276,"connected_time":802000000000,"state":"active","ping":63},{"user_id":62,"name":"XxChocola20xX","steam_id":76561199108579557,"connected_time":1306000000000,"state":"active","ping":93},{"user_id":28,"name":"daemon","steam_id":76561198001541433,"connected_time":4058000000000,"state":"active","ping":105},{"user_id":67,"name":"NoBoreGaming","steam_id":76561198044244547,"connected_time":1094000000000,"state":"active","ping":125},{"user_id":45,"name":"Anxious Nerd Bird","steam_id":76561198112178602,"connected_time":2807000000000,"state":"active","ping":84},{"user_id":65,"name":"nack","steam_id":76561198271393519,"connected_time":1150000000000,"state":"active","ping":129}]},{"server_id":119,"name":"Uncletopia | Seattle | 2 | All Maps","name_short":"sea-2","host":"sea-1.us.uncletopia.com","port":27025,"enabled":true,"region":"us-west","cc":"us","latitude":47.608013,"longitude":-122.33517,"reserved":0,"last_update":"0001-01-01T00:00:00Z","name_a2s":"Uncletopia | Seattle | 2 | All Maps","protocol":17,"map":"cp_sunshine","folder":"tf","game":"Team Fortress","app_id":440,"player_count":0,"max_players":24,"Bots":0,"server_type":"Dedicated","server_os":"Linux","password":true,"vac":true,"version":"7742253","steam_id":85568392924469998,"keywords":["cp","nocrits","nodmgspread","uncletopia"],"game_id":440,"stv_port":27026,"stv_name":"Uncletopia | Seattle | 2 | All Maps | STV","players":null},{"server_id":406,"name":"Uncletopia | Seattle | 3 | Stopwatch Beta","name_short":"sea-3","host":"sea-1.us.uncletopia.com","port":27035,"enabled":true,"region":"us-west","cc":"us","latitude":47.608013,"longitude":-122.33517,"reserved":0,"last_update":"0001-01-01T00:00:00Z","name_a2s":"Uncletopia | Seattle | 3 | Stopwatch Beta","protocol":17,"map":"cp_altitude","folder":"tf","game":"Team Fortress","app_id":440,"player_count":0,"max_players":24,"Bots":0,"server_type":"Dedicated","server_os":"Linux","password":true,"vac":true,"version":"7742253","steam_id":85568392924515217,"keywords":["cp","nocrits","nodmgspread","uncletopia"],"game_id":440,"stv_port":27036,"stv_name":"Uncletopia | Seattle | 3 | Stopwatch Beta | STV","players":null},{"server_id":17,"name":"Uncletopia | San Francisco | 1 | All Maps","name_short":"sfo-1","host":"sfo-1.us.uncletopia.com","port":27015,"enabled":true,"region":"us-west","cc":"us","latitude":37.77397,"longitude":-122.4313,"reserved":0,"last_update":"0001-01-01T00:00:00Z","name_a2s":"Uncletopia | San Francisco | 1 | All Maps","protocol":17,"map":"pl_snowycoast","folder":"tf","game":"Team Fortress","app_id":440,"player_count":0,"max_players":24,"Bots":0,"server_type":"Dedicated","server_os":"Linux","password":true,"vac":true,"version":"7742253","steam_id":85568392924469999,"keywords":["nocrits","nodmgspread","payload","uncletopia"],"game_id":440,"stv_port":27016,"stv_name":"Uncletopia | San Francisco | 1 | All Maps | STV","players":null},{"server_id":18,"name":"Uncletopia | San Francisco | 2 | All Maps","name_short":"sfo-2","host":"sfo-1.us.uncletopia.com","port":27025,"enabled":true,"region":"us-west","cc":"us","latitude":37.77397,"longitude":-122.4313,"reserved":0,"last_update":"0001-01-01T00:00:00Z","name_a2s":"Uncletopia | San Francisco | 2 | All Maps","protocol":17,"map":"cp_altitude","folder":"tf","game":"Team Fortress","app_id":440,"player_count":0,"max_players":24,"Bots":0,"server_type":"Dedicated","server_os":"Linux","password":true,"vac":true,"version":"7742253","steam_id":85568392924470000,"keywords":["cp","nocrits","nodmgspread","uncletopia"],"game_id":440,"stv_port":27026,"stv_name":"Uncletopia | San Francisco | 2 | All Maps | STV","players":null},{"server_id":19,"name":"Uncletopia | San Francisco | 3 | Stopwatch Beta","name_short":"sfo-3","host":"sfo-1.us.uncletopia.com","port":27035,"enabled":true,"region":"us-west","cc":"us","latitude":37.77397,"longitude":-122.4313,"reserved":0,"last_update":"0001-01-01T00:00:00Z","name_a2s":"Uncletopia | San Francisco | 3 | Stopwatch Beta","protocol":17,"map":"cp_snakewater_final1","folder":"tf","game":"Team Fortress","app_id":440,"player_count":0,"max_players":24,"Bots":0,"server_type":"Dedicated","server_os":"Linux","password":true,"vac":true,"version":"7742253","steam_id":85568392924742824,"keywords":["cp","nocrits","nodmgspread","uncletopia"],"game_id":440,"stv_port":27036,"stv_name":"Uncletopia | San Francisco | 3 | Stopwatch Beta | STV","players":null},{"server_id":20,"name":"Uncletopia | San Francisco | 4 | Community","name_short":"sfo-4","host":"sfo-1.us.uncletopia.com","port":27045,"enabled":true,"region":"us-west","cc":"us","latitude":37.77397,"longitude":-122.4313,"reserved":0,"last_update":"0001-01-01T00:00:00Z","name_a2s":"Uncletopia | San Francisco | 4 | Community","protocol":17,"map":"cp_dustbowl","folder":"tf","game":"Team Fortress","app_id":440,"player_count":0,"max_players":24,"Bots":0,"server_type":"Dedicated","server_os":"Linux","password":true,"vac":true,"version":"7742253","steam_id":85568392924742826,"keywords":["cp","nocrits","nodmgspread","uncletopia"],"game_id":440,"stv_port":27046,"stv_name":"Uncletopia | San Francisco | 4 | Community | STV","players":null},{"server_id":141,"name":"Uncletopia | Sydney | 1 | All Maps","name_short":"syd-1","host":"syd-1.au.uncletopia.com","port":27015,"enabled":true,"region":"au","cc":"au","latitude":-33.865143,"longitude":151.2099,"reserved":0,"last_update":"0001-01-01T00:00:00Z","name_a2s":"Uncletopia | Sydney | 1 | All Maps","protocol":17,"map":"koth_highpass","folder":"tf","game":"Team Fortress","app_id":440,"player_count":0,"max_players":24,"Bots":0,"server_type":"Dedicated","server_os":"Linux","password":true,"vac":true,"version":"7742253","steam_id":85568392924470001,"keywords":["cp","nocrits","nodmgspread","uncletopia"],"game_id":440,"stv_port":27016,"stv_name":"Uncletopia | Sydney | 1 | All Maps | STV","players":null},{"server_id":123,"name":"Uncletopia | Sydney | 2 | All Maps","name_short":"syd-2","host":"syd-1.au.uncletopia.com","port":27025,"enabled":true,"region":"au","cc":"au","latitude":-33.865143,"longitude":151.2099,"reserved":0,"last_update":"0001-01-01T00:00:00Z","name_a2s":"Uncletopia | Sydney | 2 | All Maps","protocol":17,"map":"koth_lakeside_final","folder":"tf","game":"Team Fortress","app_id":440,"player_count":0,"max_players":24,"Bots":0,"server_type":"Dedicated","server_os":"Linux","password":true,"vac":true,"version":"7742253","steam_id":85568392924470002,"keywords":["cp","nocrits","nodmgspread","uncletopia"],"game_id":440,"stv_port":27026,"stv_name":"Uncletopia | Sydney | 2 | All Maps | STV","players":null},{"server_id":395,"name":"Uncletopia | Sydney | 3 | All Maps","name_short":"syd-3","host":"syd-1.au.uncletopia.com","port":27035,"enabled":true,"region":"au","cc":"au","latitude":-33.865143,"longitude":151.2099,"reserved":0,"last_update":"0001-01-01T00:00:00Z","name_a2s":"Uncletopia | Sydney | 3 | All Maps","protocol":17,"map":"koth_highpass","folder":"tf","game":"Team Fortress","app_id":440,"player_count":0,"max_players":24,"Bots":0,"server_type":"Dedicated","server_os":"Linux","password":true,"vac":true,"version":"7742253","steam_id":85568392925194467,"keywords":["cp","nocrits","nodmgspread","uncletopia"],"game_id":440,"stv_port":27036,"stv_name":"Uncletopia | Sydney | 3 | All Maps | STV","players":null},{"server_id":396,"name":"Uncletopia | Sydney | 4 | All Maps","name_short":"syd-4","host":"syd-1.au.uncletopia.com","port":27045,"enabled":true,"region":"au","cc":"au","latitude":-33.865143,"longitude":151.2099,"reserved":0,"last_update":"0001-01-01T00:00:00Z","name_a2s":"Uncletopia | Sydney | 4 | All Maps","protocol":17,"map":"koth_lakeside_final","folder":"tf","game":"Team Fortress","app_id":440,"player_count":0,"max_players":24,"Bots":0,"server_type":"Dedicated","server_os":"Linux","password":true,"vac":true,"version":"7742253","steam_id":85568392925397958,"keywords":["cp","nocrits","nodmgspread","uncletopia"],"game_id":440,"stv_port":27046,"stv_name":"Uncletopia | Sydney | 4 | All Maps | STV","players":null},{"server_id":58,"name":"Uncletopia | Sydney | 5 | Stopwatch Beta","name_short":"syd-5","host":"syd-1.au.uncletopia.com","port":27055,"enabled":true,"region":"au","cc":"au","latitude":-33.865143,"longitude":151.2099,"reserved":0,"last_update":"0001-01-01T00:00:00Z","name_a2s":"Uncletopia | Sydney | 5 | Stopwatch Beta","protocol":17,"map":"workshop/koth_ashville_final.ugc2130459942","folder":"tf","game":"Team Fortress","app_id":440,"player_count":0,"max_players":24,"Bots":0,"server_type":"Dedicated","server_os":"Linux","password":true,"vac":true,"version":"7742253","steam_id":85568392925397959,"keywords":["cp","nocrits","nodmgspread","uncletopia"],"game_id":440,"stv_port":27056,"stv_name":"Uncletopia | Sydney | 5 | Stopwatch Beta | STV","players":null},{"server_id":59,"name":"Uncletopia | Sydney | 6 | Community","name_short":"syd-6","host":"syd-1.au.uncletopia.com","port":27065,"enabled":true,"region":"au","cc":"au","latitude":-33.865143,"longitude":151.2099,"reserved":0,"last_update":"0001-01-01T00:00:00Z","name_a2s":"Uncletopia | Sydney | 6 | Community","protocol":17,"map":"workshop/koth_slaughter_rc1.ugc1712845210","folder":"tf","game":"Team Fortress","app_id":440,"player_count":0,"max_players":24,"Bots":0,"server_type":"Dedicated","server_os":"Linux","password":true,"vac":true,"version":"7742253","steam_id":85568392925397960,"keywords":["cp","nocrits","nodmgspread","uncletopia"],"game_id":440,"stv_port":27066,"stv_name":"Uncletopia | Sydney | 6 | Community | STV","players":null},{"server_id":49,"name":"Uncletopia | Warsaw | 1 | All Maps","name_short":"waw-1","host":"waw-1.pl.uncletopia.com","port":27015,"enabled":true,"region":"eu","cc":"pl","latitude":52.2297,"longitude":21.017532,"reserved":0,"last_update":"0001-01-01T00:00:00Z","name_a2s":"","protocol":0,"map":"","folder":"","game":"","app_id":0,"player_count":0,"max_players":0,"Bots":0,"server_type":"","server_os":"","password":false,"vac":false,"version":"","steam_id":0,"keywords":null,"game_id":0,"stv_port":0,"stv_name":"","players":null},{"server_id":50,"name":"Uncletopia | Warsaw | 2 | All Maps","name_short":"waw-2","host":"waw-1.pl.uncletopia.com","port":27025,"enabled":true,"region":"eu","cc":"pl","latitude":52.2297,"longitude":21.017532,"reserved":0,"last_update":"0001-01-01T00:00:00Z","name_a2s":"Uncletopia | Warsaw | 2 | All Maps","protocol":17,"map":"pl_pier","folder":"tf","game":"Team Fortress","app_id":440,"player_count":0,"max_players":24,"Bots":0,"server_type":"Dedicated","server_os":"Linux","password":true,"vac":true,"version":"7742253","steam_id":85568392925397851,"keywords":["nocrits","nodmgspread","payload","uncletopia"],"game_id":440,"stv_port":27026,"stv_name":"Uncletopia | Warsaw | 2 | All Maps | STV","players":null},{"server_id":51,"name":"Uncletopia | Warsaw | 3 | All Maps","name_short":"waw-3","host":"waw-1.pl.uncletopia.com","port":27035,"enabled":true,"region":"eu","cc":"pl","latitude":52.2297,"longitude":21.017532,"reserved":0,"last_update":"0001-01-01T00:00:00Z","name_a2s":"Uncletopia | Warsaw | 3 | All Maps","protocol":17,"map":"ctf_snowfall_final","folder":"tf","game":"Team Fortress","app_id":440,"player_count":0,"max_players":24,"Bots":0,"server_type":"Dedicated","server_os":"Linux","password":true,"vac":true,"version":"7742253","steam_id":85568392925397852,"keywords":["ctf","nocrits","nodmgspread","uncletopia"],"game_id":440,"stv_port":27036,"stv_name":"Uncletopia | Warsaw | 3 | All Maps | STV","players":null},{"server_id":52,"name":"Uncletopia | Warsaw | 4 | All Maps","name_short":"waw-4","host":"waw-1.pl.uncletopia.com","port":27045,"enabled":true,"region":"eu","cc":"pl","latitude":52.2297,"longitude":21.017532,"reserved":0,"last_update":"0001-01-01T00:00:00Z","name_a2s":"Uncletopia | Warsaw | 4 | All Maps","protocol":17,"map":"pl_borneo","folder":"tf","game":"Team Fortress","app_id":440,"player_count":0,"max_players":24,"Bots":0,"server_type":"Dedicated","server_os":"Linux","password":true,"vac":true,"version":"7742253","steam_id":85568392925397853,"keywords":["nocrits","nodmgspread","payload","uncletopia"],"game_id":440,"stv_port":27046,"stv_name":"Uncletopia | Warsaw | 4 | All Maps | STV","players":null},{"server_id":53,"name":"Uncletopia | Warsaw | 5 | Stopwatch Beta","name_short":"waw-5","host":"waw-1.pl.uncletopia.com","port":27055,"enabled":true,"region":"eu","cc":"pl","latitude":52.2297,"longitude":21.017532,"reserved":0,"last_update":"0001-01-01T00:00:00Z","name_a2s":"Uncletopia | Warsaw | 5 | Stopwatch Beta","protocol":17,"map":"pl_swiftwater_final1","folder":"tf","game":"Team Fortress","app_id":440,"player_count":0,"max_players":24,"Bots":0,"server_type":"Dedicated","server_os":"Linux","password":true,"vac":true,"version":"7742253","steam_id":85568392925397854,"keywords":["nocrits","nodmgspread","payload","uncletopia"],"game_id":440,"stv_port":27056,"stv_name":"Uncletopia | Warsaw | 5 | Stopwatch Beta | STV","players":null},{"server_id":54,"name":"Uncletopia | Warsaw | 6 | Community","name_short":"waw-6","host":"waw-1.pl.uncletopia.com","port":27065,"enabled":true,"region":"eu","cc":"pl","latitude":52.2297,"longitude":21.017532,"reserved":0,"last_update":"0001-01-01T00:00:00Z","name_a2s":"Uncletopia | Warsaw | 6 | Community","protocol":17,"map":"koth_highpass","folder":"tf","game":"Team Fortress","app_id":440,"player_count":0,"max_players":24,"Bots":0,"server_type":"Dedicated","server_os":"Linux","password":true,"vac":true,"version":"7742253","steam_id":85568392925397856,"keywords":["cp","nocrits","nodmgspread","uncletopia"],"game_id":440,"stv_port":27066,"stv_name":"Uncletopia | Warsaw | 6 | Community | STV","players":null}]}