{"status":true,"message":"","result":[{"server_id":9,"name":"Uncletopia | Atlanta | 1 | All Maps","name_short":"atl-1","host":"atl-1.us.uncletopia.com","port":27015,"enabled":true,"region":"us-east","cc":"us","latitude":33.753746,"longitude":-84.38633,"reserved":0,"last_update":"0001-01-01T00:00:00Z","name_a2s":"Uncletopia | Atlanta | 1 | All Maps","protocol":17,"map":"pl_swiftwater_final1","folder":"tf","game":"Team Fortress","app_id":440,"player_count":24,"max_players":24,"Bots":0,"server_type":"Dedicated","server_os":"Linux","password":true,"vac":true,"version":"7757534","steam_id":85568392924469982,"keywords":["nocrits","nodmgspread","payload","uncletopia"],"game_id":440,"stv_port":27016,"stv_name":"Uncletopia | Atlanta | 1 | All Maps | STV","players":[{"user_id":414,"name":"vid_","steam_id":76561198065159053,"connected_time":2104000000000,"state":"active","ping":52},{"user_id":392,"name":"Intro Bonito","steam_id":76561198119478838,"connected_time":6869000000000,"state":"active","ping":57},{"user_id":428,"name":"stink","steam_id":76561198099318923,"connected_time":869000000000,"state":"active","ping":75},{"user_id":388,"name":"Im High","steam_id":76561198049954886,"connected_time":7214000000000,"state":"active","ping":69},{"user_id":411,"name":"twitch.tv/blazingin","steam_id":76561198119873148,"connected_time":2956000000000,"state":"active","ping":78},{"user_id":425,"name":"not that guy","steam_id":76561199153876687,"connected_time":1536000000000,"state":"active","ping":81},{"user_id":412,"name":"HARRY","steam_id":76561198842067238,"connected_time":2550000000000,"state":"active","ping":61},{"user_id":430,"name":"Crabs on Deck","steam_id":76561198812183594,"connected_time":654000000000,"state":"active","ping":79},{"user_id":429,"name":"ash","steam_id":76561198127890645,"connected_time":729000000000,"state":"active","ping":73},{"user_id":389,"name":"lker","steam_id":76561197976975075,"connected_time":7212000000000,"state":"active","ping":44},{"user_id":418,"name":"sun","steam_id":76561198904898274,"connected_time":1584000000000,"state":"active","ping":79},{"user_id":432,"name":"FemboyNate","steam_id":76561198146636410,"connected_time":236000000000,"state":"active","ping":72},{"user_id":427,"name":"Tue","steam_id":76561198181668501,"connected_time":916000000000,"state":"active","ping":61},{"user_id":407,"name":"shaderoses","steam_id":76561198070800500,"connected_time":3349000000000,"state":"active","ping":70},{"user_id":431,"name":"GreenApples","steam_id":76561198120559543,"connected_time":613000000000,"state":"active","ping":105},{"user_id":390,"name":"DFR DeezNoodlez","steam_id":76561198246700372,"connected_time":7156000000000,"state":"active","ping":59},{"user_id":368,"name":"DFR Le4n!!!","steam_id":76561198045522596,"connected_time":9027000000000,"state":"active","ping":66},{"user_id":402,"name":"The Spy from TF2","steam_id":76561199121276474,"connected_time":4934000000000,"state":"active","ping":85},{"user_id":419,"name":"Oddball","steam_id":76561198040440984,"connected_time":1584000000000,"state":"active","ping":81},{"user_id":409,"name":"Karma","steam_id":76561198030565234,"connected_time":3121000000000,"state":"active","ping":72},{"user_id":426,"name":"lzrdzz","steam_id":76561198116676192,"connected_time":1445000000000,"state":"active","ping":80},{"user_id":413,"name":"Soulless","steam_id":76561198838757422,"connected_time":2107000000000,"state":"active","ping":76},{"user_id":385,"name":"ATL1 | Psionic Box","steam_id":76561198151019322,"connected_time":7402000000000,"state":"active","ping":75},{"user_id":373,"name":"Mr.Mug","steam_id":76561199282207802,"connected_time":8493000000000,"state":"active","ping":76}]},{"server_id":400,"name":"Uncletopia | Atlanta | 3 | Stopwatch Beta","name_short":"atl-3","host":"atl-1.us.uncletopia.com","port":27035,"enabled":true,"region":"us-east","cc":"us","latitude":33.753746,"longitude":-84.38633,"reserved":0,"last_update":"0001-01-01T00:00:00Z","name_a2s":"Uncletopia | Atlanta | 3 | Stopwatch Beta","protocol":17,"map":"cp_metalworks","folder":"tf","game":"Team Fortress","app_id":440,"player_count":23,"max_players":24,"Bots":0,"server_type":"Dedicated","server_os":"Linux","password":true,"vac":true,"version":"7757534","steam_id":85568392924515187,"keywords":["cp","nocrits","nodmgspread","uncletopia"],"game_id":440,"stv_port":27036,"stv_name":"Uncletopia | Atlanta | 3 | Stopwatch Beta | STV","players":[{"user_id":591,"name":"Egyptian amogus","steam_id":76561198320353510,"connected_time":982000000000,"state":"active","ping":140},{"user_id":594,"name":"Nekogaming1500","steam_id":76561198979123816,"connected_time":905000000000,"state":"active","ping":116},{"user_id":592,"name":"‚ò∞vil ‚ÜÉood  ‚∏∏üíÄ‚∏∏","steam_id":76561197963666090,"connected_time":980000000000,"state":"active","ping":99},{"user_id":595,"name":"Gustavo Fring","steam_id":76561198132807405,"connected_time":853000000000,"state":"active","ping":91},{"user_id":596,"name":"Agentnickel","steam_id":76561199186723516,"connected_time":570000000000,"state":"active","ping":91},{"user_id":597,"name":"Quaker Oats","steam_id":76561197992800293,"connected_time":554000000000,"state":"active","ping":55},{"user_id":611,"name":"Chicken Blow Job","steam_id":76561198086185071,"connected_time":229000000000,"state":"active","ping":60},{"user_id":612,"name":"MagikarpEX","steam_id":76561198166172279,"connected_time":116000000000,"state":"active","ping":80},{"user_id":538,"name":"Scunt_Bot.exe","steam_id":76561198325350546,"connected_time":2951000000000,"state":"active","ping":103},{"user_id":539,"name":"SpeedrunnerNick#SaveTF2","steam_id":76561199251809758,"connected_time":2945000000000,"state":"active","ping":97},{"user_id":599,"name":"Inevitable","steam_id":76561198210050169,"connected_time":526000000000,"state":"active","ping":59},{"user_id":600,"name":"SoWhich","steam_id":76561198237125842,"connected_time":512000000000,"state":"active","ping":69},{"user_id":602,"name":"Anhkrehg","steam_id":76561197963201684,"connected_time":437000000000,"state":"active","ping":98},{"user_id":613,"name":"Air Fryer - $39.99 (4 Payments)","steam_id":76561198043572048,"connected_time":110000000000,"state":"active","ping":92},{"user_id":603,"name":"Spike Bones","steam_id":76561198234926120,"connected_time":432000000000,"state":"active","ping":89},{"user_id":604,"name":"kametro4","steam_id":76561198835430429,"connected_time":377000000000,"state":"active","ping":101},{"user_id":558,"name":"DJ Absolute Garbage","steam_id":76561198068000747,"connected_time":2336000000000,"state":"active","ping":60},{"user_id":606,"name":"Gibberish","steam_id":76561199262304594,"connected_time":342000000000,"state":"active","ping":125},{"user_id":577,"name":"Yoru","steam_id":76561198119698950,"connected_time":1572000000000,"state":"active","ping":117},{"user_id":608,"name":"Seal","steam_id":76561197970204043,"connected_time":295000000000,"state":"active","ping":90},{"user_id":614,"name":"CreativeUsername","steam_id":76561198186045503,"connected_time":100000000000,"state":"active","ping":74},{"user_id":610,"name":"bitma","steam_id":76561199000786530,"connected_time":270000000000,"state":"active","ping":88},{"user_id":615,"name":"theTheSuzan","steam_id":76561198044181453,"connected_time":94000000000,"state":"active","ping":148}]},{"server_id":401,"name":"Uncletopia | Atlanta | 4 | No Payload","name_short":"atl-4","host":"atl-1.us.uncletopia.com","port":27045,"enabled":true,"region":"us-east","cc":"us","latitude":33.753746,"longitude":-84.38633,"reserved":0,"last_update":"0001-01-01T00:00:00Z","name_a2s":"Uncletopia | Atlanta | 4 | No Payload","protocol":17,"map":"pl_pier","folder":"tf","game":"Team Fortress","app_id":440,"player_count":0,"max_players":24,"Bots":0,"server_type":"Dedicated","server_os":"Linux","password":true,"vac":true,"version":"7723704","steam_id":85568392924515188,"keywords":["nocrits","nodmgspread","payload","uncletopia"],"game_id":440,"stv_port":27046,"stv_name":"Uncletopia | Atlanta | 4 | No Payload | STV","players":null},{"server_id":2,"name":"Uncletopia | Chicago | 1 | All Maps","name_short":"chi-1","host":"chi-1.us.uncletopia.com","port":27015,"enabled":true,"region":"us-central","cc":"us","latitude":41.881832,"longitude":-87.62318,"reserved":0,"last_update":"0001-01-01T00:00:00Z","name_a2s":"Uncletopia | Chicago | 1 | All Maps","protocol":17,"map":"pl_snowycoast","folder":"tf","game":"Team Fortress","app_id":440,"player_count":23,"max_players":24,"Bots":0,"server_type":"Dedicated","server_os":"Linux","password":true,"vac":true,"version":"7757534","steam_id":85568392924469984,"keywords":["nocrits","nodmgspread","payload","uncletopia"],"game_id":440,"stv_port":27016,"stv_name":"Uncletopia | Chicago | 1 | All Maps | STV","players":[{"user_id":606,"name":"Crap","steam_id":76561198877229175,"connected_time":205000000000,"state":"active","ping":117},{"user_id":603,"name":"rascals","steam_id":76561199148226710,"connected_time":665000000000,"state":"active","ping":107},{"user_id":569,"name":"SSBM Pelican","steam_id":76561198040697907,"connected_time":2998000000000,"state":"active","ping":73},{"user_id":505,"name":"capybara","steam_id":76561198798828328,"connected_time":9398000000000,"state":"active","ping":59},{"user_id":595,"name":"pro gamer jay","steam_id":76561198074388032,"connected_time":1348000000000,"state":"active","ping":75},{"user_id":528,"name":"ToughGuy311","steam_id":76561198131458027,"connected_time":7627000000000,"state":"active","ping":70},{"user_id":525,"name":"Username","steam_id":76561198855586261,"connected_time":7670000000000,"state":"active","ping":88},{"user_id":600,"name":"Monti","steam_id":76561198007141798,"connected_time":904000000000,"state":"active","ping":41},{"user_id":575,"name":"evan_is_sauce","steam_id":76561199086802383,"connected_time":2324000000000,"state":"active","ping":109},{"user_id":539,"name":"Soap Man","steam_id":76561198000490235,"connected_time":7085000000000,"state":"active","ping":129},{"user_id":596,"name":"squid game","steam_id":76561199248960166,"connected_time":1324000000000,"state":"active","ping":87},{"user_id":604,"name":"Yukon Cornelius","steam_id":76561198261512781,"connected_time":515000000000,"state":"active","ping":87},{"user_id":571,"name":"Getting sloppy at High Hrothgar","steam_id":76561198202195792,"connected_time":2958000000000,"state":"active","ping":74},{"user_id":607,"name":"LASAD","steam_id":76561198035410427,"connected_time":131000000000,"state":"active","ping":93},{"user_id":605,"name":"LJ PRODUCTIONS","steam_id":76561198061697475,"connected_time":292000000000,"state":"active","ping":75},{"user_id":570,"name":"mushiio","steam_id":76561198057699378,"connected_time":2978000000000,"state":"active","ping":100},{"user_id":579,"name":"Swshbcklr","steam_id":76561197969421355,"connected_time":2293000000000,"state":"active","ping":69},{"user_id":599,"name":"Saikyo","steam_id":76561198212461467,"connected_time":1210000000000,"state":"active","ping":69},{"user_id":592,"name":"stevemarshall","steam_id":76561198405982285,"connected_time":1532000000000,"state":"active","ping":46},{"user_id":602,"name":"Censing Auto, The Challenger","steam_id":76561198060926681,"connected_time":708000000000,"state":"active","ping":68},{"user_id":512,"name":"No Telefrag Plz","steam_id":76561198113931312,"connected_time":8646000000000,"state":"active","ping":77},{"user_id":554,"name":"Undertime Slopper","steam_id":76561198396789061,"connected_time":5039000000000,"state":"active","ping":86},{"user_id":566,"name":"Visual Depression","steam_id":76561198825918366,"connected_time":3021000000000,"state":"active","ping":101}]},{"server_id":106,"name":"Uncletopia | Chicago | 2 | All Maps","name_short":"chi-2","host":"chi-1.us.uncletopia.com","port":27025,"enabled":true,"region":"us-central","cc":"us","latitude":41.881832,"longitude":-87.62318,"reserved":0,"last_update":"0001-01-01T00:00:00Z","name_a2s":"Uncletopia | Chicago | 2 | All Maps","protocol":17,"map":"cp_dustbowl","folder":"tf","game":"Team Fortress","app_id":440,"player_count":24,"max_players":24,"Bots":0,"server_type":"Dedicated","server_os":"Linux","password":true,"vac":true,"version":"7757534","steam_id":85568392924469985,"keywords":["cp","nocrits","nodmgspread","uncletopia"],"game_id":440,"stv_port":27026,"stv_name":"Uncletopia | Chicago | 2 | All Maps | STV","players":[{"user_id":421,"name":"gyozaking","steam_id":76561197972312696,"connected_time":2148000000000,"state":"active","ping":40},{"user_id":430,"name":"‡∂û‚Åß‚ÅßOÕ≠nÕ™eÕ§TrueDev","steam_id":76561198107400823,"connected_time":1325000000000,"state":"active","ping":49},{"user_id":429,"name":"Buff McMann","steam_id":76561198050196317,"connected_time":1403000000000,"state":"active","ping":70},{"user_id":404,"name":"HomieJr","steam_id":76561198202448800,"connected_time":3237000000000,"state":"active","ping":72},{"user_id":415,"name":"merlin","steam_id":76561198169755734,"connected_time":2965000000000,"state":"active","ping":95},{"user_id":427,"name":"ed","steam_id":76561198080475712,"connected_time":1556000000000,"state":"active","ping":96},{"user_id":419,"name":"-flagellum","steam_id":76561198006297974,"connected_time":2184000000000,"state":"active","ping":54},{"user_id":410,"name":"Finn","steam_id":76561198179960193,"connected_time":3173000000000,"state":"active","ping":131},{"user_id":428,"name":"Evolution","steam_id":76561198144767370,"connected_time":1553000000000,"state":"active","ping":45},{"user_id":381,"name":"Samsiel","steam_id":76561198094134951,"connected_time":5061000000000,"state":"active","ping":93},{"user_id":405,"name":"‚ù§Graphite Muncher‚ù§","steam_id":76561199200969139,"connected_time":3219000000000,"state":"active","ping":120},{"user_id":396,"name":"Notation","steam_id":76561198119509319,"connected_time":4598000000000,"state":"active","ping":68},{"user_id":439,"name":"Big ol' Willy Gaming","steam_id":76561198048545731,"connected_time":434000000000,"state":"active","ping":84},{"user_id":441,"name":"Takllin","steam_id":76561199289103007,"connected_time":155000000000,"state":"active","ping":81},{"user_id":436,"name":"Blorgus_J_Blart","steam_id":76561198430926135,"connected_time":681000000000,"state":"active","ping":76},{"user_id":372,"name":"turding on my opps","steam_id":76561198073269122,"connected_time":5310000000000,"state":"active","ping":68},{"user_id":443,"name":"a crazy hobo","steam_id":76561198289650060,"connected_time":75000000000,"state":"active","ping":87},{"user_id":392,"name":"üê∫-Iwky-ü¶ä","steam_id":76561198185616311,"connected_time":4877000000000,"state":"active","ping":88},{"user_id":435,"name":"rorywashere","steam_id":76561198065825165,"connected_time":746000000000,"state":"active","ping":144},{"user_id":403,"name":"p9 thunderous prophet","steam_id":76561198131166135,"connected_time":3452000000000,"state":"active","ping":85},{"user_id":437,"name":"ShadowDragon0125","steam_id":76561198343849022,"connected_time":564000000000,"state":"active","ping":86},{"user_id":398,"name":"Kaypo","steam_id":76561198262420097,"connected_time":4080000000000,"state":"active","ping":59},{"user_id":414,"name":"Randy \"the Man\" Johnson","steam_id":76561198039124445,"connected_time":3104000000000,"state":"active","ping":97},{"user_id":366,"name":"p9 jorts","steam_id":76561199041179985,"connected_time":5648000000000,"state":"active","ping":114}]},{"server_id":402,"name":"Uncletopia | Chicago | 3 | All Maps","name_short":"chi-3","host":"chi-1.us.uncletopia.com","port":27035,"enabled":true,"region":"us-central","cc":"us","latitude":41.881832,"longitude":-87.62318,"reserved":0,"last_update":"0001-01-01T00:00:00Z","name_a2s":"Uncletopia | Chicago | 3 | All Maps","protocol":17,"map":"pl_badwater","folder":"tf","game":"Team Fortress","app_id":440,"player_count":23,"max_players":24,"Bots":0,"server_type":"Dedicated","server_os":"Linux","password":true,"vac":true,"version":"7757534","steam_id":85568392924515191,"keywords":["nocrits","nodmgspread","payload","uncletopia"],"game_id":440,"stv_port":27036,"stv_name":"Uncletopia | Chicago | 3 | All Maps | STV","players":[{"user_id":416,"name":"Evil rat","steam_id":76561198117181511,"connected_time":5572000000000,"state":"active","ping":69},{"user_id":485,"name":"really hot sexy mom (real)","steam_id":76561198044696803,"connected_time":1390000000000,"state":"active","ping":61},{"user_id":495,"name":"a","steam_id":76561198994761483,"connected_time":772000000000,"state":"active","ping":97},{"user_id":481,"name":"Importality","steam_id":76561198049943127,"connected_time":1588000000000,"state":"active","ping":81},{"user_id":447,"name":"Limasio","steam_id":76561198198176191,"connected_time":3394000000000,"state":"active","ping":79},{"user_id":486,"name":"Potassium_","steam_id":76561199085021046,"connected_time":1385000000000,"state":"active","ping":74},{"user_id":494,"name":"SCHMEED","steam_id":76561198141204302,"connected_time":833000000000,"state":"active","ping":67},{"user_id":466,"name":"Blinker city history","steam_id":76561198073455521,"connected_time":2617000000000,"state":"active","ping":59},{"user_id":467,"name":"VLADIMIR LENIN'S CAT","steam_id":76561198182999551,"connected_time":2583000000000,"state":"active","ping":57},{"user_id":474,"name":"Salixiola","steam_id":76561198042177809,"connected_time":2164000000000,"state":"active","ping":72},{"user_id":440,"name":"lil bro","steam_id":76561198031675881,"connected_time":4067000000000,"state":"active","ping":46},{"user_id":493,"name":"Ozzyrockin","steam_id":76561198094899868,"connected_time":890000000000,"state":"active","ping":60},{"user_id":487,"name":"Degree","steam_id":76561198059812393,"connected_time":1385000000000,"state":"active","ping":75},{"user_id":448,"name":"Snoopy","steam_id":76561198273735974,"connected_time":3392000000000,"state":"active","ping":98},{"user_id":478,"name":"A Fruit","steam_id":76561198951830050,"connected_time":1924000000000,"state":"active","ping":75},{"user_id":479,"name":"THE BLACK OP","steam_id":76561198065245129,"connected_time":1803000000000,"state":"active","ping":73},{"user_id":387,"name":"Dealyo","steam_id":76561198282395338,"connected_time":7683000000000,"state":"active","ping":81},{"user_id":480,"name":"Bon Jones","steam_id":76561199221504577,"connected_time":1803000000000,"state":"active","ping":82},{"user_id":408,"name":"Pigeon","steam_id":76561199232498885,"connected_time":6565000000000,"state":"active","ping":78},{"user_id":482,"name":"Olitude","steam_id":76561199238964574,"connected_time":1432000000000,"state":"active","ping":70},{"user_id":489,"name":"ArnoldGaming","steam_id":76561198040140247,"connected_time":1367000000000,"state":"active","ping":94},{"user_id":460,"name":"Ye ( I Love Caulk ) West","steam_id":76561198068830312,"connected_time":3182000000000,"state":"active","ping":45},{"user_id":461,"name":"Baka!‚ë®‚ë®‚ë®‚ë®","steam_id":76561198152948254,"connected_time":3160000000000,"state":"active","ping":69}]},{"server_id":403,"name":"Uncletopia | Chicago | 4 | All Maps","name_short":"chi-4","host":"chi-1.us.uncletopia.com","port":27045,"enabled":true,"region":"us-central","cc":"us","latitude":41.881832,"longitude":-87.62318,"reserved":0,"last_update":"0001-01-01T00:00:00Z","name_a2s":"Uncletopia | Chicago | 4 | All Maps","protocol":17,"map":"pl_upward","folder":"tf","game":"Team Fortress","app_id":440,"player_count":22,"max_players":24,"Bots":0,"server_type":"Dedicated","server_os":"Linux","password":true,"vac":true,"version":"7757534","steam_id":85568392924515193,"keywords":["nocrits","nodmgspread","payload","uncletopia"],"game_id":440,"stv_port":27046,"stv_name":"Uncletopia | Chicago | 4 | All Maps | STV","players":[{"user_id":733,"name":"IntravenusDeMilo","steam_id":76561197970629020,"connected_time":1803000000000,"state":"active","ping":90},{"user_id":753,"name":"Predicta","steam_id":76561198017630616,"connected_time":1025000000000,"state":"active","ping":48},{"user_id":688,"name":"smugdoug","steam_id":76561198021381678,"connected_time":4587000000000,"state":"active","ping":63},{"user_id":726,"name":"Judge Dad (Proud)","steam_id":76561198071473697,"connected_time":2119000000000,"state":"active","ping":68},{"user_id":706,"name":"Lore","steam_id":76561198098407538,"connected_time":2966000000000,"state":"active","ping":49},{"user_id":730,"name":"greenboy135","steam_id":76561198057146944,"connected_time":2050000000000,"state":"active","ping":70},{"user_id":746,"name":"Greskrendtregk","steam_id":76561197969553142,"connected_time":1216000000000,"state":"active","ping":96},{"user_id":745,"name":"King Kinyon","steam_id":76561198080525234,"connected_time":1228000000000,"state":"active","ping":73},{"user_id":759,"name":"Fluffeline","steam_id":76561198352909489,"connected_time":432000000000,"state":"active","ping":139},{"user_id":763,"name":"The Michigan Troll Guy","steam_id":76561197995525419,"connected_time":143000000000,"state":"active","ping":57},{"user_id":755,"name":"coffeeghost","steam_id":76561198155142385,"connected_time":652000000000,"state":"active","ping":74},{"user_id":747,"name":"The Jackal","steam_id":76561198013726155,"connected_time":1211000000000,"state":"active","ping":82},{"user_id":692,"name":"Lirehsa","steam_id":76561198799166348,"connected_time":4115000000000,"state":"active","ping":95},{"user_id":761,"name":"EmeraldCola","steam_id":76561198066663687,"connected_time":378000000000,"state":"active","ping":75},{"user_id":758,"name":"Nnyllazxz","steam_id":76561198247797436,"connected_time":482000000000,"state":"active","ping":69},{"user_id":756,"name":"Vionas","steam_id":76561198012478039,"connected_time":613000000000,"state":"active","ping":50},{"user_id":737,"name":"$3.99 Shrimps","steam_id":76561198077272494,"connected_time":1577000000000,"state":"active","ping":56},{"user_id":751,"name":"JelloSniffer","steam_id":76561198142770733,"connected_time":1087000000000,"state":"active","ping":58},{"user_id":757,"name":"CeigeBirb","steam_id":76561198068538473,"connected_time":602000000000,"state":"active","ping":75},{"user_id":752,"name":"Muffim","steam_id":76561198056704533,"connected_time":1055000000000,"state":"active","ping":92},{"user_id":734,"name":"cokersworld","steam_id":76561198039731344,"connected_time":1767000000000,"state":"active","ping":78},{"user_id":705,"name":"Myracle","steam_id":76561198070916920,"connected_time":3452000000000,"state":"active","ping":50}]},{"server_id":36,"name":"Uncletopia | Chicago | 5 | All Maps","name_short":"chi-5","host":"chi-2.us.uncletopia.com","port":27015,"enabled":true,"region":"us-central","cc":"us","latitude":41.881832,"longitude":-87.62318,"reserved":0,"last_update":"0001-01-01T00:00:00Z","name_a2s":"Uncletopia | Chicago | 5 | All Maps","protocol":17,"map":"pl_upward","folder":"tf","game":"Team Fortress","app_id":440,"player_count":24,"max_players":24,"Bots":0,"server_type":"Dedicated","server_os":"Linux","password":true,"vac":true,"version":"7757534","steam_id":85568392924866362,"keywords":["nocrits","nodmgspread","payload","uncletopia"],"game_id":440,"stv_port":27016,"stv_name":"Uncletopia | Chicago | 5 | All Maps | STV","players":[{"user_id":701,"name":"starby","steam_id":76561198269487700,"connected_time":1356000000000,"state":"active","ping":85},{"user_id":666,"name":"El Mas Buscado","steam_id":76561198169291327,"connected_time":3255000000000,"state":"active","ping":82},{"user_id":703,"name":"cinamin.kake","steam_id":76561199003171233,"connected_time":1314000000000,"state":"active","ping":71},{"user_id":723,"name":"Psychosis","steam_id":76561198078659070,"connected_time":710000000000,"state":"active","ping":77},{"user_id":688,"name":"Pisser12434","steam_id":76561198835144780,"connected_time":2409000000000,"state":"active","ping":68},{"user_id":651,"name":"Fred","steam_id":76561197983870604,"connected_time":4389000000000,"state":"active","ping":90},{"user_id":697,"name":"Rudy","steam_id":76561198013456828,"connected_time":1820000000000,"state":"active","ping":59},{"user_id":705,"name":"Kero","steam_id":76561198343231436,"connected_time":1291000000000,"state":"active","ping":54},{"user_id":702,"name":"jimbo","steam_id":76561199052822567,"connected_time":1355000000000,"state":"active","ping":97},{"user_id":707,"name":"Average Evil Magma Pea Enjoyer","steam_id":76561198201058206,"connected_time":1215000000000,"state":"active","ping":98},{"user_id":673,"name":"Splinto","steam_id":76561198111260488,"connected_time":3080000000000,"state":"active","ping":47},{"user_id":727,"name":"engie","steam_id":76561199229629045,"connected_time":146000000000,"state":"active","ping":118},{"user_id":709,"name":"Super Noob","steam_id":76561199179611350,"connected_time":1030000000000,"state":"active","ping":59},{"user_id":713,"name":"‡∂û","steam_id":76561198027779564,"connected_time":915000000000,"state":"active","ping":58},{"user_id":722,"name":"SpottedRuby","steam_id":76561198871250632,"connected_time":753000000000,"state":"active","ping":115},{"user_id":658,"name":"Sykes10","steam_id":76561198279623105,"connected_time":4010000000000,"state":"active","ping":101},{"user_id":712,"name":"Bliztank | RGL.gg","steam_id":76561198019252798,"connected_time":944000000000,"state":"active","ping":58},{"user_id":714,"name":"matchstick","steam_id":76561198190100027,"connected_time":901000000000,"state":"active","ping":63},{"user_id":725,"name":"frank","steam_id":76561198045436159,"connected_time":595000000000,"state":"active","ping":78},{"user_id":716,"name":"mrp","steam_id":76561198942843544,"connected_time":868000000000,"state":"active","ping":109},{"user_id":717,"name":"cixcin","steam_id":76561199215821942,"connected_time":865000000000,"state":"active","ping":74},{"user_id":700,"name":"bingle","steam_id":76561198359413453,"connected_time":1401000000000,"state":"active","ping":78},{"user_id":692,"name":"Oshy UwU","steam_id":76561198121576469,"connected_time":2326000000000,"state":"active","ping":78},{"user_id":726,"name":"fapasaurusrex","steam_id":76561197994951255,"connected_time":355000000000,"state":"active","ping":45}]},{"server_id":37,"name":"Uncletopia | Chicago | 6 | All Maps","name_short":"chi-6","host":"chi-2.us.uncletopia.com","port":27025,"enabled":true,"region":"us-central","cc":"us","latitude":41.881832,"longitude":-87.62318,"reserved":0,"last_update":"0001-01-01T00:00:00Z","name_a2s":"Uncletopia | Chicago | 6 | All Maps","protocol":17,"map":"pl_badwater","folder":"tf","game":"Team Fortress","app_id":440,"player_count":16,"max_players":24,"Bots":0,"server_type":"Dedicated","server_os":"Linux","password":true,"vac":true,"version":"7757534","steam_id":85568392924866363,"keywords":["nocrits","nodmgspread","payload","uncletopia"],"game_id":440,"stv_port":27026,"stv_name":"Uncletopia | Chicago | 6 | All Maps | STV","players":[{"user_id":35,"name":"ksam \u003c--- rad as hell","steam_id":76561198076627084,"connected_time":2231000000000,"state":"active","ping":69},{"user_id":38,"name":"nukes4fun","steam_id":76561198179383242,"connected_time":2178000000000,"state":"active","ping":95},{"user_id":40,"name":"f0xer__","steam_id":76561198142559637,"connected_time":2160000000000,"state":"active","ping":125},{"user_id":48,"name":"YellowShade","steam_id":76561198200828527,"connected_time":865000000000,"state":"active","ping":80},{"user_id":54,"name":"TrIcKiNgX3","steam_id":76561198243231748,"connected_time":602000000000,"state":"active","ping":73},{"user_id":49,"name":"magical_mage0","steam_id":76561198213271916,"connected_time":857000000000,"state":"active","ping":73},{"user_id":50,"name":"Dooby Skoo","steam_id":76561198131782423,"connected_time":857000000000,"state":"active","ping":98},{"user_id":51,"name":"Kennyboy149","steam_id":76561198048024644,"connected_time":853000000000,"state":"active","ping":99},{"user_id":52,"name":"Lizard Ox","steam_id":76561198110562988,"connected_time":817000000000,"state":"active","ping":81},{"user_id":53,"name":"gaylittlemouse","steam_id":76561198819562111,"connected_time":667000000000,"state":"active","ping":70},{"user_id":55,"name":"TheSmolPopato","steam_id":76561199076606348,"connected_time":408000000000,"state":"active","ping":59},{"user_id":56,"name":"loser","steam_id":76561198171507451,"connected_time":361000000000,"state":"active","ping":89},{"user_id":58,"name":"kieran","steam_id":76561198115357403,"connected_time":116000000000,"state":"active","ping":148},{"user_id":59,"name":"Abbreviated","steam_id":76561198088423054,"connected_time":98000000000,"state":"active","ping":158},{"user_id":60,"name":"Sturt","steam_id":76561198418100672,"connected_time":31000000000,"state":"active","ping":58},{"user_id":62,"name":"One Bar","steam_id":76561198100517050,"connected_time":22000000000,"state":"active","ping":76}]},{"server_id":38,"name":"Uncletopia | Chicago | 7 | Stopwatch Beta","name_short":"chi-7","host":"chi-2.us.uncletopia.com","port":27035,"enabled":true,"region":"us-central","cc":"us","latitude":41.881832,"longitude":-87.62318,"reserved":0,"last_update":"0001-01-01T00:00:00Z","name_a2s":"Uncletopia | Chicago | 7 | Stopwatch Beta","protocol":17,"map":"workshop/koth_bagel_rc5.ugc2514036946","folder":"tf","game":"Team Fortress","app_id":440,"player_count":0,"max_players":24,"Bots":0,"server_type":"Dedicated","server_os":"Linux","password":true,"vac":true,"version":"7757534","steam_id":85568392924866364,"keywords":["cp","nocrits","nodmgspread","uncletopia"],"game_id":440,"stv_port":27036,"stv_name":"Uncletopia | Chicago | 7 | Stopwatch Beta | STV","players":null},{"server_id":39,"name":"Uncletopia | Chicago | 8 | Community","name_short":"chi-8","host":"chi-2.us.uncletopia.com","port":27045,"enabled":true,"region":"us-central","cc":"us","latitude":41.881832,"longitude":-87.62318,"reserved":0,"last_update":"0001-01-01T00:00:00Z","name_a2s":"Uncletopia | Chicago | 8 | Community","protocol":17,"map":"workshop/koth_product_final.ugc454272353","folder":"tf","game":"Team Fortress","app_id":440,"player_count":0,"max_players":24,"Bots":0,"server_type":"Dedicated","server_os":"Linux","password":true,"vac":true,"version":"7757534","steam_id":85568392924866365,"keywords":["cp","nocrits","nodmgspread","uncletopia"],"game_id":440,"stv_port":27046,"stv_name":"Uncletopia | Chicago | 8 | Community | STV","players":null},{"server_id":8,"name":"Uncletopia | Dallas | 1 | All Maps","name_short":"dal-1","host":"dal-1.us.uncletopia.com","port":27015,"enabled":true,"region":"us-central","cc":"us","latitude":32.779167,"longitude":-96.80889,"reserved":0,"last_update":"0001-01-01T00:00:00Z","name_a2s":"Uncletopia | Dallas | 1 | All Maps","protocol":17,"map":"pl_badwater","folder":"tf","game":"Team Fortress","app_id":440,"player_count":24,"max_players":24,"Bots":0,"server_type":"Dedicated","server_os":"Linux","password":true,"vac":true,"version":"7757534","steam_id":85568392924469986,"keywords":["nocrits","nodmgspread","payload","uncletopia"],"game_id":440,"stv_port":27016,"stv_name":"Uncletopia | Dallas | 1 | All Maps | STV","players":[{"user_id":686,"name":"wyatt","steam_id":76561198035096199,"connected_time":114000000000,"state":"active","ping":56},{"user_id":641,"name":"I'm Vince with Piss-Chop","steam_id":76561198032313668,"connected_time":3727000000000,"state":"active","ping":74},{"user_id":613,"name":"gaming","steam_id":76561198338610196,"connected_time":5470000000000,"state":"active","ping":100},{"user_id":679,"name":"Sneezes in braille","steam_id":76561198059502626,"connected_time":1506000000000,"state":"active","ping":61},{"user_id":675,"name":"AirborneAnarchist","steam_id":76561199116042550,"connected_time":1764000000000,"state":"active","ping":91},{"user_id":631,"name":"Gay","steam_id":76561198131631865,"connected_time":4093000000000,"state":"active","ping":70},{"user_id":687,"name":"auts","steam_id":76561198055198646,"connected_time":113000000000,"state":"active","ping":77},{"user_id":659,"name":"Professor Cuthbert Calculus","steam_id":76561198003257461,"connected_time":2406000000000,"state":"active","ping":100},{"user_id":668,"name":"mikey | I'm Burning Bright!","steam_id":76561198985847893,"connected_time":2215000000000,"state":"active","ping":46},{"user_id":652,"name":"Alberto2104","steam_id":76561198094968873,"connected_time":2821000000000,"state":"active","ping":75},{"user_id":661,"name":"Professor Peppermint","steam_id":76561198184017082,"connected_time":2387000000000,"state":"active","ping":61},{"user_id":688,"name":"Malex","steam_id":76561198012216805,"connected_time":109000000000,"state":"active","ping":86},{"user_id":682,"name":"Hanky","steam_id":76561199042672335,"connected_time":902000000000,"state":"active","ping":78},{"user_id":634,"name":"Mr. Sweet-and-Awful","steam_id":76561198352544325,"connected_time":4086000000000,"state":"active","ping":69},{"user_id":665,"name":"chad","steam_id":76561198216109017,"connected_time":2339000000000,"state":"active","ping":87},{"user_id":664,"name":"Alset","steam_id":76561197993820174,"connected_time":2364000000000,"state":"active","ping":58},{"user_id":662,"name":"yeyoi","steam_id":76561198069821885,"connected_time":2383000000000,"state":"active","ping":43},{"user_id":574,"name":"Foomfa","steam_id":76561198007033616,"connected_time":8685000000000,"state":"active","ping":62},{"user_id":670,"name":"Droz misses shots","steam_id":76561198072555204,"connected_time":2139000000000,"state":"active","ping":74},{"user_id":683,"name":"KittyCatMeowMeow","steam_id":76561198211632819,"connected_time":896000000000,"state":"active","ping":56},{"user_id":673,"name":"Dr. Ludwig","steam_id":76561198110246392,"connected_time":1984000000000,"state":"active","ping":55},{"user_id":653,"name":"NexFrost","steam_id":76561197985774837,"connected_time":2780000000000,"state":"active","ping":35},{"user_id":671,"name":"a potentially funny joke","steam_id":76561198328675913,"connected_time":2094000000000,"state":"active","ping":84},{"user_id":681,"name":"xXx1337ChimkinNugGaymer420xXx","steam_id":76561198149063013,"connected_time":1058000000000,"state":"active","ping":58}]},{"server_id":108,"name":"Uncletopia | Dallas | 2 | All Maps","name_short":"dal-2","host":"dal-1.us.uncletopia.com","port":27025,"enabled":true,"region":"us-central","cc":"us","latitude":32.779167,"longitude":-96.80889,"reserved":0,"last_update":"0001-01-01T00:00:00Z","name_a2s":"Uncletopia | Dallas | 2 | All Maps","protocol":17,"map":"cp_dustbowl","folder":"tf","game":"Team Fortress","app_id":440,"player_count":24,"max_players":24,"Bots":0,"server_type":"Dedicated","server_os":"Linux","password":true,"vac":true,"version":"7757534","steam_id":85568392924469988,"keywords":["cp","nocrits","nodmgspread","uncletopia"],"game_id":440,"stv_port":27026,"stv_name":"Uncletopia | Dallas | 2 | All Maps | STV","players":[{"user_id":522,"name":"PotatoIsUs","steam_id":76561198241109482,"connected_time":809000000000,"state":"active","ping":60},{"user_id":432,"name":"a bucket of chicken","steam_id":76561198023710042,"connected_time":9368000000000,"state":"active","ping":57},{"user_id":484,"name":"GLG.Liz","steam_id":76561198021957956,"connected_time":4151000000000,"state":"active","ping":51},{"user_id":529,"name":"Nicklouse","steam_id":76561198852629024,"connected_time":168000000000,"state":"active","ping":78},{"user_id":491,"name":"Salazar9","steam_id":76561198049903973,"connected_time":3812000000000,"state":"active","ping":98},{"user_id":462,"name":"webaline","steam_id":76561199052450127,"connected_time":5824000000000,"state":"active","ping":78},{"user_id":504,"name":"machomelon","steam_id":76561198043683564,"connected_time":2221000000000,"state":"active","ping":75},{"user_id":469,"name":"Brass beast heavy","steam_id":76561198274197623,"connected_time":5223000000000,"state":"active","ping":157},{"user_id":495,"name":"Nae Nae no Whip","steam_id":76561198138365728,"connected_time":3071000000000,"state":"active","ping":80},{"user_id":474,"name":"DarthJiggles","steam_id":76561198088383875,"connected_time":5124000000000,"state":"active","ping":89},{"user_id":518,"name":"Im Mischievioues gamer","steam_id":76561198152618680,"connected_time":1835000000000,"state":"active","ping":59},{"user_id":502,"name":"Jarryl97","steam_id":76561198055451373,"connected_time":2254000000000,"state":"active","ping":69},{"user_id":511,"name":"remedu","steam_id":76561198005152587,"connected_time":2061000000000,"state":"active","ping":44},{"user_id":475,"name":"yeeye","steam_id":76561198094306054,"connected_time":5102000000000,"state":"active","ping":60},{"user_id":520,"name":"Garduuk","steam_id":76561198010745965,"connected_time":1807000000000,"state":"active","ping":77},{"user_id":525,"name":"mae","steam_id":76561198116842967,"connected_time":661000000000,"state":"active","ping":65},{"user_id":516,"name":"Dr. Bonair","steam_id":76561198129237487,"connected_time":1865000000000,"state":"active","ping":63},{"user_id":532,"name":"resh","steam_id":76561198066619792,"connected_time":55000000000,"state":"active","ping":63},{"user_id":438,"name":"Sriracha","steam_id":76561198114781841,"connected_time":8750000000000,"state":"active","ping":57},{"user_id":487,"name":"GLG MUTT","steam_id":76561198147785541,"connected_time":3835000000000,"state":"active","ping":65},{"user_id":531,"name":"Workwaffle","steam_id":76561198088775748,"connected_time":123000000000,"state":"active","ping":110},{"user_id":519,"name":"ChottoAMinute","steam_id":76561198873157775,"connected_time":1833000000000,"state":"active","ping":44},{"user_id":526,"name":"yesoko","steam_id":76561198072917024,"connected_time":654000000000,"state":"active","ping":77},{"user_id":510,"name":"RedTheFoxisWow","steam_id":76561198827275380,"connected_time":2092000000000,"state":"active","ping":70}]},{"server_id":5,"name":"Uncletopia | Frankfurt | 1 | All Maps","name_short":"frk-1","host":"frk-1.de.uncletopia.com","port":27015,"enabled":true,"region":"eu","cc":"de","latitude":50.110924,"longitude":8.682127,"reserved":0,"last_update":"0001-01-01T00:00:00Z","name_a2s":"Uncletopia | Frankfurt | 1 | All Maps","protocol":17,"map":"pl_pier","folder":"tf","game":"Team Fortress","app_id":440,"player_count":0,"max_players":24,"Bots":0,"server_type":"Dedicated","server_os":"Linux","password":true,"vac":true,"version":"7757534","steam_id":85568392924469989,"keywords":["nocrits","nodmgspread","payload","uncletopia"],"game_id":440,"stv_port":27016,"stv_name":"Uncletopia | Frankfurt | 1 | All Maps | STV","players":null},{"server_id":110,"name":"Uncletopia | Frankfurt | 2 | All Maps","name_short":"frk-2","host":"frk-1.de.uncletopia.com","port":27025,"enabled":true,"region":"eu","cc":"de","latitude":50.110924,"longitude":8.682127,"reserved":0,"last_update":"0001-01-01T00:00:00Z","name_a2s":"Uncletopia | Frankfurt | 2 | All Maps","protocol":17,"map":"cp_altitude","folder":"tf","game":"Team Fortress","app_id":440,"player_count":0,"max_players":24,"Bots":0,"server_type":"Dedicated","server_os":"Linux","password":true,"vac":true,"version":"7757534","steam_id":85568392924469990,"keywords":["cp","nocrits","nodmgspread","uncletopia"],"game_id":440,"stv_port":27026,"stv_name":"Uncletopia | Frankfurt | 2 | All Maps | STV","players":null},{"server_id":308,"name":"Uncletopia | Frankfurt | 3 | All Maps","name_short":"frk-3","host":"frk-1.de.uncletopia.com","port":27035,"enabled":true,"region":"eu","cc":"de","latitude":50.110924,"longitude":8.682127,"reserved":0,"last_update":"0001-01-01T00:00:00Z","name_a2s":"Uncletopia | Frankfurt | 3 | All Maps","protocol":17,"map":"pl_barnblitz","folder":"tf","game":"Team Fortress","app_id":440,"player_count":0,"max_players":24,"Bots":0,"server_type":"Dedicated","server_os":"Linux","password":true,"vac":true,"version":"7757534","steam_id":85568392924504274,"keywords":["nocrits","nodmgspread","payload","uncletopia"],"game_id":440,"stv_port":27036,"stv_name":"Uncletopia | Frankfurt | 3 | All Maps | STV","players":null},{"server_id":309,"name":"Uncletopia | Frankfurt | 4 | All Maps","name_short":"frk-4","host":"frk-1.de.uncletopia.com","port":27045,"enabled":true,"region":"eu","cc":"de","latitude":50.110924,"longitude":8.682127,"reserved":0,"last_update":"0001-01-01T00:00:00Z","name_a2s":"Uncletopia | Frankfurt | 4 | All Maps","protocol":17,"map":"pl_snowycoast","folder":"tf","game":"Team Fortress","app_id":440,"player_count":0,"max_players":24,"Bots":0,"server_type":"Dedicated","server_os":"Linux","password":true,"vac":true,"version":"7757534","steam_id":85568392924504275,"keywords":["nocrits","nodmgspread","payload","uncletopia"],"game_id":440,"stv_port":27046,"stv_name":"Uncletopia | Frankfurt | 4 | All Maps | STV","players":null},{"server_id":310,"name":"Uncletopia | Frankfurt | 5 | All Maps","name_short":"frk-5","host":"frk-1.de.uncletopia.com","port":27055,"enabled":true,"region":"eu","cc":"de","latitude":50.110924,"longitude":8.682127,"reserved":0,"last_update":"0001-01-01T00:00:00Z","name_a2s":"Uncletopia | Frankfurt | 5 | All Maps","protocol":17,"map":"cp_altitude","folder":"tf","game":"Team Fortress","app_id":440,"player_count":0,"max_players":24,"Bots":0,"server_type":"Dedicated","server_os":"Linux","password":true,"vac":true,"version":"7757534","steam_id":85568392924504277,"keywords":["cp","nocrits","nodmgspread","uncletopia"],"game_id":440,"stv_port":27056,"stv_name":"Uncletopia | Frankfurt | 5 | All Maps | STV","players":null},{"server_id":311,"name":"Uncletopia | Frankfurt | 6 | All Maps","name_short":"frk-6","host":"frk-1.de.uncletopia.com","port":27065,"enabled":true,"region":"eu","cc":"de","latitude":50.110924,"longitude":8.682127,"reserved":0,"last_update":"0001-01-01T00:00:00Z","name_a2s":"Uncletopia | Frankfurt | 6 | All Maps","protocol":17,"map":"koth_highpass","folder":"tf","game":"Team Fortress","app_id":440,"player_count":0,"max_players":24,"Bots":0,"server_type":"Dedicated","server_os":"Linux","password":true,"vac":true,"version":"7757534","steam_id":85568392924504278,"keywords":["cp","nocrits","nodmgspread","uncletopia"],"game_id":440,"stv_port":27066,"stv_name":"Uncletopia | Frankfurt | 6 | All Maps | STV","players":null},{"server_id":23,"name":"Uncletopia | Frankfurt | 7 | Stopwatch Beta","name_short":"frk-7","host":"frk-1.de.uncletopia.com","port":27075,"enabled":true,"region":"eu","cc":"de","latitude":50.110924,"longitude":8.682127,"reserved":0,"last_update":"0001-01-01T00:00:00Z","name_a2s":"Uncletopia | Frankfurt | 7 | Stopwatch Beta","protocol":17,"map":"pl_borneo","folder":"tf","game":"Team Fortress","app_id":440,"player_count":0,"max_players":24,"Bots":0,"server_type":"Dedicated","server_os":"Linux","password":true,"vac":true,"version":"7757534","steam_id":85568392924742827,"keywords":["nocrits","nodmgspread","payload","uncletopia"],"game_id":440,"stv_port":27076,"stv_name":"Uncletopia | Frankfurt | 7 | Stopwatch Beta | STV","players":null},{"server_id":24,"name":"Uncletopia | Frankfurt | 8 | Community","name_short":"frk-8","host":"frk-1.de.uncletopia.com","port":27085,"enabled":true,"region":"eu","cc":"de","latitude":50.110924,"longitude":8.682127,"reserved":0,"last_update":"0001-01-01T00:00:00Z","name_a2s":"Uncletopia | Frankfurt | 8 | Community","protocol":17,"map":"koth_cascade","folder":"tf","game":"Team Fortress","app_id":440,"player_count":0,"max_players":24,"Bots":0,"server_type":"Dedicated","server_os":"Linux","password":true,"vac":true,"version":"7757534","steam_id":85568392924742828,"keywords":["cp","nocrits","nodmgspread","uncletopia"],"game_id":440,"stv_port":27086,"stv_name":"Uncletopia | Frankfurt | 8 | Community | STV","players":null},{"server_id":202,"name":"Uncletopia | Hong Kong | 1 | All Maps","name_short":"hgk-1","host":"hgk-1.hk.uncletopia.com","port":27015,"enabled":true,"region":"asia","cc":"hk","latitude":22.302711,"longitude":114.177216,"reserved":0,"last_update":"0001-01-01T00:00:00Z","name_a2s":"Uncletopia | Hong Kong | 1 | All Maps","protocol":17,"map":"cp_steel","folder":"tf","game":"Team Fortress","app_id":440,"player_count":24,"max_players":24,"Bots":0,"server_type":"Dedicated","server_os":"Linux","password":true,"vac":true,"version":"7757534","steam_id":85568392924494504,"keywords":["cp","nocrits","nodmgspread","uncletopia"],"game_id":440,"stv_port":27016,"stv_name":"Uncletopia | Hong Kong | 1 | All Maps | STV","players":[{"user_id":127,"name":"MS PowerPoint","steam_id":76561198369523192,"connected_time":1757000000000,"state":"active","ping":64},{"user_id":88,"name":"TomCat","steam_id":76561198133744053,"connected_time":5392000000000,"state":"active","ping":116},{"user_id":99,"name":"chaechae","steam_id":76561198240627872,"connected_time":4685000000000,"state":"active","ping":49},{"user_id":112,"name":"MsD IV","steam_id":76561198059707655,"connected_time":2902000000000,"state":"active","ping":81},{"user_id":140,"name":"moguizhong","steam_id":76561198152588681,"connected_time":1093000000000,"state":"active","ping":83},{"user_id":100,"name":"Bepo","steam_id":76561198136685157,"connected_time":4476000000000,"state":"active","ping":60},{"user_id":145,"name":"spinach hero","steam_id":76561198042539541,"connected_time":642000000000,"state":"active","ping":78},{"user_id":142,"name":"MrNoddles","steam_id":76561198075161995,"connected_time":937000000000,"state":"active","ping":137},{"user_id":133,"name":"Dude Time","steam_id":76561198092991160,"connected_time":1182000000000,"state":"active","ping":162},{"user_id":154,"name":"aweeeesomj","steam_id":76561198831194463,"connected_time":44000000000,"state":"active","ping":99},{"user_id":79,"name":"pardo","steam_id":76561198230213828,"connected_time":6554000000000,"state":"active","ping":63},{"user_id":101,"name":"qb","steam_id":76561198412329672,"connected_time":4346000000000,"state":"active","ping":90},{"user_id":136,"name":"smol - est","steam_id":76561198293775978,"connected_time":1174000000000,"state":"active","ping":109},{"user_id":91,"name":"ocha „ÅäËå∂ Ï†ÑÌÜµÏ∞®","steam_id":76561199224096189,"connected_time":4949000000000,"state":"active","ping":94},{"user_id":141,"name":"IZ*","steam_id":76561198834621927,"connected_time":1018000000000,"state":"active","ping":137},{"user_id":83,"name":"jerrybel","steam_id":76561198055553140,"connected_time":6289000000000,"state":"active","ping":82},{"user_id":149,"name":"Drutzhfer","steam_id":76561198299948446,"connected_time":568000000000,"state":"active","ping":102},{"user_id":103,"name":"Lu","steam_id":76561198320532821,"connected_time":4164000000000,"state":"active","ping":64},{"user_id":113,"name":"Smile :)","steam_id":76561199125493462,"connected_time":2902000000000,"state":"active","ping":104},{"user_id":95,"name":"bad at everything(f2p)","steam_id":76561199378524169,"connected_time":4902000000000,"state":"active","ping":171},{"user_id":126,"name":"kaaaaa","steam_id":76561198400698408,"connected_time":1938000000000,"state":"active","ping":94},{"user_id":123,"name":"Mega 00F","steam_id":76561198962485791,"connected_time":2034000000000,"state":"active","ping":137},{"user_id":132,"name":"Urotsuki","steam_id":76561198074339034,"connected_time":1184000000000,"state":"active","ping":79},{"user_id":97,"name":"JayJ","steam_id":76561198324008555,"connected_time":4892000000000,"state":"active","ping":56}]},{"server_id":1,"name":"Uncletopia | Los Angeles | 1 | All Maps","name_short":"lax-1","host":"lax-1.us.uncletopia.com","port":27015,"enabled":true,"region":"us-west","cc":"us","latitude":33.94279,"longitude":-118.41004,"reserved":0,"last_update":"0001-01-01T00:00:00Z","name_a2s":"Uncletopia | Los Angeles | 1 | All Maps","protocol":17,"map":"pl_swiftwater_final1","folder":"tf","game":"Team Fortress","app_id":440,"player_count":24,"max_players":24,"Bots":0,"server_type":"Dedicated","server_os":"Linux","password":true,"vac":true,"version":"7757534","steam_id":85568392924469991,"keywords":["nocrits","nodmgspread","payload","uncletopia"],"game_id":440,"stv_port":27016,"stv_name":"Uncletopia | Los Angeles | 1 | All Maps | STV","players":[{"user_id":16,"name":"Thicc Boi","steam_id":76561199163799116,"connected_time":3884000000000,"state":"active","ping":60},{"user_id":17,"name":"piggyplayz","steam_id":76561198844382126,"connected_time":3882000000000,"state":"active","ping":78},{"user_id":55,"name":"unnamed56565","steam_id":76561199082953233,"connected_time":737000000000,"state":"active","ping":60},{"user_id":22,"name":"buber","steam_id":76561199122013973,"connected_time":2124000000000,"state":"active","ping":63},{"user_id":34,"name":"NeoN","steam_id":76561198117608366,"connected_time":1655000000000,"state":"active","ping":109},{"user_id":56,"name":"Ben Ben","steam_id":76561198307247913,"connected_time":719000000000,"state":"active","ping":47},{"user_id":25,"name":"TheTrashMann","steam_id":76561199174242639,"connected_time":1988000000000,"state":"active","ping":125},{"user_id":26,"name":"Pinhead","steam_id":76561198207979440,"connected_time":1941000000000,"state":"active","ping":58},{"user_id":61,"name":"Leo","steam_id":76561198309760791,"connected_time":332000000000,"state":"active","ping":94},{"user_id":62,"name":"MrButter","steam_id":76561198845773528,"connected_time":252000000000,"state":"active","ping":101},{"user_id":31,"name":"goatz","steam_id":76561198163662622,"connected_time":1821000000000,"state":"active","ping":58},{"user_id":32,"name":"asm_ghost","steam_id":76561199205363547,"connected_time":1788000000000,"state":"active","ping":89},{"user_id":33,"name":"The Gremlin","steam_id":76561198419066993,"connected_time":1767000000000,"state":"active","ping":87},{"user_id":57,"name":"Sewer","steam_id":76561198803732690,"connected_time":630000000000,"state":"active","ping":43},{"user_id":36,"name":"Brando","steam_id":76561198078306678,"connected_time":1629000000000,"state":"active","ping":67},{"user_id":58,"name":"Jimmy Kimmel","steam_id":76561198108044200,"connected_time":548000000000,"state":"active","ping":94},{"user_id":59,"name":"offrow","steam_id":76561198123596791,"connected_time":535000000000,"state":"active","ping":44},{"user_id":64,"name":"Peak","steam_id":76561198118772175,"connected_time":185000000000,"state":"active","ping":45},{"user_id":40,"name":"rycepatti","steam_id":76561198291923635,"connected_time":1605000000000,"state":"active","ping":73},{"user_id":65,"name":"Hordofood","steam_id":76561198154216907,"connected_time":171000000000,"state":"active","ping":59},{"user_id":42,"name":"MrJokester","steam_id":76561198019101367,"connected_time":1584000000000,"state":"active","ping":86},{"user_id":60,"name":"LobsterPot","steam_id":76561198072225973,"connected_time":486000000000,"state":"active","ping":101},{"user_id":45,"name":"sweaterfan","steam_id":76561199389567214,"connected_time":1533000000000,"state":"active","ping":97},{"user_id":52,"name":"Mr. Call You Back","steam_id":76561198025172811,"connected_time":917000000000,"state":"active","ping":45}]},{"server_id":112,"name":"Uncletopia | Los Angeles | 2 | All Maps","name_short":"lax-2","host":"lax-1.us.uncletopia.com","port":27025,"enabled":true,"region":"us-west","cc":"us","latitude":33.94279,"longitude":-118.41004,"reserved":0,"last_update":"0001-01-01T00:00:00Z","name_a2s":"Uncletopia | Los Angeles | 2 | All Maps","protocol":17,"map":"cp_snakewater_final1","folder":"tf","game":"Team Fortress","app_id":440,"player_count":24,"max_players":24,"Bots":0,"server_type":"Dedicated","server_os":"Linux","password":true,"vac":true,"version":"7757534","steam_id":85568392924469992,"keywords":["cp","nocrits","nodmgspread","uncletopia"],"game_id":440,"stv_port":27026,"stv_name":"Uncletopia | Los Angeles | 2 | All Maps | STV","players":[{"user_id":735,"name":"JamesBlakeFan11","steam_id":76561198440539769,"connected_time":450000000000,"state":"active","ping":62},{"user_id":732,"name":"Nyges","steam_id":76561198139236154,"connected_time":937000000000,"state":"active","ping":53},{"user_id":709,"name":"PunyHappyFace","steam_id":76561198118059305,"connected_time":2479000000000,"state":"active","ping":44},{"user_id":645,"name":"Spud","steam_id":76561198878000618,"connected_time":9294000000000,"state":"active","ping":47},{"user_id":747,"name":"sin","steam_id":76561199439723982,"connected_time":3000000000,"state":"spawning","ping":105},{"user_id":734,"name":"ELO oak","steam_id":76561198092135570,"connected_time":476000000000,"state":"active","ping":61},{"user_id":744,"name":"thepopeofshame","steam_id":76561199047823974,"connected_time":278000000000,"state":"active","ping":41},{"user_id":697,"name":"Marzbee115","steam_id":76561198095821025,"connected_time":3765000000000,"state":"active","ping":44},{"user_id":736,"name":"TPScout","steam_id":76561198353808504,"connected_time":412000000000,"state":"active","ping":125},{"user_id":648,"name":"le fishe enjoyer","steam_id":76561199045901994,"connected_time":8766000000000,"state":"active","ping":56},{"user_id":737,"name":"Kervin","steam_id":76561198087832178,"connected_time":407000000000,"state":"active","ping":71},{"user_id":690,"name":"Drive-By-Fish-Guy","steam_id":76561198105513652,"connected_time":4381000000000,"state":"active","ping":64},{"user_id":691,"name":"UneditedAndy","steam_id":76561198982544947,"connected_time":4278000000000,"state":"active","ping":50},{"user_id":739,"name":"Agent Q","steam_id":76561198830829003,"connected_time":393000000000,"state":"active","ping":70},{"user_id":738,"name":"ape (real)","steam_id":76561198379444671,"connected_time":404000000000,"state":"active","ping":100},{"user_id":725,"name":"Lavernius41","steam_id":76561198807274102,"connected_time":1998000000000,"state":"active","ping":68},{"user_id":722,"name":"Scout Reading a Comic","steam_id":76561199284296037,"connected_time":2024000000000,"state":"active","ping":61},{"user_id":675,"name":"GamerPizza","steam_id":76561198140520550,"connected_time":6318000000000,"state":"active","ping":82},{"user_id":727,"name":"xbox record that","steam_id":76561198150117455,"connected_time":1839000000000,"state":"active","ping":60},{"user_id":740,"name":"John Wick's puppy","steam_id":76561198064662875,"connected_time":391000000000,"state":"active","ping":54},{"user_id":741,"name":"SneakyRocks","steam_id":76561198201694213,"connected_time":322000000000,"state":"active","ping":53},{"user_id":742,"name":"Orca?","steam_id":76561198164341099,"connected_time":310000000000,"state":"active","ping":97},{"user_id":711,"name":"Avem","steam_id":76561198058763710,"connected_time":2350000000000,"state":"active","ping":45},{"user_id":743,"name":"Mr Majesticals","steam_id":76561198015242706,"connected_time":304000000000,"state":"active","ping":53}]},{"server_id":324,"name":"Uncletopia | Los Angeles | 3 | All Maps","name_short":"lax-3","host":"lax-1.us.uncletopia.com","port":27035,"enabled":true,"region":"us-west","cc":"us","latitude":33.94279,"longitude":-118.41004,"reserved":0,"last_update":"0001-01-01T00:00:00Z","name_a2s":"Uncletopia | Los Angeles | 3 | All Maps","protocol":17,"map":"koth_viaduct","folder":"tf","game":"Team Fortress","app_id":440,"player_count":0,"max_players":24,"Bots":0,"server_type":"Dedicated","server_os":"Linux","password":true,"vac":true,"version":"7757534","steam_id":85568392924510198,"keywords":["cp","nocrits","nodmgspread","uncletopia"],"game_id":440,"stv_port":27036,"stv_name":"Uncletopia | Los Angeles | 3 | All Maps | STV","players":null},{"server_id":25,"name":"Uncletopia | Los Angeles | 4 | Stopwatch Beta","name_short":"lax-4","host":"lax-1.us.uncletopia.com","port":27045,"enabled":true,"region":"us-west","cc":"us","latitude":33.94279,"longitude":-118.41004,"reserved":0,"last_update":"0001-01-01T00:00:00Z","name_a2s":"Uncletopia | Los Angeles | 4 | Stopwatch Beta","protocol":17,"map":"koth_viaduct","folder":"tf","game":"Team Fortress","app_id":440,"player_count":2,"max_players":24,"Bots":0,"server_type":"Dedicated","server_os":"Linux","password":true,"vac":true,"version":"7757534","steam_id":85568392924510199,"keywords":["cp","nocrits","nodmgspread","uncletopia"],"game_id":440,"stv_port":27046,"stv_name":"Uncletopia | Los Angeles | 4 | Stopwatch Beta | STV","players":[{"user_id":14,"name":"diotf2","steam_id":76561199446707081,"connected_time":1857000000000,"state":"active","ping":59},{"user_id":15,"name":"Light (Gapijr636)","steam_id":76561199212990267,"connected_time":1737000000000,"state":"active","ping":64}]},{"server_id":11,"name":"Uncletopia | London | 1 | All Maps","name_short":"lon-1","host":"lon-1.uk.uncletopia.com","port":27015,"enabled":true,"region":"eu","cc":"gb","latitude":51.509865,"longitude":-0.118092,"reserved":0,"last_update":"0001-01-01T00:00:00Z","name_a2s":"Uncletopia | London | 1 | All Maps","protocol":17,"map":"koth_king","folder":"tf","game":"Team Fortress","app_id":440,"player_count":0,"max_players":24,"Bots":0,"server_type":"Dedicated","server_os":"Linux","password":true,"vac":true,"version":"7757534","steam_id":85568392924367362,"keywords":["cp","nocrits","nodmgspread","uncletopia"],"game_id":440,"stv_port":27016,"stv_name":"Uncletopia | London | 1 | All Maps | STV","players":null},{"server_id":114,"name":"Uncletopia | London | 2 | All Maps","name_short":"lon-2","host":"lon-1.uk.uncletopia.com","port":27025,"enabled":true,"region":"eu","cc":"gb","latitude":51.509865,"longitude":-0.118092,"reserved":0,"last_update":"0001-01-01T00:00:00Z","name_a2s":"Uncletopia | London | 2 | All Maps","protocol":17,"map":"pl_frontier_final","folder":"tf","game":"Team Fortress","app_id":440,"player_count":24,"max_players":24,"Bots":0,"server_type":"Dedicated","server_os":"Linux","password":true,"vac":true,"version":"7757534","steam_id":85568392924470941,"keywords":["nocrits","nodmgspread","payload","uncletopia"],"game_id":440,"stv_port":27026,"stv_name":"Uncletopia | London | 2 | All Maps | STV","players":[{"user_id":851,"name":"dominicpanda","steam_id":76561198970075085,"connected_time":1278000000000,"state":"active","ping":40},{"user_id":828,"name":"slinder dub","steam_id":76561198161124800,"connected_time":3204000000000,"state":"active","ping":100},{"user_id":745,"name":"2011 Seat Le√≥n","steam_id":76561197994310420,"connected_time":9190000000000,"state":"active","ping":90},{"user_id":855,"name":"Real (Real)","steam_id":76561198323425034,"connected_time":1168000000000,"state":"active","ping":74},{"user_id":859,"name":"raime","steam_id":76561198024903775,"connected_time":1007000000000,"state":"active","ping":97},{"user_id":841,"name":"Huhso","steam_id":76561198219443271,"connected_time":2186000000000,"state":"active","ping":107},{"user_id":861,"name":"--","steam_id":76561198365098582,"connected_time":910000000000,"state":"active","ping":155},{"user_id":833,"name":"Peas4nt","steam_id":76561198287510052,"connected_time":2818000000000,"state":"active","ping":63},{"user_id":860,"name":"Johnny Cockroach","steam_id":76561198049648277,"connected_time":923000000000,"state":"active","ping":95},{"user_id":829,"name":"catboy trickster","steam_id":76561198075665211,"connected_time":2902000000000,"state":"active","ping":38},{"user_id":865,"name":"Zerfesh","steam_id":76561198117534358,"connected_time":217000000000,"state":"active","ping":93},{"user_id":849,"name":"Noodle","steam_id":76561197997208006,"connected_time":1572000000000,"state":"active","ping":65},{"user_id":811,"name":"DariBro","steam_id":76561198155444173,"connected_time":4005000000000,"state":"active","ping":70},{"user_id":827,"name":"bassam","steam_id":76561199057881822,"connected_time":3363000000000,"state":"active","ping":113},{"user_id":821,"name":"._.","steam_id":76561198854897667,"connected_time":3661000000000,"state":"active","ping":72},{"user_id":800,"name":"jones","steam_id":76561198044434971,"connected_time":5293000000000,"state":"active","ping":67},{"user_id":864,"name":"BlackBird","steam_id":76561198093229816,"connected_time":861000000000,"state":"active","ping":90},{"user_id":854,"name":"GorkaMorka","steam_id":76561198323830346,"connected_time":1238000000000,"state":"active","ping":64},{"user_id":848,"name":"Sckytes","steam_id":76561198046050018,"connected_time":1603000000000,"state":"active","ping":79},{"user_id":842,"name":"SugipuLaur","steam_id":76561199138556623,"connected_time":1995000000000,"state":"active","ping":74},{"user_id":863,"name":"olf","steam_id":76561198095487438,"connected_time":876000000000,"state":"active","ping":83},{"user_id":850,"name":"Batunga","steam_id":76561198174496709,"connected_time":1544000000000,"state":"active","ping":69},{"user_id":832,"name":"Melon","steam_id":76561198150893860,"connected_time":2869000000000,"state":"active","ping":89},{"user_id":820,"name":"Megasecret","steam_id":76561198055378025,"connected_time":3671000000000,"state":"active","ping":87}]},{"server_id":320,"name":"Uncletopia | London | 3 | All Maps","name_short":"lon-3","host":"lon-1.uk.uncletopia.com","port":27035,"enabled":true,"region":"eu","cc":"gb","latitude":51.509865,"longitude":-0.118092,"reserved":0,"last_update":"0001-01-01T00:00:00Z","name_a2s":"Uncletopia | London | 3 | All Maps","protocol":17,"map":"pl_pier","folder":"tf","game":"Team Fortress","app_id":440,"player_count":0,"max_players":24,"Bots":0,"server_type":"Dedicated","server_os":"Linux","password":true,"vac":true,"version":"7757534","steam_id":85568392924510192,"keywords":["nocrits","nodmgspread","payload","uncletopia"],"game_id":440,"stv_port":27036,"stv_name":"Uncletopia | London | 3 | All Maps | STV","players":null},{"server_id":321,"name":"Uncletopia | London | 4 | All Maps","name_short":"lon-4","host":"lon-1.uk.uncletopia.com","port":27045,"enabled":true,"region":"eu","cc":"gb","latitude":51.509865,"longitude":-0.118092,"reserved":0,"last_update":"0001-01-01T00:00:00Z","name_a2s":"Uncletopia | London | 4 | All Maps","protocol":17,"map":"koth_highpass","folder":"tf","game":"Team Fortress","app_id":440,"player_count":0,"max_players":24,"Bots":0,"server_type":"Dedicated","server_os":"Linux","password":true,"vac":true,"version":"7757534","steam_id":85568392924510193,"keywords":["cp","nocrits","nodmgspread","uncletopia"],"game_id":440,"stv_port":27046,"stv_name":"Uncletopia | London | 4 | All Maps | STV","players":null},{"server_id":21,"name":"Uncletopia | London | 5 | All Maps","name_short":"lon-5","host":"lon-1.uk.uncletopia.com","port":27055,"enabled":true,"region":"eu","cc":"gb","latitude":51.509865,"longitude":-0.118092,"reserved":0,"last_update":"0001-01-01T00:00:00Z","name_a2s":"Uncletopia | London | 5 | All Maps","protocol":17,"map":"koth_suijin","folder":"tf","game":"Team Fortress","app_id":440,"player_count":0,"max_players":24,"Bots":0,"server_type":"Dedicated","server_os":"Linux","password":true,"vac":true,"version":"7757534","steam_id":85568392924742829,"keywords":["cp","nocrits","nodmgspread","uncletopia"],"game_id":440,"stv_port":27056,"stv_name":"Uncletopia | London | 5 | All Maps | STV","players":null},{"server_id":22,"name":"Uncletopia | London | 6 | All Maps","name_short":"lon-6","host":"lon-1.uk.uncletopia.com","port":27065,"enabled":true,"region":"eu","cc":"gb","latitude":51.509865,"longitude":-0.118092,"reserved":0,"last_update":"0001-01-01T00:00:00Z","name_a2s":"Uncletopia | London | 6 | All Maps","protocol":17,"map":"cp_snakewater_final1","folder":"tf","game":"Team Fortress","app_id":440,"player_count":0,"max_players":24,"Bots":0,"server_type":"Dedicated","server_os":"Linux","password":true,"vac":true,"version":"7757534","steam_id":85568392924742830,"keywords":["cp","nocrits","nodmgspread","uncletopia"],"game_id":440,"stv_port":27066,"stv_name":"Uncletopia | London | 6 | All Maps | STV","players":null},{"server_id":40,"name":"Uncletopia | London | 7 | No Payload","name_short":"lon-7","host":"lon-1.uk.uncletopia.com","port":27075,"enabled":true,"region":"eu","cc":"gb","latitude":51.509865,"longitude":-0.118092,"reserved":0,"last_update":"0001-01-01T00:00:00Z","name_a2s":"Uncletopia | London | 7 | No Payload","protocol":17,"map":"cp_badlands","folder":"tf","game":"Team Fortress","app_id":440,"player_count":0,"max_players":24,"Bots":0,"server_type":"Dedicated","server_os":"Linux","password":true,"vac":true,"version":"7757534","steam_id":85568392924964314,"keywords":["cp","nocrits","nodmgspread","uncletopia"],"game_id":440,"stv_port":27076,"stv_name":"Uncletopia | London | 7 | No Payload | STV","players":null},{"server_id":41,"name":"Uncletopia | London | 8 | Community","name_short":"lon-8","host":"lon-1.uk.uncletopia.com","port":27085,"enabled":true,"region":"eu","cc":"gb","latitude":51.509865,"longitude":-0.118092,"reserved":0,"last_update":"0001-01-01T00:00:00Z","name_a2s":"Uncletopia | London | 8 | Community","protocol":17,"map":"workshop/koth_ashville_final.ugc2130459942","folder":"tf","game":"Team Fortress","app_id":440,"player_count":0,"max_players":24,"Bots":0,"server_type":"Dedicated","server_os":"Linux","password":true,"vac":true,"version":"7757534","steam_id":85568392924964315,"keywords":["cp","nocrits","nodmgspread","uncletopia"],"game_id":440,"stv_port":27086,"stv_name":"Uncletopia | London | 8 | Community | STV","players":null},{"server_id":300,"name":"Uncletopia | Montr√©al | 1 | All Maps","name_short":"mtl-1","host":"mtl-1.ca.uncletopia.com","port":27015,"enabled":true,"region":"us-east","cc":"ca","latitude":45.50889,"longitude":-73.56167,"reserved":0,"last_update":"0001-01-01T00:00:00Z","name_a2s":"Uncletopia | Montr√©al | 1 | All Maps","protocol":17,"map":"koth_cascade","folder":"tf","game":"Team Fortress","app_id":440,"player_count":0,"max_players":24,"Bots":0,"server_type":"Dedicated","server_os":"Linux","password":true,"vac":true,"version":"7757534","steam_id":85568392924500087,"keywords":["cp","nocrits","nodmgspread","uncletopia"],"game_id":440,"stv_port":27016,"stv_name":"Uncletopia | Montr√©al | 1 | All Maps | STV","players":null},{"server_id":301,"name":"Uncletopia | Montr√©al | 2 | All Maps","name_short":"mtl-2","host":"mtl-1.ca.uncletopia.com","port":27025,"enabled":true,"region":"us-east","cc":"ca","latitude":45.50889,"longitude":-73.56167,"reserved":0,"last_update":"0001-01-01T00:00:00Z","name_a2s":"Uncletopia | Montr√©al | 2 | All Maps","protocol":17,"map":"koth_lakeside_final","folder":"tf","game":"Team Fortress","app_id":440,"player_count":0,"max_players":24,"Bots":0,"server_type":"Dedicated","server_os":"Linux","password":true,"vac":true,"version":"7757534","steam_id":85568392924500088,"keywords":["cp","nocrits","nodmgspread","uncletopia"],"game_id":440,"stv_port":27026,"stv_name":"Uncletopia | Montr√©al | 2 | All Maps | STV","players":null},{"server_id":302,"name":"Uncletopia | Montr√©al | 3 | All Maps","name_short":"mtl-3","host":"mtl-1.ca.uncletopia.com","port":27035,"enabled":true,"region":"us-east","cc":"ca","latitude":45.50889,"longitude":-73.56167,"reserved":0,"last_update":"0001-01-01T00:00:00Z","name_a2s":"Uncletopia | Montr√©al | 3 | All Maps","protocol":17,"map":"pl_upward","folder":"tf","game":"Team Fortress","app_id":440,"player_count":7,"max_players":24,"Bots":0,"server_type":"Dedicated","server_os":"Linux","password":true,"vac":true,"version":"7757534","steam_id":85568392924500089,"keywords":["nocrits","nodmgspread","payload","uncletopia"],"game_id":440,"stv_port":27036,"stv_name":"Uncletopia | Montr√©al | 3 | All Maps | STV","players":[{"user_id":179,"name":"Stragnov‚òÜ","steam_id":76561198074702465,"connected_time":300000000000,"state":"active","ping":150},{"user_id":117,"name":"Animal Slices","steam_id":76561198137545511,"connected_time":5873000000000,"state":"active","ping":65},{"user_id":112,"name":"Glass Joe","steam_id":76561198317365741,"connected_time":6666000000000,"state":"active","ping":58},{"user_id":141,"name":"Lethal","steam_id":76561198055545714,"connected_time":3597000000000,"state":"active","ping":85},{"user_id":165,"name":"Megmopep","steam_id":76561198258202958,"connected_time":2131000000000,"state":"active","ping":85},{"user_id":96,"name":"majorbobfunction","steam_id":76561198042464632,"connected_time":8082000000000,"state":"active","ping":74},{"user_id":145,"name":"serynsa","steam_id":76561198066987189,"connected_time":2939000000000,"state":"active","ping":63}]},{"server_id":303,"name":"Uncletopia | Montr√©al | 4 | No Payload","name_short":"mtl-4","host":"mtl-1.ca.uncletopia.com","port":27045,"enabled":true,"region":"us-east","cc":"ca","latitude":45.50889,"longitude":-73.56167,"reserved":0,"last_update":"0001-01-01T00:00:00Z","name_a2s":"Uncletopia | Montr√©al | 4 | No Payload","protocol":17,"map":"koth_harvest_final","folder":"tf","game":"Team Fortress","app_id":440,"player_count":0,"max_players":24,"Bots":0,"server_type":"Dedicated","server_os":"Linux","password":true,"vac":true,"version":"7757534","steam_id":85568392924500090,"keywords":["cp","nocrits","nodmgspread","uncletopia"],"game_id":440,"stv_port":27046,"stv_name":"Uncletopia | Montr√©al | 4 | No Payload | STV","players":null},{"server_id":13,"name":"Uncletopia | New York City | 1 | All Maps","name_short":"nyc-1","host":"nyc-1.us.uncletopia.com","port":27015,"enabled":true,"region":"us-east","cc":"us","latitude":40.73061,"longitude":-73.93524,"reserved":0,"last_update":"0001-01-01T00:00:00Z","name_a2s":"Uncletopia | New York City | 1 | All Maps","protocol":17,"map":"cp_process_final","folder":"tf","game":"Team Fortress","app_id":440,"player_count":23,"max_players":24,"Bots":0,"server_type":"Dedicated","server_os":"Linux","password":true,"vac":true,"version":"7757534","steam_id":85568392924469993,"keywords":["cp","nocrits","nodmgspread","uncletopia"],"game_id":440,"stv_port":27016,"stv_name":"Uncletopia | New York City | 1 | All Maps | STV","players":[{"user_id":547,"name":"Doggo","steam_id":76561198060563799,"connected_time":793000000000,"state":"active","ping":95},{"user_id":541,"name":"haha","steam_id":76561198173047169,"connected_time":1344000000000,"state":"active","ping":45},{"user_id":544,"name":"checkswing","steam_id":76561198999816132,"connected_time":1020000000000,"state":"active","ping":68},{"user_id":530,"name":"DarthRevan","steam_id":76561198164492361,"connected_time":1645000000000,"state":"active","ping":79},{"user_id":548,"name":"Bruce Leeroy","steam_id":76561198010708247,"connected_time":401000000000,"state":"active","ping":69},{"user_id":527,"name":"BeefClapper420","steam_id":76561198080892634,"connected_time":1720000000000,"state":"active","ping":61},{"user_id":549,"name":"callum","steam_id":76561198070918366,"connected_time":389000000000,"state":"active","ping":87},{"user_id":507,"name":"liquid bread","steam_id":76561198012441419,"connected_time":2302000000000,"state":"active","ping":60},{"user_id":552,"name":"Augustus","steam_id":76561198086414515,"connected_time":355000000000,"state":"active","ping":136},{"user_id":532,"name":"Evil Dwight","steam_id":76561198039152770,"connected_time":1612000000000,"state":"active","ping":93},{"user_id":519,"name":"Ecliptica","steam_id":76561198171951333,"connected_time":1948000000000,"state":"active","ping":118},{"user_id":533,"name":"justcallmedoctorchu","steam_id":76561198134843196,"connected_time":1574000000000,"state":"active","ping":94},{"user_id":520,"name":"lu","steam_id":76561198080731872,"connected_time":1911000000000,"state":"active","ping":76},{"user_id":484,"name":"Cursed Dog","steam_id":76561198090785078,"connected_time":4736000000000,"state":"active","ping":115},{"user_id":534,"name":"Feel the bern","steam_id":76561198078824519,"connected_time":1562000000000,"state":"active","ping":121},{"user_id":553,"name":"Smooth - Santana ft. Rob Thomas","steam_id":76561198145283389,"connected_time":211000000000,"state":"active","ping":56},{"user_id":543,"name":"chicanery","steam_id":76561198081654907,"connected_time":1080000000000,"state":"active","ping":86},{"user_id":522,"name":"niceman","steam_id":76561198042728903,"connected_time":1868000000000,"state":"active","ping":77},{"user_id":551,"name":"flora","steam_id":76561197994492154,"connected_time":365000000000,"state":"active","ping":147},{"user_id":536,"name":"hashmap","steam_id":76561198043794014,"connected_time":1546000000000,"state":"active","ping":61},{"user_id":537,"name":"Rhutebeer","steam_id":76561198018302761,"connected_time":1530000000000,"state":"active","ping":101},{"user_id":538,"name":"Krellah","steam_id":76561198287045069,"connected_time":1517000000000,"state":"active","ping":61},{"user_id":500,"name":"-RŒª“âinyCloudCore","steam_id":76561198028799685,"connected_time":3263000000000,"state":"active","ping":87}]},{"server_id":14,"name":"Uncletopia | New York City | 2 | All Maps","name_short":"nyc-2","host":"nyc-1.us.uncletopia.com","port":27025,"enabled":true,"region":"us-east","cc":"us","latitude":40.73061,"longitude":-73.93524,"reserved":0,"last_update":"0001-01-01T00:00:00Z","name_a2s":"Uncletopia | New York City | 2 | All Maps","protocol":17,"map":"pl_barnblitz","folder":"tf","game":"Team Fortress","app_id":440,"player_count":22,"max_players":24,"Bots":0,"server_type":"Dedicated","server_os":"Linux","password":true,"vac":true,"version":"7757534","steam_id":85568392924469994,"keywords":["nocrits","nodmgspread","payload","uncletopia"],"game_id":440,"stv_port":27026,"stv_name":"Uncletopia | New York City | 2 | All Maps | STV","players":[{"user_id":425,"name":"totally not a pile of beans","steam_id":76561198119851931,"connected_time":2873000000000,"state":"active","ping":71},{"user_id":443,"name":"boy actress","steam_id":76561198106690989,"connected_time":1298000000000,"state":"active","ping":49},{"user_id":441,"name":"c0wb0y","steam_id":76561199076182855,"connected_time":1366000000000,"state":"active","ping":103},{"user_id":442,"name":"bobbyboy4020","steam_id":76561198055602369,"connected_time":1304000000000,"state":"active","ping":64},{"user_id":388,"name":"Deeg","steam_id":76561198175970806,"connected_time":6500000000000,"state":"active","ping":55},{"user_id":461,"name":"CapnKris22","steam_id":76561198049010994,"connected_time":807000000000,"state":"active","ping":65},{"user_id":419,"name":"bobdragon27","steam_id":76561198065833387,"connected_time":2926000000000,"state":"active","ping":44},{"user_id":420,"name":"java","steam_id":76561198030276792,"connected_time":2902000000000,"state":"active","ping":61},{"user_id":446,"name":"stoppen","steam_id":76561197960281482,"connected_time":1125000000000,"state":"active","ping":133},{"user_id":482,"name":"Michaelpc1","steam_id":76561198088365519,"connected_time":93000000000,"state":"active","ping":60},{"user_id":448,"name":"Bee","steam_id":76561198074681324,"connected_time":1085000000000,"state":"active","ping":46},{"user_id":450,"name":"Milk","steam_id":76561198175903221,"connected_time":1055000000000,"state":"active","ping":73},{"user_id":417,"name":"Ballin \u0026 Can't Get Up","steam_id":76561198047394013,"connected_time":2947000000000,"state":"active","ping":62},{"user_id":416,"name":"AlecTheNefarious","steam_id":76561198035291230,"connected_time":3099000000000,"state":"active","ping":85},{"user_id":421,"name":"ohohohue","steam_id":76561198165660732,"connected_time":2900000000000,"state":"active","ping":49},{"user_id":431,"name":"Joeyisagonnawin","steam_id":76561198095810732,"connected_time":2358000000000,"state":"active","ping":73},{"user_id":452,"name":"Tok Hakaay","steam_id":76561199311828303,"connected_time":1051000000000,"state":"active","ping":78},{"user_id":480,"name":"toastman","steam_id":76561198207073088,"connected_time":139000000000,"state":"active","ping":77},{"user_id":453,"name":"v‚Åßotlu","steam_id":76561198211993579,"connected_time":1050000000000,"state":"active","ping":71},{"user_id":472,"name":"Djmonsters","steam_id":76561198042381587,"connected_time":327000000000,"state":"active","ping":97},{"user_id":410,"name":"sithreis","steam_id":76561198000564263,"connected_time":3951000000000,"state":"active","ping":75},{"user_id":438,"name":"NyansuPantsu","steam_id":76561198128008770,"connected_time":1792000000000,"state":"active","ping":59}]},{"server_id":15,"name":"Uncletopia | New York City | 3 | Stopwatch Beta","name_short":"nyc-3","host":"nyc-1.us.uncletopia.com","port":27035,"enabled":true,"region":"us-east","cc":"us","latitude":40.73061,"longitude":-73.93524,"reserved":0,"last_update":"0001-01-01T00:00:00Z","name_a2s":"Uncletopia | New York City | 3 | Stopwatch Beta","protocol":17,"map":"workshop/pl_vigil_rc9.ugc1266210012","folder":"tf","game":"Team Fortress","app_id":440,"player_count":0,"max_players":24,"Bots":0,"server_type":"Dedicated","server_os":"Linux","password":true,"vac":true,"version":"7757534","steam_id":85568392924742820,"keywords":["nocrits","nodmgspread","payload","uncletopia"],"game_id":440,"stv_port":27036,"stv_name":"Uncletopia | New York City | 3 | Stopwatch Beta | STV","players":null},{"server_id":16,"name":"Uncletopia | New York City | 4 | Community","name_short":"nyc-4","host":"nyc-1.us.uncletopia.com","port":27045,"enabled":true,"region":"us-east","cc":"us","latitude":40.73061,"longitude":-73.93524,"reserved":0,"last_update":"0001-01-01T00:00:00Z","name_a2s":"Uncletopia | New York City | 4 | Community","protocol":17,"map":"workshop/koth_product_final.ugc454272353","folder":"tf","game":"Team Fortress","app_id":440,"player_count":0,"max_players":24,"Bots":0,"server_type":"Dedicated","server_os":"Linux","password":true,"vac":true,"version":"7757534","steam_id":85568392924742821,"keywords":["cp","nocrits","nodmgspread","uncletopia"],"game_id":440,"stv_port":27046,"stv_name":"Uncletopia | New York City | 4 | Community | STV","players":null},{"server_id":142,"name":"Uncletopia | S√£o Paulo | 1 | All Maps","name_short":"sao-1","host":"sao-1.br.uncletopia.com","port":27015,"enabled":true,"region":"sa","cc":"br","latitude":-23.533773,"longitude":-46.62529,"reserved":0,"last_update":"0001-01-01T00:00:00Z","name_a2s":"Uncletopia | S√£o Paulo | 1 | All Maps","protocol":17,"map":"koth_cascade","folder":"tf","game":"Team Fortress","app_id":440,"player_count":0,"max_players":24,"Bots":0,"server_type":"Dedicated","server_os":"Linux","password":true,"vac":true,"version":"7757534","steam_id":85568392924469996,"keywords":["cp","nocrits","nodmgspread","uncletopia"],"game_id":440,"stv_port":27016,"stv_name":"Uncletopia | S√£o Paulo | 1 | All Maps | STV","players":null},{"server_id":143,"name":"Uncletopia | S√£o Paulo | 2 | All Maps","name_short":"sao-2","host":"sao-2.br.uncletopia.com","port":27015,"enabled":true,"region":"sa","cc":"br","latitude":-23.533773,"longitude":-46.62529,"reserved":0,"last_update":"0001-01-01T00:00:00Z","name_a2s":"Uncletopia | S√£o Paulo | 2 | All Maps","protocol":17,"map":"koth_viaduct","folder":"tf","game":"Team Fortress","app_id":440,"player_count":0,"max_players":24,"Bots":0,"server_type":"Dedicated","server_os":"Linux","password":true,"vac":true,"version":"7757534","steam_id":85568392924485349,"keywords":["cp","nocrits","nodmgspread","uncletopia"],"game_id":440,"stv_port":27016,"stv_name":"Uncletopia | S√£o Paulo | 2 | All Maps | STV","players":null},{"server_id":7,"name":"Uncletopia | Seattle | 1 | All Maps","name_short":"sea-1","host":"sea-1.us.uncletopia.com","port":27015,"enabled":true,"region":"us-west","cc":"us","latitude":47.608013,"longitude":-122.33517,"reserved":0,"last_update":"0001-01-01T00:00:00Z","name_a2s":"Uncletopia | Seattle | 1 | All Maps","protocol":17,"map":"pl_upward","folder":"tf","game":"Team Fortress","app_id":440,"player_count":24,"max_players":24,"Bots":0,"server_type":"Dedicated","server_os":"Linux","password":true,"vac":true,"version":"7757534","steam_id":85568392924469997,"keywords":["nocrits","nodmgspread","payload","uncletopia"],"game_id":440,"stv_port":27016,"stv_name":"Uncletopia | Seattle | 1 | All Maps | STV","players":[{"user_id":495,"name":"Phillip Jeffries","steam_id":76561198064052174,"connected_time":2395000000000,"state":"active","ping":111},{"user_id":491,"name":"R5-D4","steam_id":76561198025196439,"connected_time":2536000000000,"state":"active","ping":54},{"user_id":524,"name":"Crake","steam_id":76561198001959071,"connected_time":199000000000,"state":"active","ping":56},{"user_id":528,"name":"Daz","steam_id":76561198041431938,"connected_time":37000000000,"state":"active","ping":121},{"user_id":500,"name":"KingTinkerer","steam_id":76561198226856548,"connected_time":2250000000000,"state":"active","ping":71},{"user_id":471,"name":"SvicidalBug","steam_id":76561198221390504,"connected_time":4376000000000,"state":"active","ping":66},{"user_id":529,"name":"HavocGDI","steam_id":76561199388371914,"connected_time":28000000000,"state":"active","ping":142},{"user_id":496,"name":"VIRGINIA!!","steam_id":76561198036066855,"connected_time":2369000000000,"state":"active","ping":58},{"user_id":501,"name":"El Gato Paranoico","steam_id":76561198116567116,"connected_time":2194000000000,"state":"active","ping":100},{"user_id":465,"name":"MCman","steam_id":76561198412110305,"connected_time":4775000000000,"state":"active","ping":77},{"user_id":530,"name":"Ahzain","steam_id":76561198035894333,"connected_time":19000000000,"state":"active","ping":85},{"user_id":509,"name":"funk shrimps","steam_id":76561198146228439,"connected_time":1481000000000,"state":"active","ping":45},{"user_id":520,"name":"kenZino","steam_id":76561197967971192,"connected_time":767000000000,"state":"active","ping":46},{"user_id":512,"name":"Mr.Thirteen","steam_id":76561198047468836,"connected_time":1398000000000,"state":"active","ping":62},{"user_id":525,"name":"Arsonist Goose","steam_id":76561198147441830,"connected_time":89000000000,"state":"active","ping":69},{"user_id":518,"name":"penguinlord30","steam_id":76561198437116566,"connected_time":913000000000,"state":"active","ping":59},{"user_id":517,"name":"Elias","steam_id":76561198031295139,"connected_time":1010000000000,"state":"active","ping":51},{"user_id":523,"name":"huh","steam_id":76561198272057200,"connected_time":480000000000,"state":"active","ping":73},{"user_id":531,"name":"MerkyWaters","steam_id":76561197998853063,"connected_time":5000000000,"state":"spawning","ping":81},{"user_id":490,"name":"Mike Hawk","steam_id":76561198045053326,"connected_time":2739000000000,"state":"active","ping":43},{"user_id":527,"name":"Saint Pablo","steam_id":76561198083300159,"connected_time":61000000000,"state":"active","ping":66},{"user_id":475,"name":"My Pet Polar Bear","steam_id":76561198052902058,"connected_time":3897000000000,"state":"active","ping":76},{"user_id":508,"name":"Scrumfel Nutz","steam_id":76561198123286409,"connected_time":1531000000000,"state":"active","ping":60},{"user_id":452,"name":"Yukihana","steam_id":76561198348354629,"connected_time":5940000000000,"state":"active","ping":64}]},{"server_id":119,"name":"Uncletopia | Seattle | 2 | All Maps","name_short":"sea-2","host":"sea-1.us.uncletopia.com","port":27025,"enabled":true,"region":"us-west","cc":"us","latitude":47.608013,"longitude":-122.33517,"reserved":0,"last_update":"0001-01-01T00:00:00Z","name_a2s":"Uncletopia | Seattle | 2 | All Maps","protocol":17,"map":"cp_snakewater_final1","folder":"tf","game":"Team Fortress","app_id":440,"player_count":0,"max_players":24,"Bots":0,"server_type":"Dedicated","server_os":"Linux","password":true,"vac":true,"version":"7757534","steam_id":85568392924469998,"keywords":["cp","nocrits","nodmgspread","uncletopia"],"game_id":440,"stv_port":27026,"stv_name":"Uncletopia | Seattle | 2 | All Maps | STV","players":null},{"server_id":406,"name":"Uncletopia | Seattle | 3 | Stopwatch Beta","name_short":"sea-3","host":"sea-1.us.uncletopia.com","port":27035,"enabled":true,"region":"us-west","cc":"us","latitude":47.608013,"longitude":-122.33517,"reserved":0,"last_update":"0001-01-01T00:00:00Z","name_a2s":"Uncletopia | Seattle | 3 | Stopwatch Beta","protocol":17,"map":"workshop/koth_ramjam_rc1.ugc459778887","folder":"tf","game":"Team Fortress","app_id":440,"player_count":0,"max_players":24,"Bots":0,"server_type":"Dedicated","server_os":"Linux","password":true,"vac":true,"version":"7757534","steam_id":85568392924515217,"keywords":["cp","nocrits","nodmgspread","uncletopia"],"game_id":440,"stv_port":27036,"stv_name":"Uncletopia | Seattle | 3 | Stopwatch Beta | STV","players":null},{"server_id":17,"name":"Uncletopia | San Francisco | 1 | All Maps","name_short":"sfo-1","host":"sfo-1.us.uncletopia.com","port":27015,"enabled":true,"region":"us-west","cc":"us","latitude":37.77397,"longitude":-122.4313,"reserved":0,"last_update":"0001-01-01T00:00:00Z","name_a2s":"Uncletopia | San Francisco | 1 | All Maps","protocol":17,"map":"koth_cascade","folder":"tf","game":"Team Fortress","app_id":440,"player_count":24,"max_players":24,"Bots":0,"server_type":"Dedicated","server_os":"Linux","password":true,"vac":true,"version":"7757534","steam_id":85568392924469999,"keywords":["cp","nocrits","nodmgspread","uncletopia"],"game_id":440,"stv_port":27016,"stv_name":"Uncletopia | San Francisco | 1 | All Maps | STV","players":[{"user_id":362,"name":"hamilton","steam_id":76561198088645928,"connected_time":219000000000,"state":"active","ping":73},{"user_id":346,"name":"griddo","steam_id":76561198401922580,"connected_time":990000000000,"state":"active","ping":208},{"user_id":326,"name":"Kelkith","steam_id":76561197985450422,"connected_time":2265000000000,"state":"active","ping":162},{"user_id":309,"name":"vintage","steam_id":76561198253382579,"connected_time":2832000000000,"state":"active","ping":117},{"user_id":363,"name":"Spare(8)Ball","steam_id":76561197982432995,"connected_time":184000000000,"state":"active","ping":49},{"user_id":353,"name":"Oliver Klozoff","steam_id":76561198024788419,"connected_time":803000000000,"state":"active","ping":113},{"user_id":351,"name":"ixo","steam_id":76561198091018788,"connected_time":858000000000,"state":"active","ping":58},{"user_id":318,"name":"Swag3","steam_id":76561198056166863,"connected_time":2457000000000,"state":"active","ping":50},{"user_id":293,"name":"Swag5","steam_id":76561198065311356,"connected_time":3839000000000,"state":"active","ping":48},{"user_id":352,"name":"noot noot","steam_id":76561198318446417,"connected_time":839000000000,"state":"active","ping":129},{"user_id":360,"name":"Greg Heffley","steam_id":76561198220478737,"connected_time":477000000000,"state":"active","ping":113},{"user_id":364,"name":"IDNTT","steam_id":76561198080859587,"connected_time":120000000000,"state":"active","ping":68},{"user_id":333,"name":"FiddyFoMike","steam_id":76561198057072581,"connected_time":1849000000000,"state":"active","ping":46},{"user_id":345,"name":"KJ","steam_id":76561199019869692,"connected_time":1116000000000,"state":"active","ping":59},{"user_id":317,"name":"Sadodere Grimace","steam_id":76561198008332028,"connected_time":2462000000000,"state":"active","ping":69},{"user_id":354,"name":"Tummy Sunday","steam_id":76561198031336957,"connected_time":796000000000,"state":"active","ping":98},{"user_id":359,"name":"Captain Buggy","steam_id":76561198024444448,"connected_time":619000000000,"state":"active","ping":63},{"user_id":348,"name":"i ate atomic bomb","steam_id":76561198150406851,"connected_time":982000000000,"state":"active","ping":58},{"user_id":361,"name":":3 | ph0va_ \u003c3 sab","steam_id":76561198309010627,"connected_time":385000000000,"state":"active","ping":75},{"user_id":340,"name":"Cute Gatito","steam_id":76561198351147780,"connected_time":1319000000000,"state":"active","ping":65},{"user_id":358,"name":"KingSteve42","steam_id":76561198409455888,"connected_time":700000000000,"state":"active","ping":98},{"user_id":349,"name":"Saggle","steam_id":76561198056075147,"connected_time":960000000000,"state":"active","ping":177},{"user_id":300,"name":"DeckofDragons","steam_id":76561198057398213,"connected_time":3423000000000,"state":"active","ping":81},{"user_id":357,"name":"gamer in rehab","steam_id":76561198858328080,"connected_time":756000000000,"state":"active","ping":52}]},{"server_id":18,"name":"Uncletopia | San Francisco | 2 | All Maps","name_short":"sfo-2","host":"sfo-1.us.uncletopia.com","port":27025,"enabled":true,"region":"us-west","cc":"us","latitude":37.77397,"longitude":-122.4313,"reserved":0,"last_update":"0001-01-01T00:00:00Z","name_a2s":"Uncletopia | San Francisco | 2 | All Maps","protocol":17,"map":"koth_viaduct","folder":"tf","game":"Team Fortress","app_id":440,"player_count":4,"max_players":24,"Bots":0,"server_type":"Dedicated","server_os":"Linux","password":true,"vac":true,"version":"7757534","steam_id":85568392924470000,"keywords":["cp","nocrits","nodmgspread","uncletopia"],"game_id":440,"stv_port":27026,"stv_name":"Uncletopia | San Francisco | 2 | All Maps | STV","players":[{"user_id":11,"name":"Napstablook","steam_id":76561198099020149,"connected_time":203000000000,"state":"active","ping":63},{"user_id":14,"name":"VikingSus11","steam_id":76561199454335463,"connected_time":174000000000,"state":"active","ping":65},{"user_id":16,"name":"Livin' Like Larry","steam_id":76561198313360974,"connected_time":90000000000,"state":"active","ping":30},{"user_id":17,"name":"Ireland Pillager","steam_id":76561198799430702,"connected_time":46000000000,"state":"active","ping":63}]},{"server_id":19,"name":"Uncletopia | San Francisco | 3 | Stopwatch Beta","name_short":"sfo-3","host":"sfo-1.us.uncletopia.com","port":27035,"enabled":true,"region":"us-west","cc":"us","latitude":37.77397,"longitude":-122.4313,"reserved":0,"last_update":"0001-01-01T00:00:00Z","name_a2s":"Uncletopia | San Francisco | 3 | Stopwatch Beta","protocol":17,"map":"koth_viaduct","folder":"tf","game":"Team Fortress","app_id":440,"player_count":0,"max_players":24,"Bots":0,"server_type":"Dedicated","server_os":"Linux","password":true,"vac":true,"version":"7757534","steam_id":85568392924742824,"keywords":["cp","nocrits","nodmgspread","uncletopia"],"game_id":440,"stv_port":27036,"stv_name":"Uncletopia | San Francisco | 3 | Stopwatch Beta | STV","players":null},{"server_id":20,"name":"Uncletopia | San Francisco | 4 | Community","name_short":"sfo-4","host":"sfo-1.us.uncletopia.com","port":27045,"enabled":true,"region":"us-west","cc":"us","latitude":37.77397,"longitude":-122.4313,"reserved":0,"last_update":"0001-01-01T00:00:00Z","name_a2s":"Uncletopia | San Francisco | 4 | Community","protocol":17,"map":"workshop/koth_synthetic_rc6a.ugc1549817316","folder":"tf","game":"Team Fortress","app_id":440,"player_count":0,"max_players":24,"Bots":0,"server_type":"Dedicated","server_os":"Linux","password":true,"vac":true,"version":"7757534","steam_id":85568392924742826,"keywords":["cp","nocrits","nodmgspread","uncletopia"],"game_id":440,"stv_port":27046,"stv_name":"Uncletopia | San Francisco | 4 | Community | STV","players":null},{"server_id":141,"name":"Uncletopia | Sydney | 1 | All Maps","name_short":"syd-1","host":"syd-1.au.uncletopia.com","port":27015,"enabled":true,"region":"au","cc":"au","latitude":-33.865143,"longitude":151.2099,"reserved":0,"last_update":"0001-01-01T00:00:00Z","name_a2s":"Uncletopia | Sydney | 1 | All Maps","protocol":17,"map":"pl_borneo","folder":"tf","game":"Team Fortress","app_id":440,"player_count":18,"max_players":24,"Bots":0,"server_type":"Dedicated","server_os":"Linux","password":true,"vac":true,"version":"7757534","steam_id":85568392924470001,"keywords":["nocrits","nodmgspread","payload","uncletopia"],"game_id":440,"stv_port":27016,"stv_name":"Uncletopia | Sydney | 1 | All Maps | STV","players":[{"user_id":228,"name":"Rarity the Fabulous","steam_id":76561198077653287,"connected_time":3137000000000,"state":"active","ping":31},{"user_id":234,"name":"Dr Rags","steam_id":76561198179481430,"connected_time":2909000000000,"state":"active","ping":91},{"user_id":254,"name":"DKC","steam_id":76561198313578155,"connected_time":1615000000000,"state":"active","ping":44},{"user_id":251,"name":"a fucking human","steam_id":76561199057568663,"connected_time":1972000000000,"state":"active","ping":53},{"user_id":275,"name":"Roy","steam_id":76561198152210509,"connected_time":143000000000,"state":"active","ping":42},{"user_id":256,"name":"Tees","steam_id":76561199174602317,"connected_time":1495000000000,"state":"active","ping":71},{"user_id":276,"name":"wombraider","steam_id":76561199375834537,"connected_time":83000000000,"state":"active","ping":124},{"user_id":277,"name":"Skipper","steam_id":76561199220410110,"connected_time":10000000000,"state":"active","ping":75},{"user_id":257,"name":"LeoJoeD","steam_id":76561198161848749,"connected_time":1428000000000,"state":"active","ping":101},{"user_id":266,"name":"Zort","steam_id":76561198056414289,"connected_time":996000000000,"state":"active","ping":63},{"user_id":259,"name":"Tweet TWEET!!!","steam_id":76561198121637474,"connected_time":1298000000000,"state":"active","ping":156},{"user_id":278,"name":"electro599","steam_id":76561198058148858,"connected_time":7000000000,"state":"spawning","ping":49},{"user_id":260,"name":"john fitzgerald kennedy","steam_id":76561198998542066,"connected_time":1192000000000,"state":"active","ping":57},{"user_id":242,"name":"FundaDunda","steam_id":76561198034113856,"connected_time":2311000000000,"state":"active","ping":55},{"user_id":262,"name":"T–Ω√ª–∏‚àÇ—É—è—ï‚àÇ.","steam_id":76561197992346511,"connected_time":1120000000000,"state":"active","ping":50},{"user_id":270,"name":"“ìùñî—Ö","steam_id":76561198119447960,"connected_time":632000000000,"state":"active","ping":88},{"user_id":157,"name":"EpicGuy4227","steam_id":76561198094132328,"connected_time":7801000000000,"state":"active","ping":52},{"user_id":269,"name":"Wake'n'Bake'n'Make'n'Bacon","steam_id":76561198061960926,"connected_time":790000000000,"state":"active","ping":101}]},{"server_id":123,"name":"Uncletopia | Sydney | 2 | All Maps","name_short":"syd-2","host":"syd-1.au.uncletopia.com","port":27025,"enabled":true,"region":"au","cc":"au","latitude":-33.865143,"longitude":151.2099,"reserved":0,"last_update":"0001-01-01T00:00:00Z","name_a2s":"Uncletopia | Sydney | 2 | All Maps","protocol":17,"map":"pl_pier","folder":"tf","game":"Team Fortress","app_id":440,"player_count":24,"max_players":24,"Bots":0,"server_type":"Dedicated","server_os":"Linux","password":true,"vac":true,"version":"7757534","steam_id":85568392924470002,"keywords":["nocrits","nodmgspread","payload","uncletopia"],"game_id":440,"stv_port":27026,"stv_name":"Uncletopia | Sydney | 2 | All Maps | STV","players":[{"user_id":170,"name":"Bigrichard","steam_id":76561198032092945,"connected_time":715000000000,"state":"active","ping":73},{"user_id":89,"name":"Cofwee","steam_id":76561198072414195,"connected_time":4279000000000,"state":"active","ping":82},{"user_id":181,"name":"//","steam_id":76561198053668449,"connected_time":32000000000,"state":"active","ping":48},{"user_id":165,"name":"Teenyman5","steam_id":76561198326425017,"connected_time":979000000000,"state":"active","ping":89},{"user_id":178,"name":"bleacj","steam_id":76561198854614195,"connected_time":282000000000,"state":"active","ping":91},{"user_id":166,"name":"Eddie","steam_id":76561198081031350,"connected_time":841000000000,"state":"active","ping":47},{"user_id":151,"name":"whiteshaq","steam_id":76561198131988811,"connected_time":1944000000000,"state":"active","ping":74},{"user_id":93,"name":"beanpope","steam_id":76561199005815714,"connected_time":4187000000000,"state":"active","ping":61},{"user_id":156,"name":"I am a real person","steam_id":76561198135700897,"connected_time":1739000000000,"state":"active","ping":48},{"user_id":132,"name":"MikkyD","steam_id":76561198043452962,"connected_time":2634000000000,"state":"active","ping":60},{"user_id":171,"name":"Vanessa","steam_id":76561198077728992,"connected_time":703000000000,"state":"active","ping":63},{"user_id":160,"name":"ADUCK","steam_id":76561198249887912,"connected_time":1200000000000,"state":"active","ping":76},{"user_id":177,"name":"blicky","steam_id":76561198029829077,"connected_time":293000000000,"state":"active","ping":101},{"user_id":180,"name":"FIX","steam_id":76561197995157189,"connected_time":98000000000,"state":"active","ping":53},{"user_id":142,"name":"creachure","steam_id":76561198025225448,"connected_time":2093000000000,"state":"active","ping":75},{"user_id":140,"name":"when they hurt us","steam_id":76561198132937542,"connected_time":2107000000000,"state":"active","ping":62},{"user_id":157,"name":"Rev","steam_id":76561198076830267,"connected_time":1678000000000,"state":"active","ping":46},{"user_id":168,"name":"tyler.diep9","steam_id":76561199017957673,"connected_time":786000000000,"state":"active","ping":63},{"user_id":126,"name":"beth.cubitt","steam_id":76561198454733447,"connected_time":2973000000000,"state":"active","ping":95},{"user_id":104,"name":"SoundlessPlum","steam_id":76561198077872547,"connected_time":3940000000000,"state":"active","ping":55},{"user_id":173,"name":"·Ñâ·Öµ·Ü´·Ñâ·Ö≥·ÜØ·ÑÄ·Öµ","steam_id":76561199009912335,"connected_time":481000000000,"state":"active","ping":60},{"user_id":175,"name":"Linkazoid","steam_id":76561198107915685,"connected_time":418000000000,"state":"active","ping":80},{"user_id":169,"name":"vivi and","steam_id":76561198026764350,"connected_time":780000000000,"state":"active","ping":65},{"user_id":172,"name":"zen","steam_id":76561198302670452,"connected_time":700000000000,"state":"active","ping":59}]},{"server_id":395,"name":"Uncletopia | Sydney | 3 | All Maps","name_short":"syd-3","host":"syd-1.au.uncletopia.com","port":27035,"enabled":true,"region":"au","cc":"au","latitude":-33.865143,"longitude":151.2099,"reserved":0,"last_update":"0001-01-01T00:00:00Z","name_a2s":"Uncletopia | Sydney | 3 | All Maps","protocol":17,"map":"pl_swiftwater_final1","folder":"tf","game":"Team Fortress","app_id":440,"player_count":0,"max_players":24,"Bots":0,"server_type":"Dedicated","server_os":"Linux","password":true,"vac":true,"version":"7757534","steam_id":85568392925194467,"keywords":["nocrits","nodmgspread","payload","uncletopia"],"game_id":440,"stv_port":27036,"stv_name":"Uncletopia | Sydney | 3 | All Maps | STV","players":null},{"server_id":396,"name":"Uncletopia | Sydney | 4 | All Maps","name_short":"syd-4","host":"syd-1.au.uncletopia.com","port":27045,"enabled":true,"region":"au","cc":"au","latitude":-33.865143,"longitude":151.2099,"reserved":0,"last_update":"0001-01-01T00:00:00Z","name_a2s":"Uncletopia | Sydney | 4 | All Maps","protocol":17,"map":"pl_pier","folder":"tf","game":"Team Fortress","app_id":440,"player_count":0,"max_players":24,"Bots":0,"server_type":"Dedicated","server_os":"Linux","password":true,"vac":true,"version":"7757534","steam_id":85568392925397958,"keywords":["nocrits","nodmgspread","payload","uncletopia"],"game_id":440,"stv_port":27046,"stv_name":"Uncletopia | Sydney | 4 | All Maps | STV","players":null},{"server_id":58,"name":"Uncletopia | Sydney | 5 | Stopwatch Beta","name_short":"syd-5","host":"syd-1.au.uncletopia.com","port":27055,"enabled":true,"region":"au","cc":"au","latitude":-33.865143,"longitude":151.2099,"reserved":0,"last_update":"0001-01-01T00:00:00Z","name_a2s":"Uncletopia | Sydney | 5 | Stopwatch Beta","protocol":17,"map":"pl_barnblitz","folder":"tf","game":"Team Fortress","app_id":440,"player_count":0,"max_players":24,"Bots":0,"server_type":"Dedicated","server_os":"Linux","password":true,"vac":true,"version":"7757534","steam_id":85568392925397959,"keywords":["nocrits","nodmgspread","payload","uncletopia"],"game_id":440,"stv_port":27056,"stv_name":"Uncletopia | Sydney | 5 | Stopwatch Beta | STV","players":null},{"server_id":59,"name":"Uncletopia | Sydney | 6 | Community","name_short":"syd-6","host":"syd-1.au.uncletopia.com","port":27065,"enabled":true,"region":"au","cc":"au","latitude":-33.865143,"longitude":151.2099,"reserved":0,"last_update":"0001-01-01T00:00:00Z","name_a2s":"Uncletopia | Sydney | 6 | Community","protocol":17,"map":"workshop/koth_ashville_final.ugc2130459942","folder":"tf","game":"Team Fortress","app_id":440,"player_count":0,"max_players":24,"Bots":0,"server_type":"Dedicated","server_os":"Linux","password":true,"vac":true,"version":"7757534","steam_id":85568392925397960,"keywords":["cp","nocrits","nodmgspread","uncletopia"],"game_id":440,"stv_port":27066,"stv_name":"Uncletopia | Sydney | 6 | Community | STV","players":null},{"server_id":49,"name":"Uncletopia | Warsaw | 1 | All Maps","name_short":"waw-1","host":"waw-1.pl.uncletopia.com","port":27015,"enabled":true,"region":"eu","cc":"pl","latitude":52.2297,"longitude":21.017532,"reserved":0,"last_update":"0001-01-01T00:00:00Z","name_a2s":"","protocol":0,"map":"","folder":"","game":"","app_id":0,"player_count":0,"max_players":0,"Bots":0,"server_type":"","server_os":"","password":false,"vac":false,"version":"","steam_id":0,"keywords":null,"game_id":0,"stv_port":0,"stv_name":"","players":null},{"server_id":50,"name":"Uncletopia | Warsaw | 2 | All Maps","name_short":"waw-2","host":"waw-1.pl.uncletopia.com","port":27025,"enabled":true,"region":"eu","cc":"pl","latitude":52.2297,"longitude":21.017532,"reserved":0,"last_update":"0001-01-01T00:00:00Z","name_a2s":"Uncletopia | Warsaw | 2 | All Maps","protocol":17,"map":"cp_snakewater_final1","folder":"tf","game":"Team Fortress","app_id":440,"player_count":0,"max_players":24,"Bots":0,"server_type":"Dedicated","server_os":"Linux","password":true,"vac":true,"version":"7757534","steam_id":85568392925397851,"keywords":["cp","nocrits","nodmgspread","uncletopia"],"game_id":440,"stv_port":27026,"stv_name":"Uncletopia | Warsaw | 2 | All Maps | STV","players":null},{"server_id":51,"name":"Uncletopia | Warsaw | 3 | All Maps","name_short":"waw-3","host":"waw-1.pl.uncletopia.com","port":27035,"enabled":true,"region":"eu","cc":"pl","latitude":52.2297,"longitude":21.017532,"reserved":0,"last_update":"0001-01-01T00:00:00Z","name_a2s":"Uncletopia | Warsaw | 3 | All Maps","protocol":17,"map":"cp_sunshine","folder":"tf","game":"Team Fortress","app_id":440,"player_count":0,"max_players":24,"Bots":0,"server_type":"Dedicated","server_os":"Linux","password":true,"vac":true,"version":"7757534","steam_id":85568392925397852,"keywords":["cp","nocrits","nodmgspread","uncletopia"],"game_id":440,"stv_port":27036,"stv_name":"Uncletopia | Warsaw | 3 | All Maps | STV","players":null},{"server_id":52,"name":"Uncletopia | Warsaw | 4 | All Maps","name_short":"waw-4","host":"waw-1.pl.uncletopia.com","port":27045,"enabled":true,"region":"eu","cc":"pl","latitude":52.2297,"longitude":21.017532,"reserved":0,"last_update":"0001-01-01T00:00:00Z","name_a2s":"Uncletopia | Warsaw | 4 | All Maps","protocol":17,"map":"pl_borneo","folder":"tf","game":"Team Fortress","app_id":440,"player_count":0,"max_players":24,"Bots":0,"server_type":"Dedicated","server_os":"Linux","password":true,"vac":true,"version":"7757534","steam_id":85568392925397853,"keywords":["nocrits","nodmgspread","payload","uncletopia"],"game_id":440,"stv_port":27046,"stv_name":"Uncletopia | Warsaw | 4 | All Maps | STV","players":null},{"server_id":53,"name":"Uncletopia | Warsaw | 5 | Stopwatch Beta","name_short":"waw-5","host":"waw-1.pl.uncletopia.com","port":27055,"enabled":true,"region":"eu","cc":"pl","latitude":52.2297,"longitude":21.017532,"reserved":0,"last_update":"0001-01-01T00:00:00Z","name_a2s":"Uncletopia | Warsaw | 5 | Stopwatch Beta","protocol":17,"map":"pl_upward","folder":"tf","game":"Team Fortress","app_id":440,"player_count":0,"max_players":24,"Bots":0,"server_type":"Dedicated","server_os":"Linux","password":true,"vac":true,"version":"7757534","steam_id":85568392925397854,"keywords":["nocrits","nodmgspread","payload","uncletopia"],"game_id":440,"stv_port":27056,"stv_name":"Uncletopia | Warsaw | 5 | Stopwatch Beta | STV","players":null},{"server_id":54,"name":"Uncletopia | Warsaw | 6 | Community","name_short":"waw-6","host":"waw-1.pl.uncletopia.com","port":27065,"enabled":true,"region":"eu","cc":"pl","latitude":52.2297,"longitude":21.017532,"reserved":0,"last_update":"0001-01-01T00:00:00Z","name_a2s":"Uncletopia | Warsaw | 6 | Community","protocol":17,"map":"pl_barnblitz","folder":"tf","game":"Team Fortress","app_id":440,"player_count":0,"max_players":24,"Bots":0,"server_type":"Dedicated","server_os":"Linux","password":true,"vac":true,"version":"7757534","steam_id":85568392925397856,"keywords":["nocrits","nodmgspread","payload","uncletopia"],"game_id":440,"stv_port":27066,"stv_name":"Uncletopia | Warsaw | 6 | Community | STV","players":null}]}