{"status":true,"message":"","result":[{"server_id":9,"name":"Uncletopia | Atlanta | 1 | All Maps","name_short":"atl-1","host":"atl-1.us.uncletopia.com","port":27015,"enabled":true,"region":"us-east","cc":"us","latitude":33.753746,"longitude":-84.38633,"reserved":0,"last_update":"0001-01-01T00:00:00Z","name_a2s":"Uncletopia | Atlanta | 1 | All Maps","protocol":17,"map":"pl_swiftwater_final1","folder":"tf","game":"Team Fortress","app_id":440,"player_count":24,"max_players":24,"Bots":0,"server_type":"Dedicated","server_os":"Linux","password":true,"vac":true,"version":"7961495","steam_id":85568392924469982,"keywords":["nocrits","nodmgspread","payload","uncletopia"],"game_id":440,"stv_port":27016,"stv_name":"Uncletopia | Atlanta | 1 | All Maps | STV","players":[{"user_id":935,"name":"sassy shoota","steam_id":76561198231764164,"connected_time":264000000000,"state":"active","ping":147},{"user_id":932,"name":"oppenheimer style","steam_id":76561198026664629,"connected_time":345000000000,"state":"active","ping":59},{"user_id":939,"name":"financial regret","steam_id":76561198448523433,"connected_time":168000000000,"state":"active","ping":150},{"user_id":934,"name":"The Announcer's Feet","steam_id":76561199501227879,"connected_time":290000000000,"state":"active","ping":83},{"user_id":919,"name":"twinblock","steam_id":76561198157414556,"connected_time":750000000000,"state":"active","ping":69},{"user_id":940,"name":"puzzlemaster","steam_id":76561198095997869,"connected_time":128000000000,"state":"active","ping":71},{"user_id":936,"name":"euphoricfilth","steam_id":76561198100160865,"connected_time":238000000000,"state":"active","ping":53},{"user_id":908,"name":"Lord_Manship","steam_id":76561198045168765,"connected_time":1515000000000,"state":"active","ping":105},{"user_id":796,"name":"TÖZI","steam_id":76561198045268695,"connected_time":9425000000000,"state":"active","ping":108},{"user_id":887,"name":"gallowsCalibrator","steam_id":76561198404707578,"connected_time":3320000000000,"state":"active","ping":95},{"user_id":914,"name":"Skeleton Rick","steam_id":76561197988235877,"connected_time":1050000000000,"state":"active","ping":125},{"user_id":884,"name":"Am Da Best","steam_id":76561198163825955,"connected_time":3508000000000,"state":"active","ping":119},{"user_id":938,"name":"LeoMonts","steam_id":76561199156431486,"connected_time":207000000000,"state":"active","ping":76},{"user_id":888,"name":"HalfDead","steam_id":76561198049700226,"connected_time":3116000000000,"state":"active","ping":87},{"user_id":843,"name":"Kick Down Door 6:00AM TUCK☃RO","steam_id":76561197976146738,"connected_time":6342000000000,"state":"active","ping":82},{"user_id":926,"name":"rose","steam_id":76561198048882285,"connected_time":521000000000,"state":"active","ping":60},{"user_id":886,"name":"jfrizzle420","steam_id":76561198105544691,"connected_time":3483000000000,"state":"active","ping":63},{"user_id":937,"name":"Mikanii","steam_id":76561198145288324,"connected_time":221000000000,"state":"active","ping":189},{"user_id":850,"name":"eish","steam_id":76561198089463603,"connected_time":6031000000000,"state":"active","ping":127},{"user_id":941,"name":"oxyacetylene","steam_id":76561199066747355,"connected_time":127000000000,"state":"active","ping":179},{"user_id":918,"name":"Minin","steam_id":76561198018819047,"connected_time":861000000000,"state":"active","ping":97},{"user_id":890,"name":"Remix.SMG","steam_id":76561198052895933,"connected_time":3107000000000,"state":"active","ping":75},{"user_id":923,"name":"Bomberman6868","steam_id":76561198101086506,"connected_time":642000000000,"state":"active","ping":63},{"user_id":925,"name":"Stan Magnum","steam_id":76561198115899577,"connected_time":621000000000,"state":"active","ping":68}]},{"server_id":104,"name":"Uncletopia | Atlanta | 2 | All Maps","name_short":"atl-2","host":"atl-1.us.uncletopia.com","port":27025,"enabled":true,"region":"us-east","cc":"us","latitude":33.753746,"longitude":-84.38633,"reserved":0,"last_update":"0001-01-01T00:00:00Z","name_a2s":"Uncletopia | Atlanta | 2 | All Maps","protocol":17,"map":"cp_steel","folder":"tf","game":"Team Fortress","app_id":440,"player_count":0,"max_players":24,"Bots":0,"server_type":"Dedicated","server_os":"Linux","password":true,"vac":true,"version":"7961495","steam_id":85568392924469983,"keywords":["cp","nocrits","nodmgspread","uncletopia"],"game_id":440,"stv_port":27026,"stv_name":"Uncletopia | Atlanta | 2 | All Maps | STV","players":null},{"server_id":400,"name":"Uncletopia | Atlanta | 3 | Stopwatch","name_short":"atl-3","host":"atl-1.us.uncletopia.com","port":27035,"enabled":true,"region":"us-east","cc":"us","latitude":33.753746,"longitude":-84.38633,"reserved":0,"last_update":"0001-01-01T00:00:00Z","name_a2s":"Uncletopia | Atlanta | 3 | Stopwatch","protocol":17,"map":"workshop/cp_reckoner_rc6.ugc674719999","folder":"tf","game":"Team Fortress","app_id":440,"player_count":0,"max_players":24,"Bots":0,"server_type":"Dedicated","server_os":"Linux","password":true,"vac":true,"version":"7961495","steam_id":85568392924515187,"keywords":["cp","nocrits","nodmgspread","uncletopia"],"game_id":440,"stv_port":27036,"stv_name":"Uncletopia | Atlanta | 3 | Stopwatch | STV","players":null},{"server_id":401,"name":"Uncletopia | Atlanta | 4 | Community","name_short":"atl-4","host":"atl-1.us.uncletopia.com","port":27045,"enabled":true,"region":"us-east","cc":"us","latitude":33.753746,"longitude":-84.38633,"reserved":0,"last_update":"0001-01-01T00:00:00Z","name_a2s":"Uncletopia | Atlanta | 4 | Community","protocol":17,"map":"workshop/pl_cashworks_final1.ugc2904065412","folder":"tf","game":"Team Fortress","app_id":440,"player_count":0,"max_players":24,"Bots":0,"server_type":"Dedicated","server_os":"Linux","password":true,"vac":true,"version":"7961495","steam_id":85568392924515188,"keywords":["nocrits","nodmgspread","payload","uncletopia"],"game_id":440,"stv_port":27046,"stv_name":"Uncletopia | Atlanta | 4 | Community | STV","players":null},{"server_id":2,"name":"Uncletopia | Chicago | 1 | All Maps","name_short":"chi-1","host":"chi-1.us.uncletopia.com","port":27015,"enabled":true,"region":"us-central","cc":"us","latitude":41.881832,"longitude":-87.62318,"reserved":0,"last_update":"0001-01-01T00:00:00Z","name_a2s":"Uncletopia | Chicago | 1 | All Maps","protocol":17,"map":"pl_barnblitz","folder":"tf","game":"Team Fortress","app_id":440,"player_count":24,"max_players":24,"Bots":0,"server_type":"Dedicated","server_os":"Linux","password":true,"vac":true,"version":"7961495","steam_id":85568392924469984,"keywords":["nocrits","nodmgspread","payload","uncletopia"],"game_id":440,"stv_port":27016,"stv_name":"Uncletopia | Chicago | 1 | All Maps | STV","players":[{"user_id":815,"name":"hapa demon punk","steam_id":76561198308883028,"connected_time":1172000000000,"state":"active","ping":109},{"user_id":800,"name":"adam","steam_id":76561198000381466,"connected_time":2675000000000,"state":"active","ping":63},{"user_id":812,"name":"breezewax","steam_id":76561198121702006,"connected_time":1244000000000,"state":"active","ping":71},{"user_id":796,"name":"goblin?","steam_id":76561198007192438,"connected_time":2759000000000,"state":"active","ping":61},{"user_id":748,"name":"Werm","steam_id":76561198149601897,"connected_time":8416000000000,"state":"active","ping":72},{"user_id":806,"name":"joyeuxnoelle","steam_id":76561198062423120,"connected_time":2385000000000,"state":"active","ping":70},{"user_id":785,"name":"autism creature","steam_id":76561198016250523,"connected_time":4512000000000,"state":"active","ping":107},{"user_id":795,"name":"Howard Hamlin","steam_id":76561198881039861,"connected_time":2761000000000,"state":"active","ping":53},{"user_id":746,"name":"Jeffardo","steam_id":76561197997564762,"connected_time":9384000000000,"state":"active","ping":77},{"user_id":816,"name":"CatLionCake","steam_id":76561199287448032,"connected_time":1093000000000,"state":"active","ping":82},{"user_id":776,"name":"The Horny","steam_id":76561198863639459,"connected_time":6278000000000,"state":"active","ping":123},{"user_id":817,"name":"Philo","steam_id":76561198061873341,"connected_time":1089000000000,"state":"active","ping":101},{"user_id":717,"name":"Da Walrus","steam_id":76561198045190191,"connected_time":11752000000000,"state":"active","ping":74},{"user_id":797,"name":"Tobo","steam_id":76561198085846393,"connected_time":2754000000000,"state":"active","ping":97},{"user_id":823,"name":"Cooler Ye","steam_id":76561198068830312,"connected_time":727000000000,"state":"active","ping":48},{"user_id":822,"name":"Large Man","steam_id":76561198880396651,"connected_time":748000000000,"state":"active","ping":81},{"user_id":810,"name":"Dzhoshua","steam_id":76561198071915251,"connected_time":1609000000000,"state":"active","ping":65},{"user_id":720,"name":"Brawns","steam_id":76561198045190199,"connected_time":11746000000000,"state":"active","ping":72},{"user_id":775,"name":"Fever Dreams","steam_id":76561198116614620,"connected_time":6309000000000,"state":"active","ping":77},{"user_id":824,"name":"Untermensch","steam_id":76561198149634242,"connected_time":445000000000,"state":"active","ping":161},{"user_id":811,"name":"Socialist Warrior","steam_id":76561198085664421,"connected_time":1404000000000,"state":"active","ping":55},{"user_id":818,"name":"Female Gamer","steam_id":76561199366482682,"connected_time":1082000000000,"state":"active","ping":106},{"user_id":821,"name":"debin","steam_id":76561198070711217,"connected_time":880000000000,"state":"active","ping":46},{"user_id":691,"name":"Azure","steam_id":76561198260328183,"connected_time":13988000000000,"state":"active","ping":65}]},{"server_id":106,"name":"Uncletopia | Chicago | 2 | All Maps","name_short":"chi-2","host":"chi-1.us.uncletopia.com","port":27025,"enabled":true,"region":"us-central","cc":"us","latitude":41.881832,"longitude":-87.62318,"reserved":0,"last_update":"0001-01-01T00:00:00Z","name_a2s":"Uncletopia | Chicago | 2 | All Maps","protocol":17,"map":"koth_cascade","folder":"tf","game":"Team Fortress","app_id":440,"player_count":0,"max_players":24,"Bots":0,"server_type":"Dedicated","server_os":"Linux","password":true,"vac":true,"version":"7961495","steam_id":85568392924469985,"keywords":["cp","nocrits","nodmgspread","uncletopia"],"game_id":440,"stv_port":27026,"stv_name":"Uncletopia | Chicago | 2 | All Maps | STV","players":null},{"server_id":402,"name":"Uncletopia | Chicago | 3 | All Maps","name_short":"chi-3","host":"chi-1.us.uncletopia.com","port":27035,"enabled":true,"region":"us-central","cc":"us","latitude":41.881832,"longitude":-87.62318,"reserved":0,"last_update":"0001-01-01T00:00:00Z","name_a2s":"Uncletopia | Chicago | 3 | All Maps","protocol":17,"map":"cp_snakewater_final1","folder":"tf","game":"Team Fortress","app_id":440,"player_count":24,"max_players":24,"Bots":0,"server_type":"Dedicated","server_os":"Linux","password":true,"vac":true,"version":"7961495","steam_id":85568392924515191,"keywords":["cp","nocrits","nodmgspread","uncletopia"],"game_id":440,"stv_port":27036,"stv_name":"Uncletopia | Chicago | 3 | All Maps | STV","players":[{"user_id":680,"name":"Bee","steam_id":76561198074681324,"connected_time":2364000000000,"state":"active","ping":60},{"user_id":692,"name":"RocketRabbit","steam_id":76561198803062131,"connected_time":1218000000000,"state":"active","ping":68},{"user_id":698,"name":"Owls = Government Drones","steam_id":76561198439793697,"connected_time":803000000000,"state":"active","ping":62},{"user_id":705,"name":"Ninjoth","steam_id":76561198038611753,"connected_time":492000000000,"state":"active","ping":85},{"user_id":633,"name":"RoseaVenefica","steam_id":76561198020660560,"connected_time":6975000000000,"state":"active","ping":59},{"user_id":670,"name":"PanjabiMC","steam_id":76561198958562718,"connected_time":3155000000000,"state":"active","ping":59},{"user_id":707,"name":"Jon Arbuckle","steam_id":76561198153295874,"connected_time":432000000000,"state":"active","ping":111},{"user_id":702,"name":"Thequirka","steam_id":76561198968058652,"connected_time":578000000000,"state":"active","ping":94},{"user_id":711,"name":"Ghost","steam_id":76561198110914180,"connected_time":10000000000,"state":"spawning","ping":171},{"user_id":689,"name":"fsteak","steam_id":76561198068577804,"connected_time":1306000000000,"state":"active","ping":106},{"user_id":682,"name":"CF-TF2","steam_id":76561198145893044,"connected_time":1703000000000,"state":"active","ping":76},{"user_id":648,"name":"NvAka","steam_id":76561199044781490,"connected_time":4878000000000,"state":"active","ping":58},{"user_id":709,"name":"Snoopist","steam_id":76561198144023761,"connected_time":418000000000,"state":"active","ping":44},{"user_id":668,"name":"frank","steam_id":76561198137777483,"connected_time":3208000000000,"state":"active","ping":61},{"user_id":644,"name":"tail slap +36 (4d12+18)","steam_id":76561198040425096,"connected_time":4932000000000,"state":"active","ping":64},{"user_id":679,"name":"Frog Finance Gutter Justice","steam_id":76561198067247951,"connected_time":2427000000000,"state":"active","ping":61},{"user_id":686,"name":"如願","steam_id":76561198038486613,"connected_time":1379000000000,"state":"active","ping":74},{"user_id":691,"name":"Militant Pacifist","steam_id":76561198290691432,"connected_time":1276000000000,"state":"active","ping":81},{"user_id":696,"name":"OliverOyl","steam_id":76561198273781861,"connected_time":1095000000000,"state":"active","ping":61},{"user_id":694,"name":"Rat Bastard","steam_id":76561198153443658,"connected_time":1201000000000,"state":"active","ping":86},{"user_id":703,"name":"St. Michael","steam_id":76561198037611052,"connected_time":551000000000,"state":"active","ping":65},{"user_id":710,"name":"Puddles","steam_id":76561198110832624,"connected_time":370000000000,"state":"active","ping":60},{"user_id":675,"name":"dontmindme","steam_id":76561198277979851,"connected_time":3065000000000,"state":"active","ping":83},{"user_id":685,"name":"silly machine","steam_id":76561199218284628,"connected_time":1560000000000,"state":"active","ping":75}]},{"server_id":403,"name":"Uncletopia | Chicago | 4 | All Maps","name_short":"chi-4","host":"chi-1.us.uncletopia.com","port":27045,"enabled":true,"region":"us-central","cc":"us","latitude":41.881832,"longitude":-87.62318,"reserved":0,"last_update":"0001-01-01T00:00:00Z","name_a2s":"Uncletopia | Chicago | 4 | All Maps","protocol":17,"map":"pl_badwater","folder":"tf","game":"Team Fortress","app_id":440,"player_count":0,"max_players":24,"Bots":0,"server_type":"Dedicated","server_os":"Linux","password":true,"vac":true,"version":"7961495","steam_id":85568392924515193,"keywords":["nocrits","nodmgspread","payload","uncletopia"],"game_id":440,"stv_port":27046,"stv_name":"Uncletopia | Chicago | 4 | All Maps | STV","players":null},{"server_id":36,"name":"Uncletopia | Chicago | 5 | All Maps","name_short":"chi-5","host":"chi-2.us.uncletopia.com","port":27015,"enabled":true,"region":"us-central","cc":"us","latitude":41.881832,"longitude":-87.62318,"reserved":0,"last_update":"0001-01-01T00:00:00Z","name_a2s":"Uncletopia | Chicago | 5 | All Maps","protocol":17,"map":"ctf_2fort","folder":"tf","game":"Team Fortress","app_id":440,"player_count":0,"max_players":24,"Bots":0,"server_type":"Dedicated","server_os":"Linux","password":true,"vac":true,"version":"7961495","steam_id":85568392924866362,"keywords":["ctf","nocrits","nodmgspread","uncletopia"],"game_id":440,"stv_port":27016,"stv_name":"Uncletopia | Chicago | 5 | All Maps | STV","players":null},{"server_id":37,"name":"Uncletopia | Chicago | 6 | All Maps","name_short":"chi-6","host":"chi-2.us.uncletopia.com","port":27025,"enabled":true,"region":"us-central","cc":"us","latitude":41.881832,"longitude":-87.62318,"reserved":0,"last_update":"0001-01-01T00:00:00Z","name_a2s":"Uncletopia | Chicago | 6 | All Maps","protocol":17,"map":"cp_sunshine","folder":"tf","game":"Team Fortress","app_id":440,"player_count":0,"max_players":24,"Bots":0,"server_type":"Dedicated","server_os":"Linux","password":true,"vac":true,"version":"7961495","steam_id":85568392924866363,"keywords":["cp","nocrits","nodmgspread","uncletopia"],"game_id":440,"stv_port":27026,"stv_name":"Uncletopia | Chicago | 6 | All Maps | STV","players":null},{"server_id":38,"name":"Uncletopia | Chicago | 7 | Stopwatch","name_short":"chi-7","host":"chi-2.us.uncletopia.com","port":27035,"enabled":true,"region":"us-central","cc":"us","latitude":41.881832,"longitude":-87.62318,"reserved":0,"last_update":"0001-01-01T00:00:00Z","name_a2s":"Uncletopia | Chicago | 7 | Stopwatch","protocol":17,"map":"koth_highpass","folder":"tf","game":"Team Fortress","app_id":440,"player_count":0,"max_players":24,"Bots":0,"server_type":"Dedicated","server_os":"Linux","password":true,"vac":true,"version":"7961495","steam_id":85568392924866364,"keywords":["cp","nocrits","nodmgspread","uncletopia"],"game_id":440,"stv_port":27036,"stv_name":"Uncletopia | Chicago | 7 | Stopwatch | STV","players":null},{"server_id":39,"name":"Uncletopia | Chicago | 8 | Community","name_short":"chi-8","host":"chi-2.us.uncletopia.com","port":27045,"enabled":true,"region":"us-central","cc":"us","latitude":41.881832,"longitude":-87.62318,"reserved":0,"last_update":"0001-01-01T00:00:00Z","name_a2s":"Uncletopia | Chicago | 8 | Community","protocol":17,"map":"pl_pier","folder":"tf","game":"Team Fortress","app_id":440,"player_count":0,"max_players":24,"Bots":0,"server_type":"Dedicated","server_os":"Linux","password":true,"vac":true,"version":"7961495","steam_id":85568392924866365,"keywords":["nocrits","nodmgspread","payload","uncletopia"],"game_id":440,"stv_port":27046,"stv_name":"Uncletopia | Chicago | 8 | Community | STV","players":null},{"server_id":8,"name":"Uncletopia | Dallas | 1 | All Maps","name_short":"dal-1","host":"dal-1.us.uncletopia.com","port":27015,"enabled":true,"region":"us-central","cc":"us","latitude":32.779167,"longitude":-96.80889,"reserved":0,"last_update":"0001-01-01T00:00:00Z","name_a2s":"Uncletopia | Dallas | 1 | All Maps","protocol":17,"map":"pl_upward","folder":"tf","game":"Team Fortress","app_id":440,"player_count":24,"max_players":24,"Bots":0,"server_type":"Dedicated","server_os":"Linux","password":true,"vac":true,"version":"7961495","steam_id":85568392924469986,"keywords":["nocrits","nodmgspread","payload","uncletopia"],"game_id":440,"stv_port":27016,"stv_name":"Uncletopia | Dallas | 1 | All Maps | STV","players":[{"user_id":778,"name":"sekia sessions","steam_id":76561199061380038,"connected_time":3776000000000,"state":"active","ping":75},{"user_id":806,"name":"Dr.Nooo!!!!!!!!","steam_id":76561198064738479,"connected_time":224000000000,"state":"active","ping":89},{"user_id":811,"name":"nk","steam_id":76561198055170290,"connected_time":119000000000,"state":"active","ping":75},{"user_id":611,"name":"errant","steam_id":76561197961758410,"connected_time":14100000000000,"state":"active","ping":42},{"user_id":784,"name":"BLØRG","steam_id":76561198036126673,"connected_time":3292000000000,"state":"active","ping":75},{"user_id":786,"name":"Rdforzer","steam_id":76561198243101872,"connected_time":3129000000000,"state":"active","ping":81},{"user_id":808,"name":"Captain Buggy","steam_id":76561198024444448,"connected_time":191000000000,"state":"active","ping":90},{"user_id":809,"name":"DeepFriedLimes","steam_id":76561199061820143,"connected_time":189000000000,"state":"active","ping":135},{"user_id":810,"name":"Dysentery.","steam_id":76561198982415497,"connected_time":159000000000,"state":"active","ping":91},{"user_id":799,"name":"The Great Karizma!","steam_id":76561198346191193,"connected_time":2130000000000,"state":"active","ping":77},{"user_id":791,"name":"shellaa","steam_id":76561198044124102,"connected_time":2840000000000,"state":"active","ping":47},{"user_id":792,"name":"Erodplayer","steam_id":76561198183840185,"connected_time":2681000000000,"state":"active","ping":49},{"user_id":756,"name":"skegeton","steam_id":76561198095581099,"connected_time":4782000000000,"state":"active","ping":59},{"user_id":785,"name":"killadelphia mixtape","steam_id":76561199001918194,"connected_time":3251000000000,"state":"active","ping":92},{"user_id":812,"name":"dog food eater","steam_id":76561198047950170,"connected_time":94000000000,"state":"active","ping":125},{"user_id":800,"name":"smalFox","steam_id":76561198041243017,"connected_time":2100000000000,"state":"active","ping":82},{"user_id":783,"name":"{ST} Oxythemoron","steam_id":76561198060089965,"connected_time":3660000000000,"state":"active","ping":58},{"user_id":805,"name":"pumpitup","steam_id":76561198169219561,"connected_time":1099000000000,"state":"active","ping":62},{"user_id":765,"name":"Weed Dealer","steam_id":76561198418604400,"connected_time":4419000000000,"state":"active","ping":108},{"user_id":766,"name":"Creature","steam_id":76561198194585781,"connected_time":4418000000000,"state":"active","ping":77},{"user_id":803,"name":"Mad Cuz Smol","steam_id":76561198306774478,"connected_time":2055000000000,"state":"active","ping":109},{"user_id":769,"name":"Bob Margarine","steam_id":76561197974107198,"connected_time":4389000000000,"state":"active","ping":91},{"user_id":770,"name":"Constipated Barry","steam_id":76561198004482269,"connected_time":4376000000000,"state":"active","ping":90},{"user_id":804,"name":"ATL1 | yateyay","steam_id":76561198311004039,"connected_time":1257000000000,"state":"active","ping":90}]},{"server_id":108,"name":"Uncletopia | Dallas | 2 | All Maps","name_short":"dal-2","host":"dal-1.us.uncletopia.com","port":27025,"enabled":true,"region":"us-central","cc":"us","latitude":32.779167,"longitude":-96.80889,"reserved":0,"last_update":"0001-01-01T00:00:00Z","name_a2s":"Uncletopia | Dallas | 2 | All Maps","protocol":17,"map":"koth_viaduct","folder":"tf","game":"Team Fortress","app_id":440,"player_count":24,"max_players":24,"Bots":0,"server_type":"Dedicated","server_os":"Linux","password":true,"vac":true,"version":"7961495","steam_id":85568392924469988,"keywords":["cp","nocrits","nodmgspread","uncletopia"],"game_id":440,"stv_port":27026,"stv_name":"Uncletopia | Dallas | 2 | All Maps | STV","players":[{"user_id":700,"name":"Context","steam_id":76561197972634187,"connected_time":7284000000000,"state":"active","ping":78},{"user_id":771,"name":"darkness.danny3481","steam_id":76561198132808002,"connected_time":742000000000,"state":"active","ping":73},{"user_id":767,"name":"ultralisk52","steam_id":76561198051666604,"connected_time":1483000000000,"state":"active","ping":75},{"user_id":770,"name":"KrylonHeretic","steam_id":76561198139811459,"connected_time":760000000000,"state":"active","ping":94},{"user_id":772,"name":"ooblz","steam_id":76561198361326855,"connected_time":695000000000,"state":"active","ping":92},{"user_id":754,"name":"Kenny[Goblin]","steam_id":76561199005805984,"connected_time":2631000000000,"state":"active","ping":43},{"user_id":753,"name":"gyat","steam_id":76561198043684960,"connected_time":2685000000000,"state":"active","ping":48},{"user_id":751,"name":"Filthy Hobo","steam_id":76561198174373015,"connected_time":2881000000000,"state":"active","ping":145},{"user_id":776,"name":"goth witch","steam_id":76561198069605283,"connected_time":410000000000,"state":"active","ping":75},{"user_id":755,"name":"freyja","steam_id":76561198012480197,"connected_time":2612000000000,"state":"active","ping":74},{"user_id":779,"name":"Dollop","steam_id":76561198055444075,"connected_time":339000000000,"state":"active","ping":95},{"user_id":718,"name":"fluffythemessiah","steam_id":76561199013202758,"connected_time":5131000000000,"state":"active","ping":73},{"user_id":780,"name":"hatsune miku","steam_id":76561199445009981,"connected_time":202000000000,"state":"active","ping":101},{"user_id":723,"name":"KiWii","steam_id":76561199013608864,"connected_time":4912000000000,"state":"active","ping":55},{"user_id":777,"name":"Spy Main","steam_id":76561198154715380,"connected_time":401000000000,"state":"active","ping":83},{"user_id":768,"name":"Kyle","steam_id":76561198150061073,"connected_time":1423000000000,"state":"active","ping":57},{"user_id":756,"name":"Ahten Xevious","steam_id":76561198075469828,"connected_time":2602000000000,"state":"active","ping":77},{"user_id":757,"name":"Willowl","steam_id":76561198074612980,"connected_time":2569000000000,"state":"active","ping":112},{"user_id":775,"name":"Blueberry Lemonade","steam_id":76561198056377822,"connected_time":495000000000,"state":"active","ping":97},{"user_id":752,"name":"Rikkore","steam_id":76561198060105857,"connected_time":2803000000000,"state":"active","ping":74},{"user_id":778,"name":"Soggy Zogg","steam_id":76561198836316052,"connected_time":398000000000,"state":"active","ping":85},{"user_id":781,"name":"^-^","steam_id":76561198831996918,"connected_time":144000000000,"state":"active","ping":75},{"user_id":763,"name":"Leem-u","steam_id":76561198069735882,"connected_time":2228000000000,"state":"active","ping":83},{"user_id":782,"name":"Oliver","steam_id":76561199036584550,"connected_time":106000000000,"state":"active","ping":44}]},{"server_id":404,"name":"Uncletopia | Dallas | 3 | All Maps","name_short":"dal-3","host":"dal-1.us.uncletopia.com","port":27035,"enabled":true,"region":"us-central","cc":"us","latitude":32.779167,"longitude":-96.80889,"reserved":0,"last_update":"0001-01-01T00:00:00Z","name_a2s":"Uncletopia | Dallas | 3 | All Maps","protocol":17,"map":"cp_sunshine","folder":"tf","game":"Team Fortress","app_id":440,"player_count":0,"max_players":24,"Bots":0,"server_type":"Dedicated","server_os":"Linux","password":true,"vac":true,"version":"7961495","steam_id":85568392924515219,"keywords":["cp","nocrits","nodmgspread","uncletopia"],"game_id":440,"stv_port":27036,"stv_name":"Uncletopia | Dallas | 3 | All Maps | STV","players":null},{"server_id":405,"name":"Uncletopia | Dallas | 4 | Community","name_short":"dal-4","host":"dal-1.us.uncletopia.com","port":27045,"enabled":true,"region":"us-central","cc":"us","latitude":32.779167,"longitude":-96.80889,"reserved":0,"last_update":"0001-01-01T00:00:00Z","name_a2s":"Uncletopia | Dallas | 4 | Community","protocol":17,"map":"workshop/koth_ramjam_rc1.ugc459778887","folder":"tf","game":"Team Fortress","app_id":440,"player_count":0,"max_players":24,"Bots":0,"server_type":"Dedicated","server_os":"Linux","password":true,"vac":true,"version":"7961495","steam_id":85568392924515220,"keywords":["cp","nocrits","nodmgspread","uncletopia"],"game_id":440,"stv_port":27046,"stv_name":"Uncletopia | Dallas | 4 | Community | STV","players":null},{"server_id":5,"name":"Uncletopia | Frankfurt | 1 | All Maps","name_short":"frk-1","host":"frk-1.de.uncletopia.com","port":27015,"enabled":true,"region":"eu","cc":"de","latitude":50.110924,"longitude":8.682127,"reserved":0,"last_update":"0001-01-01T00:00:00Z","name_a2s":"Uncletopia | Frankfurt | 1 | All Maps","protocol":17,"map":"koth_highpass","folder":"tf","game":"Team Fortress","app_id":440,"player_count":0,"max_players":24,"Bots":0,"server_type":"Dedicated","server_os":"Linux","password":true,"vac":true,"version":"7961495","steam_id":85568392924469989,"keywords":["cp","nocrits","nodmgspread","uncletopia"],"game_id":440,"stv_port":27016,"stv_name":"Uncletopia | Frankfurt | 1 | All Maps | STV","players":null},{"server_id":110,"name":"Uncletopia | Frankfurt | 2 | All Maps","name_short":"frk-2","host":"frk-1.de.uncletopia.com","port":27025,"enabled":true,"region":"eu","cc":"de","latitude":50.110924,"longitude":8.682127,"reserved":0,"last_update":"0001-01-01T00:00:00Z","name_a2s":"Uncletopia | Frankfurt | 2 | All Maps","protocol":17,"map":"cp_dustbowl","folder":"tf","game":"Team Fortress","app_id":440,"player_count":0,"max_players":24,"Bots":0,"server_type":"Dedicated","server_os":"Linux","password":true,"vac":true,"version":"7961495","steam_id":85568392924469990,"keywords":["cp","nocrits","nodmgspread","uncletopia"],"game_id":440,"stv_port":27026,"stv_name":"Uncletopia | Frankfurt | 2 | All Maps | STV","players":null},{"server_id":308,"name":"Uncletopia | Frankfurt | 3 | All Maps","name_short":"frk-3","host":"frk-1.de.uncletopia.com","port":27035,"enabled":true,"region":"eu","cc":"de","latitude":50.110924,"longitude":8.682127,"reserved":0,"last_update":"0001-01-01T00:00:00Z","name_a2s":"Uncletopia | Frankfurt | 3 | All Maps","protocol":17,"map":"pl_barnblitz","folder":"tf","game":"Team Fortress","app_id":440,"player_count":0,"max_players":24,"Bots":0,"server_type":"Dedicated","server_os":"Linux","password":true,"vac":true,"version":"7961495","steam_id":85568392924504274,"keywords":["nocrits","nodmgspread","payload","uncletopia"],"game_id":440,"stv_port":27036,"stv_name":"Uncletopia | Frankfurt | 3 | All Maps | STV","players":null},{"server_id":309,"name":"Uncletopia | Frankfurt | 4 | All Maps","name_short":"frk-4","host":"frk-1.de.uncletopia.com","port":27045,"enabled":true,"region":"eu","cc":"de","latitude":50.110924,"longitude":8.682127,"reserved":0,"last_update":"0001-01-01T00:00:00Z","name_a2s":"Uncletopia | Frankfurt | 4 | All Maps","protocol":17,"map":"koth_highpass","folder":"tf","game":"Team Fortress","app_id":440,"player_count":0,"max_players":24,"Bots":0,"server_type":"Dedicated","server_os":"Linux","password":true,"vac":true,"version":"7961495","steam_id":85568392924504275,"keywords":["cp","nocrits","nodmgspread","uncletopia"],"game_id":440,"stv_port":27046,"stv_name":"Uncletopia | Frankfurt | 4 | All Maps | STV","players":null},{"server_id":310,"name":"Uncletopia | Frankfurt | 5 | All Maps","name_short":"frk-5","host":"frk-1.de.uncletopia.com","port":27055,"enabled":true,"region":"eu","cc":"de","latitude":50.110924,"longitude":8.682127,"reserved":0,"last_update":"0001-01-01T00:00:00Z","name_a2s":"Uncletopia | Frankfurt | 5 | All Maps","protocol":17,"map":"cp_process_final","folder":"tf","game":"Team Fortress","app_id":440,"player_count":0,"max_players":24,"Bots":0,"server_type":"Dedicated","server_os":"Linux","password":true,"vac":true,"version":"7961495","steam_id":85568392924504277,"keywords":["cp","nocrits","nodmgspread","uncletopia"],"game_id":440,"stv_port":27056,"stv_name":"Uncletopia | Frankfurt | 5 | All Maps | STV","players":null},{"server_id":311,"name":"Uncletopia | Frankfurt | 6 | All Maps","name_short":"frk-6","host":"frk-1.de.uncletopia.com","port":27065,"enabled":true,"region":"eu","cc":"de","latitude":50.110924,"longitude":8.682127,"reserved":0,"last_update":"0001-01-01T00:00:00Z","name_a2s":"Uncletopia | Frankfurt | 6 | All Maps","protocol":17,"map":"cp_altitude","folder":"tf","game":"Team Fortress","app_id":440,"player_count":0,"max_players":24,"Bots":0,"server_type":"Dedicated","server_os":"Linux","password":true,"vac":true,"version":"7961495","steam_id":85568392924504278,"keywords":["cp","nocrits","nodmgspread","uncletopia"],"game_id":440,"stv_port":27066,"stv_name":"Uncletopia | Frankfurt | 6 | All Maps | STV","players":null},{"server_id":23,"name":"Uncletopia | Frankfurt | 7 | Stopwatch","name_short":"frk-7","host":"frk-1.de.uncletopia.com","port":27075,"enabled":true,"region":"eu","cc":"de","latitude":50.110924,"longitude":8.682127,"reserved":0,"last_update":"0001-01-01T00:00:00Z","name_a2s":"Uncletopia | Frankfurt | 7 | Stopwatch","protocol":17,"map":"pl_frontier_final","folder":"tf","game":"Team Fortress","app_id":440,"player_count":0,"max_players":24,"Bots":0,"server_type":"Dedicated","server_os":"Linux","password":true,"vac":true,"version":"7961495","steam_id":85568392924742827,"keywords":["nocrits","nodmgspread","payload","uncletopia"],"game_id":440,"stv_port":27076,"stv_name":"Uncletopia | Frankfurt | 7 | Stopwatch | STV","players":null},{"server_id":24,"name":"Uncletopia | Frankfurt | 8 | Community","name_short":"frk-8","host":"frk-1.de.uncletopia.com","port":27085,"enabled":true,"region":"eu","cc":"de","latitude":50.110924,"longitude":8.682127,"reserved":0,"last_update":"0001-01-01T00:00:00Z","name_a2s":"Uncletopia | Frankfurt | 8 | Community","protocol":17,"map":"cp_mountainlab","folder":"tf","game":"Team Fortress","app_id":440,"player_count":0,"max_players":24,"Bots":0,"server_type":"Dedicated","server_os":"Linux","password":true,"vac":true,"version":"7961495","steam_id":85568392924742828,"keywords":["cp","nocrits","nodmgspread","uncletopia"],"game_id":440,"stv_port":27086,"stv_name":"Uncletopia | Frankfurt | 8 | Community | STV","players":null},{"server_id":202,"name":"Uncletopia | Hong Kong | 1 | All Maps","name_short":"hgk-1","host":"hgk-1.hk.uncletopia.com","port":27015,"enabled":true,"region":"asia","cc":"hk","latitude":22.302711,"longitude":114.177216,"reserved":0,"last_update":"0001-01-01T00:00:00Z","name_a2s":"Uncletopia | Hong Kong | 1 | All Maps","protocol":17,"map":"koth_highpass","folder":"tf","game":"Team Fortress","app_id":440,"player_count":2,"max_players":24,"Bots":0,"server_type":"Dedicated","server_os":"Linux","password":true,"vac":true,"version":"7961495","steam_id":85568392924494504,"keywords":["cp","nocrits","nodmgspread","uncletopia"],"game_id":440,"stv_port":27016,"stv_name":"Uncletopia | Hong Kong | 1 | All Maps | STV","players":[{"user_id":47,"name":"The MONKE","steam_id":76561199114571176,"connected_time":948000000000,"state":"active","ping":91},{"user_id":52,"name":"tuna.mp4","steam_id":76561199166987061,"connected_time":64000000000,"state":"spawning","ping":158}]},{"server_id":1,"name":"Uncletopia | Los Angeles | 1 | All Maps","name_short":"lax-1","host":"lax-1.us.uncletopia.com","port":27015,"enabled":true,"region":"us-west","cc":"us","latitude":33.94279,"longitude":-118.41004,"reserved":0,"last_update":"0001-01-01T00:00:00Z","name_a2s":"Uncletopia | Los Angeles | 1 | All Maps","protocol":17,"map":"pl_barnblitz","folder":"tf","game":"Team Fortress","app_id":440,"player_count":24,"max_players":24,"Bots":0,"server_type":"Dedicated","server_os":"Linux","password":true,"vac":true,"version":"7961495","steam_id":85568392924469991,"keywords":["nocrits","nodmgspread","payload","uncletopia"],"game_id":440,"stv_port":27016,"stv_name":"Uncletopia | Los Angeles | 1 | All Maps | STV","players":[{"user_id":243,"name":"johnny","steam_id":76561198050225055,"connected_time":13526000000000,"state":"active","ping":45},{"user_id":439,"name":"Azurite The Lucario","steam_id":76561199472435344,"connected_time":425000000000,"state":"active","ping":122},{"user_id":435,"name":"fish","steam_id":76561198054070811,"connected_time":613000000000,"state":"active","ping":48},{"user_id":419,"name":"burgerboy","steam_id":76561198191561291,"connected_time":1518000000000,"state":"active","ping":45},{"user_id":437,"name":"yummines","steam_id":76561197981540661,"connected_time":450000000000,"state":"active","ping":84},{"user_id":398,"name":"baedeker","steam_id":76561199081837220,"connected_time":2914000000000,"state":"active","ping":101},{"user_id":436,"name":"Puskinti","steam_id":76561198032120688,"connected_time":456000000000,"state":"active","ping":86},{"user_id":431,"name":"morbidly a beast","steam_id":76561198061653298,"connected_time":981000000000,"state":"active","ping":121},{"user_id":428,"name":"[UW] BobbyZimmerman","steam_id":76561197993835647,"connected_time":1250000000000,"state":"active","ping":90},{"user_id":423,"name":"GlizzLord","steam_id":76561198321010427,"connected_time":1357000000000,"state":"active","ping":63},{"user_id":424,"name":"exx","steam_id":76561198090552145,"connected_time":1296000000000,"state":"active","ping":46},{"user_id":347,"name":"chanoc","steam_id":76561198026734746,"connected_time":6897000000000,"state":"active","ping":52},{"user_id":425,"name":"Randy Salvage","steam_id":76561198099496163,"connected_time":1296000000000,"state":"active","ping":97},{"user_id":411,"name":"poob","steam_id":76561198406728732,"connected_time":1701000000000,"state":"active","ping":96},{"user_id":438,"name":"Takyon","steam_id":76561198240014196,"connected_time":444000000000,"state":"active","ping":51},{"user_id":320,"name":"what the fuck is that !?","steam_id":76561198145669711,"connected_time":8306000000000,"state":"active","ping":40},{"user_id":430,"name":"de_pandora","steam_id":76561198075490385,"connected_time":1191000000000,"state":"active","ping":48},{"user_id":416,"name":"Markiplier","steam_id":76561198100385184,"connected_time":1535000000000,"state":"active","ping":58},{"user_id":442,"name":"Toxic Medic Main (he/they)","steam_id":76561198009314845,"connected_time":146000000000,"state":"active","ping":71},{"user_id":418,"name":"Henry11799","steam_id":76561198121162774,"connected_time":1531000000000,"state":"active","ping":77},{"user_id":408,"name":"purple hatsune miku","steam_id":76561198108844158,"connected_time":2408000000000,"state":"active","ping":58},{"user_id":444,"name":"nap","steam_id":76561198162714624,"connected_time":7000000000,"state":"spawning","ping":71},{"user_id":429,"name":"Slyth3r0","steam_id":76561198438359723,"connected_time":1238000000000,"state":"active","ping":85},{"user_id":441,"name":"Omegabigfoot","steam_id":76561198373027460,"connected_time":404000000000,"state":"active","ping":63}]},{"server_id":112,"name":"Uncletopia | Los Angeles | 2 | All Maps","name_short":"lax-2","host":"lax-1.us.uncletopia.com","port":27025,"enabled":true,"region":"us-west","cc":"us","latitude":33.94279,"longitude":-118.41004,"reserved":0,"last_update":"0001-01-01T00:00:00Z","name_a2s":"Uncletopia | Los Angeles | 2 | All Maps","protocol":17,"map":"koth_highpass","folder":"tf","game":"Team Fortress","app_id":440,"player_count":0,"max_players":24,"Bots":0,"server_type":"Dedicated","server_os":"Linux","password":true,"vac":true,"version":"7961495","steam_id":85568392924469992,"keywords":["cp","nocrits","nodmgspread","uncletopia"],"game_id":440,"stv_port":27026,"stv_name":"Uncletopia | Los Angeles | 2 | All Maps | STV","players":null},{"server_id":324,"name":"Uncletopia | Los Angeles | 3 | All Maps","name_short":"lax-3","host":"lax-1.us.uncletopia.com","port":27035,"enabled":true,"region":"us-west","cc":"us","latitude":33.94279,"longitude":-118.41004,"reserved":0,"last_update":"0001-01-01T00:00:00Z","name_a2s":"Uncletopia | Los Angeles | 3 | All Maps","protocol":17,"map":"cp_snakewater_final1","folder":"tf","game":"Team Fortress","app_id":440,"player_count":24,"max_players":24,"Bots":0,"server_type":"Dedicated","server_os":"Linux","password":true,"vac":true,"version":"7961495","steam_id":85568392924510198,"keywords":["cp","nocrits","nodmgspread","uncletopia"],"game_id":440,"stv_port":27036,"stv_name":"Uncletopia | Los Angeles | 3 | All Maps | STV","players":[{"user_id":585,"name":"cruiser","steam_id":76561198216976569,"connected_time":2032000000000,"state":"active","ping":51},{"user_id":546,"name":"★GANGST The Trackpad Gamer★","steam_id":76561198086268377,"connected_time":4442000000000,"state":"active","ping":62},{"user_id":598,"name":"nori","steam_id":76561198014744084,"connected_time":33000000000,"state":"active","ping":87},{"user_id":566,"name":"The Greasy Gliese","steam_id":76561198099006967,"connected_time":3041000000000,"state":"active","ping":90},{"user_id":592,"name":"Stardust","steam_id":76561198169175897,"connected_time":763000000000,"state":"active","ping":113},{"user_id":536,"name":"Mocha Josie","steam_id":76561198066452726,"connected_time":5271000000000,"state":"active","ping":88},{"user_id":358,"name":"rat","steam_id":76561198130412963,"connected_time":14531000000000,"state":"active","ping":83},{"user_id":599,"name":"Konnor","steam_id":76561199136300254,"connected_time":32000000000,"state":"active","ping":42},{"user_id":589,"name":"Zesty Zucchini Ziti","steam_id":76561198092494136,"connected_time":1128000000000,"state":"active","ping":75},{"user_id":594,"name":"Hank P. Hill","steam_id":76561198165256317,"connected_time":507000000000,"state":"active","ping":73},{"user_id":593,"name":"Larry","steam_id":76561198189961581,"connected_time":758000000000,"state":"active","ping":63},{"user_id":596,"name":"Trunkerunk","steam_id":76561197993724071,"connected_time":384000000000,"state":"active","ping":90},{"user_id":525,"name":"inoricaM","steam_id":76561199199257149,"connected_time":6001000000000,"state":"active","ping":124},{"user_id":590,"name":"Stack Man","steam_id":76561198114863794,"connected_time":937000000000,"state":"active","ping":44},{"user_id":586,"name":"rise","steam_id":76561198452312880,"connected_time":1814000000000,"state":"active","ping":61},{"user_id":582,"name":"DivineBanana","steam_id":76561198026529731,"connected_time":2266000000000,"state":"active","ping":133},{"user_id":556,"name":"joshua.theSAVAGE69","steam_id":76561198115458307,"connected_time":4002000000000,"state":"active","ping":46},{"user_id":565,"name":"I'm better","steam_id":76561198407056645,"connected_time":3262000000000,"state":"active","ping":106},{"user_id":570,"name":"yellow ᗜˬᗜ","steam_id":76561198366474647,"connected_time":2931000000000,"state":"active","ping":47},{"user_id":564,"name":"Wernher","steam_id":76561198061192094,"connected_time":3305000000000,"state":"active","ping":46},{"user_id":584,"name":"Blade","steam_id":76561198385077836,"connected_time":2068000000000,"state":"active","ping":99},{"user_id":557,"name":"SlawBunny","steam_id":76561198094913841,"connected_time":3960000000000,"state":"active","ping":105},{"user_id":583,"name":"felicities","steam_id":76561199446921772,"connected_time":2200000000000,"state":"active","ping":52},{"user_id":597,"name":"Goop Toast","steam_id":76561199502523624,"connected_time":246000000000,"state":"active","ping":116}]},{"server_id":25,"name":"Uncletopia | Los Angeles | 4 | Stopwatch","name_short":"lax-4","host":"lax-1.us.uncletopia.com","port":27045,"enabled":true,"region":"us-west","cc":"us","latitude":33.94279,"longitude":-118.41004,"reserved":0,"last_update":"0001-01-01T00:00:00Z","name_a2s":"Uncletopia | Los Angeles | 4 | Stopwatch","protocol":17,"map":"workshop/koth_ashville_final.ugc2130459942","folder":"tf","game":"Team Fortress","app_id":440,"player_count":0,"max_players":24,"Bots":0,"server_type":"Dedicated","server_os":"Linux","password":true,"vac":true,"version":"7961495","steam_id":85568392924510199,"keywords":["cp","nocrits","nodmgspread","uncletopia"],"game_id":440,"stv_port":27046,"stv_name":"Uncletopia | Los Angeles | 4 | Stopwatch | STV","players":null},{"server_id":11,"name":"Uncletopia | London | 1 | All Maps","name_short":"lon-1","host":"lon-1.uk.uncletopia.com","port":27015,"enabled":true,"region":"eu","cc":"gb","latitude":51.509865,"longitude":-0.118092,"reserved":0,"last_update":"0001-01-01T00:00:00Z","name_a2s":"Uncletopia | London | 1 | All Maps","protocol":17,"map":"pl_badwater","folder":"tf","game":"Team Fortress","app_id":440,"player_count":24,"max_players":24,"Bots":0,"server_type":"Dedicated","server_os":"Linux","password":true,"vac":true,"version":"7961495","steam_id":85568392924367362,"keywords":["nocrits","nodmgspread","payload","uncletopia"],"game_id":440,"stv_port":27016,"stv_name":"Uncletopia | London | 1 | All Maps | STV","players":[{"user_id":69,"name":"CORVO","steam_id":76561199320547010,"connected_time":2184000000000,"state":"active","ping":99},{"user_id":93,"name":"Nik_KiP","steam_id":76561198003030143,"connected_time":25000000000,"state":"active","ping":96},{"user_id":76,"name":"DOME","steam_id":76561198085155381,"connected_time":1395000000000,"state":"active","ping":74},{"user_id":86,"name":"turdh","steam_id":76561198420188090,"connected_time":379000000000,"state":"active","ping":103},{"user_id":7,"name":"Lyncurion","steam_id":76561199260022725,"connected_time":6754000000000,"state":"active","ping":78},{"user_id":9,"name":"Rick Makakezzz","steam_id":76561198057495653,"connected_time":6747000000000,"state":"active","ping":81},{"user_id":79,"name":"Circle | Gkost","steam_id":76561198045553992,"connected_time":883000000000,"state":"active","ping":82},{"user_id":21,"name":"Marcel","steam_id":76561198348686648,"connected_time":6130000000000,"state":"active","ping":42},{"user_id":84,"name":"Bus \"Sludgeman\" Protoface","steam_id":76561197966092532,"connected_time":404000000000,"state":"active","ping":119},{"user_id":90,"name":"FilipeskoBro  trade.tf","steam_id":76561198831347261,"connected_time":149000000000,"state":"active","ping":65},{"user_id":73,"name":":|","steam_id":76561198119247892,"connected_time":1757000000000,"state":"active","ping":101},{"user_id":82,"name":"Norman Reedus's Fetus","steam_id":76561197984288559,"connected_time":423000000000,"state":"active","ping":125},{"user_id":48,"name":"Robert Rockets","steam_id":76561199407941086,"connected_time":4334000000000,"state":"active","ping":73},{"user_id":61,"name":"yuno appreciator","steam_id":76561198083286511,"connected_time":3101000000000,"state":"active","ping":34},{"user_id":91,"name":"r0la","steam_id":76561198128315340,"connected_time":131000000000,"state":"active","ping":75},{"user_id":62,"name":"Nome","steam_id":76561198867982828,"connected_time":3093000000000,"state":"active","ping":126},{"user_id":57,"name":"Vivid","steam_id":76561198346546144,"connected_time":3406000000000,"state":"active","ping":55},{"user_id":45,"name":"rioleyva2002","steam_id":76561199501788956,"connected_time":4572000000000,"state":"active","ping":144},{"user_id":89,"name":"Nutty Dark^^","steam_id":76561198036241064,"connected_time":214000000000,"state":"active","ping":65},{"user_id":77,"name":"Luxotrics","steam_id":76561198053455161,"connected_time":1274000000000,"state":"active","ping":87},{"user_id":35,"name":"Glitch","steam_id":76561198801335846,"connected_time":5176000000000,"state":"active","ping":37},{"user_id":72,"name":"milof","steam_id":76561198809199604,"connected_time":2091000000000,"state":"active","ping":78},{"user_id":83,"name":"mr.gaslight","steam_id":76561198056900528,"connected_time":422000000000,"state":"active","ping":84},{"user_id":92,"name":"Alice","steam_id":76561198052410860,"connected_time":109000000000,"state":"active","ping":148}]},{"server_id":114,"name":"Uncletopia | London | 2 | All Maps","name_short":"lon-2","host":"lon-1.uk.uncletopia.com","port":27025,"enabled":true,"region":"eu","cc":"gb","latitude":51.509865,"longitude":-0.118092,"reserved":0,"last_update":"0001-01-01T00:00:00Z","name_a2s":"Uncletopia | London | 2 | All Maps","protocol":17,"map":"koth_lakeside_final","folder":"tf","game":"Team Fortress","app_id":440,"player_count":0,"max_players":24,"Bots":0,"server_type":"Dedicated","server_os":"Linux","password":true,"vac":true,"version":"7961495","steam_id":85568392924470941,"keywords":["cp","nocrits","nodmgspread","uncletopia"],"game_id":440,"stv_port":27026,"stv_name":"Uncletopia | London | 2 | All Maps | STV","players":null},{"server_id":320,"name":"Uncletopia | London | 3 | All Maps","name_short":"lon-3","host":"lon-1.uk.uncletopia.com","port":27035,"enabled":true,"region":"eu","cc":"gb","latitude":51.509865,"longitude":-0.118092,"reserved":0,"last_update":"0001-01-01T00:00:00Z","name_a2s":"Uncletopia | London | 3 | All Maps","protocol":17,"map":"cp_process_final","folder":"tf","game":"Team Fortress","app_id":440,"player_count":0,"max_players":24,"Bots":0,"server_type":"Dedicated","server_os":"Linux","password":true,"vac":true,"version":"7961495","steam_id":85568392924510192,"keywords":["cp","nocrits","nodmgspread","uncletopia"],"game_id":440,"stv_port":27036,"stv_name":"Uncletopia | London | 3 | All Maps | STV","players":null},{"server_id":321,"name":"Uncletopia | London | 4 | All Maps","name_short":"lon-4","host":"lon-1.uk.uncletopia.com","port":27045,"enabled":true,"region":"eu","cc":"gb","latitude":51.509865,"longitude":-0.118092,"reserved":0,"last_update":"0001-01-01T00:00:00Z","name_a2s":"Uncletopia | London | 4 | All Maps","protocol":17,"map":"koth_cascade","folder":"tf","game":"Team Fortress","app_id":440,"player_count":0,"max_players":24,"Bots":0,"server_type":"Dedicated","server_os":"Linux","password":true,"vac":true,"version":"7961495","steam_id":85568392924510193,"keywords":["cp","nocrits","nodmgspread","uncletopia"],"game_id":440,"stv_port":27046,"stv_name":"Uncletopia | London | 4 | All Maps | STV","players":null},{"server_id":21,"name":"Uncletopia | London | 5 | All Maps","name_short":"lon-5","host":"lon-1.uk.uncletopia.com","port":27055,"enabled":true,"region":"eu","cc":"gb","latitude":51.509865,"longitude":-0.118092,"reserved":0,"last_update":"0001-01-01T00:00:00Z","name_a2s":"Uncletopia | London | 5 | All Maps","protocol":17,"map":"koth_lakeside_final","folder":"tf","game":"Team Fortress","app_id":440,"player_count":0,"max_players":24,"Bots":0,"server_type":"Dedicated","server_os":"Linux","password":true,"vac":true,"version":"7961495","steam_id":85568392924742829,"keywords":["cp","nocrits","nodmgspread","uncletopia"],"game_id":440,"stv_port":27056,"stv_name":"Uncletopia | London | 5 | All Maps | STV","players":null},{"server_id":22,"name":"Uncletopia | London | 6 | All Maps","name_short":"lon-6","host":"lon-1.uk.uncletopia.com","port":27065,"enabled":true,"region":"eu","cc":"gb","latitude":51.509865,"longitude":-0.118092,"reserved":0,"last_update":"0001-01-01T00:00:00Z","name_a2s":"Uncletopia | London | 6 | All Maps","protocol":17,"map":"cp_dustbowl","folder":"tf","game":"Team Fortress","app_id":440,"player_count":0,"max_players":24,"Bots":0,"server_type":"Dedicated","server_os":"Linux","password":true,"vac":true,"version":"7961495","steam_id":85568392924742830,"keywords":["cp","nocrits","nodmgspread","uncletopia"],"game_id":440,"stv_port":27066,"stv_name":"Uncletopia | London | 6 | All Maps | STV","players":null},{"server_id":40,"name":"Uncletopia | London | 7 | Stopwatch","name_short":"lon-7","host":"lon-1.uk.uncletopia.com","port":27075,"enabled":true,"region":"eu","cc":"gb","latitude":51.509865,"longitude":-0.118092,"reserved":0,"last_update":"0001-01-01T00:00:00Z","name_a2s":"Uncletopia | London | 7 | Stopwatch","protocol":17,"map":"koth_lakeside_final","folder":"tf","game":"Team Fortress","app_id":440,"player_count":0,"max_players":24,"Bots":0,"server_type":"Dedicated","server_os":"Linux","password":true,"vac":true,"version":"7961495","steam_id":85568392924964314,"keywords":["cp","nocrits","nodmgspread","uncletopia"],"game_id":440,"stv_port":27076,"stv_name":"Uncletopia | London | 7 | Stopwatch | STV","players":null},{"server_id":41,"name":"Uncletopia | London | 8 | Community","name_short":"lon-8","host":"lon-1.uk.uncletopia.com","port":27085,"enabled":true,"region":"eu","cc":"gb","latitude":51.509865,"longitude":-0.118092,"reserved":0,"last_update":"0001-01-01T00:00:00Z","name_a2s":"Uncletopia | London | 8 | Community","protocol":17,"map":"cp_snakewater_final1","folder":"tf","game":"Team Fortress","app_id":440,"player_count":0,"max_players":24,"Bots":0,"server_type":"Dedicated","server_os":"Linux","password":true,"vac":true,"version":"7961495","steam_id":85568392924964315,"keywords":["cp","nocrits","nodmgspread","uncletopia"],"game_id":440,"stv_port":27086,"stv_name":"Uncletopia | London | 8 | Community | STV","players":null},{"server_id":300,"name":"Uncletopia | Montréal | 1 | One Thousand Uncles","name_short":"mtl-1","host":"mtl-1.ca.uncletopia.com","port":27015,"enabled":true,"region":"us-east","cc":"ca","latitude":45.50889,"longitude":-73.56167,"reserved":0,"last_update":"0001-01-01T00:00:00Z","name_a2s":"","protocol":0,"map":"","folder":"","game":"","app_id":0,"player_count":0,"max_players":0,"Bots":0,"server_type":"","server_os":"","password":false,"vac":false,"version":"","steam_id":0,"keywords":null,"game_id":0,"stv_port":0,"stv_name":"","players":null},{"server_id":301,"name":"Uncletopia | Montréal | 2 | One Thousand Uncles","name_short":"mtl-2","host":"mtl-1.ca.uncletopia.com","port":27025,"enabled":true,"region":"us-east","cc":"ca","latitude":45.50889,"longitude":-73.56167,"reserved":0,"last_update":"0001-01-01T00:00:00Z","name_a2s":"","protocol":0,"map":"","folder":"","game":"","app_id":0,"player_count":0,"max_players":0,"Bots":0,"server_type":"","server_os":"","password":false,"vac":false,"version":"","steam_id":0,"keywords":null,"game_id":0,"stv_port":0,"stv_name":"","players":null},{"server_id":302,"name":"Uncletopia | Montréal | 3 | One Thousand Uncles","name_short":"mtl-3","host":"mtl-1.ca.uncletopia.com","port":27035,"enabled":true,"region":"us-east","cc":"ca","latitude":45.50889,"longitude":-73.56167,"reserved":0,"last_update":"0001-01-01T00:00:00Z","name_a2s":"","protocol":0,"map":"","folder":"","game":"","app_id":0,"player_count":0,"max_players":0,"Bots":0,"server_type":"","server_os":"","password":false,"vac":false,"version":"","steam_id":0,"keywords":null,"game_id":0,"stv_port":0,"stv_name":"","players":null},{"server_id":13,"name":"Uncletopia | New York City | 1 | All Maps","name_short":"nyc-1","host":"nyc-1.us.uncletopia.com","port":27015,"enabled":true,"region":"us-east","cc":"us","latitude":40.73061,"longitude":-73.93524,"reserved":0,"last_update":"0001-01-01T00:00:00Z","name_a2s":"Uncletopia | New York City | 1 | All Maps","protocol":17,"map":"koth_viaduct","folder":"tf","game":"Team Fortress","app_id":440,"player_count":0,"max_players":24,"Bots":0,"server_type":"Dedicated","server_os":"Linux","password":true,"vac":true,"version":"7961495","steam_id":85568392924469993,"keywords":["cp","nocrits","nodmgspread","uncletopia"],"game_id":440,"stv_port":27016,"stv_name":"Uncletopia | New York City | 1 | All Maps | STV","players":null},{"server_id":14,"name":"Uncletopia | New York City | 2 | All Maps","name_short":"nyc-2","host":"nyc-1.us.uncletopia.com","port":27025,"enabled":true,"region":"us-east","cc":"us","latitude":40.73061,"longitude":-73.93524,"reserved":0,"last_update":"0001-01-01T00:00:00Z","name_a2s":"Uncletopia | New York City | 2 | All Maps","protocol":17,"map":"pl_borneo","folder":"tf","game":"Team Fortress","app_id":440,"player_count":24,"max_players":24,"Bots":0,"server_type":"Dedicated","server_os":"Linux","password":true,"vac":true,"version":"7961495","steam_id":85568392924469994,"keywords":["nocrits","nodmgspread","payload","uncletopia"],"game_id":440,"stv_port":27026,"stv_name":"Uncletopia | New York City | 2 | All Maps | STV","players":[{"user_id":707,"name":"Luigi_Luis","steam_id":76561198208016096,"connected_time":525000000000,"state":"active","ping":83},{"user_id":646,"name":"MysticLiger","steam_id":76561198157860214,"connected_time":4903000000000,"state":"active","ping":62},{"user_id":647,"name":"Tourte Sho","steam_id":76561197996065377,"connected_time":4822000000000,"state":"active","ping":126},{"user_id":640,"name":"Beta Fish","steam_id":76561198073504861,"connected_time":5519000000000,"state":"active","ping":69},{"user_id":680,"name":"Thomas \"Two-corn Tom\" Douglas","steam_id":76561198043976857,"connected_time":2107000000000,"state":"active","ping":57},{"user_id":697,"name":"centipede","steam_id":76561199238694456,"connected_time":1359000000000,"state":"active","ping":80},{"user_id":692,"name":"Space Cops","steam_id":76561198032414253,"connected_time":1727000000000,"state":"active","ping":47},{"user_id":709,"name":"Barkin MADDOX","steam_id":76561198446108776,"connected_time":24000000000,"state":"spawning","ping":78},{"user_id":688,"name":"The Doc K","steam_id":76561198035695029,"connected_time":1864000000000,"state":"active","ping":87},{"user_id":702,"name":"gAmZeE mAkArA (rEaL)","steam_id":76561198133342271,"connected_time":925000000000,"state":"active","ping":74},{"user_id":681,"name":"aversa","steam_id":76561198840460101,"connected_time":2092000000000,"state":"active","ping":46},{"user_id":678,"name":"AlmondMilk","steam_id":76561198151229725,"connected_time":2251000000000,"state":"active","ping":55},{"user_id":693,"name":"cynics","steam_id":76561198086719843,"connected_time":1726000000000,"state":"active","ping":59},{"user_id":669,"name":"Person","steam_id":76561198093244204,"connected_time":3055000000000,"state":"active","ping":70},{"user_id":690,"name":"Gay Cake","steam_id":76561198004388831,"connected_time":1834000000000,"state":"active","ping":82},{"user_id":705,"name":"cakeC3","steam_id":76561198065219619,"connected_time":701000000000,"state":"active","ping":79},{"user_id":706,"name":"Prist","steam_id":76561198039323021,"connected_time":551000000000,"state":"active","ping":62},{"user_id":661,"name":"TTV hunter","steam_id":76561198115812405,"connected_time":3389000000000,"state":"active","ping":69},{"user_id":694,"name":"brisky","steam_id":76561198869675719,"connected_time":1726000000000,"state":"active","ping":53},{"user_id":527,"name":"The Winter Medic","steam_id":76561198197112922,"connected_time":14551000000000,"state":"active","ping":72},{"user_id":663,"name":"Toomey","steam_id":76561198012214023,"connected_time":3377000000000,"state":"active","ping":99},{"user_id":698,"name":"GoldtoothFour","steam_id":76561198055529332,"connected_time":1187000000000,"state":"active","ping":71},{"user_id":695,"name":"Honey-Fox","steam_id":76561198133244742,"connected_time":1715000000000,"state":"active","ping":52},{"user_id":668,"name":"gooey sticky","steam_id":76561198817982061,"connected_time":3175000000000,"state":"active","ping":87}]},{"server_id":15,"name":"Uncletopia | New York City | 3 | Stopwatch","name_short":"nyc-3","host":"nyc-1.us.uncletopia.com","port":27035,"enabled":true,"region":"us-east","cc":"us","latitude":40.73061,"longitude":-73.93524,"reserved":0,"last_update":"0001-01-01T00:00:00Z","name_a2s":"Uncletopia | New York City | 3 | Stopwatch","protocol":17,"map":"workshop/koth_ashville_final.ugc2130459942","folder":"tf","game":"Team Fortress","app_id":440,"player_count":0,"max_players":24,"Bots":0,"server_type":"Dedicated","server_os":"Linux","password":true,"vac":true,"version":"7961495","steam_id":85568392924742820,"keywords":["cp","nocrits","nodmgspread","uncletopia"],"game_id":440,"stv_port":27036,"stv_name":"Uncletopia | New York City | 3 | Stopwatch | STV","players":null},{"server_id":16,"name":"Uncletopia | New York City | 4 | Community","name_short":"nyc-4","host":"nyc-1.us.uncletopia.com","port":27045,"enabled":true,"region":"us-east","cc":"us","latitude":40.73061,"longitude":-73.93524,"reserved":0,"last_update":"0001-01-01T00:00:00Z","name_a2s":"Uncletopia | New York City | 4 | Community","protocol":17,"map":"workshop/rd_asteroid_redux_b1.ugc2154902912","folder":"tf","game":"Team Fortress","app_id":440,"player_count":0,"max_players":24,"Bots":0,"server_type":"Dedicated","server_os":"Linux","password":true,"vac":true,"version":"7961495","steam_id":85568392924742821,"keywords":["beta","nocrits","nodmgspread","rd","uncletopia"],"game_id":440,"stv_port":27046,"stv_name":"Uncletopia | New York City | 4 | Community | STV","players":null},{"server_id":142,"name":"Uncletopia | São Paulo | 1 | All Maps","name_short":"sao-1","host":"sao-1.br.uncletopia.com","port":27015,"enabled":true,"region":"sa","cc":"br","latitude":-23.533773,"longitude":-46.62529,"reserved":0,"last_update":"0001-01-01T00:00:00Z","name_a2s":"Uncletopia | São Paulo | 1 | All Maps","protocol":17,"map":"koth_lakeside_final","folder":"tf","game":"Team Fortress","app_id":440,"player_count":0,"max_players":24,"Bots":0,"server_type":"Dedicated","server_os":"Linux","password":true,"vac":true,"version":"7961495","steam_id":85568392924469996,"keywords":["cp","nocrits","nodmgspread","uncletopia"],"game_id":440,"stv_port":27016,"stv_name":"Uncletopia | São Paulo | 1 | All Maps | STV","players":null},{"server_id":143,"name":"Uncletopia | São Paulo | 2 | Community","name_short":"sao-2","host":"sao-2.br.uncletopia.com","port":27015,"enabled":true,"region":"sa","cc":"br","latitude":-23.533773,"longitude":-46.62529,"reserved":0,"last_update":"0001-01-01T00:00:00Z","name_a2s":"Uncletopia | São Paulo | 2 | Community","protocol":17,"map":"workshop/koth_kemptown_rc1.ugc767410655","folder":"tf","game":"Team Fortress","app_id":440,"player_count":0,"max_players":24,"Bots":0,"server_type":"Dedicated","server_os":"Linux","password":true,"vac":true,"version":"7961495","steam_id":85568392924485349,"keywords":["cp","nocrits","nodmgspread","uncletopia"],"game_id":440,"stv_port":27016,"stv_name":"Uncletopia | São Paulo | 2 | Community | STV","players":null},{"server_id":7,"name":"Uncletopia | Seattle | 1 | All Maps","name_short":"sea-1","host":"sea-1.us.uncletopia.com","port":27015,"enabled":true,"region":"us-west","cc":"us","latitude":47.608013,"longitude":-122.33517,"reserved":0,"last_update":"0001-01-01T00:00:00Z","name_a2s":"Uncletopia | Seattle | 1 | All Maps","protocol":17,"map":"pl_upward","folder":"tf","game":"Team Fortress","app_id":440,"player_count":24,"max_players":24,"Bots":0,"server_type":"Dedicated","server_os":"Linux","password":true,"vac":true,"version":"7961495","steam_id":85568392924469997,"keywords":["nocrits","nodmgspread","payload","uncletopia"],"game_id":440,"stv_port":27016,"stv_name":"Uncletopia | Seattle | 1 | All Maps | STV","players":[{"user_id":669,"name":"Blackbeard","steam_id":76561198046952265,"connected_time":638000000000,"state":"active","ping":45},{"user_id":665,"name":"peachy","steam_id":76561198028721790,"connected_time":1101000000000,"state":"active","ping":58},{"user_id":662,"name":"Franticraven177","steam_id":76561198334105579,"connected_time":1547000000000,"state":"active","ping":64},{"user_id":636,"name":"Attrition","steam_id":76561197969881916,"connected_time":4708000000000,"state":"active","ping":58},{"user_id":657,"name":"Vapor Man","steam_id":76561198210173112,"connected_time":1968000000000,"state":"active","ping":148},{"user_id":605,"name":"Octopus","steam_id":76561198114639980,"connected_time":5629000000000,"state":"active","ping":67},{"user_id":640,"name":"Kaiga","steam_id":76561198044052046,"connected_time":4319000000000,"state":"active","ping":124},{"user_id":569,"name":"WaffleWithNoToppings","steam_id":76561199088280111,"connected_time":8813000000000,"state":"active","ping":45},{"user_id":648,"name":"The Foolish Samurai","steam_id":76561198094494945,"connected_time":2525000000000,"state":"active","ping":103},{"user_id":549,"name":"Havi","steam_id":76561198197832829,"connected_time":10259000000000,"state":"active","ping":55},{"user_id":667,"name":"Mitchell","steam_id":76561197972922328,"connected_time":671000000000,"state":"active","ping":62},{"user_id":659,"name":"Shrimp Fried Rice","steam_id":76561198247688228,"connected_time":1710000000000,"state":"active","ping":105},{"user_id":584,"name":"Brathic","steam_id":76561198966232163,"connected_time":7281000000000,"state":"active","ping":91},{"user_id":540,"name":"DubiousDodo","steam_id":76561198828172686,"connected_time":11817000000000,"state":"active","ping":76},{"user_id":641,"name":"Princess?","steam_id":76561198080963759,"connected_time":4186000000000,"state":"active","ping":105},{"user_id":673,"name":"Scorpianswag","steam_id":76561198260651036,"connected_time":445000000000,"state":"active","ping":60},{"user_id":670,"name":"FidelGuevara","steam_id":76561198368296171,"connected_time":637000000000,"state":"active","ping":109},{"user_id":672,"name":"Copy","steam_id":76561198025031590,"connected_time":517000000000,"state":"active","ping":53},{"user_id":525,"name":"Supersonic","steam_id":76561198042167127,"connected_time":13485000000000,"state":"active","ping":56},{"user_id":671,"name":"Halo :3","steam_id":76561198144909435,"connected_time":635000000000,"state":"active","ping":86},{"user_id":643,"name":"Toaster (Hamilton Beach)","steam_id":76561198039891934,"connected_time":2796000000000,"state":"active","ping":59},{"user_id":630,"name":"this","steam_id":76561198170195505,"connected_time":4784000000000,"state":"active","ping":58},{"user_id":668,"name":"watrisntfruit","steam_id":76561199274595793,"connected_time":670000000000,"state":"active","ping":61},{"user_id":664,"name":"Grand","steam_id":76561198290143399,"connected_time":1266000000000,"state":"active","ping":75}]},{"server_id":119,"name":"Uncletopia | Seattle | 2 | All Maps","name_short":"sea-2","host":"sea-1.us.uncletopia.com","port":27025,"enabled":true,"region":"us-west","cc":"us","latitude":47.608013,"longitude":-122.33517,"reserved":0,"last_update":"0001-01-01T00:00:00Z","name_a2s":"Uncletopia | Seattle | 2 | All Maps","protocol":17,"map":"cp_powerhouse","folder":"tf","game":"Team Fortress","app_id":440,"player_count":24,"max_players":24,"Bots":0,"server_type":"Dedicated","server_os":"Linux","password":true,"vac":true,"version":"7961495","steam_id":85568392924469998,"keywords":["cp","nocrits","nodmgspread","uncletopia"],"game_id":440,"stv_port":27026,"stv_name":"Uncletopia | Seattle | 2 | All Maps | STV","players":[{"user_id":583,"name":"Lilith","steam_id":76561198120362654,"connected_time":5090000000000,"state":"active","ping":39},{"user_id":653,"name":"baconboy","steam_id":76561198831009725,"connected_time":154000000000,"state":"active","ping":71},{"user_id":635,"name":"gerg","steam_id":76561197997127387,"connected_time":1445000000000,"state":"active","ping":72},{"user_id":654,"name":"online","steam_id":76561198192531745,"connected_time":94000000000,"state":"active","ping":63},{"user_id":611,"name":"Martin","steam_id":76561199068623664,"connected_time":2866000000000,"state":"active","ping":51},{"user_id":649,"name":"rushy :))","steam_id":76561198065825165,"connected_time":421000000000,"state":"active","ping":91},{"user_id":612,"name":"AWGER","steam_id":76561198284683624,"connected_time":2849000000000,"state":"active","ping":76},{"user_id":651,"name":"social distance warrior","steam_id":76561198128992994,"connected_time":405000000000,"state":"active","ping":45},{"user_id":622,"name":"ed","steam_id":76561198080475712,"connected_time":2387000000000,"state":"active","ping":75},{"user_id":491,"name":"2 Point Tom","steam_id":76561198087617008,"connected_time":10436000000000,"state":"active","ping":53},{"user_id":599,"name":"NEBULA","steam_id":76561198086878595,"connected_time":4225000000000,"state":"active","ping":75},{"user_id":642,"name":"Hawksgamer","steam_id":76561198152405941,"connected_time":787000000000,"state":"active","ping":36},{"user_id":655,"name":"hart","steam_id":76561198046073848,"connected_time":87000000000,"state":"active","ping":48},{"user_id":640,"name":"lfk thunderous prophet","steam_id":76561198131166135,"connected_time":1266000000000,"state":"active","ping":37},{"user_id":641,"name":"Mr8bittripper","steam_id":76561198133894229,"connected_time":1210000000000,"state":"active","ping":45},{"user_id":582,"name":"no vc no c","steam_id":76561197989503095,"connected_time":5116000000000,"state":"active","ping":149},{"user_id":633,"name":"Zincian","steam_id":76561198055484259,"connected_time":1754000000000,"state":"active","ping":59},{"user_id":639,"name":"Under an Unquiet Skull","steam_id":76561198164782653,"connected_time":1310000000000,"state":"active","ping":120},{"user_id":645,"name":"gwen","steam_id":76561198046815360,"connected_time":750000000000,"state":"active","ping":75},{"user_id":648,"name":"Shields","steam_id":76561198043216746,"connected_time":515000000000,"state":"active","ping":51},{"user_id":606,"name":"kill me","steam_id":76561198032625036,"connected_time":3538000000000,"state":"active","ping":59},{"user_id":617,"name":"Bananaphone","steam_id":76561198049452877,"connected_time":2833000000000,"state":"active","ping":114},{"user_id":647,"name":"Croctor™","steam_id":76561198134309750,"connected_time":573000000000,"state":"active","ping":92},{"user_id":579,"name":"rock gaming","steam_id":76561199402868311,"connected_time":5147000000000,"state":"active","ping":68}]},{"server_id":406,"name":"Uncletopia | Seattle | 3 | Stopwatch","name_short":"sea-3","host":"sea-1.us.uncletopia.com","port":27035,"enabled":true,"region":"us-west","cc":"us","latitude":47.608013,"longitude":-122.33517,"reserved":0,"last_update":"0001-01-01T00:00:00Z","name_a2s":"Uncletopia | Seattle | 3 | Stopwatch","protocol":17,"map":"workshop/koth_bagel_rc6.ugc2514036946","folder":"tf","game":"Team Fortress","app_id":440,"player_count":0,"max_players":24,"Bots":0,"server_type":"Dedicated","server_os":"Linux","password":true,"vac":true,"version":"7961495","steam_id":85568392924515217,"keywords":["cp","nocrits","nodmgspread","uncletopia"],"game_id":440,"stv_port":27036,"stv_name":"Uncletopia | Seattle | 3 | Stopwatch | STV","players":null},{"server_id":17,"name":"Uncletopia | San Francisco | 1 | All Maps","name_short":"sfo-1","host":"sfo-1.us.uncletopia.com","port":27015,"enabled":true,"region":"us-west","cc":"us","latitude":37.77397,"longitude":-122.4313,"reserved":0,"last_update":"0001-01-01T00:00:00Z","name_a2s":"Uncletopia | San Francisco | 1 | All Maps","protocol":17,"map":"koth_viaduct","folder":"tf","game":"Team Fortress","app_id":440,"player_count":23,"max_players":24,"Bots":0,"server_type":"Dedicated","server_os":"Linux","password":true,"vac":true,"version":"7961495","steam_id":85568392924469999,"keywords":["cp","nocrits","nodmgspread","uncletopia"],"game_id":440,"stv_port":27016,"stv_name":"Uncletopia | San Francisco | 1 | All Maps | STV","players":[{"user_id":257,"name":"Da Bird","steam_id":76561198215677985,"connected_time":466000000000,"state":"active","ping":70},{"user_id":198,"name":"Hector Salamanca","steam_id":76561199103213955,"connected_time":5234000000000,"state":"active","ping":62},{"user_id":252,"name":"lol","steam_id":76561198026491738,"connected_time":1388000000000,"state":"active","ping":66},{"user_id":231,"name":"Meskoozy","steam_id":76561198102394479,"connected_time":2513000000000,"state":"active","ping":115},{"user_id":251,"name":"Soda","steam_id":76561198219209367,"connected_time":1624000000000,"state":"active","ping":60},{"user_id":260,"name":"Monke","steam_id":76561199092090573,"connected_time":184000000000,"state":"active","ping":79},{"user_id":233,"name":"Therapy Goth","steam_id":76561198048448497,"connected_time":2223000000000,"state":"active","ping":117},{"user_id":224,"name":"Cobalt","steam_id":76561198199072809,"connected_time":3115000000000,"state":"active","ping":57},{"user_id":239,"name":"legalize nuclear bombs","steam_id":76561198418172095,"connected_time":2089000000000,"state":"active","ping":94},{"user_id":254,"name":"ADMlN!!! he doin it sideways","steam_id":76561198085470745,"connected_time":1112000000000,"state":"active","ping":54},{"user_id":255,"name":"Astral","steam_id":76561198851258754,"connected_time":849000000000,"state":"active","ping":91},{"user_id":152,"name":"Pissless Pissmass Pissman","steam_id":76561198409907417,"connected_time":10030000000000,"state":"active","ping":80},{"user_id":153,"name":"(1671ELO) c class hero","steam_id":76561198066091050,"connected_time":9708000000000,"state":"active","ping":66},{"user_id":245,"name":"Violet The Derg","steam_id":76561198002525691,"connected_time":1847000000000,"state":"active","ping":70},{"user_id":258,"name":"I Must Frag","steam_id":76561198909415646,"connected_time":287000000000,"state":"active","ping":90},{"user_id":154,"name":"TüCold","steam_id":76561198111278197,"connected_time":9539000000000,"state":"active","ping":55},{"user_id":242,"name":"Lambchop","steam_id":76561198043900363,"connected_time":2000000000000,"state":"active","ping":60},{"user_id":263,"name":"Skipper","steam_id":76561198019045623,"connected_time":65000000000,"state":"active","ping":78},{"user_id":241,"name":"bingus :3","steam_id":76561199198633203,"connected_time":2026000000000,"state":"active","ping":92},{"user_id":248,"name":"rf","steam_id":76561198195359229,"connected_time":1761000000000,"state":"active","ping":56},{"user_id":249,"name":"skao","steam_id":76561198133360797,"connected_time":1749000000000,"state":"active","ping":62},{"user_id":229,"name":"Bcuz","steam_id":76561197981318027,"connected_time":2940000000000,"state":"active","ping":80},{"user_id":264,"name":"trent golem","steam_id":76561198044188907,"connected_time":43000000000,"state":"active","ping":58}]},{"server_id":18,"name":"Uncletopia | San Francisco | 2 | All Maps","name_short":"sfo-2","host":"sfo-1.us.uncletopia.com","port":27025,"enabled":true,"region":"us-west","cc":"us","latitude":37.77397,"longitude":-122.4313,"reserved":0,"last_update":"0001-01-01T00:00:00Z","name_a2s":"Uncletopia | San Francisco | 2 | All Maps","protocol":17,"map":"pl_upward","folder":"tf","game":"Team Fortress","app_id":440,"player_count":0,"max_players":24,"Bots":0,"server_type":"Dedicated","server_os":"Linux","password":true,"vac":true,"version":"7961495","steam_id":85568392924470000,"keywords":["nocrits","nodmgspread","payload","uncletopia"],"game_id":440,"stv_port":27026,"stv_name":"Uncletopia | San Francisco | 2 | All Maps | STV","players":null},{"server_id":19,"name":"Uncletopia | San Francisco | 3 | Stopwatch","name_short":"sfo-3","host":"sfo-1.us.uncletopia.com","port":27035,"enabled":true,"region":"us-west","cc":"us","latitude":37.77397,"longitude":-122.4313,"reserved":0,"last_update":"0001-01-01T00:00:00Z","name_a2s":"Uncletopia | San Francisco | 3 | Stopwatch","protocol":17,"map":"workshop/koth_bagel_rc6.ugc2514036946","folder":"tf","game":"Team Fortress","app_id":440,"player_count":0,"max_players":24,"Bots":0,"server_type":"Dedicated","server_os":"Linux","password":true,"vac":true,"version":"7961495","steam_id":85568392924742824,"keywords":["cp","nocrits","nodmgspread","uncletopia"],"game_id":440,"stv_port":27036,"stv_name":"Uncletopia | San Francisco | 3 | Stopwatch | STV","players":null},{"server_id":20,"name":"Uncletopia | San Francisco | 4 | Community","name_short":"sfo-4","host":"sfo-1.us.uncletopia.com","port":27045,"enabled":true,"region":"us-west","cc":"us","latitude":37.77397,"longitude":-122.4313,"reserved":0,"last_update":"0001-01-01T00:00:00Z","name_a2s":"Uncletopia | San Francisco | 4 | Community","protocol":17,"map":"workshop/cp_snowbase_b21.ugc2081770490","folder":"tf","game":"Team Fortress","app_id":440,"player_count":0,"max_players":24,"Bots":0,"server_type":"Dedicated","server_os":"Linux","password":true,"vac":true,"version":"7961495","steam_id":85568392924742826,"keywords":["cp","nocrits","nodmgspread","uncletopia"],"game_id":440,"stv_port":27046,"stv_name":"Uncletopia | San Francisco | 4 | Community | STV","players":null},{"server_id":141,"name":"Uncletopia | Sydney | 1 | All Maps","name_short":"syd-1","host":"syd-1.au.uncletopia.com","port":27015,"enabled":true,"region":"au","cc":"au","latitude":-33.865143,"longitude":151.2099,"reserved":0,"last_update":"0001-01-01T00:00:00Z","name_a2s":"Uncletopia | Sydney | 1 | All Maps","protocol":17,"map":"pl_frontier_final","folder":"tf","game":"Team Fortress","app_id":440,"player_count":23,"max_players":24,"Bots":0,"server_type":"Dedicated","server_os":"Linux","password":true,"vac":true,"version":"7961495","steam_id":85568392924470001,"keywords":["nocrits","nodmgspread","payload","uncletopia"],"game_id":440,"stv_port":27016,"stv_name":"Uncletopia | Sydney | 1 | All Maps | STV","players":[{"user_id":108,"name":"Cowboy Dan","steam_id":76561198124741938,"connected_time":2057000000000,"state":"active","ping":71},{"user_id":52,"name":"LaFleur","steam_id":76561198869499113,"connected_time":5404000000000,"state":"active","ping":57},{"user_id":136,"name":"Sentry Gun (EpicGuy4227)","steam_id":76561198094132328,"connected_time":6000000000,"state":"spawning","ping":76},{"user_id":85,"name":"soupy","steam_id":76561198073734936,"connected_time":3713000000000,"state":"active","ping":88},{"user_id":114,"name":"SIRROM12 (SIRR)","steam_id":76561198116738329,"connected_time":1818000000000,"state":"active","ping":72},{"user_id":55,"name":"Snuky","steam_id":76561198117902338,"connected_time":5340000000000,"state":"active","ping":44},{"user_id":89,"name":"Malphas","steam_id":76561198011425371,"connected_time":3554000000000,"state":"active","ping":57},{"user_id":132,"name":"saturation","steam_id":76561199457046392,"connected_time":423000000000,"state":"active","ping":79},{"user_id":134,"name":"boogalumpus snickelpuff","steam_id":76561198063481761,"connected_time":208000000000,"state":"active","ping":43},{"user_id":133,"name":"Stab Calloway","steam_id":76561198027827983,"connected_time":413000000000,"state":"active","ping":42},{"user_id":135,"name":"Snowy","steam_id":76561198255720598,"connected_time":67000000000,"state":"active","ping":47},{"user_id":116,"name":"JFIFMAFIA","steam_id":76561198079351541,"connected_time":1797000000000,"state":"active","ping":51},{"user_id":129,"name":"Chrisy","steam_id":76561198092382473,"connected_time":538000000000,"state":"active","ping":77},{"user_id":109,"name":"Sezama [HF]","steam_id":76561198816829053,"connected_time":2051000000000,"state":"active","ping":62},{"user_id":125,"name":"Diavolo Diablo","steam_id":76561198166295333,"connected_time":1087000000000,"state":"active","ping":150},{"user_id":117,"name":"Ᵽ𐌄Ť𐌄Ұ","steam_id":76561199140764838,"connected_time":1787000000000,"state":"active","ping":57},{"user_id":101,"name":"yoga","steam_id":76561199163801558,"connected_time":2636000000000,"state":"active","ping":48},{"user_id":72,"name":"Albert in the hand is worth two","steam_id":76561198301282416,"connected_time":4570000000000,"state":"active","ping":59},{"user_id":112,"name":"Tashwelyn","steam_id":76561198098678905,"connected_time":1920000000000,"state":"active","ping":76},{"user_id":78,"name":"webbadon, the horrid ᘛ⁐̤\ufffd\ufffd","steam_id":76561198061998379,"connected_time":4140000000000,"state":"active","ping":47},{"user_id":126,"name":"♥ BILL!!! ♥","steam_id":76561198066726621,"connected_time":830000000000,"state":"active","ping":50},{"user_id":127,"name":"C3ratops","steam_id":76561198847054264,"connected_time":583000000000,"state":"active","ping":167},{"user_id":131,"name":"ktoś","steam_id":76561199032717840,"connected_time":521000000000,"state":"active","ping":75}]},{"server_id":123,"name":"Uncletopia | Sydney | 2 | All Maps","name_short":"syd-2","host":"syd-1.au.uncletopia.com","port":27025,"enabled":true,"region":"au","cc":"au","latitude":-33.865143,"longitude":151.2099,"reserved":0,"last_update":"0001-01-01T00:00:00Z","name_a2s":"Uncletopia | Sydney | 2 | All Maps","protocol":17,"map":"pl_barnblitz","folder":"tf","game":"Team Fortress","app_id":440,"player_count":17,"max_players":24,"Bots":0,"server_type":"Dedicated","server_os":"Linux","password":true,"vac":true,"version":"7961495","steam_id":85568392924470002,"keywords":["nocrits","nodmgspread","payload","uncletopia"],"game_id":440,"stv_port":27026,"stv_name":"Uncletopia | Sydney | 2 | All Maps | STV","players":[{"user_id":39,"name":"Cheesecake","steam_id":76561198131557622,"connected_time":398000000000,"state":"active","ping":80},{"user_id":10,"name":"lavender","steam_id":76561198081681647,"connected_time":2623000000000,"state":"active","ping":66},{"user_id":18,"name":"FascismSalad","steam_id":76561198262410973,"connected_time":1826000000000,"state":"active","ping":45},{"user_id":12,"name":"McCrab","steam_id":76561199088821963,"connected_time":2492000000000,"state":"active","ping":72},{"user_id":9,"name":"Gravitas","steam_id":76561198061391894,"connected_time":3133000000000,"state":"active","ping":91},{"user_id":45,"name":"Paper","steam_id":76561198041517737,"connected_time":50000000000,"state":"active","ping":31},{"user_id":14,"name":"Skree'kaw","steam_id":76561199415758131,"connected_time":2364000000000,"state":"active","ping":65},{"user_id":22,"name":"Amburger","steam_id":76561198348492407,"connected_time":1448000000000,"state":"active","ping":52},{"user_id":44,"name":"Goofy Guy","steam_id":76561199226306425,"connected_time":160000000000,"state":"active","ping":66},{"user_id":26,"name":"Second Lieutenant Pisser","steam_id":76561198866538028,"connected_time":1145000000000,"state":"active","ping":85},{"user_id":40,"name":"rule","steam_id":76561198045589950,"connected_time":341000000000,"state":"active","ping":59},{"user_id":31,"name":"Generic","steam_id":76561198832264022,"connected_time":749000000000,"state":"active","ping":62},{"user_id":33,"name":"throbbinWilliams","steam_id":76561198387274195,"connected_time":719000000000,"state":"active","ping":108},{"user_id":34,"name":"🦐","steam_id":76561198021502813,"connected_time":639000000000,"state":"active","ping":69},{"user_id":35,"name":"Steve","steam_id":76561198429235506,"connected_time":611000000000,"state":"active","ping":51},{"user_id":37,"name":"crab","steam_id":76561198826018059,"connected_time":533000000000,"state":"active","ping":51},{"user_id":43,"name":"Sammy","steam_id":76561199199672451,"connected_time":282000000000,"state":"active","ping":90}]},{"server_id":395,"name":"Uncletopia | Sydney | 3 | All Maps","name_short":"syd-3","host":"syd-1.au.uncletopia.com","port":27035,"enabled":true,"region":"au","cc":"au","latitude":-33.865143,"longitude":151.2099,"reserved":0,"last_update":"0001-01-01T00:00:00Z","name_a2s":"Uncletopia | Sydney | 3 | All Maps","protocol":17,"map":"pl_frontier_final","folder":"tf","game":"Team Fortress","app_id":440,"player_count":0,"max_players":24,"Bots":0,"server_type":"Dedicated","server_os":"Linux","password":true,"vac":true,"version":"7961495","steam_id":85568392925194467,"keywords":["nocrits","nodmgspread","payload","uncletopia"],"game_id":440,"stv_port":27036,"stv_name":"Uncletopia | Sydney | 3 | All Maps | STV","players":null},{"server_id":396,"name":"Uncletopia | Sydney | 4 | All Maps","name_short":"syd-4","host":"syd-1.au.uncletopia.com","port":27045,"enabled":true,"region":"au","cc":"au","latitude":-33.865143,"longitude":151.2099,"reserved":0,"last_update":"0001-01-01T00:00:00Z","name_a2s":"Uncletopia | Sydney | 4 | All Maps","protocol":17,"map":"koth_lakeside_final","folder":"tf","game":"Team Fortress","app_id":440,"player_count":0,"max_players":24,"Bots":0,"server_type":"Dedicated","server_os":"Linux","password":true,"vac":true,"version":"7961495","steam_id":85568392925397958,"keywords":["cp","nocrits","nodmgspread","uncletopia"],"game_id":440,"stv_port":27046,"stv_name":"Uncletopia | Sydney | 4 | All Maps | STV","players":null},{"server_id":58,"name":"Uncletopia | Sydney | 5 | Stopwatch","name_short":"syd-5","host":"syd-1.au.uncletopia.com","port":27055,"enabled":true,"region":"au","cc":"au","latitude":-33.865143,"longitude":151.2099,"reserved":0,"last_update":"0001-01-01T00:00:00Z","name_a2s":"Uncletopia | Sydney | 5 | Stopwatch","protocol":17,"map":"workshop/pl_vigil_rc10.ugc1266210012","folder":"tf","game":"Team Fortress","app_id":440,"player_count":0,"max_players":24,"Bots":0,"server_type":"Dedicated","server_os":"Linux","password":true,"vac":true,"version":"7961495","steam_id":85568392925397959,"keywords":["nocrits","nodmgspread","payload","uncletopia"],"game_id":440,"stv_port":27056,"stv_name":"Uncletopia | Sydney | 5 | Stopwatch | STV","players":null},{"server_id":59,"name":"Uncletopia | Sydney | 6 | Community","name_short":"syd-6","host":"syd-1.au.uncletopia.com","port":27065,"enabled":true,"region":"au","cc":"au","latitude":-33.865143,"longitude":151.2099,"reserved":0,"last_update":"0001-01-01T00:00:00Z","name_a2s":"Uncletopia | Sydney | 6 | Community","protocol":17,"map":"workshop/pl_badwater_pro_v12.ugc2142942074","folder":"tf","game":"Team Fortress","app_id":440,"player_count":0,"max_players":24,"Bots":0,"server_type":"Dedicated","server_os":"Linux","password":true,"vac":true,"version":"7961495","steam_id":85568392925397960,"keywords":["nocrits","nodmgspread","payload","uncletopia"],"game_id":440,"stv_port":27066,"stv_name":"Uncletopia | Sydney | 6 | Community | STV","players":null},{"server_id":49,"name":"Uncletopia | Warsaw | 1 | One Thousand Uncles","name_short":"waw-1","host":"waw-1.pl.uncletopia.com","port":27015,"enabled":true,"region":"eu","cc":"pl","latitude":52.2297,"longitude":21.017532,"reserved":0,"last_update":"0001-01-01T00:00:00Z","name_a2s":"Uncletopia | Warsaw | 1 | One Thousand Uncles","protocol":17,"map":"pl_barnblitz","folder":"tf","game":"Team Fortress","app_id":440,"player_count":17,"max_players":32,"Bots":16,"server_type":"Dedicated","server_os":"Linux","password":true,"vac":true,"version":"7961495","steam_id":85568392925397850,"keywords":["alltalk","bots","danepve","increased_maxplayers","nocrits","norespawntime","payload","uncletopia"],"game_id":440,"stv_port":0,"stv_name":"","players":[{"user_id":82,"name":"terminalarch","steam_id":76561199046174445,"connected_time":703000000000,"state":"active","ping":66}]},{"server_id":50,"name":"Uncletopia | Warsaw | 2 | One Thousand Uncles","name_short":"waw-2","host":"waw-1.pl.uncletopia.com","port":27025,"enabled":true,"region":"eu","cc":"pl","latitude":52.2297,"longitude":21.017532,"reserved":0,"last_update":"0001-01-01T00:00:00Z","name_a2s":"Uncletopia | Warsaw | 2 | One Thousand Uncles","protocol":17,"map":"pl_goldrush","folder":"tf","game":"Team Fortress","app_id":440,"player_count":0,"max_players":32,"Bots":0,"server_type":"Dedicated","server_os":"Linux","password":true,"vac":true,"version":"7961495","steam_id":85568392925397851,"keywords":["alltalk","danepve","increased_maxplayers","nocrits","norespawntime","payload","uncletopia"],"game_id":440,"stv_port":0,"stv_name":"","players":null},{"server_id":51,"name":"Uncletopia | Warsaw | 3 | All Maps","name_short":"waw-3","host":"waw-1.pl.uncletopia.com","port":27035,"enabled":true,"region":"eu","cc":"pl","latitude":52.2297,"longitude":21.017532,"reserved":0,"last_update":"0001-01-01T00:00:00Z","name_a2s":"Uncletopia | Warsaw | 3 | All Maps","protocol":17,"map":"plr_pipeline","folder":"tf","game":"Team Fortress","app_id":440,"player_count":0,"max_players":24,"Bots":0,"server_type":"Dedicated","server_os":"Linux","password":true,"vac":true,"version":"7961495","steam_id":85568392925397852,"keywords":["nocrits","nodmgspread","payload","uncletopia"],"game_id":440,"stv_port":27036,"stv_name":"Uncletopia | Warsaw | 3 | All Maps | STV","players":null},{"server_id":52,"name":"Uncletopia | Warsaw | 4 | All Maps","name_short":"waw-4","host":"waw-1.pl.uncletopia.com","port":27045,"enabled":true,"region":"eu","cc":"pl","latitude":52.2297,"longitude":21.017532,"reserved":0,"last_update":"0001-01-01T00:00:00Z","name_a2s":"Uncletopia | Warsaw | 4 | All Maps","protocol":17,"map":"cp_coldfront","folder":"tf","game":"Team Fortress","app_id":440,"player_count":0,"max_players":24,"Bots":0,"server_type":"Dedicated","server_os":"Linux","password":true,"vac":true,"version":"7961495","steam_id":85568392925397853,"keywords":["cp","nocrits","nodmgspread","uncletopia"],"game_id":440,"stv_port":27046,"stv_name":"Uncletopia | Warsaw | 4 | All Maps | STV","players":null},{"server_id":53,"name":"Uncletopia | Warsaw | 5 | Stopwatch","name_short":"waw-5","host":"waw-1.pl.uncletopia.com","port":27055,"enabled":true,"region":"eu","cc":"pl","latitude":52.2297,"longitude":21.017532,"reserved":0,"last_update":"0001-01-01T00:00:00Z","name_a2s":"Uncletopia | Warsaw | 5 | Stopwatch","protocol":17,"map":"workshop/koth_bagel_rc6.ugc2514036946","folder":"tf","game":"Team Fortress","app_id":440,"player_count":0,"max_players":24,"Bots":0,"server_type":"Dedicated","server_os":"Linux","password":true,"vac":true,"version":"7961495","steam_id":85568392925397854,"keywords":["cp","nocrits","nodmgspread","uncletopia"],"game_id":440,"stv_port":27056,"stv_name":"Uncletopia | Warsaw | 5 | Stopwatch | STV","players":null},{"server_id":54,"name":"Uncletopia | Warsaw | 6 | Community","name_short":"waw-6","host":"waw-1.pl.uncletopia.com","port":27065,"enabled":true,"region":"eu","cc":"pl","latitude":52.2297,"longitude":21.017532,"reserved":0,"last_update":"0001-01-01T00:00:00Z","name_a2s":"Uncletopia | Warsaw | 6 | Community","protocol":17,"map":"workshop/pl_badwater_pro_v12.ugc2142942074","folder":"tf","game":"Team Fortress","app_id":440,"player_count":0,"max_players":24,"Bots":0,"server_type":"Dedicated","server_os":"Linux","password":true,"vac":true,"version":"7961495","steam_id":85568392925397856,"keywords":["nocrits","nodmgspread","payload","uncletopia"],"game_id":440,"stv_port":27066,"stv_name":"Uncletopia | Warsaw | 6 | Community | STV","players":null}]}