{"status":true,"message":"","result":[{"server_id":9,"name":"Uncletopia | Atlanta | 1 | All Maps","name_short":"atl-1","host":"atl-1.us.uncletopia.com","port":27015,"enabled":true,"region":"us-east","cc":"us","latitude":33.753746,"longitude":-84.38633,"reserved":0,"last_update":"0001-01-01T00:00:00Z","name_a2s":"Uncletopia | Atlanta | 1 | All Maps","protocol":17,"map":"cp_sunshine","folder":"tf","game":"Team Fortress","app_id":440,"player_count":24,"max_players":24,"Bots":0,"server_type":"Dedicated","server_os":"Linux","password":true,"vac":true,"version":"7882260","steam_id":85568392924469982,"keywords":["cp","nocrits","nodmgspread","uncletopia"],"game_id":440,"stv_port":27016,"stv_name":"Uncletopia | Atlanta | 1 | All Maps | STV","players":[{"user_id":67,"name":"KBoneski ♡","steam_id":76561198307409065,"connected_time":3033000000000,"state":"active","ping":112},{"user_id":93,"name":"jay","steam_id":76561199474493516,"connected_time":949000000000,"state":"active","ping":96},{"user_id":92,"name":"Dr. Twa","steam_id":76561198295529541,"connected_time":1278000000000,"state":"active","ping":71},{"user_id":71,"name":"cola","steam_id":76561198374390458,"connected_time":3013000000000,"state":"active","ping":60},{"user_id":7,"name":"rose","steam_id":76561198048882285,"connected_time":8580000000000,"state":"active","ping":59},{"user_id":96,"name":"SharkBearGator","steam_id":76561198071233739,"connected_time":861000000000,"state":"active","ping":60},{"user_id":99,"name":"Hector Salamanca","steam_id":76561199103213955,"connected_time":788000000000,"state":"active","ping":117},{"user_id":103,"name":"The Last Aedavarian","steam_id":76561198035432250,"connected_time":260000000000,"state":"active","ping":108},{"user_id":89,"name":"Bee","steam_id":76561198074681324,"connected_time":1697000000000,"state":"active","ping":62},{"user_id":32,"name":"eish","steam_id":76561198089463603,"connected_time":7084000000000,"state":"active","ping":119},{"user_id":104,"name":"Johnny Salamandra","steam_id":76561198144469459,"connected_time":237000000000,"state":"active","ping":172},{"user_id":88,"name":"Jin","steam_id":76561198119873148,"connected_time":1874000000000,"state":"active","ping":73},{"user_id":68,"name":"Messy_","steam_id":76561199095580664,"connected_time":3030000000000,"state":"active","ping":136},{"user_id":106,"name":"Gary Budussy","steam_id":76561197969793969,"connected_time":128000000000,"state":"active","ping":70},{"user_id":69,"name":"Evenaris","steam_id":76561198087544319,"connected_time":3026000000000,"state":"active","ping":105},{"user_id":107,"name":"Salt","steam_id":76561198418001135,"connected_time":73000000000,"state":"active","ping":58},{"user_id":94,"name":"Terror","steam_id":76561198188685728,"connected_time":884000000000,"state":"active","ping":68},{"user_id":108,"name":"eredyn lft rgb","steam_id":76561198868116439,"connected_time":38000000000,"state":"active","ping":65},{"user_id":95,"name":"SLOPPY BLOWJOB DEVIL","steam_id":76561198819545533,"connected_time":881000000000,"state":"active","ping":81},{"user_id":101,"name":"Pango","steam_id":76561198069811545,"connected_time":630000000000,"state":"active","ping":45},{"user_id":105,"name":"Duckywinner","steam_id":76561198254828139,"connected_time":215000000000,"state":"active","ping":64},{"user_id":26,"name":"morphine","steam_id":76561198072124799,"connected_time":8558000000000,"state":"active","ping":83},{"user_id":53,"name":"DuckMann","steam_id":76561198197058638,"connected_time":4815000000000,"state":"active","ping":45},{"user_id":91,"name":"Save your wifi","steam_id":76561198286147372,"connected_time":1411000000000,"state":"active","ping":55}]},{"server_id":104,"name":"Uncletopia | Atlanta | 2 | All Maps","name_short":"atl-2","host":"atl-1.us.uncletopia.com","port":27025,"enabled":true,"region":"us-east","cc":"us","latitude":33.753746,"longitude":-84.38633,"reserved":0,"last_update":"0001-01-01T00:00:00Z","name_a2s":"Uncletopia | Atlanta | 2 | All Maps","protocol":17,"map":"pl_barnblitz","folder":"tf","game":"Team Fortress","app_id":440,"player_count":24,"max_players":24,"Bots":0,"server_type":"Dedicated","server_os":"Linux","password":true,"vac":true,"version":"7882260","steam_id":85568392924469983,"keywords":["nocrits","nodmgspread","payload","uncletopia"],"game_id":440,"stv_port":27026,"stv_name":"Uncletopia | Atlanta | 2 | All Maps | STV","players":[{"user_id":92,"name":"bunny girl bimbo!","steam_id":76561198122027532,"connected_time":3302000000000,"state":"active","ping":63},{"user_id":140,"name":"allenr200415","steam_id":76561198950845093,"connected_time":371000000000,"state":"active","ping":89},{"user_id":73,"name":"Q47","steam_id":76561198087128341,"connected_time":5752000000000,"state":"active","ping":128},{"user_id":90,"name":"Mr. DeLarge","steam_id":76561198336820066,"connected_time":3325000000000,"state":"active","ping":117},{"user_id":116,"name":"YASAI JUICE","steam_id":76561198131971992,"connected_time":1986000000000,"state":"active","ping":53},{"user_id":113,"name":"Sudo","steam_id":76561198123714026,"connected_time":2082000000000,"state":"active","ping":115},{"user_id":75,"name":"illious","steam_id":76561198169925494,"connected_time":5662000000000,"state":"active","ping":62},{"user_id":129,"name":"krum","steam_id":76561198158910518,"connected_time":1317000000000,"state":"active","ping":104},{"user_id":105,"name":"Big Mike","steam_id":76561198035359685,"connected_time":2856000000000,"state":"active","ping":57},{"user_id":143,"name":"bengineer","steam_id":76561198171912174,"connected_time":57000000000,"state":"active","ping":115},{"user_id":65,"name":"xFactr","steam_id":76561198129007422,"connected_time":6280000000000,"state":"active","ping":58},{"user_id":136,"name":"girthmilk","steam_id":76561198054799782,"connected_time":723000000000,"state":"active","ping":64},{"user_id":137,"name":"lazer_tazer123","steam_id":76561198136411038,"connected_time":627000000000,"state":"active","ping":91},{"user_id":111,"name":"The Horselords and Animal Gods","steam_id":76561197975094050,"connected_time":2146000000000,"state":"active","ping":104},{"user_id":91,"name":"Gugomo","steam_id":76561198121428316,"connected_time":3323000000000,"state":"active","ping":91},{"user_id":142,"name":"Pitch Stick","steam_id":76561198800287853,"connected_time":137000000000,"state":"active","ping":105},{"user_id":128,"name":"Crystal Mongoose","steam_id":76561198001585325,"connected_time":1381000000000,"state":"active","ping":50},{"user_id":144,"name":"Professionally Braindead ツ","steam_id":76561198276714220,"connected_time":56000000000,"state":"active","ping":61},{"user_id":132,"name":"Architect","steam_id":76561198015242016,"connected_time":1182000000000,"state":"active","ping":77},{"user_id":141,"name":"SadVeggie","steam_id":76561198163430099,"connected_time":351000000000,"state":"active","ping":121},{"user_id":139,"name":"supcupman","steam_id":76561198051513866,"connected_time":558000000000,"state":"active","ping":115},{"user_id":145,"name":"mister horse","steam_id":76561199004451589,"connected_time":50000000000,"state":"active","ping":66},{"user_id":123,"name":"1998 Volvo S70 T5","steam_id":76561198258615044,"connected_time":1794000000000,"state":"active","ping":79},{"user_id":146,"name":"pipis","steam_id":76561198140971525,"connected_time":45000000000,"state":"active","ping":88}]},{"server_id":400,"name":"Uncletopia | Atlanta | 3 | Community","name_short":"atl-3","host":"atl-1.us.uncletopia.com","port":27035,"enabled":true,"region":"us-east","cc":"us","latitude":33.753746,"longitude":-84.38633,"reserved":0,"last_update":"0001-01-01T00:00:00Z","name_a2s":"Uncletopia | Atlanta | 3 | Community","protocol":17,"map":"workshop/pl_divulgence_b4b.ugc2884808746","folder":"tf","game":"Team Fortress","app_id":440,"player_count":21,"max_players":24,"Bots":0,"server_type":"Dedicated","server_os":"Linux","password":true,"vac":true,"version":"7882260","steam_id":85568392924515187,"keywords":["nocrits","nodmgspread","payload","uncletopia"],"game_id":440,"stv_port":27036,"stv_name":"Uncletopia | Atlanta | 3 | Community | STV","players":[{"user_id":97,"name":"GIGAHAXX","steam_id":76561197993714726,"connected_time":788000000000,"state":"active","ping":92},{"user_id":84,"name":"ᕕ( ᐛ )ᕗ Wakko","steam_id":76561198049850471,"connected_time":1328000000000,"state":"active","ping":64},{"user_id":5,"name":"Aeonspassed","steam_id":76561198014016451,"connected_time":8531000000000,"state":"active","ping":95},{"user_id":104,"name":"Captain Zyrin","steam_id":76561197983121824,"connected_time":43000000000,"state":"spawning","ping":252},{"user_id":7,"name":"Ritzy","steam_id":76561198381955342,"connected_time":8527000000000,"state":"active","ping":139},{"user_id":99,"name":"Huey","steam_id":76561198972816386,"connected_time":644000000000,"state":"active","ping":61},{"user_id":87,"name":"exotic.luke","steam_id":76561198126466112,"connected_time":1258000000000,"state":"active","ping":66},{"user_id":85,"name":"arkona","steam_id":76561198368556572,"connected_time":1307000000000,"state":"active","ping":169},{"user_id":102,"name":"Comfy Monkey","steam_id":76561197998434936,"connected_time":260000000000,"state":"active","ping":47},{"user_id":12,"name":"Shadow WIZARD MoneyGang","steam_id":76561197986051713,"connected_time":8510000000000,"state":"active","ping":111},{"user_id":53,"name":"dog","steam_id":76561198263873491,"connected_time":5420000000000,"state":"active","ping":51},{"user_id":88,"name":"Truly Cryo","steam_id":76561198347497484,"connected_time":1256000000000,"state":"active","ping":109},{"user_id":16,"name":"Atlas","steam_id":76561198127975050,"connected_time":8498000000000,"state":"active","ping":51},{"user_id":103,"name":"IFong","steam_id":76561198047571208,"connected_time":222000000000,"state":"active","ping":92},{"user_id":77,"name":"Help! I'm Underwater!","steam_id":76561198030291655,"connected_time":1987000000000,"state":"active","ping":70},{"user_id":90,"name":"Goldensliv","steam_id":76561198161673891,"connected_time":1027000000000,"state":"active","ping":95},{"user_id":31,"name":"Sprit ♥","steam_id":76561198268780781,"connected_time":8074000000000,"state":"active","ping":59},{"user_id":21,"name":"Ostrich","steam_id":76561198068553779,"connected_time":8480000000000,"state":"active","ping":58},{"user_id":71,"name":"Kirbo","steam_id":76561199185303303,"connected_time":2651000000000,"state":"active","ping":85},{"user_id":98,"name":"Lorn The Egglayer","steam_id":76561198070830330,"connected_time":684000000000,"state":"active","ping":63},{"user_id":96,"name":"Target","steam_id":76561198113620105,"connected_time":822000000000,"state":"active","ping":68}]},{"server_id":401,"name":"Uncletopia | Atlanta | 4 | No Payload","name_short":"atl-4","host":"atl-1.us.uncletopia.com","port":27045,"enabled":true,"region":"us-east","cc":"us","latitude":33.753746,"longitude":-84.38633,"reserved":0,"last_update":"0001-01-01T00:00:00Z","name_a2s":"","protocol":0,"map":"","folder":"","game":"","app_id":0,"player_count":0,"max_players":0,"Bots":0,"server_type":"","server_os":"","password":false,"vac":false,"version":"","steam_id":0,"keywords":null,"game_id":0,"stv_port":0,"stv_name":"","players":null},{"server_id":2,"name":"Uncletopia | Chicago | 1 | All Maps","name_short":"chi-1","host":"chi-1.us.uncletopia.com","port":27015,"enabled":true,"region":"us-central","cc":"us","latitude":41.881832,"longitude":-87.62318,"reserved":0,"last_update":"0001-01-01T00:00:00Z","name_a2s":"Uncletopia | Chicago | 1 | All Maps","protocol":17,"map":"pl_pier","folder":"tf","game":"Team Fortress","app_id":440,"player_count":24,"max_players":24,"Bots":0,"server_type":"Dedicated","server_os":"Linux","password":true,"vac":true,"version":"7882260","steam_id":85568392924469984,"keywords":["nocrits","nodmgspread","payload","uncletopia"],"game_id":440,"stv_port":27016,"stv_name":"Uncletopia | Chicago | 1 | All Maps | STV","players":[{"user_id":109,"name":"team foolery 2","steam_id":76561199118049168,"connected_time":953000000000,"state":"active","ping":99},{"user_id":111,"name":"Rajakz","steam_id":76561198220741160,"connected_time":606000000000,"state":"active","ping":60},{"user_id":113,"name":"-W3E- grim10465","steam_id":76561198045698581,"connected_time":467000000000,"state":"active","ping":45},{"user_id":57,"name":"Horrizan","steam_id":76561197965028480,"connected_time":6418000000000,"state":"active","ping":87},{"user_id":112,"name":"Whapper","steam_id":76561198044029606,"connected_time":512000000000,"state":"active","ping":110},{"user_id":114,"name":"Wizard Raccoon","steam_id":76561198072562591,"connected_time":458000000000,"state":"active","ping":76},{"user_id":71,"name":"Ademar","steam_id":76561199391802581,"connected_time":5731000000000,"state":"active","ping":49},{"user_id":115,"name":"Praise_to_the_Flashlight!","steam_id":76561199001728789,"connected_time":451000000000,"state":"active","ping":60},{"user_id":11,"name":"Doublebagel47","steam_id":76561198832021744,"connected_time":8575000000000,"state":"active","ping":74},{"user_id":77,"name":"Provocator","steam_id":76561197961830410,"connected_time":4925000000000,"state":"active","ping":74},{"user_id":102,"name":"Rick Yeti","steam_id":76561198025462553,"connected_time":2101000000000,"state":"active","ping":67},{"user_id":116,"name":"MaDeuce","steam_id":76561198110732835,"connected_time":384000000000,"state":"active","ping":122},{"user_id":97,"name":"Thundermonkey (SMOKE)","steam_id":76561198017631728,"connected_time":2893000000000,"state":"active","ping":63},{"user_id":117,"name":"VidzCMC","steam_id":76561198848142973,"connected_time":320000000000,"state":"active","ping":56},{"user_id":101,"name":"BackToSchoolAds","steam_id":76561198870281128,"connected_time":2707000000000,"state":"active","ping":113},{"user_id":91,"name":"eat Pant","steam_id":76561197974965536,"connected_time":4029000000000,"state":"active","ping":53},{"user_id":38,"name":"jpuzza","steam_id":76561198035535731,"connected_time":7855000000000,"state":"active","ping":74},{"user_id":105,"name":"ElectronX","steam_id":76561198116034988,"connected_time":1942000000000,"state":"active","ping":100},{"user_id":100,"name":"The_Pacific_gamer","steam_id":76561198089491446,"connected_time":2784000000000,"state":"active","ping":100},{"user_id":110,"name":"Astoriae!","steam_id":76561199090168858,"connected_time":895000000000,"state":"active","ping":85},{"user_id":118,"name":"OUTER DEAD POOL","steam_id":76561198394197414,"connected_time":318000000000,"state":"active","ping":86},{"user_id":82,"name":"donatello ツ","steam_id":76561198091157081,"connected_time":4474000000000,"state":"active","ping":60},{"user_id":119,"name":"Shystie","steam_id":76561198025371440,"connected_time":278000000000,"state":"active","ping":76},{"user_id":120,"name":"ᴿᴺᴳ Grimvibes","steam_id":76561198065621941,"connected_time":273000000000,"state":"active","ping":99}]},{"server_id":106,"name":"Uncletopia | Chicago | 2 | All Maps","name_short":"chi-2","host":"chi-1.us.uncletopia.com","port":27025,"enabled":true,"region":"us-central","cc":"us","latitude":41.881832,"longitude":-87.62318,"reserved":0,"last_update":"0001-01-01T00:00:00Z","name_a2s":"Uncletopia | Chicago | 2 | All Maps","protocol":17,"map":"pl_upward","folder":"tf","game":"Team Fortress","app_id":440,"player_count":24,"max_players":24,"Bots":0,"server_type":"Dedicated","server_os":"Linux","password":true,"vac":true,"version":"7882260","steam_id":85568392924469985,"keywords":["nocrits","nodmgspread","payload","uncletopia"],"game_id":440,"stv_port":27026,"stv_name":"Uncletopia | Chicago | 2 | All Maps | STV","players":[{"user_id":3,"name":"TheGhostThatWas","steam_id":76561198055836483,"connected_time":8580000000000,"state":"active","ping":60},{"user_id":130,"name":"Greenie","steam_id":76561198081998064,"connected_time":498000000000,"state":"active","ping":72},{"user_id":100,"name":"Chhaam","steam_id":76561198058508132,"connected_time":3573000000000,"state":"active","ping":59},{"user_id":142,"name":"tighty walter whities","steam_id":76561199122915452,"connected_time":141000000000,"state":"active","ping":104},{"user_id":125,"name":"A Puppy","steam_id":76561198828184456,"connected_time":1050000000000,"state":"active","ping":59},{"user_id":124,"name":"Jango","steam_id":76561198084589742,"connected_time":1128000000000,"state":"active","ping":76},{"user_id":126,"name":"Bomb pearl harbour again","steam_id":76561198330105602,"connected_time":929000000000,"state":"active","ping":103},{"user_id":131,"name":"Giggles™","steam_id":76561198058708019,"connected_time":487000000000,"state":"active","ping":54},{"user_id":91,"name":"mai","steam_id":76561198117237068,"connected_time":4331000000000,"state":"active","ping":75},{"user_id":127,"name":"raya","steam_id":76561198051504581,"connected_time":843000000000,"state":"active","ping":75},{"user_id":132,"name":"Sarbanes-Oxley","steam_id":76561197975898479,"connected_time":404000000000,"state":"active","ping":73},{"user_id":134,"name":"Ann Ziegler (No Sound)","steam_id":76561198052249401,"connected_time":268000000000,"state":"active","ping":46},{"user_id":92,"name":"TheXenoKing","steam_id":76561198127424141,"connected_time":4330000000000,"state":"active","ping":98},{"user_id":135,"name":"Minermarcus7","steam_id":76561199099397537,"connected_time":267000000000,"state":"active","ping":71},{"user_id":136,"name":"TheRealJoeRogan","steam_id":76561198283860203,"connected_time":258000000000,"state":"active","ping":96},{"user_id":115,"name":"Poacher","steam_id":76561198867626964,"connected_time":2003000000000,"state":"active","ping":111},{"user_id":137,"name":"Ryan","steam_id":76561198046600383,"connected_time":252000000000,"state":"active","ping":91},{"user_id":113,"name":"frank","steam_id":76561198137777483,"connected_time":2669000000000,"state":"active","ping":65},{"user_id":140,"name":"ParzavalTheFirst","steam_id":76561198832046269,"connected_time":182000000000,"state":"active","ping":84},{"user_id":141,"name":"Dunkle","steam_id":76561198041903573,"connected_time":170000000000,"state":"active","ping":92},{"user_id":103,"name":"Tan_Rat","steam_id":76561198313629344,"connected_time":3546000000000,"state":"active","ping":90},{"user_id":120,"name":"mos","steam_id":76561197995777973,"connected_time":1810000000000,"state":"active","ping":71},{"user_id":117,"name":"I'mWillow","steam_id":76561198229691912,"connected_time":1906000000000,"state":"active","ping":61},{"user_id":105,"name":"orangesuit1","steam_id":76561199020443017,"connected_time":3527000000000,"state":"active","ping":117}]},{"server_id":402,"name":"Uncletopia | Chicago | 3 | All Maps","name_short":"chi-3","host":"chi-1.us.uncletopia.com","port":27035,"enabled":true,"region":"us-central","cc":"us","latitude":41.881832,"longitude":-87.62318,"reserved":0,"last_update":"0001-01-01T00:00:00Z","name_a2s":"Uncletopia | Chicago | 3 | All Maps","protocol":17,"map":"cp_dustbowl","folder":"tf","game":"Team Fortress","app_id":440,"player_count":18,"max_players":24,"Bots":0,"server_type":"Dedicated","server_os":"Linux","password":true,"vac":true,"version":"7882260","steam_id":85568392924515191,"keywords":["cp","nocrits","nodmgspread","uncletopia"],"game_id":440,"stv_port":27036,"stv_name":"Uncletopia | Chicago | 3 | All Maps | STV","players":[{"user_id":93,"name":"A Can of Arizona Green Tea","steam_id":76561198062481133,"connected_time":3910000000000,"state":"active","ping":79},{"user_id":150,"name":"God (horny)","steam_id":76561198131089513,"connected_time":942000000000,"state":"active","ping":46},{"user_id":158,"name":"Spud","steam_id":76561197998053634,"connected_time":30000000000,"state":"active","ping":53},{"user_id":143,"name":"Daithi de Nogla","steam_id":76561198391995981,"connected_time":1494000000000,"state":"active","ping":69},{"user_id":159,"name":"mcjuice","steam_id":76561198087730829,"connected_time":8000000000,"state":"active","ping":100},{"user_id":144,"name":"Marion Moseby","steam_id":76561198052477319,"connected_time":1485000000000,"state":"active","ping":48},{"user_id":130,"name":"Ryan (B4L)","steam_id":76561198049800876,"connected_time":1762000000000,"state":"active","ping":75},{"user_id":156,"name":"Buckethead","steam_id":76561198210181296,"connected_time":303000000000,"state":"active","ping":101},{"user_id":43,"name":"seldom","steam_id":76561198166193756,"connected_time":6957000000000,"state":"active","ping":48},{"user_id":151,"name":"Felwo3","steam_id":76561199217352978,"connected_time":706000000000,"state":"active","ping":184},{"user_id":134,"name":"Skeleton Dad","steam_id":76561198021489595,"connected_time":1719000000000,"state":"active","ping":79},{"user_id":155,"name":"Ypuoi","steam_id":76561198170203261,"connected_time":336000000000,"state":"active","ping":114},{"user_id":135,"name":"Styx","steam_id":76561198158334494,"connected_time":1704000000000,"state":"active","ping":46},{"user_id":121,"name":"♥ L U N A R ♥","steam_id":76561199010112750,"connected_time":2766000000000,"state":"active","ping":47},{"user_id":116,"name":"blunderly","steam_id":76561198131915334,"connected_time":2965000000000,"state":"active","ping":65},{"user_id":136,"name":"captainskullet","steam_id":76561198314597170,"connected_time":1704000000000,"state":"active","ping":64},{"user_id":120,"name":"Enron Hubbard","steam_id":76561198012951411,"connected_time":2794000000000,"state":"active","ping":53},{"user_id":146,"name":"MoonWolf","steam_id":76561198095735033,"connected_time":1387000000000,"state":"active","ping":71}]},{"server_id":403,"name":"Uncletopia | Chicago | 4 | All Maps","name_short":"chi-4","host":"chi-1.us.uncletopia.com","port":27045,"enabled":true,"region":"us-central","cc":"us","latitude":41.881832,"longitude":-87.62318,"reserved":0,"last_update":"0001-01-01T00:00:00Z","name_a2s":"Uncletopia | Chicago | 4 | All Maps","protocol":17,"map":"cp_process_final","folder":"tf","game":"Team Fortress","app_id":440,"player_count":24,"max_players":24,"Bots":0,"server_type":"Dedicated","server_os":"Linux","password":true,"vac":true,"version":"7882260","steam_id":85568392924515193,"keywords":["cp","nocrits","nodmgspread","uncletopia"],"game_id":440,"stv_port":27046,"stv_name":"Uncletopia | Chicago | 4 | All Maps | STV","players":[{"user_id":92,"name":"looloopaa","steam_id":76561198048179242,"connected_time":5100000000000,"state":"active","ping":58},{"user_id":135,"name":"Maxxycat","steam_id":76561198194062681,"connected_time":2116000000000,"state":"active","ping":55},{"user_id":157,"name":"pieman435","steam_id":76561198843735612,"connected_time":409000000000,"state":"active","ping":90},{"user_id":152,"name":"「Mage」","steam_id":76561198150620467,"connected_time":597000000000,"state":"active","ping":56},{"user_id":161,"name":"Bojo Kojo","steam_id":76561198141703138,"connected_time":281000000000,"state":"active","ping":98},{"user_id":154,"name":"nim chimps","steam_id":76561198012093637,"connected_time":492000000000,"state":"active","ping":71},{"user_id":138,"name":"MeAmJosh","steam_id":76561198064983436,"connected_time":1103000000000,"state":"active","ping":84},{"user_id":108,"name":"wack","steam_id":76561198095697330,"connected_time":3794000000000,"state":"active","ping":76},{"user_id":144,"name":"Dinner","steam_id":76561198067294811,"connected_time":1015000000000,"state":"active","ping":68},{"user_id":162,"name":"Goober","steam_id":76561198988863807,"connected_time":233000000000,"state":"active","ping":78},{"user_id":116,"name":"Battery Acid Slurper","steam_id":76561198439793697,"connected_time":3281000000000,"state":"active","ping":75},{"user_id":58,"name":"feliser","steam_id":76561198084336096,"connected_time":6176000000000,"state":"active","ping":56},{"user_id":156,"name":"engiqueer69","steam_id":76561199153261850,"connected_time":437000000000,"state":"active","ping":105},{"user_id":160,"name":"thundah! LFT snipe S15","steam_id":76561199159928133,"connected_time":307000000000,"state":"active","ping":70},{"user_id":140,"name":"meisNate","steam_id":76561198215261695,"connected_time":1046000000000,"state":"active","ping":128},{"user_id":118,"name":"top 10 thug shakes","steam_id":76561199100342013,"connected_time":3266000000000,"state":"active","ping":92},{"user_id":93,"name":"Lord TriM","steam_id":76561198048332533,"connected_time":5091000000000,"state":"active","ping":58},{"user_id":37,"name":"turtis cai","steam_id":76561198038825302,"connected_time":7831000000000,"state":"active","ping":69},{"user_id":141,"name":"gonk","steam_id":76561198061206732,"connected_time":1043000000000,"state":"active","ping":74},{"user_id":163,"name":"Pongallow","steam_id":76561198146876078,"connected_time":223000000000,"state":"active","ping":45},{"user_id":147,"name":"Pizza the Hut","steam_id":76561197970450546,"connected_time":897000000000,"state":"active","ping":116},{"user_id":166,"name":"NovusOrdoDux","steam_id":76561198271936289,"connected_time":31000000000,"state":"active","ping":133},{"user_id":158,"name":"Karrman","steam_id":76561198859737700,"connected_time":407000000000,"state":"active","ping":79},{"user_id":165,"name":"Euroclydon","steam_id":76561198279006965,"connected_time":149000000000,"state":"active","ping":59}]},{"server_id":36,"name":"Uncletopia | Chicago | 5 | All Maps","name_short":"chi-5","host":"chi-2.us.uncletopia.com","port":27015,"enabled":true,"region":"us-central","cc":"us","latitude":41.881832,"longitude":-87.62318,"reserved":0,"last_update":"0001-01-01T00:00:00Z","name_a2s":"Uncletopia | Chicago | 5 | All Maps","protocol":17,"map":"cp_sunshine","folder":"tf","game":"Team Fortress","app_id":440,"player_count":24,"max_players":24,"Bots":0,"server_type":"Dedicated","server_os":"Linux","password":true,"vac":true,"version":"7882260","steam_id":85568392924866362,"keywords":["cp","nocrits","nodmgspread","uncletopia"],"game_id":440,"stv_port":27016,"stv_name":"Uncletopia | Chicago | 5 | All Maps | STV","players":[{"user_id":52,"name":"Ringo x Seiran","steam_id":76561198357437908,"connected_time":5683000000000,"state":"active","ping":61},{"user_id":50,"name":"`o2","steam_id":76561197992030936,"connected_time":6606000000000,"state":"active","ping":68},{"user_id":78,"name":"Meat Mans Meat","steam_id":76561198062149455,"connected_time":2934000000000,"state":"active","ping":68},{"user_id":96,"name":"-=|FYG|=- Mr. Generous","steam_id":76561198047350765,"connected_time":942000000000,"state":"active","ping":50},{"user_id":88,"name":"Where The F**K I Am?","steam_id":76561197986530028,"connected_time":1978000000000,"state":"active","ping":110},{"user_id":76,"name":"Howoriginal","steam_id":76561197993701184,"connected_time":2949000000000,"state":"active","ping":54},{"user_id":108,"name":"CheeseCake488","steam_id":76561199407617942,"connected_time":169000000000,"state":"active","ping":158},{"user_id":91,"name":"๖ۣۜTavi","steam_id":76561198088228946,"connected_time":1606000000000,"state":"active","ping":157},{"user_id":109,"name":"dave.","steam_id":76561198112350449,"connected_time":108000000000,"state":"active","ping":70},{"user_id":98,"name":"chilis baby back ribs","steam_id":76561198813516435,"connected_time":916000000000,"state":"active","ping":94},{"user_id":107,"name":"friendly on uncletopia","steam_id":76561198064194222,"connected_time":294000000000,"state":"active","ping":61},{"user_id":87,"name":"Gildedire","steam_id":76561198063959574,"connected_time":2006000000000,"state":"active","ping":75},{"user_id":110,"name":"{FITH}™ Cairell","steam_id":76561198029319793,"connected_time":95000000000,"state":"active","ping":92},{"user_id":71,"name":"Long of Neck","steam_id":76561198038997485,"connected_time":3913000000000,"state":"active","ping":70},{"user_id":79,"name":"Centipede on a Game Boy","steam_id":76561199016285746,"connected_time":2921000000000,"state":"active","ping":84},{"user_id":82,"name":"Talvisota","steam_id":76561199190574223,"connected_time":2779000000000,"state":"active","ping":68},{"user_id":40,"name":"The Mayo Man","steam_id":76561197995377425,"connected_time":7824000000000,"state":"active","ping":72},{"user_id":92,"name":"nemaxilb :3","steam_id":76561199074875663,"connected_time":1311000000000,"state":"active","ping":78},{"user_id":61,"name":"1TheExterminator","steam_id":76561198972879727,"connected_time":5424000000000,"state":"active","ping":87},{"user_id":81,"name":"chiswola","steam_id":76561198046920142,"connected_time":2907000000000,"state":"active","ping":85},{"user_id":101,"name":"ThugSlug","steam_id":76561198086098047,"connected_time":781000000000,"state":"active","ping":78},{"user_id":111,"name":"soupy","steam_id":76561197974283797,"connected_time":93000000000,"state":"active","ping":42},{"user_id":75,"name":"Person","steam_id":76561198093244204,"connected_time":2958000000000,"state":"active","ping":72},{"user_id":113,"name":"Anax Alter","steam_id":76561198110249546,"connected_time":64000000000,"state":"spawning","ping":98}]},{"server_id":37,"name":"Uncletopia | Chicago | 6 | All Maps","name_short":"chi-6","host":"chi-2.us.uncletopia.com","port":27025,"enabled":true,"region":"us-central","cc":"us","latitude":41.881832,"longitude":-87.62318,"reserved":0,"last_update":"0001-01-01T00:00:00Z","name_a2s":"Uncletopia | Chicago | 6 | All Maps","protocol":17,"map":"pl_upward","folder":"tf","game":"Team Fortress","app_id":440,"player_count":24,"max_players":24,"Bots":0,"server_type":"Dedicated","server_os":"Linux","password":true,"vac":true,"version":"7882260","steam_id":85568392924866363,"keywords":["nocrits","nodmgspread","payload","uncletopia"],"game_id":440,"stv_port":27026,"stv_name":"Uncletopia | Chicago | 6 | All Maps | STV","players":[{"user_id":109,"name":"Krog","steam_id":76561198871105696,"connected_time":2203000000000,"state":"active","ping":59},{"user_id":107,"name":"papi Chulo","steam_id":76561198126274984,"connected_time":2809000000000,"state":"active","ping":116},{"user_id":114,"name":"ZestyNoodle","steam_id":76561198322634321,"connected_time":1478000000000,"state":"active","ping":99},{"user_id":120,"name":"Kaaru","steam_id":76561199210711711,"connected_time":1085000000000,"state":"active","ping":158},{"user_id":116,"name":"Goose","steam_id":76561198954362046,"connected_time":1439000000000,"state":"active","ping":88},{"user_id":125,"name":"gromit","steam_id":76561198037746805,"connected_time":426000000000,"state":"active","ping":74},{"user_id":124,"name":"bot_tracer","steam_id":76561199034131978,"connected_time":597000000000,"state":"active","ping":158},{"user_id":126,"name":"lytewerk","steam_id":76561198002819791,"connected_time":391000000000,"state":"active","ping":82},{"user_id":106,"name":"tools","steam_id":76561199010542612,"connected_time":2872000000000,"state":"active","ping":48},{"user_id":121,"name":"Muhloik","steam_id":76561198026155588,"connected_time":1054000000000,"state":"active","ping":62},{"user_id":110,"name":"40elephants","steam_id":76561198057574904,"connected_time":2199000000000,"state":"active","ping":83},{"user_id":130,"name":"the dueling man","steam_id":76561198174589878,"connected_time":249000000000,"state":"active","ping":99},{"user_id":98,"name":"Daehypeels","steam_id":76561198268981599,"connected_time":3932000000000,"state":"active","ping":65},{"user_id":112,"name":"Average Caber Fan","steam_id":76561199451299044,"connected_time":2135000000000,"state":"active","ping":81},{"user_id":97,"name":"OldManHan (タオ)","steam_id":76561198095104288,"connected_time":3964000000000,"state":"active","ping":50},{"user_id":128,"name":"Artic_Ryuu","steam_id":76561198182194918,"connected_time":347000000000,"state":"active","ping":91},{"user_id":93,"name":"Apricot","steam_id":76561198355699935,"connected_time":4177000000000,"state":"active","ping":67},{"user_id":79,"name":"Frank.","steam_id":76561198225910596,"connected_time":4691000000000,"state":"active","ping":59},{"user_id":119,"name":"Theforcemothafukadousenseit","steam_id":76561198241213104,"connected_time":1350000000000,"state":"active","ping":119},{"user_id":111,"name":"Milk Apprentice Marmaduke","steam_id":76561198236512294,"connected_time":2169000000000,"state":"active","ping":73},{"user_id":129,"name":"germ !!!","steam_id":76561198064526459,"connected_time":340000000000,"state":"active","ping":104},{"user_id":96,"name":"8bean","steam_id":76561198239138132,"connected_time":4134000000000,"state":"active","ping":75},{"user_id":122,"name":"Ðalia","steam_id":76561198135518210,"connected_time":1027000000000,"state":"active","ping":108},{"user_id":105,"name":"CFGU || RAWRWAFL","steam_id":76561198032118386,"connected_time":3110000000000,"state":"active","ping":95}]},{"server_id":38,"name":"Uncletopia | Chicago | 7 | Stopwatch Beta","name_short":"chi-7","host":"chi-2.us.uncletopia.com","port":27035,"enabled":true,"region":"us-central","cc":"us","latitude":41.881832,"longitude":-87.62318,"reserved":0,"last_update":"0001-01-01T00:00:00Z","name_a2s":"Uncletopia | Chicago | 7 | Stopwatch Beta","protocol":17,"map":"pl_upward","folder":"tf","game":"Team Fortress","app_id":440,"player_count":0,"max_players":24,"Bots":0,"server_type":"Dedicated","server_os":"Linux","password":true,"vac":true,"version":"7882260","steam_id":85568392924866364,"keywords":["nocrits","nodmgspread","payload","uncletopia"],"game_id":440,"stv_port":27036,"stv_name":"Uncletopia | Chicago | 7 | Stopwatch Beta | STV","players":null},{"server_id":39,"name":"Uncletopia | Chicago | 8 | Community","name_short":"chi-8","host":"chi-2.us.uncletopia.com","port":27045,"enabled":true,"region":"us-central","cc":"us","latitude":41.881832,"longitude":-87.62318,"reserved":0,"last_update":"0001-01-01T00:00:00Z","name_a2s":"Uncletopia | Chicago | 8 | Community","protocol":17,"map":"workshop/gg_dust2_dmvm.ugc2942103642","folder":"tf","game":"Team Fortress","app_id":440,"player_count":0,"max_players":24,"Bots":0,"server_type":"Dedicated","server_os":"Linux","password":true,"vac":true,"version":"7882260","steam_id":85568392924866365,"keywords":["friendlyfire","nocrits","nodmgspread","norespawntime","uncletopia"],"game_id":440,"stv_port":27046,"stv_name":"Uncletopia | Chicago | 8 | Community | STV","players":null},{"server_id":8,"name":"Uncletopia | Dallas | 1 | All Maps","name_short":"dal-1","host":"dal-1.us.uncletopia.com","port":27015,"enabled":true,"region":"us-central","cc":"us","latitude":32.779167,"longitude":-96.80889,"reserved":0,"last_update":"0001-01-01T00:00:00Z","name_a2s":"Uncletopia | Dallas | 1 | All Maps","protocol":17,"map":"pl_upward","folder":"tf","game":"Team Fortress","app_id":440,"player_count":24,"max_players":24,"Bots":0,"server_type":"Dedicated","server_os":"Linux","password":true,"vac":true,"version":"7882260","steam_id":85568392924469986,"keywords":["nocrits","nodmgspread","payload","uncletopia"],"game_id":440,"stv_port":27016,"stv_name":"Uncletopia | Dallas | 1 | All Maps | STV","players":[{"user_id":103,"name":"golia","steam_id":76561198000264266,"connected_time":2195000000000,"state":"active","ping":89},{"user_id":109,"name":"Fargo","steam_id":76561198044703931,"connected_time":883000000000,"state":"active","ping":66},{"user_id":108,"name":"Dr. Wario","steam_id":76561198901238861,"connected_time":1183000000000,"state":"active","ping":73},{"user_id":119,"name":"white woman","steam_id":76561199116679777,"connected_time":225000000000,"state":"active","ping":78},{"user_id":120,"name":"Slug Warrior","steam_id":76561197996052704,"connected_time":207000000000,"state":"active","ping":88},{"user_id":92,"name":"Bubba Bass","steam_id":76561198026767327,"connected_time":2660000000000,"state":"active","ping":52},{"user_id":10,"name":"Pizza","steam_id":76561198118748364,"connected_time":8475000000000,"state":"active","ping":81},{"user_id":110,"name":"Fluff","steam_id":76561198255399052,"connected_time":821000000000,"state":"active","ping":45},{"user_id":111,"name":"Tree45","steam_id":76561198143698408,"connected_time":813000000000,"state":"active","ping":90},{"user_id":94,"name":"Jezzus","steam_id":76561199289676387,"connected_time":2617000000000,"state":"active","ping":62},{"user_id":104,"name":"Malachi [NGC|ST]","steam_id":76561197995129935,"connected_time":2187000000000,"state":"active","ping":90},{"user_id":112,"name":"Medicated","steam_id":76561198028100394,"connected_time":788000000000,"state":"active","ping":76},{"user_id":96,"name":"Manchurian Bandit","steam_id":76561198072410042,"connected_time":2614000000000,"state":"active","ping":85},{"user_id":85,"name":"NOT Susie Deltarune (not real)","steam_id":76561199007365488,"connected_time":3413000000000,"state":"active","ping":72},{"user_id":113,"name":"A Silent One","steam_id":76561198239009910,"connected_time":688000000000,"state":"active","ping":62},{"user_id":55,"name":"Faefanger","steam_id":76561198201871002,"connected_time":6670000000000,"state":"active","ping":112},{"user_id":84,"name":"PlugFromBehind","steam_id":76561198143283800,"connected_time":3537000000000,"state":"active","ping":49},{"user_id":45,"name":"Grimm","steam_id":76561199242664677,"connected_time":6949000000000,"state":"active","ping":58},{"user_id":98,"name":"Nibareaux","steam_id":76561198322044169,"connected_time":2571000000000,"state":"active","ping":60},{"user_id":114,"name":"Can You Feel It Mr.Krabs","steam_id":76561198128302414,"connected_time":686000000000,"state":"active","ping":67},{"user_id":81,"name":"Ace_Steele23","steam_id":76561198086867678,"connected_time":4160000000000,"state":"active","ping":70},{"user_id":116,"name":"TrOgDoR o==[]:::::::::::\u003e ^.=.^","steam_id":76561198041079607,"connected_time":612000000000,"state":"active","ping":71},{"user_id":122,"name":"ky jelly packing","steam_id":76561198240906222,"connected_time":198000000000,"state":"active","ping":107},{"user_id":33,"name":"Makina","steam_id":76561198057475567,"connected_time":8020000000000,"state":"active","ping":96}]},{"server_id":108,"name":"Uncletopia | Dallas | 2 | All Maps","name_short":"dal-2","host":"dal-1.us.uncletopia.com","port":27025,"enabled":true,"region":"us-central","cc":"us","latitude":32.779167,"longitude":-96.80889,"reserved":0,"last_update":"0001-01-01T00:00:00Z","name_a2s":"Uncletopia | Dallas | 2 | All Maps","protocol":17,"map":"pl_pier","folder":"tf","game":"Team Fortress","app_id":440,"player_count":24,"max_players":24,"Bots":0,"server_type":"Dedicated","server_os":"Linux","password":true,"vac":true,"version":"7882260","steam_id":85568392924469988,"keywords":["nocrits","nodmgspread","payload","uncletopia"],"game_id":440,"stv_port":27026,"stv_name":"Uncletopia | Dallas | 2 | All Maps | STV","players":[{"user_id":130,"name":"Acolyte of Goatse","steam_id":76561198046526036,"connected_time":509000000000,"state":"active","ping":78},{"user_id":131,"name":"cactus eater","steam_id":76561199107499844,"connected_time":485000000000,"state":"active","ping":91},{"user_id":144,"name":"DragonHunter994","steam_id":76561199076203907,"connected_time":2000000000,"state":"spawning","ping":463},{"user_id":133,"name":"Amar Asja Bosnia","steam_id":76561198321321928,"connected_time":456000000000,"state":"active","ping":43},{"user_id":126,"name":"Emberdened","steam_id":76561199163688421,"connected_time":1040000000000,"state":"active","ping":73},{"user_id":105,"name":"IonizedAtom","steam_id":76561198381463568,"connected_time":1970000000000,"state":"active","ping":95},{"user_id":134,"name":"the man","steam_id":76561199103120314,"connected_time":453000000000,"state":"active","ping":86},{"user_id":106,"name":"Sticky","steam_id":76561198031581547,"connected_time":1965000000000,"state":"active","ping":69},{"user_id":11,"name":"shitass (Fat Tits arc)","steam_id":76561198210572481,"connected_time":8502000000000,"state":"active","ping":60},{"user_id":142,"name":"Sporp","steam_id":76561197987957133,"connected_time":180000000000,"state":"active","ping":96},{"user_id":135,"name":"reptar","steam_id":76561198070164185,"connected_time":379000000000,"state":"active","ping":65},{"user_id":136,"name":"Kasimir","steam_id":76561198013840333,"connected_time":341000000000,"state":"active","ping":57},{"user_id":128,"name":"Pyromaniac","steam_id":76561198101042701,"connected_time":900000000000,"state":"active","ping":48},{"user_id":90,"name":"hppd","steam_id":76561199001918194,"connected_time":3060000000000,"state":"active","ping":95},{"user_id":116,"name":"hihohe","steam_id":76561197987823936,"connected_time":1556000000000,"state":"active","ping":95},{"user_id":129,"name":"leopardo123atl","steam_id":76561198872648238,"connected_time":740000000000,"state":"active","ping":77},{"user_id":125,"name":"Grape Sauce","steam_id":76561198140136651,"connected_time":1153000000000,"state":"active","ping":74},{"user_id":118,"name":"Dua Ligma","steam_id":76561198329087915,"connected_time":1541000000000,"state":"active","ping":80},{"user_id":141,"name":"Grounder","steam_id":76561198085158268,"connected_time":204000000000,"state":"active","ping":62},{"user_id":123,"name":"Specter the Unchained","steam_id":76561198348354629,"connected_time":1303000000000,"state":"active","ping":96},{"user_id":138,"name":"Lezabel","steam_id":76561198970753261,"connected_time":339000000000,"state":"active","ping":75},{"user_id":110,"name":"Just_Bland","steam_id":76561198403482191,"connected_time":1816000000000,"state":"active","ping":86},{"user_id":140,"name":"sex (real)","steam_id":76561198396414319,"connected_time":251000000000,"state":"active","ping":97},{"user_id":122,"name":"clopherite","steam_id":76561198860351700,"connected_time":1345000000000,"state":"active","ping":65}]},{"server_id":5,"name":"Uncletopia | Frankfurt | 1 | All Maps","name_short":"frk-1","host":"frk-1.de.uncletopia.com","port":27015,"enabled":true,"region":"eu","cc":"de","latitude":50.110924,"longitude":8.682127,"reserved":0,"last_update":"0001-01-01T00:00:00Z","name_a2s":"Uncletopia | Frankfurt | 1 | All Maps","protocol":17,"map":"pl_snowycoast","folder":"tf","game":"Team Fortress","app_id":440,"player_count":0,"max_players":24,"Bots":0,"server_type":"Dedicated","server_os":"Linux","password":true,"vac":true,"version":"7882260","steam_id":85568392924469989,"keywords":["nocrits","nodmgspread","payload","uncletopia"],"game_id":440,"stv_port":27016,"stv_name":"Uncletopia | Frankfurt | 1 | All Maps | STV","players":null},{"server_id":110,"name":"Uncletopia | Frankfurt | 2 | All Maps","name_short":"frk-2","host":"frk-1.de.uncletopia.com","port":27025,"enabled":true,"region":"eu","cc":"de","latitude":50.110924,"longitude":8.682127,"reserved":0,"last_update":"0001-01-01T00:00:00Z","name_a2s":"Uncletopia | Frankfurt | 2 | All Maps","protocol":17,"map":"pl_upward","folder":"tf","game":"Team Fortress","app_id":440,"player_count":0,"max_players":24,"Bots":0,"server_type":"Dedicated","server_os":"Linux","password":true,"vac":true,"version":"7882260","steam_id":85568392924469990,"keywords":["nocrits","nodmgspread","payload","uncletopia"],"game_id":440,"stv_port":27026,"stv_name":"Uncletopia | Frankfurt | 2 | All Maps | STV","players":null},{"server_id":308,"name":"Uncletopia | Frankfurt | 3 | All Maps","name_short":"frk-3","host":"frk-1.de.uncletopia.com","port":27035,"enabled":true,"region":"eu","cc":"de","latitude":50.110924,"longitude":8.682127,"reserved":0,"last_update":"0001-01-01T00:00:00Z","name_a2s":"Uncletopia | Frankfurt | 3 | All Maps","protocol":17,"map":"cp_process_final","folder":"tf","game":"Team Fortress","app_id":440,"player_count":0,"max_players":24,"Bots":0,"server_type":"Dedicated","server_os":"Linux","password":true,"vac":true,"version":"7882260","steam_id":85568392924504274,"keywords":["cp","nocrits","nodmgspread","uncletopia"],"game_id":440,"stv_port":27036,"stv_name":"Uncletopia | Frankfurt | 3 | All Maps | STV","players":null},{"server_id":309,"name":"Uncletopia | Frankfurt | 4 | All Maps","name_short":"frk-4","host":"frk-1.de.uncletopia.com","port":27045,"enabled":true,"region":"eu","cc":"de","latitude":50.110924,"longitude":8.682127,"reserved":0,"last_update":"0001-01-01T00:00:00Z","name_a2s":"Uncletopia | Frankfurt | 4 | All Maps","protocol":17,"map":"pl_swiftwater_final1","folder":"tf","game":"Team Fortress","app_id":440,"player_count":0,"max_players":24,"Bots":0,"server_type":"Dedicated","server_os":"Linux","password":true,"vac":true,"version":"7882260","steam_id":85568392924504275,"keywords":["nocrits","nodmgspread","payload","uncletopia"],"game_id":440,"stv_port":27046,"stv_name":"Uncletopia | Frankfurt | 4 | All Maps | STV","players":null},{"server_id":310,"name":"Uncletopia | Frankfurt | 5 | All Maps","name_short":"frk-5","host":"frk-1.de.uncletopia.com","port":27055,"enabled":true,"region":"eu","cc":"de","latitude":50.110924,"longitude":8.682127,"reserved":0,"last_update":"0001-01-01T00:00:00Z","name_a2s":"Uncletopia | Frankfurt | 5 | All Maps","protocol":17,"map":"pl_borneo","folder":"tf","game":"Team Fortress","app_id":440,"player_count":0,"max_players":24,"Bots":0,"server_type":"Dedicated","server_os":"Linux","password":true,"vac":true,"version":"7882260","steam_id":85568392924504277,"keywords":["nocrits","nodmgspread","payload","uncletopia"],"game_id":440,"stv_port":27056,"stv_name":"Uncletopia | Frankfurt | 5 | All Maps | STV","players":null},{"server_id":311,"name":"Uncletopia | Frankfurt | 6 | All Maps","name_short":"frk-6","host":"frk-1.de.uncletopia.com","port":27065,"enabled":true,"region":"eu","cc":"de","latitude":50.110924,"longitude":8.682127,"reserved":0,"last_update":"0001-01-01T00:00:00Z","name_a2s":"Uncletopia | Frankfurt | 6 | All Maps","protocol":17,"map":"pl_swiftwater_final1","folder":"tf","game":"Team Fortress","app_id":440,"player_count":0,"max_players":24,"Bots":0,"server_type":"Dedicated","server_os":"Linux","password":true,"vac":true,"version":"7882260","steam_id":85568392924504278,"keywords":["nocrits","nodmgspread","payload","uncletopia"],"game_id":440,"stv_port":27066,"stv_name":"Uncletopia | Frankfurt | 6 | All Maps | STV","players":null},{"server_id":23,"name":"Uncletopia | Frankfurt | 7 | Stopwatch Beta","name_short":"frk-7","host":"frk-1.de.uncletopia.com","port":27075,"enabled":true,"region":"eu","cc":"de","latitude":50.110924,"longitude":8.682127,"reserved":0,"last_update":"0001-01-01T00:00:00Z","name_a2s":"Uncletopia | Frankfurt | 7 | Stopwatch Beta","protocol":17,"map":"workshop/koth_bagel_rc6.ugc2514036946","folder":"tf","game":"Team Fortress","app_id":440,"player_count":0,"max_players":24,"Bots":0,"server_type":"Dedicated","server_os":"Linux","password":true,"vac":true,"version":"7882260","steam_id":85568392924742827,"keywords":["cp","nocrits","nodmgspread","uncletopia"],"game_id":440,"stv_port":27076,"stv_name":"Uncletopia | Frankfurt | 7 | Stopwatch Beta | STV","players":null},{"server_id":24,"name":"Uncletopia | Frankfurt | 8 | Community","name_short":"frk-8","host":"frk-1.de.uncletopia.com","port":27085,"enabled":true,"region":"eu","cc":"de","latitude":50.110924,"longitude":8.682127,"reserved":0,"last_update":"0001-01-01T00:00:00Z","name_a2s":"Uncletopia | Frankfurt | 8 | Community","protocol":17,"map":"cp_mountainlab","folder":"tf","game":"Team Fortress","app_id":440,"player_count":0,"max_players":24,"Bots":0,"server_type":"Dedicated","server_os":"Linux","password":true,"vac":true,"version":"7882260","steam_id":85568392924742828,"keywords":["cp","nocrits","nodmgspread","uncletopia"],"game_id":440,"stv_port":27086,"stv_name":"Uncletopia | Frankfurt | 8 | Community | STV","players":null},{"server_id":202,"name":"Uncletopia | Hong Kong | 1 | All Maps","name_short":"hgk-1","host":"hgk-1.hk.uncletopia.com","port":27015,"enabled":true,"region":"asia","cc":"hk","latitude":22.302711,"longitude":114.177216,"reserved":0,"last_update":"0001-01-01T00:00:00Z","name_a2s":"Uncletopia | Hong Kong | 1 | All Maps","protocol":17,"map":"koth_highpass","folder":"tf","game":"Team Fortress","app_id":440,"player_count":0,"max_players":24,"Bots":0,"server_type":"Dedicated","server_os":"Linux","password":true,"vac":true,"version":"7882260","steam_id":85568392924494504,"keywords":["cp","nocrits","nodmgspread","uncletopia"],"game_id":440,"stv_port":27016,"stv_name":"Uncletopia | Hong Kong | 1 | All Maps | STV","players":null},{"server_id":1,"name":"Uncletopia | Los Angeles | 1 | All Maps","name_short":"lax-1","host":"lax-1.us.uncletopia.com","port":27015,"enabled":true,"region":"us-west","cc":"us","latitude":33.94279,"longitude":-118.41004,"reserved":0,"last_update":"0001-01-01T00:00:00Z","name_a2s":"Uncletopia | Los Angeles | 1 | All Maps","protocol":17,"map":"pl_badwater","folder":"tf","game":"Team Fortress","app_id":440,"player_count":25,"max_players":24,"Bots":0,"server_type":"Dedicated","server_os":"Linux","password":true,"vac":true,"version":"7882260","steam_id":85568392924469991,"keywords":["nocrits","nodmgspread","payload","uncletopia"],"game_id":440,"stv_port":27016,"stv_name":"Uncletopia | Los Angeles | 1 | All Maps | STV","players":[{"user_id":189,"name":"Dr. Bubs","steam_id":76561198011696595,"connected_time":844000000000,"state":"active","ping":56},{"user_id":104,"name":"matt_rolltide","steam_id":76561198796727164,"connected_time":2974000000000,"state":"active","ping":32},{"user_id":178,"name":"Frosted Lighted Ornament","steam_id":76561197971250619,"connected_time":1238000000000,"state":"active","ping":60},{"user_id":65,"name":"Bagoool","steam_id":76561198065368286,"connected_time":5638000000000,"state":"active","ping":99},{"user_id":102,"name":"Big Richard","steam_id":76561199369569135,"connected_time":3387000000000,"state":"active","ping":64},{"user_id":106,"name":"Fly Like A Bird","steam_id":76561199384861214,"connected_time":2896000000000,"state":"active","ping":89},{"user_id":98,"name":"BUSY","steam_id":76561198047532250,"connected_time":4083000000000,"state":"active","ping":85},{"user_id":205,"name":"so close","steam_id":76561198289696924,"connected_time":529000000000,"state":"active","ping":45},{"user_id":108,"name":"EleventhGoose","steam_id":76561198912390211,"connected_time":2856000000000,"state":"active","ping":65},{"user_id":109,"name":"Grungus","steam_id":76561198047700230,"connected_time":2799000000000,"state":"active","ping":55},{"user_id":110,"name":"Mr. FancyNarwhal","steam_id":76561198056125837,"connected_time":2754000000000,"state":"active","ping":97},{"user_id":112,"name":"diggyhazard","steam_id":76561198206506481,"connected_time":2644000000000,"state":"active","ping":52},{"user_id":68,"name":"lite","steam_id":76561198041535914,"connected_time":5627000000000,"state":"active","ping":101},{"user_id":113,"name":"flo rida","steam_id":76561198226169704,"connected_time":2625000000000,"state":"active","ping":56},{"user_id":114,"name":"big car","steam_id":76561198067082350,"connected_time":2613000000000,"state":"active","ping":58},{"user_id":115,"name":"Aspa","steam_id":76561199048815630,"connected_time":2610000000000,"state":"active","ping":95},{"user_id":191,"name":"porksoda","steam_id":76561198021451377,"connected_time":805000000000,"state":"active","ping":77},{"user_id":116,"name":"Fonzee","steam_id":76561198056524236,"connected_time":2598000000000,"state":"active","ping":61},{"user_id":119,"name":"Laxoloni","steam_id":76561199197045700,"connected_time":2570000000000,"state":"active","ping":82},{"user_id":100,"name":"Sammy!","steam_id":76561198184171743,"connected_time":3957000000000,"state":"active","ping":65},{"user_id":198,"name":"luigiclub","steam_id":76561198180548194,"connected_time":657000000000,"state":"active","ping":74},{"user_id":118,"name":"Koishi","steam_id":76561198054541054,"connected_time":2577000000000,"state":"active","ping":91},{"user_id":93,"name":"Cookie","steam_id":76561199096182392,"connected_time":4207000000000,"state":"active","ping":107},{"user_id":120,"name":"femmescout","steam_id":76561198250928638,"connected_time":2492000000000,"state":"active","ping":47},{"user_id":246,"name":"confused","steam_id":76561199391930993,"connected_time":10000000000,"state":"spawning","ping":438}]},{"server_id":112,"name":"Uncletopia | Los Angeles | 2 | All Maps","name_short":"lax-2","host":"lax-1.us.uncletopia.com","port":27025,"enabled":true,"region":"us-west","cc":"us","latitude":33.94279,"longitude":-118.41004,"reserved":0,"last_update":"0001-01-01T00:00:00Z","name_a2s":"Uncletopia | Los Angeles | 2 | All Maps","protocol":17,"map":"cp_yukon_final","folder":"tf","game":"Team Fortress","app_id":440,"player_count":24,"max_players":24,"Bots":0,"server_type":"Dedicated","server_os":"Linux","password":true,"vac":true,"version":"7882260","steam_id":85568392924469992,"keywords":["cp","nocrits","nodmgspread","uncletopia"],"game_id":440,"stv_port":27026,"stv_name":"Uncletopia | Los Angeles | 2 | All Maps | STV","players":[{"user_id":114,"name":"Squatter1","steam_id":76561198078987734,"connected_time":1203000000000,"state":"active","ping":76},{"user_id":92,"name":"FROYO b4nny","steam_id":76561197970669109,"connected_time":2288000000000,"state":"active","ping":50},{"user_id":113,"name":"philio2010","steam_id":76561199086384636,"connected_time":1217000000000,"state":"active","ping":62},{"user_id":117,"name":"The Assistant Regional Manager","steam_id":76561199221484936,"connected_time":1187000000000,"state":"active","ping":60},{"user_id":140,"name":"Proto","steam_id":76561198218129193,"connected_time":597000000000,"state":"active","ping":83},{"user_id":128,"name":"Jovi Boy","steam_id":76561198046605691,"connected_time":1000000000000,"state":"active","ping":60},{"user_id":118,"name":"Aztea","steam_id":76561198982089893,"connected_time":1185000000000,"state":"active","ping":85},{"user_id":143,"name":"smeasly","steam_id":76561198028718812,"connected_time":167000000000,"state":"active","ping":75},{"user_id":121,"name":"MR DADDY","steam_id":76561198350794663,"connected_time":1127000000000,"state":"active","ping":97},{"user_id":122,"name":"RaTtYc","steam_id":76561198954419354,"connected_time":1104000000000,"state":"active","ping":92},{"user_id":98,"name":"oil","steam_id":76561198099980149,"connected_time":2214000000000,"state":"active","ping":47},{"user_id":145,"name":"pyrotechnic","steam_id":76561198043558709,"connected_time":63000000000,"state":"active","ping":63},{"user_id":142,"name":"Drakon","steam_id":76561198078210822,"connected_time":571000000000,"state":"active","ping":63},{"user_id":123,"name":"jorts","steam_id":76561199041179985,"connected_time":1094000000000,"state":"active","ping":78},{"user_id":67,"name":"Bullwinkle J. Moose","steam_id":76561198075977196,"connected_time":3880000000000,"state":"active","ping":88},{"user_id":141,"name":"An00bis","steam_id":76561198044084508,"connected_time":592000000000,"state":"active","ping":55},{"user_id":126,"name":"Dambranlui16","steam_id":76561198984729069,"connected_time":1046000000000,"state":"active","ping":110},{"user_id":144,"name":"drum chord","steam_id":76561198363821364,"connected_time":74000000000,"state":"active","ping":45},{"user_id":100,"name":"juju","steam_id":76561199473801131,"connected_time":2206000000000,"state":"active","ping":107},{"user_id":139,"name":"Schnitz","steam_id":76561198265484253,"connected_time":618000000000,"state":"active","ping":57},{"user_id":137,"name":"roryisonamobilehotspot","steam_id":76561198065825165,"connected_time":707000000000,"state":"active","ping":110},{"user_id":133,"name":"swaglord1738420litty","steam_id":76561198062870880,"connected_time":921000000000,"state":"active","ping":59},{"user_id":134,"name":"Teanna Trump","steam_id":76561198059476610,"connected_time":920000000000,"state":"active","ping":106},{"user_id":138,"name":"idk how to aim with this","steam_id":76561198301598124,"connected_time":696000000000,"state":"active","ping":98}]},{"server_id":324,"name":"Uncletopia | Los Angeles | 3 | All Maps","name_short":"lax-3","host":"lax-1.us.uncletopia.com","port":27035,"enabled":true,"region":"us-west","cc":"us","latitude":33.94279,"longitude":-118.41004,"reserved":0,"last_update":"0001-01-01T00:00:00Z","name_a2s":"Uncletopia | Los Angeles | 3 | All Maps","protocol":17,"map":"cp_process_final","folder":"tf","game":"Team Fortress","app_id":440,"player_count":24,"max_players":24,"Bots":0,"server_type":"Dedicated","server_os":"Linux","password":true,"vac":true,"version":"7882260","steam_id":85568392924510198,"keywords":["cp","nocrits","nodmgspread","uncletopia"],"game_id":440,"stv_port":27036,"stv_name":"Uncletopia | Los Angeles | 3 | All Maps | STV","players":[{"user_id":57,"name":"CreativeUsername","steam_id":76561198186045503,"connected_time":1284000000000,"state":"active","ping":101},{"user_id":65,"name":"Nez","steam_id":76561197963109059,"connected_time":287000000000,"state":"active","ping":67},{"user_id":42,"name":"pencil champion","steam_id":76561198871758639,"connected_time":2262000000000,"state":"active","ping":129},{"user_id":67,"name":"NotThatGuyPal","steam_id":76561199127607812,"connected_time":251000000000,"state":"active","ping":104},{"user_id":64,"name":"Rich Homie Rob","steam_id":76561198046570914,"connected_time":401000000000,"state":"active","ping":56},{"user_id":12,"name":"dairy delinquent","steam_id":76561198971552734,"connected_time":3637000000000,"state":"active","ping":41},{"user_id":13,"name":"beeble!","steam_id":76561198219538525,"connected_time":3575000000000,"state":"active","ping":92},{"user_id":44,"name":"Joe Biden","steam_id":76561198238699798,"connected_time":2166000000000,"state":"active","ping":64},{"user_id":49,"name":"Scoober","steam_id":76561199157558586,"connected_time":2063000000000,"state":"active","ping":110},{"user_id":16,"name":"twitch.tv/rightclickprick","steam_id":76561199474825993,"connected_time":3482000000000,"state":"active","ping":94},{"user_id":58,"name":"Sidekick","steam_id":76561198392740835,"connected_time":715000000000,"state":"active","ping":73},{"user_id":62,"name":"bigman1","steam_id":76561198050225055,"connected_time":491000000000,"state":"active","ping":49},{"user_id":29,"name":"Perri002","steam_id":76561199227901389,"connected_time":3218000000000,"state":"active","ping":59},{"user_id":69,"name":"[S]Mr. X [No Monitor]","steam_id":76561197963746035,"connected_time":16000000000,"state":"spawning","ping":111},{"user_id":56,"name":"Zobozo","steam_id":76561198028954297,"connected_time":1358000000000,"state":"active","ping":45},{"user_id":50,"name":"Cheeseburglar","steam_id":76561198880267007,"connected_time":2061000000000,"state":"active","ping":56},{"user_id":47,"name":"Pickle","steam_id":76561199238364591,"connected_time":2142000000000,"state":"active","ping":109},{"user_id":54,"name":"Grug","steam_id":76561198069031652,"connected_time":1536000000000,"state":"active","ping":65},{"user_id":60,"name":"Geisha Larper","steam_id":76561199407580843,"connected_time":501000000000,"state":"active","ping":66},{"user_id":27,"name":"R1verz","steam_id":76561198056087178,"connected_time":3233000000000,"state":"active","ping":84},{"user_id":59,"name":"Tuba","steam_id":76561198209166329,"connected_time":518000000000,"state":"active","ping":70},{"user_id":68,"name":"Ichibanprofen","steam_id":76561199192132061,"connected_time":122000000000,"state":"active","ping":61},{"user_id":63,"name":"i cant aim","steam_id":76561198065873462,"connected_time":484000000000,"state":"active","ping":44},{"user_id":66,"name":"doobie the hutt","steam_id":76561198088873640,"connected_time":284000000000,"state":"active","ping":79}]},{"server_id":25,"name":"Uncletopia | Los Angeles | 4 | Stopwatch Beta","name_short":"lax-4","host":"lax-1.us.uncletopia.com","port":27045,"enabled":true,"region":"us-west","cc":"us","latitude":33.94279,"longitude":-118.41004,"reserved":0,"last_update":"0001-01-01T00:00:00Z","name_a2s":"Uncletopia | Los Angeles | 4 | Stopwatch Beta","protocol":17,"map":"koth_viaduct","folder":"tf","game":"Team Fortress","app_id":440,"player_count":0,"max_players":24,"Bots":0,"server_type":"Dedicated","server_os":"Linux","password":true,"vac":true,"version":"7882260","steam_id":85568392924510199,"keywords":["cp","nocrits","nodmgspread","uncletopia"],"game_id":440,"stv_port":27046,"stv_name":"Uncletopia | Los Angeles | 4 | Stopwatch Beta | STV","players":null},{"server_id":11,"name":"Uncletopia | London | 1 | All Maps","name_short":"lon-1","host":"lon-1.uk.uncletopia.com","port":27015,"enabled":true,"region":"eu","cc":"gb","latitude":51.509865,"longitude":-0.118092,"reserved":0,"last_update":"0001-01-01T00:00:00Z","name_a2s":"Uncletopia | London | 1 | All Maps","protocol":17,"map":"pl_pier","folder":"tf","game":"Team Fortress","app_id":440,"player_count":24,"max_players":24,"Bots":0,"server_type":"Dedicated","server_os":"Linux","password":true,"vac":true,"version":"7882260","steam_id":85568392924367362,"keywords":["nocrits","nodmgspread","payload","uncletopia"],"game_id":440,"stv_port":27016,"stv_name":"Uncletopia | London | 1 | All Maps | STV","players":[{"user_id":3,"name":"игла","steam_id":76561198120760515,"connected_time":7620000000000,"state":"active","ping":93},{"user_id":123,"name":"Young Cat","steam_id":76561198157369919,"connected_time":125000000000,"state":"active","ping":98},{"user_id":120,"name":"jonbob","steam_id":76561197963506620,"connected_time":379000000000,"state":"active","ping":64},{"user_id":98,"name":"Zlyron","steam_id":76561198951447833,"connected_time":2572000000000,"state":"active","ping":92},{"user_id":118,"name":"Live gave me lemons.","steam_id":76561199101935057,"connected_time":550000000000,"state":"active","ping":102},{"user_id":88,"name":"Wesker's plaything","steam_id":76561198040230078,"connected_time":3213000000000,"state":"active","ping":98},{"user_id":79,"name":"Snoogs","steam_id":76561198444880931,"connected_time":3583000000000,"state":"active","ping":125},{"user_id":105,"name":"Slartibartfast","steam_id":76561198884268528,"connected_time":2094000000000,"state":"active","ping":46},{"user_id":46,"name":"Acbh","steam_id":76561198158271672,"connected_time":5835000000000,"state":"active","ping":74},{"user_id":40,"name":"CumbustiblePunda","steam_id":76561197974274677,"connected_time":6380000000000,"state":"active","ping":59},{"user_id":115,"name":"Lazuli","steam_id":76561198058636964,"connected_time":1169000000000,"state":"active","ping":45},{"user_id":119,"name":"SoupER","steam_id":76561198063056668,"connected_time":509000000000,"state":"active","ping":46},{"user_id":99,"name":"CalThePal","steam_id":76561198084842126,"connected_time":2567000000000,"state":"active","ping":45},{"user_id":95,"name":"dcg","steam_id":76561198009345349,"connected_time":2796000000000,"state":"active","ping":58},{"user_id":100,"name":"minn","steam_id":76561198099101232,"connected_time":2549000000000,"state":"active","ping":57},{"user_id":122,"name":"7th Pain bayi monyet","steam_id":76561198057780531,"connected_time":145000000000,"state":"active","ping":61},{"user_id":102,"name":"A Spicy Meat Bicycle","steam_id":76561198358757709,"connected_time":2381000000000,"state":"active","ping":160},{"user_id":110,"name":"Winter","steam_id":76561198134805479,"connected_time":1941000000000,"state":"active","ping":54},{"user_id":114,"name":"ted","steam_id":76561198119568042,"connected_time":1278000000000,"state":"active","ping":61},{"user_id":85,"name":"sSolle","steam_id":76561198085269924,"connected_time":3378000000000,"state":"active","ping":73},{"user_id":104,"name":"SirDirtbag","steam_id":76561198091890855,"connected_time":2295000000000,"state":"active","ping":81},{"user_id":113,"name":"snowycoast","steam_id":76561198346638308,"connected_time":1522000000000,"state":"active","ping":60},{"user_id":94,"name":"Munshy","steam_id":76561198042537812,"connected_time":2862000000000,"state":"active","ping":61},{"user_id":116,"name":"✧ Ghosty ✧","steam_id":76561198312022168,"connected_time":1107000000000,"state":"active","ping":55}]},{"server_id":114,"name":"Uncletopia | London | 2 | All Maps","name_short":"lon-2","host":"lon-1.uk.uncletopia.com","port":27025,"enabled":true,"region":"eu","cc":"gb","latitude":51.509865,"longitude":-0.118092,"reserved":0,"last_update":"0001-01-01T00:00:00Z","name_a2s":"Uncletopia | London | 2 | All Maps","protocol":17,"map":"koth_highpass","folder":"tf","game":"Team Fortress","app_id":440,"player_count":0,"max_players":24,"Bots":0,"server_type":"Dedicated","server_os":"Linux","password":true,"vac":true,"version":"7882260","steam_id":85568392924470941,"keywords":["cp","nocrits","nodmgspread","uncletopia"],"game_id":440,"stv_port":27026,"stv_name":"Uncletopia | London | 2 | All Maps | STV","players":null},{"server_id":320,"name":"Uncletopia | London | 3 | All Maps","name_short":"lon-3","host":"lon-1.uk.uncletopia.com","port":27035,"enabled":true,"region":"eu","cc":"gb","latitude":51.509865,"longitude":-0.118092,"reserved":0,"last_update":"0001-01-01T00:00:00Z","name_a2s":"Uncletopia | London | 3 | All Maps","protocol":17,"map":"pl_upward","folder":"tf","game":"Team Fortress","app_id":440,"player_count":0,"max_players":24,"Bots":0,"server_type":"Dedicated","server_os":"Linux","password":true,"vac":true,"version":"7882260","steam_id":85568392924510192,"keywords":["nocrits","nodmgspread","payload","uncletopia"],"game_id":440,"stv_port":27036,"stv_name":"Uncletopia | London | 3 | All Maps | STV","players":null},{"server_id":321,"name":"Uncletopia | London | 4 | All Maps","name_short":"lon-4","host":"lon-1.uk.uncletopia.com","port":27045,"enabled":true,"region":"eu","cc":"gb","latitude":51.509865,"longitude":-0.118092,"reserved":0,"last_update":"0001-01-01T00:00:00Z","name_a2s":"Uncletopia | London | 4 | All Maps","protocol":17,"map":"cp_dustbowl","folder":"tf","game":"Team Fortress","app_id":440,"player_count":0,"max_players":24,"Bots":0,"server_type":"Dedicated","server_os":"Linux","password":true,"vac":true,"version":"7882260","steam_id":85568392924510193,"keywords":["cp","nocrits","nodmgspread","uncletopia"],"game_id":440,"stv_port":27046,"stv_name":"Uncletopia | London | 4 | All Maps | STV","players":null},{"server_id":21,"name":"Uncletopia | London | 5 | All Maps","name_short":"lon-5","host":"lon-1.uk.uncletopia.com","port":27055,"enabled":true,"region":"eu","cc":"gb","latitude":51.509865,"longitude":-0.118092,"reserved":0,"last_update":"0001-01-01T00:00:00Z","name_a2s":"Uncletopia | London | 5 | All Maps","protocol":17,"map":"koth_viaduct","folder":"tf","game":"Team Fortress","app_id":440,"player_count":0,"max_players":24,"Bots":0,"server_type":"Dedicated","server_os":"Linux","password":true,"vac":true,"version":"7882260","steam_id":85568392924742829,"keywords":["cp","nocrits","nodmgspread","uncletopia"],"game_id":440,"stv_port":27056,"stv_name":"Uncletopia | London | 5 | All Maps | STV","players":null},{"server_id":22,"name":"Uncletopia | London | 6 | All Maps","name_short":"lon-6","host":"lon-1.uk.uncletopia.com","port":27065,"enabled":true,"region":"eu","cc":"gb","latitude":51.509865,"longitude":-0.118092,"reserved":0,"last_update":"0001-01-01T00:00:00Z","name_a2s":"Uncletopia | London | 6 | All Maps","protocol":17,"map":"koth_lakeside_final","folder":"tf","game":"Team Fortress","app_id":440,"player_count":0,"max_players":24,"Bots":0,"server_type":"Dedicated","server_os":"Linux","password":true,"vac":true,"version":"7882260","steam_id":85568392924742830,"keywords":["cp","nocrits","nodmgspread","uncletopia"],"game_id":440,"stv_port":27066,"stv_name":"Uncletopia | London | 6 | All Maps | STV","players":null},{"server_id":40,"name":"Uncletopia | London | 7 | No Payload","name_short":"lon-7","host":"lon-1.uk.uncletopia.com","port":27075,"enabled":true,"region":"eu","cc":"gb","latitude":51.509865,"longitude":-0.118092,"reserved":0,"last_update":"0001-01-01T00:00:00Z","name_a2s":"Uncletopia | London | 7 | No Payload","protocol":17,"map":"pl_upward","folder":"tf","game":"Team Fortress","app_id":440,"player_count":0,"max_players":24,"Bots":0,"server_type":"Dedicated","server_os":"Linux","password":true,"vac":true,"version":"7882260","steam_id":85568392924964314,"keywords":["nocrits","nodmgspread","payload","uncletopia"],"game_id":440,"stv_port":27076,"stv_name":"Uncletopia | London | 7 | No Payload | STV","players":null},{"server_id":41,"name":"Uncletopia | London | 8 | Community","name_short":"lon-8","host":"lon-1.uk.uncletopia.com","port":27085,"enabled":true,"region":"eu","cc":"gb","latitude":51.509865,"longitude":-0.118092,"reserved":0,"last_update":"0001-01-01T00:00:00Z","name_a2s":"Uncletopia | London | 8 | Community","protocol":17,"map":"pl_upward","folder":"tf","game":"Team Fortress","app_id":440,"player_count":0,"max_players":24,"Bots":0,"server_type":"Dedicated","server_os":"Linux","password":true,"vac":true,"version":"7882260","steam_id":85568392924964315,"keywords":["nocrits","nodmgspread","payload","uncletopia"],"game_id":440,"stv_port":27086,"stv_name":"Uncletopia | London | 8 | Community | STV","players":null},{"server_id":300,"name":"Uncletopia | Montréal | 1 | All Maps","name_short":"mtl-1","host":"mtl-1.ca.uncletopia.com","port":27015,"enabled":true,"region":"us-east","cc":"ca","latitude":45.50889,"longitude":-73.56167,"reserved":0,"last_update":"0001-01-01T00:00:00Z","name_a2s":"Uncletopia | Montréal | 1 | All Maps","protocol":17,"map":"cp_dustbowl","folder":"tf","game":"Team Fortress","app_id":440,"player_count":0,"max_players":24,"Bots":0,"server_type":"Dedicated","server_os":"Linux","password":true,"vac":true,"version":"7882260","steam_id":85568392924500087,"keywords":["cp","nocrits","nodmgspread","uncletopia"],"game_id":440,"stv_port":27016,"stv_name":"Uncletopia | Montréal | 1 | All Maps | STV","players":null},{"server_id":301,"name":"Uncletopia | Montréal | 2 | All Maps","name_short":"mtl-2","host":"mtl-1.ca.uncletopia.com","port":27025,"enabled":true,"region":"us-east","cc":"ca","latitude":45.50889,"longitude":-73.56167,"reserved":0,"last_update":"0001-01-01T00:00:00Z","name_a2s":"Uncletopia | Montréal | 2 | All Maps","protocol":17,"map":"koth_highpass","folder":"tf","game":"Team Fortress","app_id":440,"player_count":0,"max_players":24,"Bots":0,"server_type":"Dedicated","server_os":"Linux","password":true,"vac":true,"version":"7882260","steam_id":85568392924500088,"keywords":["cp","nocrits","nodmgspread","uncletopia"],"game_id":440,"stv_port":27026,"stv_name":"Uncletopia | Montréal | 2 | All Maps | STV","players":null},{"server_id":302,"name":"Uncletopia | Montréal | 3 | All Maps","name_short":"mtl-3","host":"mtl-1.ca.uncletopia.com","port":27035,"enabled":true,"region":"us-east","cc":"ca","latitude":45.50889,"longitude":-73.56167,"reserved":0,"last_update":"0001-01-01T00:00:00Z","name_a2s":"Uncletopia | Montréal | 3 | All Maps","protocol":17,"map":"koth_highpass","folder":"tf","game":"Team Fortress","app_id":440,"player_count":0,"max_players":24,"Bots":0,"server_type":"Dedicated","server_os":"Linux","password":true,"vac":true,"version":"7882260","steam_id":85568392924500089,"keywords":["cp","nocrits","nodmgspread","uncletopia"],"game_id":440,"stv_port":27036,"stv_name":"Uncletopia | Montréal | 3 | All Maps | STV","players":null},{"server_id":303,"name":"Uncletopia | Montréal | 4 | No Payload","name_short":"mtl-4","host":"mtl-1.ca.uncletopia.com","port":27045,"enabled":true,"region":"us-east","cc":"ca","latitude":45.50889,"longitude":-73.56167,"reserved":0,"last_update":"0001-01-01T00:00:00Z","name_a2s":"Uncletopia | Montréal | 4 | No Payload","protocol":17,"map":"koth_highpass","folder":"tf","game":"Team Fortress","app_id":440,"player_count":0,"max_players":24,"Bots":0,"server_type":"Dedicated","server_os":"Linux","password":true,"vac":true,"version":"7882260","steam_id":85568392924500090,"keywords":["cp","nocrits","nodmgspread","uncletopia"],"game_id":440,"stv_port":27046,"stv_name":"Uncletopia | Montréal | 4 | No Payload | STV","players":null},{"server_id":13,"name":"Uncletopia | New York City | 1 | All Maps","name_short":"nyc-1","host":"nyc-1.us.uncletopia.com","port":27015,"enabled":true,"region":"us-east","cc":"us","latitude":40.73061,"longitude":-73.93524,"reserved":0,"last_update":"0001-01-01T00:00:00Z","name_a2s":"Uncletopia | New York City | 1 | All Maps","protocol":17,"map":"pl_badwater","folder":"tf","game":"Team Fortress","app_id":440,"player_count":24,"max_players":24,"Bots":0,"server_type":"Dedicated","server_os":"Linux","password":true,"vac":true,"version":"7882260","steam_id":85568392924469993,"keywords":["nocrits","nodmgspread","payload","uncletopia"],"game_id":440,"stv_port":27016,"stv_name":"Uncletopia | New York City | 1 | All Maps | STV","players":[{"user_id":84,"name":"Uzi bin Laden","steam_id":76561198218811453,"connected_time":3936000000000,"state":"active","ping":55},{"user_id":116,"name":"Smooky","steam_id":76561198191435451,"connected_time":2092000000000,"state":"active","ping":85},{"user_id":132,"name":"tesa","steam_id":76561198154546773,"connected_time":1119000000000,"state":"active","ping":81},{"user_id":126,"name":"Herdez Hot Salsa","steam_id":76561197991740906,"connected_time":1511000000000,"state":"active","ping":70},{"user_id":114,"name":"wise","steam_id":76561198030066204,"connected_time":2211000000000,"state":"active","ping":38},{"user_id":113,"name":"Ukes","steam_id":76561198055508999,"connected_time":2324000000000,"state":"active","ping":66},{"user_id":120,"name":"Chilidestroy","steam_id":76561199101551797,"connected_time":1972000000000,"state":"active","ping":81},{"user_id":138,"name":"Phillip Jeffries","steam_id":76561198064052174,"connected_time":366000000000,"state":"active","ping":56},{"user_id":142,"name":"pipepeepi","steam_id":76561198845905873,"connected_time":186000000000,"state":"active","ping":60},{"user_id":140,"name":"playguy carter","steam_id":76561198080679337,"connected_time":336000000000,"state":"active","ping":62},{"user_id":135,"name":"agentdaffy007","steam_id":76561198000283251,"connected_time":833000000000,"state":"active","ping":58},{"user_id":129,"name":"blekk","steam_id":76561198000082101,"connected_time":1477000000000,"state":"active","ping":85},{"user_id":107,"name":"RA","steam_id":76561198066700048,"connected_time":2646000000000,"state":"active","ping":71},{"user_id":112,"name":"Master John Thursday","steam_id":76561197987593154,"connected_time":2426000000000,"state":"active","ping":83},{"user_id":130,"name":"Dr. Pleasant","steam_id":76561198111945101,"connected_time":1429000000000,"state":"active","ping":84},{"user_id":72,"name":"Voodo133","steam_id":76561198042670351,"connected_time":5617000000000,"state":"active","ping":80},{"user_id":136,"name":"Vladikr1","steam_id":76561198401495362,"connected_time":549000000000,"state":"active","ping":80},{"user_id":141,"name":"echo","steam_id":76561199411724732,"connected_time":333000000000,"state":"active","ping":40},{"user_id":122,"name":"trappy (washed)","steam_id":76561198402801140,"connected_time":1806000000000,"state":"active","ping":78},{"user_id":123,"name":"Fraudulent Tuna","steam_id":76561197972268728,"connected_time":1730000000000,"state":"active","ping":64},{"user_id":134,"name":"Female Gamer","steam_id":76561199366482682,"connected_time":1043000000000,"state":"active","ping":130},{"user_id":137,"name":"drdoofus123","steam_id":76561198016826181,"connected_time":542000000000,"state":"active","ping":66},{"user_id":143,"name":"Virtual Zorua","steam_id":76561198196180302,"connected_time":29000000000,"state":"active","ping":66},{"user_id":121,"name":"Periculosum PhD in Funny","steam_id":76561198123370914,"connected_time":1955000000000,"state":"active","ping":87}]},{"server_id":14,"name":"Uncletopia | New York City | 2 | All Maps","name_short":"nyc-2","host":"nyc-1.us.uncletopia.com","port":27025,"enabled":true,"region":"us-east","cc":"us","latitude":40.73061,"longitude":-73.93524,"reserved":0,"last_update":"0001-01-01T00:00:00Z","name_a2s":"Uncletopia | New York City | 2 | All Maps","protocol":17,"map":"cp_dustbowl","folder":"tf","game":"Team Fortress","app_id":440,"player_count":23,"max_players":24,"Bots":0,"server_type":"Dedicated","server_os":"Linux","password":true,"vac":true,"version":"7882260","steam_id":85568392924469994,"keywords":["cp","nocrits","nodmgspread","uncletopia"],"game_id":440,"stv_port":27026,"stv_name":"Uncletopia | New York City | 2 | All Maps | STV","players":[{"user_id":99,"name":"crayonnipple","steam_id":76561198070253331,"connected_time":2624000000000,"state":"active","ping":69},{"user_id":124,"name":"EverythingIsRed","steam_id":76561198000147208,"connected_time":522000000000,"state":"active","ping":63},{"user_id":6,"name":"SHADY SWEATER SALESMAN","steam_id":76561198014616865,"connected_time":8579000000000,"state":"active","ping":45},{"user_id":125,"name":"UNDERSHEETS IN-BED its:late[bro","steam_id":76561198294013916,"connected_time":522000000000,"state":"active","ping":45},{"user_id":97,"name":"Parth Makeo","steam_id":76561198002516581,"connected_time":2751000000000,"state":"active","ping":46},{"user_id":43,"name":"SoaringPhoenix","steam_id":76561198445103637,"connected_time":6363000000000,"state":"active","ping":47},{"user_id":118,"name":"Wan Shi Tong","steam_id":76561198076441225,"connected_time":994000000000,"state":"active","ping":47},{"user_id":123,"name":":/","steam_id":76561199058469259,"connected_time":590000000000,"state":"active","ping":59},{"user_id":119,"name":"Issun","steam_id":76561197979737157,"connected_time":951000000000,"state":"active","ping":131},{"user_id":122,"name":"LF listentogether?","steam_id":76561198044443985,"connected_time":667000000000,"state":"active","ping":92},{"user_id":102,"name":"ttv/lilirouxxx","steam_id":76561198000522179,"connected_time":2537000000000,"state":"active","ping":71},{"user_id":63,"name":"CheeseLikeSubstance","steam_id":76561197977170646,"connected_time":5584000000000,"state":"active","ping":61},{"user_id":126,"name":"Colin102004","steam_id":76561198202384334,"connected_time":485000000000,"state":"active","ping":40},{"user_id":114,"name":"dubspol","steam_id":76561198114845137,"connected_time":1359000000000,"state":"active","ping":66},{"user_id":127,"name":"Genuine","steam_id":76561198253471115,"connected_time":476000000000,"state":"active","ping":56},{"user_id":73,"name":"NoExit","steam_id":76561198065725996,"connected_time":4762000000000,"state":"active","ping":102},{"user_id":91,"name":"feurolant","steam_id":76561198050929765,"connected_time":3020000000000,"state":"active","ping":68},{"user_id":61,"name":"ElBentz","steam_id":76561199059582221,"connected_time":5772000000000,"state":"active","ping":111},{"user_id":92,"name":"BooceMaster","steam_id":76561198148520318,"connected_time":3002000000000,"state":"active","ping":56},{"user_id":67,"name":"You Don't Nomi.","steam_id":76561197969137836,"connected_time":5425000000000,"state":"active","ping":54},{"user_id":112,"name":"ashely miami","steam_id":76561197993236478,"connected_time":1587000000000,"state":"active","ping":93},{"user_id":121,"name":"Satan-2","steam_id":76561199231742764,"connected_time":924000000000,"state":"active","ping":57},{"user_id":74,"name":"P. Cubeman","steam_id":76561198082622989,"connected_time":4756000000000,"state":"active","ping":70}]},{"server_id":15,"name":"Uncletopia | New York City | 3 | Stopwatch Beta","name_short":"nyc-3","host":"nyc-1.us.uncletopia.com","port":27035,"enabled":true,"region":"us-east","cc":"us","latitude":40.73061,"longitude":-73.93524,"reserved":0,"last_update":"0001-01-01T00:00:00Z","name_a2s":"Uncletopia | New York City | 3 | Stopwatch Beta","protocol":17,"map":"workshop/koth_clearcut_b15.ugc2107050255","folder":"tf","game":"Team Fortress","app_id":440,"player_count":0,"max_players":24,"Bots":0,"server_type":"Dedicated","server_os":"Linux","password":true,"vac":true,"version":"7882260","steam_id":85568392924742820,"keywords":["cp","nocrits","nodmgspread","uncletopia"],"game_id":440,"stv_port":27036,"stv_name":"Uncletopia | New York City | 3 | Stopwatch Beta | STV","players":null},{"server_id":16,"name":"Uncletopia | New York City | 4 | Community","name_short":"nyc-4","host":"nyc-1.us.uncletopia.com","port":27045,"enabled":true,"region":"us-east","cc":"us","latitude":40.73061,"longitude":-73.93524,"reserved":0,"last_update":"0001-01-01T00:00:00Z","name_a2s":"Uncletopia | New York City | 4 | Community","protocol":17,"map":"workshop/cp_croissant_final.ugc458840209","folder":"tf","game":"Team Fortress","app_id":440,"player_count":20,"max_players":24,"Bots":0,"server_type":"Dedicated","server_os":"Linux","password":true,"vac":true,"version":"7882260","steam_id":85568392924742821,"keywords":["cp","nocrits","nodmgspread","uncletopia"],"game_id":440,"stv_port":27046,"stv_name":"Uncletopia | New York City | 4 | Community | STV","players":[{"user_id":21,"name":"Happy Yaoi Sunday","steam_id":76561198111290441,"connected_time":4969000000000,"state":"active","ping":44},{"user_id":106,"name":"President William Howard Taft","steam_id":76561198047691108,"connected_time":196000000000,"state":"active","ping":44},{"user_id":107,"name":"IKOVKY/TTV","steam_id":76561198138035040,"connected_time":185000000000,"state":"active","ping":60},{"user_id":108,"name":"ShiverShock","steam_id":76561198994768522,"connected_time":176000000000,"state":"active","ping":106},{"user_id":87,"name":"thai","steam_id":76561198052462287,"connected_time":1215000000000,"state":"active","ping":106},{"user_id":88,"name":"Viennetta","steam_id":76561198044088335,"connected_time":1170000000000,"state":"active","ping":65},{"user_id":60,"name":"🅜🅔🅔🅚🅢🅣🅔\ufffd\ufffd\ufffd","steam_id":76561197999748343,"connected_time":3214000000000,"state":"active","ping":75},{"user_id":61,"name":"Blitzy","steam_id":76561198149472890,"connected_time":3213000000000,"state":"active","ping":92},{"user_id":30,"name":"bojack from the show bojack hor","steam_id":76561198053006712,"connected_time":4674000000000,"state":"active","ping":45},{"user_id":77,"name":"JelloMotion","steam_id":76561198045892038,"connected_time":1880000000000,"state":"active","ping":60},{"user_id":96,"name":"Gruncle PUXXY's MeatyTales","steam_id":76561197995465137,"connected_time":661000000000,"state":"active","ping":78},{"user_id":110,"name":"josie","steam_id":76561198170848553,"connected_time":68000000000,"state":"active","ping":112},{"user_id":113,"name":"Wiscipline","steam_id":76561198019206178,"connected_time":13000000000,"state":"spawning","ping":179},{"user_id":100,"name":"Model CHP-3Y","steam_id":76561198107806145,"connected_time":410000000000,"state":"active","ping":64},{"user_id":52,"name":"OffKey","steam_id":76561198017660927,"connected_time":3719000000000,"state":"active","ping":56},{"user_id":69,"name":"SirKnight5067","steam_id":76561198377306047,"connected_time":2341000000000,"state":"active","ping":74},{"user_id":41,"name":"BigErnesto","steam_id":76561198249446156,"connected_time":4219000000000,"state":"active","ping":93},{"user_id":42,"name":"nukablue","steam_id":76561198215782964,"connected_time":4214000000000,"state":"active","ping":101},{"user_id":62,"name":"Olive","steam_id":76561198003474783,"connected_time":3165000000000,"state":"active","ping":80},{"user_id":76,"name":"BB Lorexav","steam_id":76561198207565988,"connected_time":1970000000000,"state":"active","ping":75}]},{"server_id":142,"name":"Uncletopia | São Paulo | 1 | All Maps","name_short":"sao-1","host":"sao-1.br.uncletopia.com","port":27015,"enabled":true,"region":"sa","cc":"br","latitude":-23.533773,"longitude":-46.62529,"reserved":0,"last_update":"0001-01-01T00:00:00Z","name_a2s":"Uncletopia | São Paulo | 1 | All Maps","protocol":17,"map":"pl_upward","folder":"tf","game":"Team Fortress","app_id":440,"player_count":0,"max_players":24,"Bots":0,"server_type":"Dedicated","server_os":"Linux","password":true,"vac":true,"version":"7882260","steam_id":85568392924469996,"keywords":["nocrits","nodmgspread","payload","uncletopia"],"game_id":440,"stv_port":27016,"stv_name":"Uncletopia | São Paulo | 1 | All Maps | STV","players":null},{"server_id":143,"name":"Uncletopia | São Paulo | 2 | All Maps","name_short":"sao-2","host":"sao-2.br.uncletopia.com","port":27015,"enabled":true,"region":"sa","cc":"br","latitude":-23.533773,"longitude":-46.62529,"reserved":0,"last_update":"0001-01-01T00:00:00Z","name_a2s":"Uncletopia | São Paulo | 2 | All Maps","protocol":17,"map":"koth_lakeside_final","folder":"tf","game":"Team Fortress","app_id":440,"player_count":0,"max_players":24,"Bots":0,"server_type":"Dedicated","server_os":"Linux","password":true,"vac":true,"version":"7882260","steam_id":85568392924485349,"keywords":["cp","nocrits","nodmgspread","uncletopia"],"game_id":440,"stv_port":27016,"stv_name":"Uncletopia | São Paulo | 2 | All Maps | STV","players":null},{"server_id":7,"name":"Uncletopia | Seattle | 1 | All Maps","name_short":"sea-1","host":"sea-1.us.uncletopia.com","port":27015,"enabled":true,"region":"us-west","cc":"us","latitude":47.608013,"longitude":-122.33517,"reserved":0,"last_update":"0001-01-01T00:00:00Z","name_a2s":"Uncletopia | Seattle | 1 | All Maps","protocol":17,"map":"pl_badwater","folder":"tf","game":"Team Fortress","app_id":440,"player_count":24,"max_players":24,"Bots":0,"server_type":"Dedicated","server_os":"Linux","password":true,"vac":true,"version":"7882260","steam_id":85568392924469997,"keywords":["nocrits","nodmgspread","payload","uncletopia"],"game_id":440,"stv_port":27016,"stv_name":"Uncletopia | Seattle | 1 | All Maps | STV","players":[{"user_id":3,"name":"evilOlive","steam_id":76561198106222025,"connected_time":8536000000000,"state":"active","ping":76},{"user_id":94,"name":"Shochu Fiend","steam_id":76561198055193376,"connected_time":0,"state":"spawning","ping":33},{"user_id":41,"name":"Sweatpants","steam_id":76561198097188001,"connected_time":7328000000000,"state":"active","ping":41},{"user_id":64,"name":"soup","steam_id":76561198043209046,"connected_time":4585000000000,"state":"active","ping":69},{"user_id":87,"name":"FD0XY","steam_id":76561198862653083,"connected_time":324000000000,"state":"active","ping":44},{"user_id":58,"name":"SadFapping","steam_id":76561198076651049,"connected_time":5664000000000,"state":"active","ping":55},{"user_id":9,"name":"Ayayayayayahuasca","steam_id":76561199002906056,"connected_time":8529000000000,"state":"active","ping":43},{"user_id":10,"name":"Arsonist Goose","steam_id":76561198147441830,"connected_time":8528000000000,"state":"active","ping":63},{"user_id":53,"name":"General Fisticuffs","steam_id":76561198255721392,"connected_time":6754000000000,"state":"active","ping":112},{"user_id":78,"name":"spenca","steam_id":76561198025371154,"connected_time":1091000000000,"state":"active","ping":75},{"user_id":92,"name":"Skabbety","steam_id":76561198168044257,"connected_time":24000000000,"state":"active","ping":30},{"user_id":93,"name":"omg an opossum!!","steam_id":76561198010230351,"connected_time":20000000000,"state":"spawning","ping":1629},{"user_id":72,"name":"Mignyanne :3","steam_id":76561198048754056,"connected_time":2266000000000,"state":"active","ping":61},{"user_id":36,"name":"chloé (more like gay!)","steam_id":76561198858926895,"connected_time":7984000000000,"state":"active","ping":33},{"user_id":76,"name":"lox","steam_id":76561198288531493,"connected_time":1942000000000,"state":"active","ping":46},{"user_id":66,"name":"PopcornBucketGames","steam_id":76561199089562026,"connected_time":4255000000000,"state":"active","ping":48},{"user_id":80,"name":"lavender","steam_id":76561199069518286,"connected_time":1068000000000,"state":"active","ping":75},{"user_id":56,"name":"Baltimore CA-68","steam_id":76561198313517179,"connected_time":6068000000000,"state":"active","ping":90},{"user_id":88,"name":"cheeto dorito","steam_id":76561198107941274,"connected_time":324000000000,"state":"active","ping":76},{"user_id":84,"name":"NotAWeeb","steam_id":76561198165530739,"connected_time":744000000000,"state":"active","ping":61},{"user_id":89,"name":"Grill Skills","steam_id":76561198053575147,"connected_time":162000000000,"state":"active","ping":57},{"user_id":67,"name":"NEBULA","steam_id":76561198086878595,"connected_time":4114000000000,"state":"active","ping":75},{"user_id":77,"name":"Ducks","steam_id":76561198130038345,"connected_time":1942000000000,"state":"active","ping":66},{"user_id":29,"name":"♥haunti","steam_id":76561199235580556,"connected_time":8499000000000,"state":"active","ping":42}]},{"server_id":119,"name":"Uncletopia | Seattle | 2 | All Maps","name_short":"sea-2","host":"sea-1.us.uncletopia.com","port":27025,"enabled":true,"region":"us-west","cc":"us","latitude":47.608013,"longitude":-122.33517,"reserved":0,"last_update":"0001-01-01T00:00:00Z","name_a2s":"Uncletopia | Seattle | 2 | All Maps","protocol":17,"map":"pl_snowycoast","folder":"tf","game":"Team Fortress","app_id":440,"player_count":24,"max_players":24,"Bots":0,"server_type":"Dedicated","server_os":"Linux","password":true,"vac":true,"version":"7882260","steam_id":85568392924469998,"keywords":["nocrits","nodmgspread","payload","uncletopia"],"game_id":440,"stv_port":27026,"stv_name":"Uncletopia | Seattle | 2 | All Maps | STV","players":[{"user_id":134,"name":"wsawbi","steam_id":76561198118885770,"connected_time":132000000000,"state":"active","ping":60},{"user_id":104,"name":"gloobern","steam_id":76561198341190679,"connected_time":3021000000000,"state":"active","ping":54},{"user_id":145,"name":"ฅ^•ﻌ•^ฅ","steam_id":76561198326987939,"connected_time":61000000000,"state":"active","ping":119},{"user_id":107,"name":"O","steam_id":76561198450073779,"connected_time":2373000000000,"state":"active","ping":45},{"user_id":136,"name":"TüCold","steam_id":76561198111278197,"connected_time":127000000000,"state":"active","ping":50},{"user_id":59,"name":"ilun","steam_id":76561198042913843,"connected_time":5085000000000,"state":"active","ping":54},{"user_id":14,"name":"Femboi Fox","steam_id":76561198915758702,"connected_time":7731000000000,"state":"active","ping":55},{"user_id":124,"name":"Peter, what are you doing?","steam_id":76561198066452726,"connected_time":1298000000000,"state":"active","ping":76},{"user_id":120,"name":"MisterManne","steam_id":76561198106598600,"connected_time":1512000000000,"state":"active","ping":80},{"user_id":135,"name":"ur so pro | add me \u003c3","steam_id":76561198166827208,"connected_time":132000000000,"state":"active","ping":45},{"user_id":133,"name":"Bingleton","steam_id":76561197998930473,"connected_time":145000000000,"state":"active","ping":33},{"user_id":148,"name":"iggybones (girl with balls)","steam_id":76561198101610291,"connected_time":17000000000,"state":"spawning","ping":74},{"user_id":126,"name":"Harley [Ramiel]","steam_id":76561198079510840,"connected_time":1154000000000,"state":"active","ping":45},{"user_id":139,"name":"TwT#savetf2","steam_id":76561198432226673,"connected_time":101000000000,"state":"active","ping":89},{"user_id":106,"name":"BurdBrain","steam_id":76561197962097737,"connected_time":2676000000000,"state":"active","ping":88},{"user_id":117,"name":"Ira","steam_id":76561198855586261,"connected_time":1689000000000,"state":"active","ping":75},{"user_id":114,"name":"Petrivus","steam_id":76561198202152453,"connected_time":1929000000000,"state":"active","ping":59},{"user_id":146,"name":"Buakaw","steam_id":76561199067143694,"connected_time":43000000000,"state":"active","ping":75},{"user_id":147,"name":"+EsC|Kevinator","steam_id":76561198008475674,"connected_time":26000000000,"state":"active","ping":76},{"user_id":141,"name":"Optimore","steam_id":76561198047662990,"connected_time":97000000000,"state":"active","ping":73},{"user_id":128,"name":"srmoore 103","steam_id":76561198300291415,"connected_time":1017000000000,"state":"active","ping":48},{"user_id":131,"name":"Keamy","steam_id":76561199471434875,"connected_time":688000000000,"state":"active","ping":45},{"user_id":144,"name":"Tranq","steam_id":76561197967250757,"connected_time":79000000000,"state":"active","ping":105},{"user_id":118,"name":"Big Dick Swinging","steam_id":76561198053819929,"connected_time":1658000000000,"state":"active","ping":88}]},{"server_id":406,"name":"Uncletopia | Seattle | 3 | Stopwatch Beta","name_short":"sea-3","host":"sea-1.us.uncletopia.com","port":27035,"enabled":true,"region":"us-west","cc":"us","latitude":47.608013,"longitude":-122.33517,"reserved":0,"last_update":"0001-01-01T00:00:00Z","name_a2s":"Uncletopia | Seattle | 3 | Stopwatch Beta","protocol":17,"map":"pl_swiftwater_final1","folder":"tf","game":"Team Fortress","app_id":440,"player_count":0,"max_players":24,"Bots":0,"server_type":"Dedicated","server_os":"Linux","password":true,"vac":true,"version":"7882260","steam_id":85568392924515217,"keywords":["nocrits","nodmgspread","payload","uncletopia"],"game_id":440,"stv_port":27036,"stv_name":"Uncletopia | Seattle | 3 | Stopwatch Beta | STV","players":null},{"server_id":17,"name":"Uncletopia | San Francisco | 1 | All Maps","name_short":"sfo-1","host":"sfo-1.us.uncletopia.com","port":27015,"enabled":true,"region":"us-west","cc":"us","latitude":37.77397,"longitude":-122.4313,"reserved":0,"last_update":"0001-01-01T00:00:00Z","name_a2s":"Uncletopia | San Francisco | 1 | All Maps","protocol":17,"map":"cp_snakewater_final1","folder":"tf","game":"Team Fortress","app_id":440,"player_count":0,"max_players":24,"Bots":0,"server_type":"Dedicated","server_os":"Linux","password":true,"vac":true,"version":"7882260","steam_id":85568392924469999,"keywords":["cp","nocrits","nodmgspread","uncletopia"],"game_id":440,"stv_port":27016,"stv_name":"Uncletopia | San Francisco | 1 | All Maps | STV","players":null},{"server_id":18,"name":"Uncletopia | San Francisco | 2 | All Maps","name_short":"sfo-2","host":"sfo-1.us.uncletopia.com","port":27025,"enabled":true,"region":"us-west","cc":"us","latitude":37.77397,"longitude":-122.4313,"reserved":0,"last_update":"0001-01-01T00:00:00Z","name_a2s":"Uncletopia | San Francisco | 2 | All Maps","protocol":17,"map":"cp_mountainlab","folder":"tf","game":"Team Fortress","app_id":440,"player_count":0,"max_players":24,"Bots":0,"server_type":"Dedicated","server_os":"Linux","password":true,"vac":true,"version":"7882260","steam_id":85568392924470000,"keywords":["cp","nocrits","nodmgspread","uncletopia"],"game_id":440,"stv_port":27026,"stv_name":"Uncletopia | San Francisco | 2 | All Maps | STV","players":null},{"server_id":19,"name":"Uncletopia | San Francisco | 3 | Stopwatch Beta","name_short":"sfo-3","host":"sfo-1.us.uncletopia.com","port":27035,"enabled":true,"region":"us-west","cc":"us","latitude":37.77397,"longitude":-122.4313,"reserved":0,"last_update":"0001-01-01T00:00:00Z","name_a2s":"Uncletopia | San Francisco | 3 | Stopwatch Beta","protocol":17,"map":"pl_snowycoast","folder":"tf","game":"Team Fortress","app_id":440,"player_count":0,"max_players":24,"Bots":0,"server_type":"Dedicated","server_os":"Linux","password":true,"vac":true,"version":"7882260","steam_id":85568392924742824,"keywords":["nocrits","nodmgspread","payload","uncletopia"],"game_id":440,"stv_port":27036,"stv_name":"Uncletopia | San Francisco | 3 | Stopwatch Beta | STV","players":null},{"server_id":20,"name":"Uncletopia | San Francisco | 4 | Community","name_short":"sfo-4","host":"sfo-1.us.uncletopia.com","port":27045,"enabled":true,"region":"us-west","cc":"us","latitude":37.77397,"longitude":-122.4313,"reserved":0,"last_update":"0001-01-01T00:00:00Z","name_a2s":"Uncletopia | San Francisco | 4 | Community","protocol":17,"map":"workshop/cp_hazyfort_rc6.ugc1365963729","folder":"tf","game":"Team Fortress","app_id":440,"player_count":24,"max_players":24,"Bots":0,"server_type":"Dedicated","server_os":"Linux","password":true,"vac":true,"version":"7882260","steam_id":85568392924742826,"keywords":["cp","nocrits","nodmgspread","uncletopia"],"game_id":440,"stv_port":27046,"stv_name":"Uncletopia | San Francisco | 4 | Community | STV","players":[{"user_id":152,"name":"Shogun","steam_id":76561199007842829,"connected_time":535000000000,"state":"active","ping":47},{"user_id":153,"name":"Flyingcat9000","steam_id":76561198179561797,"connected_time":490000000000,"state":"active","ping":40},{"user_id":132,"name":"boo!!!","steam_id":76561198284805448,"connected_time":2480000000000,"state":"active","ping":48},{"user_id":109,"name":"The Highwayman","steam_id":76561198319940972,"connected_time":3486000000000,"state":"active","ping":70},{"user_id":150,"name":"Zom_Named_Zam","steam_id":76561198328066203,"connected_time":1059000000000,"state":"active","ping":71},{"user_id":154,"name":"freyja","steam_id":76561198012480197,"connected_time":474000000000,"state":"active","ping":42},{"user_id":155,"name":"Willowl","steam_id":76561198074612980,"connected_time":461000000000,"state":"active","ping":152},{"user_id":144,"name":"zeplinnn","steam_id":76561198301300987,"connected_time":1303000000000,"state":"active","ping":70},{"user_id":104,"name":"Cypress [ +/- ] ✔","steam_id":76561198067164431,"connected_time":3763000000000,"state":"active","ping":49},{"user_id":106,"name":"Caius Cosades","steam_id":76561198029708094,"connected_time":3717000000000,"state":"active","ping":53},{"user_id":146,"name":"Mr Twitchy","steam_id":76561197995985499,"connected_time":1272000000000,"state":"active","ping":69},{"user_id":147,"name":"Carthage (TRANSRIGHTS)","steam_id":76561198049001571,"connected_time":1241000000000,"state":"active","ping":98},{"user_id":105,"name":"Young Brendan Fraser","steam_id":76561198036728212,"connected_time":3758000000000,"state":"active","ping":47},{"user_id":130,"name":"SpringIvan","steam_id":76561199133179509,"connected_time":2509000000000,"state":"active","ping":42},{"user_id":148,"name":"Grizzakk","steam_id":76561198115821923,"connected_time":1233000000000,"state":"active","ping":70},{"user_id":136,"name":"drdrei","steam_id":76561198043732365,"connected_time":2159000000000,"state":"active","ping":67},{"user_id":122,"name":"YouAreReadingThis","steam_id":76561198367831600,"connected_time":3277000000000,"state":"active","ping":71},{"user_id":156,"name":"Ahten Xevious","steam_id":76561198075469828,"connected_time":447000000000,"state":"active","ping":113},{"user_id":157,"name":"Axelfreeze14","steam_id":76561198436383913,"connected_time":433000000000,"state":"active","ping":51},{"user_id":158,"name":"They could be starlings","steam_id":76561198441020995,"connected_time":419000000000,"state":"active","ping":54},{"user_id":142,"name":"IKARUDO","steam_id":76561198075034131,"connected_time":1605000000000,"state":"active","ping":63},{"user_id":160,"name":"Funky Kong Jr.","steam_id":76561199351137762,"connected_time":354000000000,"state":"active","ping":71},{"user_id":141,"name":"Kozaky","steam_id":76561198047144993,"connected_time":1876000000000,"state":"active","ping":63},{"user_id":161,"name":"Chud Monkey","steam_id":76561199092840401,"connected_time":347000000000,"state":"active","ping":88}]},{"server_id":141,"name":"Uncletopia | Sydney | 1 | All Maps","name_short":"syd-1","host":"syd-1.au.uncletopia.com","port":27015,"enabled":true,"region":"au","cc":"au","latitude":-33.865143,"longitude":151.2099,"reserved":0,"last_update":"0001-01-01T00:00:00Z","name_a2s":"Uncletopia | Sydney | 1 | All Maps","protocol":17,"map":"koth_lakeside_final","folder":"tf","game":"Team Fortress","app_id":440,"player_count":24,"max_players":24,"Bots":0,"server_type":"Dedicated","server_os":"Linux","password":true,"vac":true,"version":"7882260","steam_id":85568392924470001,"keywords":["cp","nocrits","nodmgspread","uncletopia"],"game_id":440,"stv_port":27016,"stv_name":"Uncletopia | Sydney | 1 | All Maps | STV","players":[{"user_id":118,"name":"no teles 4 u","steam_id":76561198018478297,"connected_time":239000000000,"state":"active","ping":69},{"user_id":44,"name":"Micromuffin","steam_id":76561198209370423,"connected_time":4234000000000,"state":"active","ping":58},{"user_id":76,"name":"Hippity_Hoppity","steam_id":76561198861050395,"connected_time":3362000000000,"state":"active","ping":65},{"user_id":103,"name":"chaquitabananaobama","steam_id":76561198011034463,"connected_time":1152000000000,"state":"active","ping":60},{"user_id":101,"name":"dog","steam_id":76561198073933737,"connected_time":1247000000000,"state":"active","ping":45},{"user_id":117,"name":"Tempered","steam_id":76561198074409552,"connected_time":253000000000,"state":"active","ping":55},{"user_id":119,"name":"Sinister80s","steam_id":76561198343540472,"connected_time":114000000000,"state":"active","ping":68},{"user_id":116,"name":"Dungus","steam_id":76561198302841509,"connected_time":255000000000,"state":"active","ping":62},{"user_id":104,"name":"Zepi","steam_id":76561198018887052,"connected_time":1134000000000,"state":"active","ping":52},{"user_id":83,"name":"krandlez` (Any/All)","steam_id":76561198044839726,"connected_time":2874000000000,"state":"active","ping":39},{"user_id":81,"name":"Arcueid Brunestud","steam_id":76561199016592990,"connected_time":3039000000000,"state":"active","ping":60},{"user_id":18,"name":"Rashid Of The Dank Memes","steam_id":76561198281398078,"connected_time":5566000000000,"state":"active","ping":65},{"user_id":43,"name":"FrOStY","steam_id":76561198088155805,"connected_time":4246000000000,"state":"active","ping":531},{"user_id":112,"name":"dumbvent","steam_id":76561198190062810,"connected_time":617000000000,"state":"active","ping":61},{"user_id":80,"name":"weezer","steam_id":76561199439508788,"connected_time":3054000000000,"state":"active","ping":64},{"user_id":105,"name":"Sentry Gun (EpicGuy4227)","steam_id":76561198094132328,"connected_time":1111000000000,"state":"active","ping":54},{"user_id":46,"name":"Kremmen","steam_id":76561198051368641,"connected_time":4163000000000,"state":"active","ping":66},{"user_id":115,"name":"RBY","steam_id":76561198279663555,"connected_time":522000000000,"state":"active","ping":64},{"user_id":47,"name":"Bigfluffy","steam_id":76561198196339186,"connected_time":4159000000000,"state":"active","ping":62},{"user_id":113,"name":"asfhauobfege","steam_id":76561198186339670,"connected_time":616000000000,"state":"active","ping":41},{"user_id":87,"name":"{Azura Sarah}","steam_id":76561197989210208,"connected_time":2747000000000,"state":"active","ping":51},{"user_id":99,"name":"Shark Noises","steam_id":76561198051386589,"connected_time":1274000000000,"state":"active","ping":58},{"user_id":56,"name":"Arro","steam_id":76561198084990929,"connected_time":3949000000000,"state":"active","ping":90},{"user_id":100,"name":"the poo man | trade.tf","steam_id":76561198173322978,"connected_time":1273000000000,"state":"active","ping":71}]},{"server_id":123,"name":"Uncletopia | Sydney | 2 | All Maps","name_short":"syd-2","host":"syd-1.au.uncletopia.com","port":27025,"enabled":true,"region":"au","cc":"au","latitude":-33.865143,"longitude":151.2099,"reserved":0,"last_update":"0001-01-01T00:00:00Z","name_a2s":"Uncletopia | Sydney | 2 | All Maps","protocol":17,"map":"pl_badwater","folder":"tf","game":"Team Fortress","app_id":440,"player_count":6,"max_players":24,"Bots":0,"server_type":"Dedicated","server_os":"Linux","password":true,"vac":true,"version":"7882260","steam_id":85568392924470002,"keywords":["nocrits","nodmgspread","payload","uncletopia"],"game_id":440,"stv_port":27026,"stv_name":"Uncletopia | Sydney | 2 | All Maps | STV","players":[{"user_id":3,"name":"reuvenim","steam_id":76561198070073217,"connected_time":2454000000000,"state":"active","ping":61},{"user_id":4,"name":"Cyan","steam_id":76561198955004992,"connected_time":2395000000000,"state":"active","ping":67},{"user_id":11,"name":"Tohru","steam_id":76561199029434736,"connected_time":130000000000,"state":"active","ping":54},{"user_id":6,"name":"Sir Bigg","steam_id":76561199080759165,"connected_time":2331000000000,"state":"active","ping":68},{"user_id":9,"name":"Lord Oink","steam_id":76561198125237921,"connected_time":792000000000,"state":"active","ping":36},{"user_id":10,"name":"clown (cool and funny)","steam_id":76561198822420253,"connected_time":529000000000,"state":"active","ping":58}]},{"server_id":395,"name":"Uncletopia | Sydney | 3 | All Maps","name_short":"syd-3","host":"syd-1.au.uncletopia.com","port":27035,"enabled":true,"region":"au","cc":"au","latitude":-33.865143,"longitude":151.2099,"reserved":0,"last_update":"0001-01-01T00:00:00Z","name_a2s":"Uncletopia | Sydney | 3 | All Maps","protocol":17,"map":"pl_badwater","folder":"tf","game":"Team Fortress","app_id":440,"player_count":0,"max_players":24,"Bots":0,"server_type":"Dedicated","server_os":"Linux","password":true,"vac":true,"version":"7882260","steam_id":85568392925194467,"keywords":["nocrits","nodmgspread","payload","uncletopia"],"game_id":440,"stv_port":27036,"stv_name":"Uncletopia | Sydney | 3 | All Maps | STV","players":null},{"server_id":396,"name":"Uncletopia | Sydney | 4 | All Maps","name_short":"syd-4","host":"syd-1.au.uncletopia.com","port":27045,"enabled":true,"region":"au","cc":"au","latitude":-33.865143,"longitude":151.2099,"reserved":0,"last_update":"0001-01-01T00:00:00Z","name_a2s":"Uncletopia | Sydney | 4 | All Maps","protocol":17,"map":"cp_altitude","folder":"tf","game":"Team Fortress","app_id":440,"player_count":0,"max_players":24,"Bots":0,"server_type":"Dedicated","server_os":"Linux","password":true,"vac":true,"version":"7882260","steam_id":85568392925397958,"keywords":["cp","nocrits","nodmgspread","uncletopia"],"game_id":440,"stv_port":27046,"stv_name":"Uncletopia | Sydney | 4 | All Maps | STV","players":null},{"server_id":58,"name":"Uncletopia | Sydney | 5 | Stopwatch Beta","name_short":"syd-5","host":"syd-1.au.uncletopia.com","port":27055,"enabled":true,"region":"au","cc":"au","latitude":-33.865143,"longitude":151.2099,"reserved":0,"last_update":"0001-01-01T00:00:00Z","name_a2s":"Uncletopia | Sydney | 5 | Stopwatch Beta","protocol":17,"map":"koth_viaduct","folder":"tf","game":"Team Fortress","app_id":440,"player_count":0,"max_players":24,"Bots":0,"server_type":"Dedicated","server_os":"Linux","password":true,"vac":true,"version":"7882260","steam_id":85568392925397959,"keywords":["cp","nocrits","nodmgspread","uncletopia"],"game_id":440,"stv_port":27056,"stv_name":"Uncletopia | Sydney | 5 | Stopwatch Beta | STV","players":null},{"server_id":59,"name":"Uncletopia | Sydney | 6 | Community","name_short":"syd-6","host":"syd-1.au.uncletopia.com","port":27065,"enabled":true,"region":"au","cc":"au","latitude":-33.865143,"longitude":151.2099,"reserved":0,"last_update":"0001-01-01T00:00:00Z","name_a2s":"Uncletopia | Sydney | 6 | Community","protocol":17,"map":"workshop/pl_boundary_final1.ugc456799153","folder":"tf","game":"Team Fortress","app_id":440,"player_count":0,"max_players":24,"Bots":0,"server_type":"Dedicated","server_os":"Linux","password":true,"vac":true,"version":"7882260","steam_id":85568392925397960,"keywords":["nocrits","nodmgspread","payload","uncletopia"],"game_id":440,"stv_port":27066,"stv_name":"Uncletopia | Sydney | 6 | Community | STV","players":null},{"server_id":49,"name":"Uncletopia | Warsaw | 1 | All Maps","name_short":"waw-1","host":"waw-1.pl.uncletopia.com","port":27015,"enabled":true,"region":"eu","cc":"pl","latitude":52.2297,"longitude":21.017532,"reserved":0,"last_update":"0001-01-01T00:00:00Z","name_a2s":"","protocol":0,"map":"","folder":"","game":"","app_id":0,"player_count":0,"max_players":0,"Bots":0,"server_type":"","server_os":"","password":false,"vac":false,"version":"","steam_id":0,"keywords":null,"game_id":0,"stv_port":0,"stv_name":"","players":null},{"server_id":50,"name":"Uncletopia | Warsaw | 2 | All Maps","name_short":"waw-2","host":"waw-1.pl.uncletopia.com","port":27025,"enabled":true,"region":"eu","cc":"pl","latitude":52.2297,"longitude":21.017532,"reserved":0,"last_update":"0001-01-01T00:00:00Z","name_a2s":"Uncletopia | Warsaw | 2 | All Maps","protocol":17,"map":"koth_viaduct","folder":"tf","game":"Team Fortress","app_id":440,"player_count":0,"max_players":24,"Bots":0,"server_type":"Dedicated","server_os":"Linux","password":true,"vac":true,"version":"7882260","steam_id":85568392925397851,"keywords":["cp","nocrits","nodmgspread","uncletopia"],"game_id":440,"stv_port":27026,"stv_name":"Uncletopia | Warsaw | 2 | All Maps | STV","players":null},{"server_id":51,"name":"Uncletopia | Warsaw | 3 | All Maps","name_short":"waw-3","host":"waw-1.pl.uncletopia.com","port":27035,"enabled":true,"region":"eu","cc":"pl","latitude":52.2297,"longitude":21.017532,"reserved":0,"last_update":"0001-01-01T00:00:00Z","name_a2s":"Uncletopia | Warsaw | 3 | All Maps","protocol":17,"map":"pl_badwater","folder":"tf","game":"Team Fortress","app_id":440,"player_count":0,"max_players":24,"Bots":0,"server_type":"Dedicated","server_os":"Linux","password":true,"vac":true,"version":"7882260","steam_id":85568392925397852,"keywords":["nocrits","nodmgspread","payload","uncletopia"],"game_id":440,"stv_port":27036,"stv_name":"Uncletopia | Warsaw | 3 | All Maps | STV","players":null},{"server_id":52,"name":"Uncletopia | Warsaw | 4 | All Maps","name_short":"waw-4","host":"waw-1.pl.uncletopia.com","port":27045,"enabled":true,"region":"eu","cc":"pl","latitude":52.2297,"longitude":21.017532,"reserved":0,"last_update":"0001-01-01T00:00:00Z","name_a2s":"Uncletopia | Warsaw | 4 | All Maps","protocol":17,"map":"koth_cascade","folder":"tf","game":"Team Fortress","app_id":440,"player_count":0,"max_players":24,"Bots":0,"server_type":"Dedicated","server_os":"Linux","password":true,"vac":true,"version":"7882260","steam_id":85568392925397853,"keywords":["cp","nocrits","nodmgspread","uncletopia"],"game_id":440,"stv_port":27046,"stv_name":"Uncletopia | Warsaw | 4 | All Maps | STV","players":null},{"server_id":53,"name":"Uncletopia | Warsaw | 5 | Stopwatch Beta","name_short":"waw-5","host":"waw-1.pl.uncletopia.com","port":27055,"enabled":true,"region":"eu","cc":"pl","latitude":52.2297,"longitude":21.017532,"reserved":0,"last_update":"0001-01-01T00:00:00Z","name_a2s":"Uncletopia | Warsaw | 5 | Stopwatch Beta","protocol":17,"map":"cp_dustbowl","folder":"tf","game":"Team Fortress","app_id":440,"player_count":0,"max_players":24,"Bots":0,"server_type":"Dedicated","server_os":"Linux","password":true,"vac":true,"version":"7882260","steam_id":85568392925397854,"keywords":["cp","nocrits","nodmgspread","uncletopia"],"game_id":440,"stv_port":27056,"stv_name":"Uncletopia | Warsaw | 5 | Stopwatch Beta | STV","players":null},{"server_id":54,"name":"Uncletopia | Warsaw | 6 | Community","name_short":"waw-6","host":"waw-1.pl.uncletopia.com","port":27065,"enabled":true,"region":"eu","cc":"pl","latitude":52.2297,"longitude":21.017532,"reserved":0,"last_update":"0001-01-01T00:00:00Z","name_a2s":"Uncletopia | Warsaw | 6 | Community","protocol":17,"map":"cp_dustbowl","folder":"tf","game":"Team Fortress","app_id":440,"player_count":0,"max_players":24,"Bots":0,"server_type":"Dedicated","server_os":"Linux","password":true,"vac":true,"version":"7882260","steam_id":85568392925397856,"keywords":["cp","nocrits","nodmgspread","uncletopia"],"game_id":440,"stv_port":27066,"stv_name":"Uncletopia | Warsaw | 6 | Community | STV","players":null}]}