{"status":true,"message":"","result":[{"server_id":9,"name":"Uncletopia | Atlanta | 1 | All Maps","name_short":"atl-1","host":"atl-1.us.uncletopia.com","port":27015,"enabled":true,"region":"us-east","cc":"us","latitude":33.753746,"longitude":-84.38633,"reserved":0,"last_update":"0001-01-01T00:00:00Z","name_a2s":"Uncletopia | Atlanta | 1 | All Maps","protocol":17,"map":"cp_process_final","folder":"tf","game":"Team Fortress","app_id":440,"player_count":0,"max_players":24,"Bots":0,"server_type":"Dedicated","server_os":"Linux","password":true,"vac":true,"version":"7961495","steam_id":85568392924469982,"keywords":["cp","nocrits","nodmgspread","uncletopia"],"game_id":440,"stv_port":27016,"stv_name":"Uncletopia | Atlanta | 1 | All Maps | STV","players":null},{"server_id":104,"name":"Uncletopia | Atlanta | 2 | All Maps","name_short":"atl-2","host":"atl-1.us.uncletopia.com","port":27025,"enabled":true,"region":"us-east","cc":"us","latitude":33.753746,"longitude":-84.38633,"reserved":0,"last_update":"0001-01-01T00:00:00Z","name_a2s":"Uncletopia | Atlanta | 2 | All Maps","protocol":17,"map":"pl_goldrush","folder":"tf","game":"Team Fortress","app_id":440,"player_count":23,"max_players":24,"Bots":0,"server_type":"Dedicated","server_os":"Linux","password":true,"vac":true,"version":"7961495","steam_id":85568392924469983,"keywords":["nocrits","nodmgspread","payload","uncletopia"],"game_id":440,"stv_port":27026,"stv_name":"Uncletopia | Atlanta | 2 | All Maps | STV","players":[{"user_id":462,"name":"goodypiggy","steam_id":76561198434705310,"connected_time":1288000000000,"state":"active","ping":98},{"user_id":471,"name":"Kaene","steam_id":76561198255344558,"connected_time":104000000000,"state":"active","ping":90},{"user_id":468,"name":"Unlimited_Trees","steam_id":76561198299141443,"connected_time":316000000000,"state":"active","ping":103},{"user_id":470,"name":"[REDACTED] ‚ô•","steam_id":76561198309963004,"connected_time":163000000000,"state":"active","ping":61},{"user_id":427,"name":"ifuruna","steam_id":76561199506882366,"connected_time":4008000000000,"state":"active","ping":128},{"user_id":454,"name":"FMM","steam_id":76561198017539604,"connected_time":1889000000000,"state":"active","ping":45},{"user_id":399,"name":"Black_chestnut","steam_id":76561198155524915,"connected_time":6176000000000,"state":"active","ping":93},{"user_id":461,"name":"cobalt","steam_id":76561198126982318,"connected_time":1621000000000,"state":"active","ping":61},{"user_id":467,"name":"kaputon","steam_id":76561198146299782,"connected_time":349000000000,"state":"active","ping":70},{"user_id":465,"name":"Shrebbie","steam_id":76561198875230824,"connected_time":533000000000,"state":"active","ping":60},{"user_id":455,"name":"Casey","steam_id":76561198068810896,"connected_time":1760000000000,"state":"active","ping":90},{"user_id":415,"name":"PickleHater13","steam_id":76561198259380127,"connected_time":5154000000000,"state":"active","ping":74},{"user_id":463,"name":"plutonium","steam_id":76561198319442494,"connected_time":732000000000,"state":"active","ping":97},{"user_id":452,"name":"Gimme your Teeth","steam_id":76561198240523882,"connected_time":2530000000000,"state":"active","ping":102},{"user_id":457,"name":"SimplyKomeiji","steam_id":76561198354177703,"connected_time":1725000000000,"state":"active","ping":72},{"user_id":466,"name":"Robo","steam_id":76561199106531261,"connected_time":508000000000,"state":"active","ping":58},{"user_id":436,"name":"Le4n!!!","steam_id":76561198045522596,"connected_time":3122000000000,"state":"active","ping":72},{"user_id":426,"name":"YUNG NASTYMAN","steam_id":76561198039710677,"connected_time":4053000000000,"state":"active","ping":72},{"user_id":464,"name":"Coach Twig","steam_id":76561198058831591,"connected_time":544000000000,"state":"active","ping":40},{"user_id":469,"name":"Poppet","steam_id":76561198012301951,"connected_time":199000000000,"state":"active","ping":84},{"user_id":439,"name":"BotchyAlarm8","steam_id":76561198092682129,"connected_time":3040000000000,"state":"active","ping":73},{"user_id":410,"name":"Hobo Shanker","steam_id":76561198001785187,"connected_time":5662000000000,"state":"active","ping":80},{"user_id":449,"name":"Glue Sniffer","steam_id":76561198289642788,"connected_time":2652000000000,"state":"active","ping":133}]},{"server_id":400,"name":"Uncletopia | Atlanta | 3 | Stopwatch","name_short":"atl-3","host":"atl-1.us.uncletopia.com","port":27035,"enabled":true,"region":"us-east","cc":"us","latitude":33.753746,"longitude":-84.38633,"reserved":0,"last_update":"0001-01-01T00:00:00Z","name_a2s":"Uncletopia | Atlanta | 3 | Stopwatch","protocol":17,"map":"workshop/cp_process_f12.ugc2302948105","folder":"tf","game":"Team Fortress","app_id":440,"player_count":0,"max_players":24,"Bots":0,"server_type":"Dedicated","server_os":"Linux","password":true,"vac":true,"version":"7961495","steam_id":85568392924515187,"keywords":["cp","nocrits","nodmgspread","uncletopia"],"game_id":440,"stv_port":27036,"stv_name":"Uncletopia | Atlanta | 3 | Stopwatch | STV","players":null},{"server_id":401,"name":"Uncletopia | Atlanta | 4 | Community","name_short":"atl-4","host":"atl-1.us.uncletopia.com","port":27045,"enabled":true,"region":"us-east","cc":"us","latitude":33.753746,"longitude":-84.38633,"reserved":0,"last_update":"0001-01-01T00:00:00Z","name_a2s":"Uncletopia | Atlanta | 4 | Community","protocol":17,"map":"workshop/cp_logjam_rc12.ugc454812035","folder":"tf","game":"Team Fortress","app_id":440,"player_count":0,"max_players":24,"Bots":0,"server_type":"Dedicated","server_os":"Linux","password":true,"vac":true,"version":"7961495","steam_id":85568392924515188,"keywords":["cp","nocrits","nodmgspread","uncletopia"],"game_id":440,"stv_port":27046,"stv_name":"Uncletopia | Atlanta | 4 | Community | STV","players":null},{"server_id":2,"name":"Uncletopia | Chicago | 1 | All Maps","name_short":"chi-1","host":"chi-1.us.uncletopia.com","port":27015,"enabled":true,"region":"us-central","cc":"us","latitude":41.881832,"longitude":-87.62318,"reserved":0,"last_update":"0001-01-01T00:00:00Z","name_a2s":"Uncletopia | Chicago | 1 | All Maps","protocol":17,"map":"cp_mountainlab","folder":"tf","game":"Team Fortress","app_id":440,"player_count":0,"max_players":24,"Bots":0,"server_type":"Dedicated","server_os":"Linux","password":true,"vac":true,"version":"7961495","steam_id":85568392924469984,"keywords":["cp","nocrits","nodmgspread","uncletopia"],"game_id":440,"stv_port":27016,"stv_name":"Uncletopia | Chicago | 1 | All Maps | STV","players":null},{"server_id":106,"name":"Uncletopia | Chicago | 2 | All Maps","name_short":"chi-2","host":"chi-1.us.uncletopia.com","port":27025,"enabled":true,"region":"us-central","cc":"us","latitude":41.881832,"longitude":-87.62318,"reserved":0,"last_update":"0001-01-01T00:00:00Z","name_a2s":"Uncletopia | Chicago | 2 | All Maps","protocol":17,"map":"pl_pier","folder":"tf","game":"Team Fortress","app_id":440,"player_count":23,"max_players":24,"Bots":0,"server_type":"Dedicated","server_os":"Linux","password":true,"vac":true,"version":"7961495","steam_id":85568392924469985,"keywords":["nocrits","nodmgspread","payload","uncletopia"],"game_id":440,"stv_port":27026,"stv_name":"Uncletopia | Chicago | 2 | All Maps | STV","players":[{"user_id":980,"name":"Frank Childress","steam_id":76561198060553584,"connected_time":1108000000000,"state":"active","ping":90},{"user_id":935,"name":"Popeyes Employee","steam_id":76561198157341489,"connected_time":4785000000000,"state":"active","ping":96},{"user_id":981,"name":"Nebulon-B_Frigate_FTW","steam_id":76561198040955960,"connected_time":1072000000000,"state":"active","ping":115},{"user_id":990,"name":"Hidden Phantom","steam_id":76561198115531799,"connected_time":297000000000,"state":"active","ping":72},{"user_id":924,"name":"Yummy Kabobz","steam_id":76561198067661705,"connected_time":4994000000000,"state":"active","ping":61},{"user_id":982,"name":"Weird Round","steam_id":76561197969205852,"connected_time":1055000000000,"state":"active","ping":80},{"user_id":972,"name":"LVL","steam_id":76561198334403617,"connected_time":2104000000000,"state":"active","ping":56},{"user_id":991,"name":"Alcohol Enema","steam_id":76561198246001174,"connected_time":277000000000,"state":"active","ping":113},{"user_id":951,"name":"Huncat","steam_id":76561198143873789,"connected_time":3251000000000,"state":"active","ping":91},{"user_id":974,"name":"Superplay64","steam_id":76561198172471162,"connected_time":2014000000000,"state":"active","ping":83},{"user_id":992,"name":"dog plus","steam_id":76561198034339940,"connected_time":241000000000,"state":"active","ping":59},{"user_id":994,"name":"firetruck","steam_id":76561198074188404,"connected_time":5000000000,"state":"spawning","ping":60},{"user_id":985,"name":"Steve (from Minecraft)","steam_id":76561198232026076,"connected_time":1008000000000,"state":"active","ping":58},{"user_id":986,"name":"Fungus Amongus","steam_id":76561198061507741,"connected_time":997000000000,"state":"active","ping":55},{"user_id":943,"name":"Gwuf","steam_id":76561198091503282,"connected_time":4442000000000,"state":"active","ping":123},{"user_id":977,"name":"Raccoon Wizard","steam_id":76561198072562591,"connected_time":1160000000000,"state":"active","ping":75},{"user_id":938,"name":"Amish Robot","steam_id":76561198041156065,"connected_time":4706000000000,"state":"active","ping":79},{"user_id":987,"name":"Osiris105","steam_id":76561198073049242,"connected_time":972000000000,"state":"active","ping":68},{"user_id":947,"name":"Rode hard, put away wet","steam_id":76561198062764039,"connected_time":4195000000000,"state":"active","ping":68},{"user_id":979,"name":"BANDIDO","steam_id":76561199509676031,"connected_time":1134000000000,"state":"active","ping":53},{"user_id":957,"name":"fausti","steam_id":76561197995956163,"connected_time":2530000000000,"state":"active","ping":73},{"user_id":971,"name":"GoldtoothFour","steam_id":76561198055529332,"connected_time":2124000000000,"state":"active","ping":58},{"user_id":989,"name":"Shaby_Frost","steam_id":76561198401334563,"connected_time":867000000000,"state":"active","ping":63}]},{"server_id":402,"name":"Uncletopia | Chicago | 3 | All Maps","name_short":"chi-3","host":"chi-1.us.uncletopia.com","port":27035,"enabled":true,"region":"us-central","cc":"us","latitude":41.881832,"longitude":-87.62318,"reserved":0,"last_update":"0001-01-01T00:00:00Z","name_a2s":"Uncletopia | Chicago | 3 | All Maps","protocol":17,"map":"pl_snowycoast","folder":"tf","game":"Team Fortress","app_id":440,"player_count":0,"max_players":24,"Bots":0,"server_type":"Dedicated","server_os":"Linux","password":true,"vac":true,"version":"7961495","steam_id":85568392924515191,"keywords":["nocrits","nodmgspread","payload","uncletopia"],"game_id":440,"stv_port":27036,"stv_name":"Uncletopia | Chicago | 3 | All Maps | STV","players":null},{"server_id":403,"name":"Uncletopia | Chicago | 4 | All Maps","name_short":"chi-4","host":"chi-1.us.uncletopia.com","port":27045,"enabled":true,"region":"us-central","cc":"us","latitude":41.881832,"longitude":-87.62318,"reserved":0,"last_update":"0001-01-01T00:00:00Z","name_a2s":"Uncletopia | Chicago | 4 | All Maps","protocol":17,"map":"cp_mountainlab","folder":"tf","game":"Team Fortress","app_id":440,"player_count":17,"max_players":24,"Bots":0,"server_type":"Dedicated","server_os":"Linux","password":true,"vac":true,"version":"7961495","steam_id":85568392924515193,"keywords":["cp","nocrits","nodmgspread","uncletopia"],"game_id":440,"stv_port":27046,"stv_name":"Uncletopia | Chicago | 4 | All Maps | STV","players":[{"user_id":781,"name":"Chiefirons","steam_id":76561198057984431,"connected_time":2964000000000,"state":"spawning","ping":43},{"user_id":782,"name":"mario is missing!!!","steam_id":76561198028249503,"connected_time":2924000000000,"state":"spawning","ping":80},{"user_id":804,"name":"Poopisviel Von Einzbern","steam_id":76561198259260433,"connected_time":1262000000000,"state":"spawning","ping":59},{"user_id":783,"name":"Flapjack","steam_id":76561198060742093,"connected_time":2886000000000,"state":"active","ping":174},{"user_id":785,"name":"noise","steam_id":76561198081375875,"connected_time":2779000000000,"state":"spawning","ping":81},{"user_id":811,"name":"Gabriel","steam_id":76561198005011177,"connected_time":992000000000,"state":"active","ping":208},{"user_id":786,"name":"haxxorman","steam_id":76561199155156400,"connected_time":2760000000000,"state":"spawning","ping":35},{"user_id":807,"name":"wchad3825","steam_id":76561199486444879,"connected_time":1211000000000,"state":"spawning","ping":62},{"user_id":741,"name":"SQU1DDY","steam_id":76561198027757551,"connected_time":5869000000000,"state":"spawning","ping":91},{"user_id":790,"name":"shitass | yall arent real","steam_id":76561198210572481,"connected_time":2485000000000,"state":"active","ping":168},{"user_id":776,"name":"cy","steam_id":76561198885893295,"connected_time":3841000000000,"state":"active","ping":45},{"user_id":812,"name":"cc.BaconBlitz","steam_id":76561198079461770,"connected_time":279000000000,"state":"active","ping":360},{"user_id":743,"name":"W1CKEDY","steam_id":76561198353447602,"connected_time":5859000000000,"state":"active","ping":218},{"user_id":792,"name":"ImTallOk","steam_id":76561198405915670,"connected_time":2363000000000,"state":"active","ping":77},{"user_id":795,"name":"LXXVII","steam_id":76561199435288545,"connected_time":2294000000000,"state":"spawning","ping":72},{"user_id":809,"name":"Maffy","steam_id":76561198014673082,"connected_time":1077000000000,"state":"spawning","ping":97},{"user_id":797,"name":"Drinkable Milk","steam_id":76561199418706430,"connected_time":2269000000000,"state":"spawning","ping":75}]},{"server_id":36,"name":"Uncletopia | Chicago | 5 | All Maps","name_short":"chi-5","host":"chi-2.us.uncletopia.com","port":27015,"enabled":true,"region":"us-central","cc":"us","latitude":41.881832,"longitude":-87.62318,"reserved":0,"last_update":"0001-01-01T00:00:00Z","name_a2s":"Uncletopia | Chicago | 5 | All Maps","protocol":17,"map":"pl_snowycoast","folder":"tf","game":"Team Fortress","app_id":440,"player_count":0,"max_players":24,"Bots":0,"server_type":"Dedicated","server_os":"Linux","password":true,"vac":true,"version":"7961495","steam_id":85568392924866362,"keywords":["nocrits","nodmgspread","payload","uncletopia"],"game_id":440,"stv_port":27016,"stv_name":"Uncletopia | Chicago | 5 | All Maps | STV","players":null},{"server_id":37,"name":"Uncletopia | Chicago | 6 | All Maps","name_short":"chi-6","host":"chi-2.us.uncletopia.com","port":27025,"enabled":true,"region":"us-central","cc":"us","latitude":41.881832,"longitude":-87.62318,"reserved":0,"last_update":"0001-01-01T00:00:00Z","name_a2s":"Uncletopia | Chicago | 6 | All Maps","protocol":17,"map":"cp_dustbowl","folder":"tf","game":"Team Fortress","app_id":440,"player_count":24,"max_players":24,"Bots":0,"server_type":"Dedicated","server_os":"Linux","password":true,"vac":true,"version":"7961495","steam_id":85568392924866363,"keywords":["cp","nocrits","nodmgspread","uncletopia"],"game_id":440,"stv_port":27026,"stv_name":"Uncletopia | Chicago | 6 | All Maps | STV","players":[{"user_id":665,"name":"Potassium!","steam_id":76561199082921723,"connected_time":2036000000000,"state":"active","ping":91},{"user_id":677,"name":"defcon","steam_id":76561198100656328,"connected_time":1165000000000,"state":"active","ping":78},{"user_id":687,"name":"Mitsuba","steam_id":76561198034175095,"connected_time":282000000000,"state":"active","ping":75},{"user_id":620,"name":"Blingo Bloingo","steam_id":76561198275250936,"connected_time":4916000000000,"state":"active","ping":74},{"user_id":630,"name":"Rambly Dambly","steam_id":76561198844496567,"connected_time":3919000000000,"state":"active","ping":51},{"user_id":675,"name":"Thiccums","steam_id":76561198291586739,"connected_time":1202000000000,"state":"active","ping":114},{"user_id":689,"name":"Joe, Banana","steam_id":76561198077551754,"connected_time":116000000000,"state":"active","ping":68},{"user_id":645,"name":"Fumohuxi Viriphyto","steam_id":76561198369395636,"connected_time":3542000000000,"state":"active","ping":93},{"user_id":662,"name":"pyroclastic flow","steam_id":76561198095121758,"connected_time":2253000000000,"state":"active","ping":100},{"user_id":686,"name":"wtrgun","steam_id":76561198045874690,"connected_time":320000000000,"state":"active","ping":68},{"user_id":690,"name":"Real Neanderthal Shit","steam_id":76561198086991324,"connected_time":92000000000,"state":"active","ping":85},{"user_id":678,"name":"Piggy","steam_id":76561198269019428,"connected_time":1143000000000,"state":"active","ping":74},{"user_id":679,"name":"Varia Maius","steam_id":76561198249997376,"connected_time":1053000000000,"state":"active","ping":73},{"user_id":680,"name":"Supox","steam_id":76561198067468571,"connected_time":1044000000000,"state":"active","ping":60},{"user_id":632,"name":"·µê·µâ·µí ∑","steam_id":76561199200969139,"connected_time":3890000000000,"state":"active","ping":113},{"user_id":685,"name":"vulcan nightclub pon farr night","steam_id":76561197974283797,"connected_time":881000000000,"state":"active","ping":44},{"user_id":681,"name":"Very Small Giant","steam_id":76561199187337967,"connected_time":1016000000000,"state":"active","ping":77},{"user_id":673,"name":"cumgoblin","steam_id":76561198113270138,"connected_time":1267000000000,"state":"active","ping":72},{"user_id":682,"name":"Team Fartpiss Poo","steam_id":76561199163591880,"connected_time":1001000000000,"state":"active","ping":114},{"user_id":652,"name":"feed lips","steam_id":76561197971152439,"connected_time":2992000000000,"state":"active","ping":60},{"user_id":648,"name":"Hazel :3","steam_id":76561199247095754,"connected_time":3368000000000,"state":"active","ping":114},{"user_id":691,"name":"yomommasabitch","steam_id":76561198323217150,"connected_time":74000000000,"state":"active","ping":59},{"user_id":664,"name":"VinnyTheG","steam_id":76561198862202293,"connected_time":2108000000000,"state":"active","ping":88},{"user_id":684,"name":"Kvadrat","steam_id":76561198022834916,"connected_time":936000000000,"state":"active","ping":182}]},{"server_id":38,"name":"Uncletopia | Chicago | 7 | Stopwatch","name_short":"chi-7","host":"chi-2.us.uncletopia.com","port":27035,"enabled":true,"region":"us-central","cc":"us","latitude":41.881832,"longitude":-87.62318,"reserved":0,"last_update":"0001-01-01T00:00:00Z","name_a2s":"Uncletopia | Chicago | 7 | Stopwatch","protocol":17,"map":"workshop/koth_product_final.ugc454272353","folder":"tf","game":"Team Fortress","app_id":440,"player_count":0,"max_players":24,"Bots":0,"server_type":"Dedicated","server_os":"Linux","password":true,"vac":true,"version":"7961495","steam_id":85568392924866364,"keywords":["cp","nocrits","nodmgspread","uncletopia"],"game_id":440,"stv_port":27036,"stv_name":"Uncletopia | Chicago | 7 | Stopwatch | STV","players":null},{"server_id":39,"name":"Uncletopia | Chicago | 8 | Community","name_short":"chi-8","host":"chi-2.us.uncletopia.com","port":27045,"enabled":true,"region":"us-central","cc":"us","latitude":41.881832,"longitude":-87.62318,"reserved":0,"last_update":"0001-01-01T00:00:00Z","name_a2s":"Uncletopia | Chicago | 8 | Community","protocol":17,"map":"workshop/cp_caldera_rc3.ugc2834196889","folder":"tf","game":"Team Fortress","app_id":440,"player_count":0,"max_players":24,"Bots":0,"server_type":"Dedicated","server_os":"Linux","password":true,"vac":true,"version":"7961495","steam_id":85568392924866365,"keywords":["cp","nocrits","nodmgspread","uncletopia"],"game_id":440,"stv_port":27046,"stv_name":"Uncletopia | Chicago | 8 | Community | STV","players":null},{"server_id":8,"name":"Uncletopia | Dallas | 1 | All Maps","name_short":"dal-1","host":"dal-1.us.uncletopia.com","port":27015,"enabled":true,"region":"us-central","cc":"us","latitude":32.779167,"longitude":-96.80889,"reserved":0,"last_update":"0001-01-01T00:00:00Z","name_a2s":"Uncletopia | Dallas | 1 | All Maps","protocol":17,"map":"pl_frontier_final","folder":"tf","game":"Team Fortress","app_id":440,"player_count":24,"max_players":24,"Bots":0,"server_type":"Dedicated","server_os":"Linux","password":true,"vac":true,"version":"7961495","steam_id":85568392924469986,"keywords":["nocrits","nodmgspread","payload","uncletopia"],"game_id":440,"stv_port":27016,"stv_name":"Uncletopia | Dallas | 1 | All Maps | STV","players":[{"user_id":833,"name":"frank","steam_id":76561198137777483,"connected_time":716000000000,"state":"active","ping":84},{"user_id":700,"name":"SAGE(‡§∏‡§ó‡•á*)","steam_id":76561198811114074,"connected_time":13269000000000,"state":"active","ping":64},{"user_id":788,"name":"Furious George","steam_id":76561198405111646,"connected_time":4162000000000,"state":"active","ping":86},{"user_id":816,"name":"jixeff","steam_id":76561198062884624,"connected_time":2150000000000,"state":"active","ping":100},{"user_id":781,"name":"CeLeb144","steam_id":76561199089907740,"connected_time":5516000000000,"state":"active","ping":60},{"user_id":810,"name":"Zeelidox","steam_id":76561198110613375,"connected_time":2865000000000,"state":"active","ping":60},{"user_id":777,"name":"Autozone Wheel","steam_id":76561198154395780,"connected_time":6771000000000,"state":"active","ping":73},{"user_id":753,"name":"errant","steam_id":76561197961758410,"connected_time":9893000000000,"state":"active","ping":34},{"user_id":806,"name":"DA GOOFY MENACE ^_^ \u003c3","steam_id":76561198832230598,"connected_time":3574000000000,"state":"active","ping":85},{"user_id":823,"name":"gamer_2099","steam_id":76561199058461779,"connected_time":2058000000000,"state":"active","ping":73},{"user_id":812,"name":"fish","steam_id":76561198111396488,"connected_time":2277000000000,"state":"active","ping":45},{"user_id":799,"name":"DeckofDragons","steam_id":76561198057398213,"connected_time":3691000000000,"state":"active","ping":62},{"user_id":831,"name":"UrbudBenny","steam_id":76561198362317483,"connected_time":912000000000,"state":"active","ping":69},{"user_id":808,"name":"nori_420","steam_id":76561199117134203,"connected_time":3252000000000,"state":"active","ping":83},{"user_id":786,"name":"iluvtoust","steam_id":76561198869269207,"connected_time":4352000000000,"state":"active","ping":55},{"user_id":828,"name":"ZILICON","steam_id":76561199044705592,"connected_time":1335000000000,"state":"active","ping":106},{"user_id":758,"name":"Mobs","steam_id":76561198092639381,"connected_time":9293000000000,"state":"active","ping":59},{"user_id":832,"name":"Tony Hawk's Pro Skater 4","steam_id":76561198426865621,"connected_time":846000000000,"state":"active","ping":74},{"user_id":825,"name":"Nails","steam_id":76561198399261089,"connected_time":1854000000000,"state":"active","ping":76},{"user_id":838,"name":"rhsiegetank","steam_id":76561198359829118,"connected_time":76000000000,"state":"active","ping":86},{"user_id":836,"name":"MintyPawz","steam_id":76561198111430103,"connected_time":123000000000,"state":"active","ping":92},{"user_id":773,"name":"Taser! Taser!","steam_id":76561198068113347,"connected_time":7261000000000,"state":"active","ping":77},{"user_id":804,"name":"THE MENACE","steam_id":76561198312055294,"connected_time":3584000000000,"state":"active","ping":80},{"user_id":822,"name":"Passionate Map Researcher","steam_id":76561199490508357,"connected_time":2120000000000,"state":"active","ping":109}]},{"server_id":108,"name":"Uncletopia | Dallas | 2 | All Maps","name_short":"dal-2","host":"dal-1.us.uncletopia.com","port":27025,"enabled":true,"region":"us-central","cc":"us","latitude":32.779167,"longitude":-96.80889,"reserved":0,"last_update":"0001-01-01T00:00:00Z","name_a2s":"Uncletopia | Dallas | 2 | All Maps","protocol":17,"map":"koth_cascade","folder":"tf","game":"Team Fortress","app_id":440,"player_count":0,"max_players":24,"Bots":0,"server_type":"Dedicated","server_os":"Linux","password":true,"vac":true,"version":"7961495","steam_id":85568392924469988,"keywords":["cp","nocrits","nodmgspread","uncletopia"],"game_id":440,"stv_port":27026,"stv_name":"Uncletopia | Dallas | 2 | All Maps | STV","players":null},{"server_id":404,"name":"Uncletopia | Dallas | 3 | All Maps","name_short":"dal-3","host":"dal-1.us.uncletopia.com","port":27035,"enabled":true,"region":"us-central","cc":"us","latitude":32.779167,"longitude":-96.80889,"reserved":0,"last_update":"0001-01-01T00:00:00Z","name_a2s":"Uncletopia | Dallas | 3 | All Maps","protocol":17,"map":"koth_viaduct","folder":"tf","game":"Team Fortress","app_id":440,"player_count":0,"max_players":24,"Bots":0,"server_type":"Dedicated","server_os":"Linux","password":true,"vac":true,"version":"7961495","steam_id":85568392924515219,"keywords":["cp","nocrits","nodmgspread","uncletopia"],"game_id":440,"stv_port":27036,"stv_name":"Uncletopia | Dallas | 3 | All Maps | STV","players":null},{"server_id":405,"name":"Uncletopia | Dallas | 4 | Community","name_short":"dal-4","host":"dal-1.us.uncletopia.com","port":27045,"enabled":true,"region":"us-central","cc":"us","latitude":32.779167,"longitude":-96.80889,"reserved":0,"last_update":"0001-01-01T00:00:00Z","name_a2s":"Uncletopia | Dallas | 4 | Community","protocol":17,"map":"workshop/koth_kemptown_rc1.ugc767410655","folder":"tf","game":"Team Fortress","app_id":440,"player_count":0,"max_players":24,"Bots":0,"server_type":"Dedicated","server_os":"Linux","password":true,"vac":true,"version":"7961495","steam_id":85568392924515220,"keywords":["cp","nocrits","nodmgspread","uncletopia"],"game_id":440,"stv_port":27046,"stv_name":"Uncletopia | Dallas | 4 | Community | STV","players":null},{"server_id":5,"name":"Uncletopia | Frankfurt | 1 | All Maps","name_short":"frk-1","host":"frk-1.de.uncletopia.com","port":27015,"enabled":true,"region":"eu","cc":"de","latitude":50.110924,"longitude":8.682127,"reserved":0,"last_update":"0001-01-01T00:00:00Z","name_a2s":"Uncletopia | Frankfurt | 1 | All Maps","protocol":17,"map":"cp_snakewater_final1","folder":"tf","game":"Team Fortress","app_id":440,"player_count":7,"max_players":24,"Bots":0,"server_type":"Dedicated","server_os":"Linux","password":true,"vac":true,"version":"7961495","steam_id":85568392924469989,"keywords":["cp","nocrits","nodmgspread","uncletopia"],"game_id":440,"stv_port":27016,"stv_name":"Uncletopia | Frankfurt | 1 | All Maps | STV","players":[{"user_id":3,"name":"Alfrink","steam_id":76561198038403964,"connected_time":922000000000,"state":"active","ping":49},{"user_id":4,"name":"Carlos Matos[\u003e'-']\u003e","steam_id":76561198120018100,"connected_time":915000000000,"state":"active","ping":36},{"user_id":5,"name":"Lord_Tarek","steam_id":76561198338911390,"connected_time":903000000000,"state":"active","ping":52},{"user_id":11,"name":"SOBAKIN_F","steam_id":76561199226117708,"connected_time":189000000000,"state":"active","ping":114},{"user_id":7,"name":"Link427","steam_id":76561198024468633,"connected_time":857000000000,"state":"active","ping":46},{"user_id":8,"name":"Jotun","steam_id":76561199015161498,"connected_time":796000000000,"state":"active","ping":90},{"user_id":12,"name":"Stinky Whizzleteats","steam_id":76561197968945306,"connected_time":46000000000,"state":"active","ping":74}]},{"server_id":110,"name":"Uncletopia | Frankfurt | 2 | All Maps","name_short":"frk-2","host":"frk-1.de.uncletopia.com","port":27025,"enabled":true,"region":"eu","cc":"de","latitude":50.110924,"longitude":8.682127,"reserved":0,"last_update":"0001-01-01T00:00:00Z","name_a2s":"Uncletopia | Frankfurt | 2 | All Maps","protocol":17,"map":"cp_coldfront","folder":"tf","game":"Team Fortress","app_id":440,"player_count":0,"max_players":24,"Bots":0,"server_type":"Dedicated","server_os":"Linux","password":true,"vac":true,"version":"7961495","steam_id":85568392924469990,"keywords":["cp","nocrits","nodmgspread","uncletopia"],"game_id":440,"stv_port":27026,"stv_name":"Uncletopia | Frankfurt | 2 | All Maps | STV","players":null},{"server_id":308,"name":"Uncletopia | Frankfurt | 3 | All Maps","name_short":"frk-3","host":"frk-1.de.uncletopia.com","port":27035,"enabled":true,"region":"eu","cc":"de","latitude":50.110924,"longitude":8.682127,"reserved":0,"last_update":"0001-01-01T00:00:00Z","name_a2s":"Uncletopia | Frankfurt | 3 | All Maps","protocol":17,"map":"plr_pipeline","folder":"tf","game":"Team Fortress","app_id":440,"player_count":0,"max_players":24,"Bots":0,"server_type":"Dedicated","server_os":"Linux","password":true,"vac":true,"version":"7961495","steam_id":85568392924504274,"keywords":["nocrits","nodmgspread","payload","uncletopia"],"game_id":440,"stv_port":27036,"stv_name":"Uncletopia | Frankfurt | 3 | All Maps | STV","players":null},{"server_id":309,"name":"Uncletopia | Frankfurt | 4 | All Maps","name_short":"frk-4","host":"frk-1.de.uncletopia.com","port":27045,"enabled":true,"region":"eu","cc":"de","latitude":50.110924,"longitude":8.682127,"reserved":0,"last_update":"0001-01-01T00:00:00Z","name_a2s":"Uncletopia | Frankfurt | 4 | All Maps","protocol":17,"map":"koth_lakeside_final","folder":"tf","game":"Team Fortress","app_id":440,"player_count":0,"max_players":24,"Bots":0,"server_type":"Dedicated","server_os":"Linux","password":true,"vac":true,"version":"7961495","steam_id":85568392924504275,"keywords":["cp","nocrits","nodmgspread","uncletopia"],"game_id":440,"stv_port":27046,"stv_name":"Uncletopia | Frankfurt | 4 | All Maps | STV","players":null},{"server_id":310,"name":"Uncletopia | Frankfurt | 5 | All Maps","name_short":"frk-5","host":"frk-1.de.uncletopia.com","port":27055,"enabled":true,"region":"eu","cc":"de","latitude":50.110924,"longitude":8.682127,"reserved":0,"last_update":"0001-01-01T00:00:00Z","name_a2s":"Uncletopia | Frankfurt | 5 | All Maps","protocol":17,"map":"cp_sunshine","folder":"tf","game":"Team Fortress","app_id":440,"player_count":0,"max_players":24,"Bots":0,"server_type":"Dedicated","server_os":"Linux","password":true,"vac":true,"version":"7961495","steam_id":85568392924504277,"keywords":["cp","nocrits","nodmgspread","uncletopia"],"game_id":440,"stv_port":27056,"stv_name":"Uncletopia | Frankfurt | 5 | All Maps | STV","players":null},{"server_id":311,"name":"Uncletopia | Frankfurt | 6 | All Maps","name_short":"frk-6","host":"frk-1.de.uncletopia.com","port":27065,"enabled":true,"region":"eu","cc":"de","latitude":50.110924,"longitude":8.682127,"reserved":0,"last_update":"0001-01-01T00:00:00Z","name_a2s":"Uncletopia | Frankfurt | 6 | All Maps","protocol":17,"map":"koth_cascade","folder":"tf","game":"Team Fortress","app_id":440,"player_count":0,"max_players":24,"Bots":0,"server_type":"Dedicated","server_os":"Linux","password":true,"vac":true,"version":"7961495","steam_id":85568392924504278,"keywords":["cp","nocrits","nodmgspread","uncletopia"],"game_id":440,"stv_port":27066,"stv_name":"Uncletopia | Frankfurt | 6 | All Maps | STV","players":null},{"server_id":23,"name":"Uncletopia | Frankfurt | 7 | Stopwatch","name_short":"frk-7","host":"frk-1.de.uncletopia.com","port":27075,"enabled":true,"region":"eu","cc":"de","latitude":50.110924,"longitude":8.682127,"reserved":0,"last_update":"0001-01-01T00:00:00Z","name_a2s":"Uncletopia | Frankfurt | 7 | Stopwatch","protocol":17,"map":"koth_highpass","folder":"tf","game":"Team Fortress","app_id":440,"player_count":0,"max_players":24,"Bots":0,"server_type":"Dedicated","server_os":"Linux","password":true,"vac":true,"version":"7961495","steam_id":85568392924742827,"keywords":["cp","nocrits","nodmgspread","uncletopia"],"game_id":440,"stv_port":27076,"stv_name":"Uncletopia | Frankfurt | 7 | Stopwatch | STV","players":null},{"server_id":24,"name":"Uncletopia | Frankfurt | 8 | Community","name_short":"frk-8","host":"frk-1.de.uncletopia.com","port":27085,"enabled":true,"region":"eu","cc":"de","latitude":50.110924,"longitude":8.682127,"reserved":0,"last_update":"0001-01-01T00:00:00Z","name_a2s":"Uncletopia | Frankfurt | 8 | Community","protocol":17,"map":"workshop/pl_stallberg_rc3.ugc1849111469","folder":"tf","game":"Team Fortress","app_id":440,"player_count":0,"max_players":24,"Bots":0,"server_type":"Dedicated","server_os":"Linux","password":true,"vac":true,"version":"7961495","steam_id":85568392924742828,"keywords":["nocrits","nodmgspread","payload","uncletopia"],"game_id":440,"stv_port":27086,"stv_name":"Uncletopia | Frankfurt | 8 | Community | STV","players":null},{"server_id":202,"name":"Uncletopia | Hong Kong | 1 | All Maps","name_short":"hgk-1","host":"hgk-1.hk.uncletopia.com","port":27015,"enabled":true,"region":"asia","cc":"hk","latitude":22.302711,"longitude":114.177216,"reserved":0,"last_update":"0001-01-01T00:00:00Z","name_a2s":"Uncletopia | Hong Kong | 1 | All Maps","protocol":17,"map":"ctf_well","folder":"tf","game":"Team Fortress","app_id":440,"player_count":11,"max_players":24,"Bots":0,"server_type":"Dedicated","server_os":"Linux","password":true,"vac":true,"version":"7961495","steam_id":85568392924494504,"keywords":["ctf","nocrits","nodmgspread","uncletopia"],"game_id":440,"stv_port":27016,"stv_name":"Uncletopia | Hong Kong | 1 | All Maps | STV","players":[{"user_id":31,"name":"ArcticDolphin","steam_id":76561198203626319,"connected_time":3200000000000,"state":"active","ping":134},{"user_id":75,"name":"hodio","steam_id":76561198204747977,"connected_time":131000000000,"state":"active","ping":64},{"user_id":70,"name":"villy","steam_id":76561198169263597,"connected_time":386000000000,"state":"active","ping":38},{"user_id":76,"name":"who ops","steam_id":76561199144084820,"connected_time":46000000000,"state":"active","ping":125},{"user_id":74,"name":"overdozed","steam_id":76561198318292720,"connected_time":198000000000,"state":"active","ping":116},{"user_id":46,"name":"Rephex","steam_id":76561198308185574,"connected_time":1799000000000,"state":"active","ping":164},{"user_id":40,"name":"net broken","steam_id":76561199017344476,"connected_time":2490000000000,"state":"active","ping":88},{"user_id":67,"name":"Joilee32","steam_id":76561199226255440,"connected_time":755000000000,"state":"active","ping":78},{"user_id":68,"name":"ùêçùêóùêÇùêÑùêÉùêÄ","steam_id":76561199295246830,"connected_time":711000000000,"state":"active","ping":79},{"user_id":56,"name":"nasusunog na tae","steam_id":76561199509295928,"connected_time":1440000000000,"state":"active","ping":72},{"user_id":60,"name":"Haru","steam_id":76561198240627872,"connected_time":1337000000000,"state":"active","ping":51}]},{"server_id":1,"name":"Uncletopia | Los Angeles | 1 | All Maps","name_short":"lax-1","host":"lax-1.us.uncletopia.com","port":27015,"enabled":true,"region":"us-west","cc":"us","latitude":33.94279,"longitude":-118.41004,"reserved":0,"last_update":"0001-01-01T00:00:00Z","name_a2s":"Uncletopia | Los Angeles | 1 | All Maps","protocol":17,"map":"cp_sunshine","folder":"tf","game":"Team Fortress","app_id":440,"player_count":24,"max_players":24,"Bots":0,"server_type":"Dedicated","server_os":"Linux","password":true,"vac":true,"version":"7961495","steam_id":85568392924469991,"keywords":["cp","nocrits","nodmgspread","uncletopia"],"game_id":440,"stv_port":27016,"stv_name":"Uncletopia | Los Angeles | 1 | All Maps | STV","players":[{"user_id":497,"name":"Endzilla88","steam_id":76561198257926514,"connected_time":3966000000000,"state":"active","ping":115},{"user_id":487,"name":"Eden","steam_id":76561198081284664,"connected_time":5079000000000,"state":"active","ping":59},{"user_id":503,"name":"nella","steam_id":76561198079349621,"connected_time":3192000000000,"state":"active","ping":52},{"user_id":439,"name":"Seshreb","steam_id":76561198846614634,"connected_time":9248000000000,"state":"active","ping":58},{"user_id":518,"name":"BBQ Pig","steam_id":76561198102392020,"connected_time":1127000000000,"state":"active","ping":54},{"user_id":498,"name":"Wendall555","steam_id":76561198985637603,"connected_time":3892000000000,"state":"active","ping":50},{"user_id":474,"name":"Mr.Rogers","steam_id":76561198043878683,"connected_time":6709000000000,"state":"active","ping":53},{"user_id":467,"name":"selvhat","steam_id":76561198114225509,"connected_time":7167000000000,"state":"active","ping":53},{"user_id":525,"name":"rmbl","steam_id":76561198150137369,"connected_time":82000000000,"state":"active","ping":45},{"user_id":511,"name":"KlassicLoL","steam_id":76561198081815303,"connected_time":2161000000000,"state":"active","ping":48},{"user_id":517,"name":"Whisper!","steam_id":76561198119609795,"connected_time":1341000000000,"state":"active","ping":55},{"user_id":478,"name":"a chicken","steam_id":76561198313121580,"connected_time":6399000000000,"state":"active","ping":47},{"user_id":519,"name":"Soft copper wings","steam_id":76561198092317849,"connected_time":956000000000,"state":"active","ping":46},{"user_id":507,"name":"guts' theme (Cut \u0026 Looped)","steam_id":76561198012829728,"connected_time":2879000000000,"state":"active","ping":95},{"user_id":522,"name":"Lil Babee","steam_id":76561198059846909,"connected_time":423000000000,"state":"active","ping":65},{"user_id":454,"name":"Attrition","steam_id":76561197969881916,"connected_time":8231000000000,"state":"active","ping":84},{"user_id":485,"name":"FROYO b4nny","steam_id":76561197970669109,"connected_time":5470000000000,"state":"active","ping":54},{"user_id":520,"name":"sherbp","steam_id":76561198357132470,"connected_time":956000000000,"state":"active","ping":59},{"user_id":506,"name":"bladees realest, saddest verse","steam_id":76561198098099826,"connected_time":3140000000000,"state":"active","ping":72},{"user_id":521,"name":"Big Chad","steam_id":76561198015304658,"connected_time":524000000000,"state":"active","ping":109},{"user_id":523,"name":"social anxiety","steam_id":76561198308071306,"connected_time":183000000000,"state":"active","ping":45},{"user_id":526,"name":"turdLdestroyer64","steam_id":76561198070854627,"connected_time":46000000000,"state":"active","ping":60},{"user_id":482,"name":"HAT-WEARING‚Ñ¢ Maggot Gamer Cat","steam_id":76561197973992705,"connected_time":6224000000000,"state":"active","ping":60},{"user_id":502,"name":"MineOpal","steam_id":76561198044716407,"connected_time":3224000000000,"state":"active","ping":42}]},{"server_id":112,"name":"Uncletopia | Los Angeles | 2 | All Maps","name_short":"lax-2","host":"lax-1.us.uncletopia.com","port":27025,"enabled":true,"region":"us-west","cc":"us","latitude":33.94279,"longitude":-118.41004,"reserved":0,"last_update":"0001-01-01T00:00:00Z","name_a2s":"Uncletopia | Los Angeles | 2 | All Maps","protocol":17,"map":"koth_lakeside_final","folder":"tf","game":"Team Fortress","app_id":440,"player_count":0,"max_players":24,"Bots":0,"server_type":"Dedicated","server_os":"Linux","password":true,"vac":true,"version":"7961495","steam_id":85568392924469992,"keywords":["cp","nocrits","nodmgspread","uncletopia"],"game_id":440,"stv_port":27026,"stv_name":"Uncletopia | Los Angeles | 2 | All Maps | STV","players":null},{"server_id":324,"name":"Uncletopia | Los Angeles | 3 | All Maps","name_short":"lax-3","host":"lax-1.us.uncletopia.com","port":27035,"enabled":true,"region":"us-west","cc":"us","latitude":33.94279,"longitude":-118.41004,"reserved":0,"last_update":"0001-01-01T00:00:00Z","name_a2s":"Uncletopia | Los Angeles | 3 | All Maps","protocol":17,"map":"pl_snowycoast","folder":"tf","game":"Team Fortress","app_id":440,"player_count":0,"max_players":24,"Bots":0,"server_type":"Dedicated","server_os":"Linux","password":true,"vac":true,"version":"7961495","steam_id":85568392924510198,"keywords":["nocrits","nodmgspread","payload","uncletopia"],"game_id":440,"stv_port":27036,"stv_name":"Uncletopia | Los Angeles | 3 | All Maps | STV","players":null},{"server_id":25,"name":"Uncletopia | Los Angeles | 4 | Stopwatch","name_short":"lax-4","host":"lax-1.us.uncletopia.com","port":27045,"enabled":true,"region":"us-west","cc":"us","latitude":33.94279,"longitude":-118.41004,"reserved":0,"last_update":"0001-01-01T00:00:00Z","name_a2s":"Uncletopia | Los Angeles | 4 | Stopwatch","protocol":17,"map":"workshop/koth_product_final.ugc454272353","folder":"tf","game":"Team Fortress","app_id":440,"player_count":0,"max_players":24,"Bots":0,"server_type":"Dedicated","server_os":"Linux","password":true,"vac":true,"version":"7961495","steam_id":85568392924510199,"keywords":["cp","nocrits","nodmgspread","uncletopia"],"game_id":440,"stv_port":27046,"stv_name":"Uncletopia | Los Angeles | 4 | Stopwatch | STV","players":null},{"server_id":11,"name":"Uncletopia | London | 1 | All Maps","name_short":"lon-1","host":"lon-1.uk.uncletopia.com","port":27015,"enabled":true,"region":"eu","cc":"gb","latitude":51.509865,"longitude":-0.118092,"reserved":0,"last_update":"0001-01-01T00:00:00Z","name_a2s":"Uncletopia | London | 1 | All Maps","protocol":17,"map":"pl_snowycoast","folder":"tf","game":"Team Fortress","app_id":440,"player_count":24,"max_players":24,"Bots":0,"server_type":"Dedicated","server_os":"Linux","password":true,"vac":true,"version":"7961495","steam_id":85568392924367362,"keywords":["nocrits","nodmgspread","payload","uncletopia"],"game_id":440,"stv_port":27016,"stv_name":"Uncletopia | London | 1 | All Maps | STV","players":[{"user_id":117,"name":"Stellar Fox","steam_id":76561198236985244,"connected_time":61000000000,"state":"active","ping":73},{"user_id":99,"name":"Saint","steam_id":76561198003296382,"connected_time":1879000000000,"state":"active","ping":72},{"user_id":94,"name":"Nokah","steam_id":76561198973184361,"connected_time":2525000000000,"state":"active","ping":67},{"user_id":46,"name":"Siegmeyer","steam_id":76561198328543549,"connected_time":5896000000000,"state":"active","ping":91},{"user_id":93,"name":"pulsar","steam_id":76561198842123868,"connected_time":2592000000000,"state":"active","ping":105},{"user_id":109,"name":"Momovsky","steam_id":76561198005738407,"connected_time":1044000000000,"state":"active","ping":87},{"user_id":102,"name":"turtlemage","steam_id":76561198052452373,"connected_time":1246000000000,"state":"active","ping":61},{"user_id":35,"name":"Rocket Queen's consort","steam_id":76561198092995429,"connected_time":6544000000000,"state":"active","ping":136},{"user_id":66,"name":"Coac","steam_id":76561198085265740,"connected_time":4055000000000,"state":"active","ping":75},{"user_id":47,"name":"Loudladdy","steam_id":76561198095271834,"connected_time":5657000000000,"state":"active","ping":43},{"user_id":14,"name":"Chaffy2125","steam_id":76561198232839260,"connected_time":8778000000000,"state":"active","ping":39},{"user_id":110,"name":"I LOVE THE BISON","steam_id":76561199265289808,"connected_time":970000000000,"state":"active","ping":113},{"user_id":83,"name":"Yassine","steam_id":76561198140565712,"connected_time":2999000000000,"state":"active","ping":56},{"user_id":111,"name":"Headhunter","steam_id":76561198094427417,"connected_time":593000000000,"state":"active","ping":57},{"user_id":114,"name":"DVS","steam_id":76561198062909843,"connected_time":496000000000,"state":"active","ping":50},{"user_id":90,"name":"Rustyunderscore","steam_id":76561198277177996,"connected_time":2747000000000,"state":"active","ping":50},{"user_id":100,"name":"[Thrall891]","steam_id":76561198136402128,"connected_time":1491000000000,"state":"active","ping":88},{"user_id":107,"name":"Ajt√≥ember","steam_id":76561198084106272,"connected_time":1207000000000,"state":"active","ping":69},{"user_id":105,"name":"dafydd","steam_id":76561198052200325,"connected_time":1227000000000,"state":"active","ping":94},{"user_id":54,"name":"Struix","steam_id":76561199413463591,"connected_time":4828000000000,"state":"active","ping":84},{"user_id":108,"name":"on1on (juicy)","steam_id":76561197995304137,"connected_time":1187000000000,"state":"active","ping":63},{"user_id":60,"name":"Kitty","steam_id":76561198171073057,"connected_time":4510000000000,"state":"active","ping":35},{"user_id":116,"name":"Drift7114","steam_id":76561199044419505,"connected_time":163000000000,"state":"active","ping":60},{"user_id":75,"name":"tim","steam_id":76561198801490317,"connected_time":3978000000000,"state":"active","ping":113}]},{"server_id":114,"name":"Uncletopia | London | 2 | All Maps","name_short":"lon-2","host":"lon-1.uk.uncletopia.com","port":27025,"enabled":true,"region":"eu","cc":"gb","latitude":51.509865,"longitude":-0.118092,"reserved":0,"last_update":"0001-01-01T00:00:00Z","name_a2s":"Uncletopia | London | 2 | All Maps","protocol":17,"map":"cp_mountainlab","folder":"tf","game":"Team Fortress","app_id":440,"player_count":0,"max_players":24,"Bots":0,"server_type":"Dedicated","server_os":"Linux","password":true,"vac":true,"version":"7961495","steam_id":85568392924470941,"keywords":["cp","nocrits","nodmgspread","uncletopia"],"game_id":440,"stv_port":27026,"stv_name":"Uncletopia | London | 2 | All Maps | STV","players":null},{"server_id":320,"name":"Uncletopia | London | 3 | All Maps","name_short":"lon-3","host":"lon-1.uk.uncletopia.com","port":27035,"enabled":true,"region":"eu","cc":"gb","latitude":51.509865,"longitude":-0.118092,"reserved":0,"last_update":"0001-01-01T00:00:00Z","name_a2s":"Uncletopia | London | 3 | All Maps","protocol":17,"map":"cp_mountainlab","folder":"tf","game":"Team Fortress","app_id":440,"player_count":0,"max_players":24,"Bots":0,"server_type":"Dedicated","server_os":"Linux","password":true,"vac":true,"version":"7961495","steam_id":85568392924510192,"keywords":["cp","nocrits","nodmgspread","uncletopia"],"game_id":440,"stv_port":27036,"stv_name":"Uncletopia | London | 3 | All Maps | STV","players":null},{"server_id":321,"name":"Uncletopia | London | 4 | All Maps","name_short":"lon-4","host":"lon-1.uk.uncletopia.com","port":27045,"enabled":true,"region":"eu","cc":"gb","latitude":51.509865,"longitude":-0.118092,"reserved":0,"last_update":"0001-01-01T00:00:00Z","name_a2s":"Uncletopia | London | 4 | All Maps","protocol":17,"map":"pl_badwater","folder":"tf","game":"Team Fortress","app_id":440,"player_count":0,"max_players":24,"Bots":0,"server_type":"Dedicated","server_os":"Linux","password":true,"vac":true,"version":"7961495","steam_id":85568392924510193,"keywords":["nocrits","nodmgspread","payload","uncletopia"],"game_id":440,"stv_port":27046,"stv_name":"Uncletopia | London | 4 | All Maps | STV","players":null},{"server_id":21,"name":"Uncletopia | London | 5 | All Maps","name_short":"lon-5","host":"lon-1.uk.uncletopia.com","port":27055,"enabled":true,"region":"eu","cc":"gb","latitude":51.509865,"longitude":-0.118092,"reserved":0,"last_update":"0001-01-01T00:00:00Z","name_a2s":"Uncletopia | London | 5 | All Maps","protocol":17,"map":"koth_suijin","folder":"tf","game":"Team Fortress","app_id":440,"player_count":0,"max_players":24,"Bots":0,"server_type":"Dedicated","server_os":"Linux","password":true,"vac":true,"version":"7961495","steam_id":85568392924742829,"keywords":["cp","nocrits","nodmgspread","uncletopia"],"game_id":440,"stv_port":27056,"stv_name":"Uncletopia | London | 5 | All Maps | STV","players":null},{"server_id":22,"name":"Uncletopia | London | 6 | All Maps","name_short":"lon-6","host":"lon-1.uk.uncletopia.com","port":27065,"enabled":true,"region":"eu","cc":"gb","latitude":51.509865,"longitude":-0.118092,"reserved":0,"last_update":"0001-01-01T00:00:00Z","name_a2s":"Uncletopia | London | 6 | All Maps","protocol":17,"map":"cp_dustbowl","folder":"tf","game":"Team Fortress","app_id":440,"player_count":0,"max_players":24,"Bots":0,"server_type":"Dedicated","server_os":"Linux","password":true,"vac":true,"version":"7961495","steam_id":85568392924742830,"keywords":["cp","nocrits","nodmgspread","uncletopia"],"game_id":440,"stv_port":27066,"stv_name":"Uncletopia | London | 6 | All Maps | STV","players":null},{"server_id":40,"name":"Uncletopia | London | 7 | Stopwatch","name_short":"lon-7","host":"lon-1.uk.uncletopia.com","port":27075,"enabled":true,"region":"eu","cc":"gb","latitude":51.509865,"longitude":-0.118092,"reserved":0,"last_update":"0001-01-01T00:00:00Z","name_a2s":"Uncletopia | London | 7 | Stopwatch","protocol":17,"map":"pl_swiftwater_final1","folder":"tf","game":"Team Fortress","app_id":440,"player_count":0,"max_players":24,"Bots":0,"server_type":"Dedicated","server_os":"Linux","password":true,"vac":true,"version":"7961495","steam_id":85568392924964314,"keywords":["nocrits","nodmgspread","payload","uncletopia"],"game_id":440,"stv_port":27076,"stv_name":"Uncletopia | London | 7 | Stopwatch | STV","players":null},{"server_id":41,"name":"Uncletopia | London | 8 | Community","name_short":"lon-8","host":"lon-1.uk.uncletopia.com","port":27085,"enabled":true,"region":"eu","cc":"gb","latitude":51.509865,"longitude":-0.118092,"reserved":0,"last_update":"0001-01-01T00:00:00Z","name_a2s":"Uncletopia | London | 8 | Community","protocol":17,"map":"workshop/cp_propaganda_b18.ugc1603743849","folder":"tf","game":"Team Fortress","app_id":440,"player_count":0,"max_players":24,"Bots":0,"server_type":"Dedicated","server_os":"Linux","password":true,"vac":true,"version":"7961495","steam_id":85568392924964315,"keywords":["cp","nocrits","nodmgspread","uncletopia"],"game_id":440,"stv_port":27086,"stv_name":"Uncletopia | London | 8 | Community | STV","players":null},{"server_id":300,"name":"Uncletopia | Montr√©al | 1 | One Thousand Uncles","name_short":"mtl-1","host":"mtl-1.ca.uncletopia.com","port":27015,"enabled":true,"region":"us-east","cc":"ca","latitude":45.50889,"longitude":-73.56167,"reserved":0,"last_update":"0001-01-01T00:00:00Z","name_a2s":"Uncletopia | Montr√©al | 1 | One Thousand Uncles","protocol":17,"map":"cp_altitude","folder":"tf","game":"Team Fortress","app_id":440,"player_count":23,"max_players":32,"Bots":20,"server_type":"Dedicated","server_os":"Linux","password":true,"vac":true,"version":"7961495","steam_id":85568392924500087,"keywords":["alltalk","bots","cp","danepve","increased_maxplayers","norespawntime","uncletopia"],"game_id":440,"stv_port":0,"stv_name":"","players":[{"user_id":580,"name":"crazybear129","steam_id":76561199266097660,"connected_time":5322000000000,"state":"active","ping":110},{"user_id":582,"name":"Femboy Gaming","steam_id":76561199382783363,"connected_time":3352000000000,"state":"active","ping":98},{"user_id":584,"name":"sting","steam_id":76561199475023166,"connected_time":2775000000000,"state":"active","ping":321}]},{"server_id":301,"name":"Uncletopia | Montr√©al | 2 | One Thousand Uncles","name_short":"mtl-2","host":"mtl-1.ca.uncletopia.com","port":27025,"enabled":true,"region":"us-east","cc":"ca","latitude":45.50889,"longitude":-73.56167,"reserved":0,"last_update":"0001-01-01T00:00:00Z","name_a2s":"Uncletopia | Montr√©al | 2 | One Thousand Uncles","protocol":17,"map":"cp_mossrock","folder":"tf","game":"Team Fortress","app_id":440,"player_count":0,"max_players":32,"Bots":0,"server_type":"Dedicated","server_os":"Linux","password":true,"vac":true,"version":"7961495","steam_id":85568392924500088,"keywords":["alltalk","cp","danepve","increased_maxplayers","norespawntime","uncletopia"],"game_id":440,"stv_port":0,"stv_name":"","players":null},{"server_id":302,"name":"Uncletopia | Montr√©al | 3 | One Thousand Uncles","name_short":"mtl-3","host":"mtl-1.ca.uncletopia.com","port":27035,"enabled":true,"region":"us-east","cc":"ca","latitude":45.50889,"longitude":-73.56167,"reserved":0,"last_update":"0001-01-01T00:00:00Z","name_a2s":"Uncletopia | Montr√©al | 3 | One Thousand Uncles","protocol":17,"map":"pl_upward","folder":"tf","game":"Team Fortress","app_id":440,"player_count":0,"max_players":32,"Bots":0,"server_type":"Dedicated","server_os":"Linux","password":true,"vac":true,"version":"7961495","steam_id":85568392924500089,"keywords":["alltalk","danepve","increased_maxplayers","norespawntime","payload","uncletopia"],"game_id":440,"stv_port":0,"stv_name":"","players":null},{"server_id":13,"name":"Uncletopia | New York City | 1 | All Maps","name_short":"nyc-1","host":"nyc-1.us.uncletopia.com","port":27015,"enabled":true,"region":"us-east","cc":"us","latitude":40.73061,"longitude":-73.93524,"reserved":0,"last_update":"0001-01-01T00:00:00Z","name_a2s":"Uncletopia | New York City | 1 | All Maps","protocol":17,"map":"cp_gorge","folder":"tf","game":"Team Fortress","app_id":440,"player_count":24,"max_players":24,"Bots":0,"server_type":"Dedicated","server_os":"Linux","password":true,"vac":true,"version":"7961495","steam_id":85568392924469993,"keywords":["cp","nocrits","nodmgspread","uncletopia"],"game_id":440,"stv_port":27016,"stv_name":"Uncletopia | New York City | 1 | All Maps | STV","players":[{"user_id":907,"name":"Drink My Viscera","steam_id":76561198164782653,"connected_time":2938000000000,"state":"active","ping":46},{"user_id":909,"name":"oppenheimer style","steam_id":76561198026664629,"connected_time":2913000000000,"state":"active","ping":47},{"user_id":908,"name":"gerg","steam_id":76561197997127387,"connected_time":2935000000000,"state":"active","ping":110},{"user_id":937,"name":"Smoke","steam_id":76561198071892587,"connected_time":379000000000,"state":"active","ping":111},{"user_id":910,"name":"wugmup","steam_id":76561199096287734,"connected_time":2885000000000,"state":"active","ping":116},{"user_id":944,"name":"big shot","steam_id":76561199350870177,"connected_time":282000000000,"state":"active","ping":75},{"user_id":896,"name":"Tsuki","steam_id":76561198169233358,"connected_time":4205000000000,"state":"active","ping":79},{"user_id":903,"name":"airy","steam_id":76561198174632198,"connected_time":3621000000000,"state":"active","ping":76},{"user_id":899,"name":"Queen Khan","steam_id":76561198157958461,"connected_time":4089000000000,"state":"active","ping":119},{"user_id":935,"name":"zpalmtree","steam_id":76561198134307620,"connected_time":839000000000,"state":"active","ping":74},{"user_id":939,"name":"Acanthus","steam_id":76561198059420693,"connected_time":368000000000,"state":"active","ping":58},{"user_id":932,"name":"Society Crusher","steam_id":76561198042059080,"connected_time":940000000000,"state":"active","ping":109},{"user_id":922,"name":"SenorMouse","steam_id":76561197992083233,"connected_time":1902000000000,"state":"active","ping":130},{"user_id":941,"name":"BuncusBeffer","steam_id":76561198285936616,"connected_time":339000000000,"state":"active","ping":131},{"user_id":887,"name":"Ludcmorais","steam_id":76561198359217809,"connected_time":5245000000000,"state":"active","ping":178},{"user_id":942,"name":"ZestyTrev","steam_id":76561198253391039,"connected_time":331000000000,"state":"active","ping":91},{"user_id":934,"name":"GhostCoffee","steam_id":76561198105228900,"connected_time":935000000000,"state":"active","ping":43},{"user_id":921,"name":"Atlas Troll","steam_id":76561198044421058,"connected_time":1913000000000,"state":"active","ping":57},{"user_id":926,"name":"Saligator","steam_id":76561198026287386,"connected_time":1708000000000,"state":"active","ping":137},{"user_id":945,"name":"Bought a Pc for a Controller","steam_id":76561198068654532,"connected_time":146000000000,"state":"active","ping":61},{"user_id":927,"name":"Google Boobs","steam_id":76561198822505204,"connected_time":1647000000000,"state":"active","ping":129},{"user_id":875,"name":"Mufalito","steam_id":76561198951889482,"connected_time":6016000000000,"state":"active","ping":124},{"user_id":946,"name":"SevenSuns","steam_id":76561198434263375,"connected_time":103000000000,"state":"active","ping":110},{"user_id":906,"name":"social distance warrior","steam_id":76561198128992994,"connected_time":2951000000000,"state":"active","ping":105}]},{"server_id":14,"name":"Uncletopia | New York City | 2 | All Maps","name_short":"nyc-2","host":"nyc-1.us.uncletopia.com","port":27025,"enabled":true,"region":"us-east","cc":"us","latitude":40.73061,"longitude":-73.93524,"reserved":0,"last_update":"0001-01-01T00:00:00Z","name_a2s":"Uncletopia | New York City | 2 | All Maps","protocol":17,"map":"koth_cascade","folder":"tf","game":"Team Fortress","app_id":440,"player_count":0,"max_players":24,"Bots":0,"server_type":"Dedicated","server_os":"Linux","password":true,"vac":true,"version":"7961495","steam_id":85568392924469994,"keywords":["cp","nocrits","nodmgspread","uncletopia"],"game_id":440,"stv_port":27026,"stv_name":"Uncletopia | New York City | 2 | All Maps | STV","players":null},{"server_id":15,"name":"Uncletopia | New York City | 3 | Stopwatch","name_short":"nyc-3","host":"nyc-1.us.uncletopia.com","port":27035,"enabled":true,"region":"us-east","cc":"us","latitude":40.73061,"longitude":-73.93524,"reserved":0,"last_update":"0001-01-01T00:00:00Z","name_a2s":"Uncletopia | New York City | 3 | Stopwatch","protocol":17,"map":"workshop/cp_reckoner_rc6.ugc674719999","folder":"tf","game":"Team Fortress","app_id":440,"player_count":0,"max_players":24,"Bots":0,"server_type":"Dedicated","server_os":"Linux","password":true,"vac":true,"version":"7961495","steam_id":85568392924742820,"keywords":["cp","nocrits","nodmgspread","uncletopia"],"game_id":440,"stv_port":27036,"stv_name":"Uncletopia | New York City | 3 | Stopwatch | STV","players":null},{"server_id":16,"name":"Uncletopia | New York City | 4 | Community","name_short":"nyc-4","host":"nyc-1.us.uncletopia.com","port":27045,"enabled":true,"region":"us-east","cc":"us","latitude":40.73061,"longitude":-73.93524,"reserved":0,"last_update":"0001-01-01T00:00:00Z","name_a2s":"Uncletopia | New York City | 4 | Community","protocol":17,"map":"workshop/cp_propaganda_b18.ugc1603743849","folder":"tf","game":"Team Fortress","app_id":440,"player_count":0,"max_players":24,"Bots":0,"server_type":"Dedicated","server_os":"Linux","password":true,"vac":true,"version":"7961495","steam_id":85568392924742821,"keywords":["cp","nocrits","nodmgspread","uncletopia"],"game_id":440,"stv_port":27046,"stv_name":"Uncletopia | New York City | 4 | Community | STV","players":null},{"server_id":142,"name":"Uncletopia | S√£o Paulo | 1 | All Maps","name_short":"sao-1","host":"sao-1.br.uncletopia.com","port":27015,"enabled":true,"region":"sa","cc":"br","latitude":-23.533773,"longitude":-46.62529,"reserved":0,"last_update":"0001-01-01T00:00:00Z","name_a2s":"Uncletopia | S√£o Paulo | 1 | All Maps","protocol":17,"map":"pl_barnblitz","folder":"tf","game":"Team Fortress","app_id":440,"player_count":0,"max_players":24,"Bots":0,"server_type":"Dedicated","server_os":"Linux","password":true,"vac":true,"version":"7961495","steam_id":85568392924469996,"keywords":["nocrits","nodmgspread","payload","uncletopia"],"game_id":440,"stv_port":27016,"stv_name":"Uncletopia | S√£o Paulo | 1 | All Maps | STV","players":null},{"server_id":143,"name":"Uncletopia | S√£o Paulo | 2 | Community","name_short":"sao-2","host":"sao-2.br.uncletopia.com","port":27015,"enabled":true,"region":"sa","cc":"br","latitude":-23.533773,"longitude":-46.62529,"reserved":0,"last_update":"0001-01-01T00:00:00Z","name_a2s":"Uncletopia | S√£o Paulo | 2 | Community","protocol":17,"map":"workshop/pl_phoenix_b4a.ugc2969509359","folder":"tf","game":"Team Fortress","app_id":440,"player_count":0,"max_players":24,"Bots":0,"server_type":"Dedicated","server_os":"Linux","password":true,"vac":true,"version":"7961495","steam_id":85568392924485349,"keywords":["nocrits","nodmgspread","payload","uncletopia"],"game_id":440,"stv_port":27016,"stv_name":"Uncletopia | S√£o Paulo | 2 | Community | STV","players":null},{"server_id":7,"name":"Uncletopia | Seattle | 1 | All Maps","name_short":"sea-1","host":"sea-1.us.uncletopia.com","port":27015,"enabled":true,"region":"us-west","cc":"us","latitude":47.608013,"longitude":-122.33517,"reserved":0,"last_update":"0001-01-01T00:00:00Z","name_a2s":"Uncletopia | Seattle | 1 | All Maps","protocol":17,"map":"pl_upward","folder":"tf","game":"Team Fortress","app_id":440,"player_count":24,"max_players":24,"Bots":0,"server_type":"Dedicated","server_os":"Linux","password":true,"vac":true,"version":"7961495","steam_id":85568392924469997,"keywords":["nocrits","nodmgspread","payload","uncletopia"],"game_id":440,"stv_port":27016,"stv_name":"Uncletopia | Seattle | 1 | All Maps | STV","players":[{"user_id":555,"name":"King Keifer","steam_id":76561198141070466,"connected_time":2044000000000,"state":"active","ping":69},{"user_id":537,"name":"Shit (REAL)","steam_id":76561198206490352,"connected_time":3083000000000,"state":"active","ping":74},{"user_id":570,"name":"tesa","steam_id":76561198154546773,"connected_time":671000000000,"state":"active","ping":71},{"user_id":548,"name":"Zebulon","steam_id":76561198025719753,"connected_time":2432000000000,"state":"active","ping":38},{"user_id":568,"name":"Funny Muffler","steam_id":76561198392076712,"connected_time":980000000000,"state":"active","ping":65},{"user_id":520,"name":"trackpad gaming | f2p","steam_id":76561198840414371,"connected_time":4521000000000,"state":"active","ping":49},{"user_id":471,"name":"paws :3","steam_id":76561199371694361,"connected_time":7996000000000,"state":"active","ping":88},{"user_id":559,"name":"Fresh","steam_id":76561198068565728,"connected_time":1593000000000,"state":"active","ping":59},{"user_id":556,"name":"tapir secret shopper","steam_id":76561198070804012,"connected_time":1987000000000,"state":"active","ping":60},{"user_id":539,"name":"GrimGryphon","steam_id":76561198169899963,"connected_time":3071000000000,"state":"active","ping":94},{"user_id":569,"name":"DiegoVal12","steam_id":76561198408509079,"connected_time":802000000000,"state":"active","ping":80},{"user_id":552,"name":"bug","steam_id":76561198027321950,"connected_time":2360000000000,"state":"active","ping":102},{"user_id":560,"name":"nat","steam_id":76561198179923093,"connected_time":1576000000000,"state":"active","ping":90},{"user_id":475,"name":"dust | it/she [no mic]","steam_id":76561198045218909,"connected_time":7615000000000,"state":"active","ping":44},{"user_id":565,"name":"KrylonHeretic","steam_id":76561198139811459,"connected_time":1356000000000,"state":"active","ping":93},{"user_id":527,"name":"eminixx!","steam_id":76561198962857708,"connected_time":4264000000000,"state":"active","ping":119},{"user_id":531,"name":"Wavelengths","steam_id":76561197997621320,"connected_time":3808000000000,"state":"active","ping":74},{"user_id":551,"name":"mega","steam_id":76561198089520959,"connected_time":2383000000000,"state":"active","ping":82},{"user_id":572,"name":"W-R3nCH_e5","steam_id":76561198843330128,"connected_time":299000000000,"state":"active","ping":140},{"user_id":507,"name":"self sufficient kitten ‚ô•","steam_id":76561197960592612,"connected_time":5207000000000,"state":"active","ping":58},{"user_id":562,"name":"Jest","steam_id":76561198170173062,"connected_time":1565000000000,"state":"active","ping":78},{"user_id":547,"name":"Neb","steam_id":76561198883473473,"connected_time":2559000000000,"state":"active","ping":45},{"user_id":564,"name":"Stev the Hypergamous Pebble","steam_id":76561197999442625,"connected_time":1413000000000,"state":"active","ping":67},{"user_id":571,"name":"Faber","steam_id":76561198156982075,"connected_time":568000000000,"state":"active","ping":90}]},{"server_id":119,"name":"Uncletopia | Seattle | 2 | All Maps","name_short":"sea-2","host":"sea-1.us.uncletopia.com","port":27025,"enabled":true,"region":"us-west","cc":"us","latitude":47.608013,"longitude":-122.33517,"reserved":0,"last_update":"0001-01-01T00:00:00Z","name_a2s":"Uncletopia | Seattle | 2 | All Maps","protocol":17,"map":"pl_pier","folder":"tf","game":"Team Fortress","app_id":440,"player_count":24,"max_players":24,"Bots":0,"server_type":"Dedicated","server_os":"Linux","password":true,"vac":true,"version":"7961495","steam_id":85568392924469998,"keywords":["nocrits","nodmgspread","payload","uncletopia"],"game_id":440,"stv_port":27026,"stv_name":"Uncletopia | Seattle | 2 | All Maps | STV","players":[{"user_id":391,"name":"chimplicity","steam_id":76561198012097062,"connected_time":4868000000000,"state":"active","ping":103},{"user_id":422,"name":"cock ring extravaganza","steam_id":76561199041179985,"connected_time":2042000000000,"state":"active","ping":59},{"user_id":423,"name":"Igrium","steam_id":76561198119549811,"connected_time":2001000000000,"state":"active","ping":79},{"user_id":424,"name":"Lord Shmeck","steam_id":76561198023851456,"connected_time":1981000000000,"state":"active","ping":45},{"user_id":419,"name":"Naizhuu","steam_id":76561198146933467,"connected_time":2514000000000,"state":"active","ping":75},{"user_id":415,"name":"Artic_Ryuu","steam_id":76561198182194918,"connected_time":2663000000000,"state":"active","ping":73},{"user_id":428,"name":"popped my clogs","steam_id":76561197980280272,"connected_time":1732000000000,"state":"active","ping":48},{"user_id":413,"name":"WillowWisp","steam_id":76561198049104842,"connected_time":2683000000000,"state":"active","ping":60},{"user_id":416,"name":"Lulee","steam_id":76561198044410549,"connected_time":2658000000000,"state":"active","ping":76},{"user_id":387,"name":"Clagger","steam_id":76561198066701092,"connected_time":5060000000000,"state":"active","ping":45},{"user_id":353,"name":"Lil B (Tha Based/God)","steam_id":76561198133195238,"connected_time":7332000000000,"state":"active","ping":73},{"user_id":372,"name":"EduardoLopez2005","steam_id":76561198188481309,"connected_time":5973000000000,"state":"active","ping":72},{"user_id":389,"name":"build splatoon fort","steam_id":76561198035698704,"connected_time":5033000000000,"state":"active","ping":76},{"user_id":432,"name":"raf simons spring/summer 2002","steam_id":76561198239598834,"connected_time":542000000000,"state":"active","ping":141},{"user_id":426,"name":"Mumbai Menace","steam_id":76561198047578862,"connected_time":1919000000000,"state":"active","ping":90},{"user_id":378,"name":"Sweeeeee","steam_id":76561198998446307,"connected_time":5668000000000,"state":"active","ping":69},{"user_id":410,"name":"Uncle Feathers McGraw","steam_id":76561198046442707,"connected_time":2695000000000,"state":"active","ping":42},{"user_id":418,"name":"november","steam_id":76561198042748172,"connected_time":2599000000000,"state":"active","ping":91},{"user_id":434,"name":"imma let my nuts hang","steam_id":76561198097544038,"connected_time":526000000000,"state":"active","ping":87},{"user_id":431,"name":"catlover443","steam_id":76561198335836405,"connected_time":1205000000000,"state":"active","ping":74},{"user_id":411,"name":"Soupcan","steam_id":76561198056269538,"connected_time":2692000000000,"state":"active","ping":52},{"user_id":402,"name":"Leidon","steam_id":76561198078386945,"connected_time":4658000000000,"state":"active","ping":78},{"user_id":435,"name":"Grand","steam_id":76561198290143399,"connected_time":500000000000,"state":"active","ping":74},{"user_id":412,"name":"smeasly","steam_id":76561198028718812,"connected_time":2692000000000,"state":"active","ping":40}]},{"server_id":406,"name":"Uncletopia | Seattle | 3 | Stopwatch","name_short":"sea-3","host":"sea-1.us.uncletopia.com","port":27035,"enabled":true,"region":"us-west","cc":"us","latitude":47.608013,"longitude":-122.33517,"reserved":0,"last_update":"0001-01-01T00:00:00Z","name_a2s":"Uncletopia | Seattle | 3 | Stopwatch","protocol":17,"map":"workshop/koth_ashville_final.ugc2130459942","folder":"tf","game":"Team Fortress","app_id":440,"player_count":0,"max_players":24,"Bots":0,"server_type":"Dedicated","server_os":"Linux","password":true,"vac":true,"version":"7961495","steam_id":85568392924515217,"keywords":["cp","nocrits","nodmgspread","uncletopia"],"game_id":440,"stv_port":27036,"stv_name":"Uncletopia | Seattle | 3 | Stopwatch | STV","players":null},{"server_id":17,"name":"Uncletopia | San Francisco | 1 | All Maps","name_short":"sfo-1","host":"sfo-1.us.uncletopia.com","port":27015,"enabled":true,"region":"us-west","cc":"us","latitude":37.77397,"longitude":-122.4313,"reserved":0,"last_update":"0001-01-01T00:00:00Z","name_a2s":"Uncletopia | San Francisco | 1 | All Maps","protocol":17,"map":"pl_snowycoast","folder":"tf","game":"Team Fortress","app_id":440,"player_count":0,"max_players":24,"Bots":0,"server_type":"Dedicated","server_os":"Linux","password":true,"vac":true,"version":"7961495","steam_id":85568392924469999,"keywords":["nocrits","nodmgspread","payload","uncletopia"],"game_id":440,"stv_port":27016,"stv_name":"Uncletopia | San Francisco | 1 | All Maps | STV","players":null},{"server_id":18,"name":"Uncletopia | San Francisco | 2 | All Maps","name_short":"sfo-2","host":"sfo-1.us.uncletopia.com","port":27025,"enabled":true,"region":"us-west","cc":"us","latitude":37.77397,"longitude":-122.4313,"reserved":0,"last_update":"0001-01-01T00:00:00Z","name_a2s":"Uncletopia | San Francisco | 2 | All Maps","protocol":17,"map":"koth_cascade","folder":"tf","game":"Team Fortress","app_id":440,"player_count":0,"max_players":24,"Bots":0,"server_type":"Dedicated","server_os":"Linux","password":true,"vac":true,"version":"7961495","steam_id":85568392924470000,"keywords":["cp","nocrits","nodmgspread","uncletopia"],"game_id":440,"stv_port":27026,"stv_name":"Uncletopia | San Francisco | 2 | All Maps | STV","players":null},{"server_id":19,"name":"Uncletopia | San Francisco | 3 | Stopwatch","name_short":"sfo-3","host":"sfo-1.us.uncletopia.com","port":27035,"enabled":true,"region":"us-west","cc":"us","latitude":37.77397,"longitude":-122.4313,"reserved":0,"last_update":"0001-01-01T00:00:00Z","name_a2s":"Uncletopia | San Francisco | 3 | Stopwatch","protocol":17,"map":"workshop/pl_vigil_rc10.ugc1266210012","folder":"tf","game":"Team Fortress","app_id":440,"player_count":0,"max_players":24,"Bots":0,"server_type":"Dedicated","server_os":"Linux","password":true,"vac":true,"version":"7961495","steam_id":85568392924742824,"keywords":["nocrits","nodmgspread","payload","uncletopia"],"game_id":440,"stv_port":27036,"stv_name":"Uncletopia | San Francisco | 3 | Stopwatch | STV","players":null},{"server_id":20,"name":"Uncletopia | San Francisco | 4 | Community","name_short":"sfo-4","host":"sfo-1.us.uncletopia.com","port":27045,"enabled":true,"region":"us-west","cc":"us","latitude":37.77397,"longitude":-122.4313,"reserved":0,"last_update":"0001-01-01T00:00:00Z","name_a2s":"Uncletopia | San Francisco | 4 | Community","protocol":17,"map":"workshop/cp_sultry_b8.ugc2775471508","folder":"tf","game":"Team Fortress","app_id":440,"player_count":0,"max_players":24,"Bots":0,"server_type":"Dedicated","server_os":"Linux","password":true,"vac":true,"version":"7961495","steam_id":85568392924742826,"keywords":["cp","nocrits","nodmgspread","uncletopia"],"game_id":440,"stv_port":27046,"stv_name":"Uncletopia | San Francisco | 4 | Community | STV","players":null},{"server_id":141,"name":"Uncletopia | Sydney | 1 | All Maps","name_short":"syd-1","host":"syd-1.au.uncletopia.com","port":27015,"enabled":true,"region":"au","cc":"au","latitude":-33.865143,"longitude":151.2099,"reserved":0,"last_update":"0001-01-01T00:00:00Z","name_a2s":"Uncletopia | Sydney | 1 | All Maps","protocol":17,"map":"cp_dustbowl","folder":"tf","game":"Team Fortress","app_id":440,"player_count":24,"max_players":24,"Bots":0,"server_type":"Dedicated","server_os":"Linux","password":true,"vac":true,"version":"7961495","steam_id":85568392924470001,"keywords":["cp","nocrits","nodmgspread","uncletopia"],"game_id":440,"stv_port":27016,"stv_name":"Uncletopia | Sydney | 1 | All Maps | STV","players":[{"user_id":40,"name":"Courier","steam_id":76561198080981482,"connected_time":6236000000000,"state":"spawning","ping":33},{"user_id":110,"name":"Swift","steam_id":76561198020445370,"connected_time":161000000000,"state":"spawning","ping":193},{"user_id":95,"name":"Obama","steam_id":76561198862841690,"connected_time":1357000000000,"state":"spawning","ping":47},{"user_id":107,"name":"JGuy_850","steam_id":76561199157185906,"connected_time":636000000000,"state":"active","ping":78},{"user_id":96,"name":"Malcom","steam_id":76561198069107926,"connected_time":1340000000000,"state":"spawning","ping":76},{"user_id":83,"name":"CypressFluff (she/her)","steam_id":76561198174667818,"connected_time":1652000000000,"state":"spawning","ping":48},{"user_id":88,"name":"Ok Mate","steam_id":76561198254922035,"connected_time":1424000000000,"state":"spawning","ping":49},{"user_id":68,"name":"michael","steam_id":76561198052848358,"connected_time":3298000000000,"state":"spawning","ping":62},{"user_id":75,"name":"osborn","steam_id":76561198033663866,"connected_time":2934000000000,"state":"active","ping":185},{"user_id":66,"name":"Dot","steam_id":76561198064534661,"connected_time":3323000000000,"state":"spawning","ping":63},{"user_id":23,"name":"MINI S.","steam_id":76561198116179875,"connected_time":7258000000000,"state":"spawning","ping":43},{"user_id":82,"name":"GOOD GUY NICK","steam_id":76561198145598622,"connected_time":2072000000000,"state":"spawning","ping":253},{"user_id":113,"name":"FascismSalad","steam_id":76561198262410973,"connected_time":20000000000,"state":"active","ping":82},{"user_id":97,"name":"beef","steam_id":76561198405899260,"connected_time":1336000000000,"state":"active","ping":180},{"user_id":91,"name":"weezer","steam_id":76561199439508788,"connected_time":1418000000000,"state":"spawning","ping":182},{"user_id":112,"name":"SaltierThanYou","steam_id":76561198444395188,"connected_time":31000000000,"state":"spawning","ping":66},{"user_id":33,"name":"Overlold","steam_id":76561197978635495,"connected_time":6622000000000,"state":"spawning","ping":95},{"user_id":87,"name":"Penguinator5000","steam_id":76561198038183553,"connected_time":1426000000000,"state":"spawning","ping":46},{"user_id":81,"name":"Sy 4","steam_id":76561198879862702,"connected_time":2521000000000,"state":"spawning","ping":60},{"user_id":104,"name":"FrontlineNinja","steam_id":76561198046731954,"connected_time":694000000000,"state":"spawning","ping":32},{"user_id":86,"name":"COLLINSct","steam_id":76561198045395403,"connected_time":1437000000000,"state":"active","ping":114},{"user_id":108,"name":"[FOC]=PHOENIX=","steam_id":76561198013319070,"connected_time":467000000000,"state":"spawning","ping":49},{"user_id":109,"name":"t.tv/catherine_x3","steam_id":76561198041907885,"connected_time":463000000000,"state":"spawning","ping":66},{"user_id":111,"name":"akmon753","steam_id":76561199507989067,"connected_time":35000000000,"state":"connecting","ping":59}]},{"server_id":123,"name":"Uncletopia | Sydney | 2 | All Maps","name_short":"syd-2","host":"syd-1.au.uncletopia.com","port":27025,"enabled":true,"region":"au","cc":"au","latitude":-33.865143,"longitude":151.2099,"reserved":0,"last_update":"0001-01-01T00:00:00Z","name_a2s":"Uncletopia | Sydney | 2 | All Maps","protocol":17,"map":"koth_lakeside_final","folder":"tf","game":"Team Fortress","app_id":440,"player_count":0,"max_players":24,"Bots":0,"server_type":"Dedicated","server_os":"Linux","password":true,"vac":true,"version":"7961495","steam_id":85568392924470002,"keywords":["cp","nocrits","nodmgspread","uncletopia"],"game_id":440,"stv_port":27026,"stv_name":"Uncletopia | Sydney | 2 | All Maps | STV","players":null},{"server_id":395,"name":"Uncletopia | Sydney | 3 | All Maps","name_short":"syd-3","host":"syd-1.au.uncletopia.com","port":27035,"enabled":true,"region":"au","cc":"au","latitude":-33.865143,"longitude":151.2099,"reserved":0,"last_update":"0001-01-01T00:00:00Z","name_a2s":"Uncletopia | Sydney | 3 | All Maps","protocol":17,"map":"koth_brazil","folder":"tf","game":"Team Fortress","app_id":440,"player_count":0,"max_players":24,"Bots":0,"server_type":"Dedicated","server_os":"Linux","password":true,"vac":true,"version":"7961495","steam_id":85568392925194467,"keywords":["cp","nocrits","nodmgspread","uncletopia"],"game_id":440,"stv_port":27036,"stv_name":"Uncletopia | Sydney | 3 | All Maps | STV","players":null},{"server_id":396,"name":"Uncletopia | Sydney | 4 | All Maps","name_short":"syd-4","host":"syd-1.au.uncletopia.com","port":27045,"enabled":true,"region":"au","cc":"au","latitude":-33.865143,"longitude":151.2099,"reserved":0,"last_update":"0001-01-01T00:00:00Z","name_a2s":"Uncletopia | Sydney | 4 | All Maps","protocol":17,"map":"cp_standin_final","folder":"tf","game":"Team Fortress","app_id":440,"player_count":0,"max_players":24,"Bots":0,"server_type":"Dedicated","server_os":"Linux","password":true,"vac":true,"version":"7961495","steam_id":85568392925397958,"keywords":["cp","nocrits","nodmgspread","uncletopia"],"game_id":440,"stv_port":27046,"stv_name":"Uncletopia | Sydney | 4 | All Maps | STV","players":null},{"server_id":58,"name":"Uncletopia | Sydney | 5 | Stopwatch","name_short":"syd-5","host":"syd-1.au.uncletopia.com","port":27055,"enabled":true,"region":"au","cc":"au","latitude":-33.865143,"longitude":151.2099,"reserved":0,"last_update":"0001-01-01T00:00:00Z","name_a2s":"Uncletopia | Sydney | 5 | Stopwatch","protocol":17,"map":"koth_highpass","folder":"tf","game":"Team Fortress","app_id":440,"player_count":0,"max_players":24,"Bots":0,"server_type":"Dedicated","server_os":"Linux","password":true,"vac":true,"version":"7961495","steam_id":85568392925397959,"keywords":["cp","nocrits","nodmgspread","uncletopia"],"game_id":440,"stv_port":27056,"stv_name":"Uncletopia | Sydney | 5 | Stopwatch | STV","players":null},{"server_id":59,"name":"Uncletopia | Sydney | 6 | Community","name_short":"syd-6","host":"syd-1.au.uncletopia.com","port":27065,"enabled":true,"region":"au","cc":"au","latitude":-33.865143,"longitude":151.2099,"reserved":0,"last_update":"0001-01-01T00:00:00Z","name_a2s":"Uncletopia | Sydney | 6 | Community","protocol":17,"map":"workshop/koth_soot_final1.ugc2969540689","folder":"tf","game":"Team Fortress","app_id":440,"player_count":0,"max_players":24,"Bots":0,"server_type":"Dedicated","server_os":"Linux","password":true,"vac":true,"version":"7961495","steam_id":85568392925397960,"keywords":["cp","nocrits","nodmgspread","uncletopia"],"game_id":440,"stv_port":27066,"stv_name":"Uncletopia | Sydney | 6 | Community | STV","players":null},{"server_id":49,"name":"Uncletopia | Warsaw | 1 | One Thousand Uncles","name_short":"waw-1","host":"waw-1.pl.uncletopia.com","port":27015,"enabled":true,"region":"eu","cc":"pl","latitude":52.2297,"longitude":21.017532,"reserved":0,"last_update":"0001-01-01T00:00:00Z","name_a2s":"Uncletopia | Warsaw | 1 | One Thousand Uncles","protocol":17,"map":"cp_egypt_final","folder":"tf","game":"Team Fortress","app_id":440,"player_count":0,"max_players":32,"Bots":0,"server_type":"Dedicated","server_os":"Linux","password":true,"vac":true,"version":"7961495","steam_id":85568392925397850,"keywords":["alltalk","cp","danepve","increased_maxplayers","norespawntime","uncletopia"],"game_id":440,"stv_port":0,"stv_name":"","players":null},{"server_id":50,"name":"Uncletopia | Warsaw | 2 | One Thousand Uncles","name_short":"waw-2","host":"waw-1.pl.uncletopia.com","port":27025,"enabled":true,"region":"eu","cc":"pl","latitude":52.2297,"longitude":21.017532,"reserved":0,"last_update":"0001-01-01T00:00:00Z","name_a2s":"Uncletopia | Warsaw | 2 | One Thousand Uncles","protocol":17,"map":"pl_pier","folder":"tf","game":"Team Fortress","app_id":440,"player_count":0,"max_players":32,"Bots":0,"server_type":"Dedicated","server_os":"Linux","password":true,"vac":true,"version":"7961495","steam_id":85568392925397851,"keywords":["alltalk","danepve","increased_maxplayers","norespawntime","payload","uncletopia"],"game_id":440,"stv_port":0,"stv_name":"","players":null},{"server_id":51,"name":"Uncletopia | Warsaw | 3 | All Maps","name_short":"waw-3","host":"waw-1.pl.uncletopia.com","port":27035,"enabled":true,"region":"eu","cc":"pl","latitude":52.2297,"longitude":21.017532,"reserved":0,"last_update":"0001-01-01T00:00:00Z","name_a2s":"Uncletopia | Warsaw | 3 | All Maps","protocol":17,"map":"pl_frontier_final","folder":"tf","game":"Team Fortress","app_id":440,"player_count":0,"max_players":24,"Bots":0,"server_type":"Dedicated","server_os":"Linux","password":true,"vac":true,"version":"7961495","steam_id":85568392925397852,"keywords":["nocrits","nodmgspread","payload","uncletopia"],"game_id":440,"stv_port":27036,"stv_name":"Uncletopia | Warsaw | 3 | All Maps | STV","players":null},{"server_id":52,"name":"Uncletopia | Warsaw | 4 | All Maps","name_short":"waw-4","host":"waw-1.pl.uncletopia.com","port":27045,"enabled":true,"region":"eu","cc":"pl","latitude":52.2297,"longitude":21.017532,"reserved":0,"last_update":"0001-01-01T00:00:00Z","name_a2s":"Uncletopia | Warsaw | 4 | All Maps","protocol":17,"map":"ctf_turbine","folder":"tf","game":"Team Fortress","app_id":440,"player_count":0,"max_players":24,"Bots":0,"server_type":"Dedicated","server_os":"Linux","password":true,"vac":true,"version":"7961495","steam_id":85568392925397853,"keywords":["ctf","nocrits","nodmgspread","uncletopia"],"game_id":440,"stv_port":27046,"stv_name":"Uncletopia | Warsaw | 4 | All Maps | STV","players":null},{"server_id":53,"name":"Uncletopia | Warsaw | 5 | Stopwatch","name_short":"waw-5","host":"waw-1.pl.uncletopia.com","port":27055,"enabled":true,"region":"eu","cc":"pl","latitude":52.2297,"longitude":21.017532,"reserved":0,"last_update":"0001-01-01T00:00:00Z","name_a2s":"Uncletopia | Warsaw | 5 | Stopwatch","protocol":17,"map":"workshop/koth_clearcut_b15.ugc2107050255","folder":"tf","game":"Team Fortress","app_id":440,"player_count":0,"max_players":24,"Bots":0,"server_type":"Dedicated","server_os":"Linux","password":true,"vac":true,"version":"7961495","steam_id":85568392925397854,"keywords":["cp","nocrits","nodmgspread","uncletopia"],"game_id":440,"stv_port":27056,"stv_name":"Uncletopia | Warsaw | 5 | Stopwatch | STV","players":null},{"server_id":54,"name":"Uncletopia | Warsaw | 6 | Community","name_short":"waw-6","host":"waw-1.pl.uncletopia.com","port":27065,"enabled":true,"region":"eu","cc":"pl","latitude":52.2297,"longitude":21.017532,"reserved":0,"last_update":"0001-01-01T00:00:00Z","name_a2s":"Uncletopia | Warsaw | 6 | Community","protocol":17,"map":"workshop/pl_highwood_b19.ugc1769496557","folder":"tf","game":"Team Fortress","app_id":440,"player_count":0,"max_players":24,"Bots":0,"server_type":"Dedicated","server_os":"Linux","password":true,"vac":true,"version":"7961495","steam_id":85568392925397856,"keywords":["nocrits","nodmgspread","payload","uncletopia"],"game_id":440,"stv_port":27066,"stv_name":"Uncletopia | Warsaw | 6 | Community | STV","players":null}]}