{"status":true,"message":"","result":[{"server_id":9,"name":"Uncletopia | Atlanta | 1 | All Maps","name_short":"atl-1","host":"atl-1.us.uncletopia.com","port":27015,"enabled":true,"region":"us-east","cc":"us","latitude":33.753746,"longitude":-84.38633,"reserved":0,"last_update":"0001-01-01T00:00:00Z","name_a2s":"Uncletopia | Atlanta | 1 | All Maps","protocol":17,"map":"pl_thundermountain","folder":"tf","game":"Team Fortress","app_id":440,"player_count":22,"max_players":24,"Bots":0,"server_type":"Dedicated","server_os":"Linux","password":true,"vac":true,"version":"7961495","steam_id":85568392924469982,"keywords":["nocrits","nodmgspread","payload","uncletopia"],"game_id":440,"stv_port":27016,"stv_name":"Uncletopia | Atlanta | 1 | All Maps | STV","players":null},{"server_id":104,"name":"Uncletopia | Atlanta | 2 | All Maps","name_short":"atl-2","host":"atl-1.us.uncletopia.com","port":27025,"enabled":true,"region":"us-east","cc":"us","latitude":33.753746,"longitude":-84.38633,"reserved":0,"last_update":"0001-01-01T00:00:00Z","name_a2s":"Uncletopia | Atlanta | 2 | All Maps","protocol":17,"map":"pl_barnblitz","folder":"tf","game":"Team Fortress","app_id":440,"player_count":24,"max_players":24,"Bots":0,"server_type":"Dedicated","server_os":"Linux","password":true,"vac":true,"version":"7961495","steam_id":85568392924469983,"keywords":["nocrits","nodmgspread","payload","uncletopia"],"game_id":440,"stv_port":27026,"stv_name":"Uncletopia | Atlanta | 2 | All Maps | STV","players":null},{"server_id":400,"name":"Uncletopia | Atlanta | 3 | Stopwatch","name_short":"atl-3","host":"atl-1.us.uncletopia.com","port":27035,"enabled":true,"region":"us-east","cc":"us","latitude":33.753746,"longitude":-84.38633,"reserved":0,"last_update":"0001-01-01T00:00:00Z","name_a2s":"Uncletopia | Atlanta | 3 | Stopwatch","protocol":17,"map":"koth_product_final","folder":"tf","game":"Team Fortress","app_id":440,"player_count":0,"max_players":24,"Bots":0,"server_type":"Dedicated","server_os":"Linux","password":true,"vac":true,"version":"7961495","steam_id":85568392924515187,"keywords":["cp","nocrits","nodmgspread","uncletopia"],"game_id":440,"stv_port":27036,"stv_name":"Uncletopia | Atlanta | 3 | Stopwatch | STV","players":null},{"server_id":401,"name":"Uncletopia | Atlanta | 4 | Community","name_short":"atl-4","host":"atl-1.us.uncletopia.com","port":27045,"enabled":true,"region":"us-east","cc":"us","latitude":33.753746,"longitude":-84.38633,"reserved":0,"last_update":"0001-01-01T00:00:00Z","name_a2s":"Uncletopia | Atlanta | 4 | Community","protocol":17,"map":"cp_propaganda_b18","folder":"tf","game":"Team Fortress","app_id":440,"player_count":16,"max_players":24,"Bots":0,"server_type":"Dedicated","server_os":"Linux","password":true,"vac":true,"version":"7961495","steam_id":85568392924515188,"keywords":["cp","nocrits","nodmgspread","uncletopia"],"game_id":440,"stv_port":27046,"stv_name":"Uncletopia | Atlanta | 4 | Community | STV","players":null},{"server_id":2,"name":"Uncletopia | Chicago | 1 | All Maps","name_short":"chi-1","host":"chi-1.us.uncletopia.com","port":27015,"enabled":true,"region":"us-central","cc":"us","latitude":41.881832,"longitude":-87.62318,"reserved":0,"last_update":"0001-01-01T00:00:00Z","name_a2s":"Uncletopia | Chicago | 1 | All Maps","protocol":17,"map":"cp_dustbowl","folder":"tf","game":"Team Fortress","app_id":440,"player_count":24,"max_players":24,"Bots":0,"server_type":"Dedicated","server_os":"Linux","password":true,"vac":true,"version":"7961495","steam_id":85568392924469984,"keywords":["cp","nocrits","nodmgspread","uncletopia"],"game_id":440,"stv_port":27016,"stv_name":"Uncletopia | Chicago | 1 | All Maps | STV","players":[{"user_id":553,"name":"This Water Slaps","steam_id":76561198079089813,"connected_time":3617000000000,"state":"active","ping":82},{"user_id":573,"name":"Ron Paul Sex Cataclysm 2006","steam_id":76561198070694178,"connected_time":556000000000,"state":"active","ping":84},{"user_id":567,"name":"PKBEAST_7","steam_id":76561198177136537,"connected_time":1039000000000,"state":"active","ping":89},{"user_id":527,"name":"N00SE","steam_id":76561198211473307,"connected_time":5832000000000,"state":"active","ping":62},{"user_id":552,"name":"Bean Marrow","steam_id":76561198116650223,"connected_time":3631000000000,"state":"active","ping":100},{"user_id":554,"name":"Natsuki the Scunt","steam_id":76561199175922684,"connected_time":3594000000000,"state":"active","ping":113},{"user_id":548,"name":"sillylokisparkles","steam_id":76561198872251615,"connected_time":4265000000000,"state":"active","ping":80},{"user_id":564,"name":"Undertime Slopper","steam_id":76561198396789061,"connected_time":2404000000000,"state":"active","ping":84},{"user_id":542,"name":"Snom","steam_id":76561198333827920,"connected_time":4737000000000,"state":"active","ping":91},{"user_id":568,"name":"Pattar","steam_id":76561198146276146,"connected_time":1018000000000,"state":"active","ping":58},{"user_id":569,"name":"Chestnut","steam_id":76561198078198968,"connected_time":982000000000,"state":"active","ping":52},{"user_id":521,"name":"Rex","steam_id":76561198138365053,"connected_time":6307000000000,"state":"active","ping":129},{"user_id":562,"name":"Shadetree","steam_id":76561198843727215,"connected_time":3019000000000,"state":"active","ping":100},{"user_id":574,"name":"Mister Frank","steam_id":76561198161473385,"connected_time":120000000000,"state":"active","ping":65},{"user_id":541,"name":"Swiftmend","steam_id":76561197995595692,"connected_time":4942000000000,"state":"active","ping":78},{"user_id":571,"name":"LeTonzy","steam_id":76561198005806699,"connected_time":893000000000,"state":"active","ping":113},{"user_id":551,"name":"Ghandi","steam_id":76561198046702733,"connected_time":3656000000000,"state":"active","ping":65},{"user_id":566,"name":"Herdez Hot Salsa","steam_id":76561197991740906,"connected_time":1896000000000,"state":"active","ping":67},{"user_id":518,"name":"fish  ‚óè","steam_id":76561198999217575,"connected_time":6664000000000,"state":"active","ping":62},{"user_id":563,"name":"LewdestLoli","steam_id":76561197967842240,"connected_time":3005000000000,"state":"active","ping":86},{"user_id":565,"name":"Space","steam_id":76561198350489754,"connected_time":2399000000000,"state":"active","ping":47},{"user_id":496,"name":"Juzo Suzuya","steam_id":76561198055542546,"connected_time":7956000000000,"state":"active","ping":64},{"user_id":557,"name":"Subderhenge","steam_id":76561198090955892,"connected_time":3552000000000,"state":"active","ping":100},{"user_id":559,"name":"Chernov","steam_id":76561198014463424,"connected_time":3356000000000,"state":"active","ping":59}]},{"server_id":106,"name":"Uncletopia | Chicago | 2 | All Maps","name_short":"chi-2","host":"chi-1.us.uncletopia.com","port":27025,"enabled":true,"region":"us-central","cc":"us","latitude":41.881832,"longitude":-87.62318,"reserved":0,"last_update":"0001-01-01T00:00:00Z","name_a2s":"Uncletopia | Chicago | 2 | All Maps","protocol":17,"map":"cp_5gorge","folder":"tf","game":"Team Fortress","app_id":440,"player_count":24,"max_players":24,"Bots":0,"server_type":"Dedicated","server_os":"Linux","password":true,"vac":true,"version":"7961495","steam_id":85568392924469985,"keywords":["cp","nocrits","nodmgspread","uncletopia"],"game_id":440,"stv_port":27026,"stv_name":"Uncletopia | Chicago | 2 | All Maps | STV","players":[{"user_id":590,"name":"DroidFreak36","steam_id":76561198028681032,"connected_time":1498000000000,"state":"active","ping":57},{"user_id":561,"name":"AdorableMew","steam_id":76561198186706405,"connected_time":4129000000000,"state":"active","ping":73},{"user_id":605,"name":"dansal","steam_id":76561197997042510,"connected_time":110000000000,"state":"active","ping":82},{"user_id":592,"name":"Ze_√úber_Nerd","steam_id":76561198091148675,"connected_time":1356000000000,"state":"active","ping":73},{"user_id":536,"name":"chunk","steam_id":76561198134775401,"connected_time":6061000000000,"state":"active","ping":53},{"user_id":588,"name":"Spicy Chicken","steam_id":76561198074209737,"connected_time":1757000000000,"state":"active","ping":61},{"user_id":593,"name":"Mathatguy","steam_id":76561198225432188,"connected_time":1342000000000,"state":"active","ping":94},{"user_id":562,"name":"Vexel","steam_id":76561198194730938,"connected_time":4118000000000,"state":"active","ping":75},{"user_id":539,"name":"y0","steam_id":76561198143894333,"connected_time":5988000000000,"state":"active","ping":58},{"user_id":573,"name":"Nick","steam_id":76561198144448144,"connected_time":3466000000000,"state":"active","ping":62},{"user_id":604,"name":"Tienne","steam_id":76561198359050265,"connected_time":219000000000,"state":"active","ping":53},{"user_id":473,"name":"Chauncey von Snuffles III","steam_id":76561198021784746,"connected_time":11233000000000,"state":"active","ping":70},{"user_id":545,"name":"cart","steam_id":76561198253731826,"connected_time":5887000000000,"state":"active","ping":63},{"user_id":602,"name":"Mail Delivery","steam_id":76561198290046318,"connected_time":296000000000,"state":"active","ping":61},{"user_id":591,"name":"a dubious little creeeeature","steam_id":76561198162041422,"connected_time":1456000000000,"state":"active","ping":76},{"user_id":574,"name":"[NAME-REDACTED]","steam_id":76561198035682975,"connected_time":3301000000000,"state":"active","ping":67},{"user_id":595,"name":"Stevelonk","steam_id":76561198088224665,"connected_time":1258000000000,"state":"active","ping":66},{"user_id":575,"name":"Six Piece Chicken McNobody","steam_id":76561198129848222,"connected_time":2508000000000,"state":"active","ping":74},{"user_id":603,"name":"Elite_Friendly","steam_id":76561198819972127,"connected_time":254000000000,"state":"active","ping":102},{"user_id":600,"name":"[AGG] Jerry","steam_id":76561198881142611,"connected_time":829000000000,"state":"active","ping":91},{"user_id":598,"name":"slurp","steam_id":76561198323497535,"connected_time":1167000000000,"state":"active","ping":75},{"user_id":544,"name":"The Gob","steam_id":76561198071521769,"connected_time":5940000000000,"state":"active","ping":64},{"user_id":557,"name":"RoraBeth","steam_id":76561197999432246,"connected_time":4441000000000,"state":"active","ping":76},{"user_id":601,"name":"will kill for a cigarette","steam_id":76561198420227358,"connected_time":536000000000,"state":"active","ping":62}]},{"server_id":402,"name":"Uncletopia | Chicago | 3 | All Maps","name_short":"chi-3","host":"chi-1.us.uncletopia.com","port":27035,"enabled":true,"region":"us-central","cc":"us","latitude":41.881832,"longitude":-87.62318,"reserved":0,"last_update":"0001-01-01T00:00:00Z","name_a2s":"Uncletopia | Chicago | 3 | All Maps","protocol":17,"map":"pl_badwater","folder":"tf","game":"Team Fortress","app_id":440,"player_count":24,"max_players":24,"Bots":0,"server_type":"Dedicated","server_os":"Linux","password":true,"vac":true,"version":"7961495","steam_id":85568392924515191,"keywords":["nocrits","nodmgspread","payload","uncletopia"],"game_id":440,"stv_port":27036,"stv_name":"Uncletopia | Chicago | 3 | All Maps | STV","players":[{"user_id":892,"name":"Malex","steam_id":76561198012216805,"connected_time":273000000000,"state":"active","ping":60},{"user_id":872,"name":"angrybirds521","steam_id":76561198361326855,"connected_time":1157000000000,"state":"active","ping":56},{"user_id":893,"name":"CoralBlue","steam_id":76561199085138970,"connected_time":255000000000,"state":"active","ping":107},{"user_id":702,"name":"zpalmtree","steam_id":76561198134307620,"connected_time":14432000000000,"state":"active","ping":68},{"user_id":894,"name":"rf","steam_id":76561198195359229,"connected_time":219000000000,"state":"active","ping":87},{"user_id":858,"name":"Blubbering Toad","steam_id":76561199489855499,"connected_time":2115000000000,"state":"active","ping":118},{"user_id":895,"name":"sonikro","steam_id":76561197989428692,"connected_time":196000000000,"state":"active","ping":55},{"user_id":886,"name":"[S]Mr. X [No Monitor]","steam_id":76561197963746035,"connected_time":584000000000,"state":"active","ping":130},{"user_id":873,"name":"JetZ","steam_id":76561199122488957,"connected_time":1156000000000,"state":"active","ping":58},{"user_id":837,"name":"frog from pond","steam_id":76561198184900753,"connected_time":3396000000000,"state":"active","ping":46},{"user_id":885,"name":"Grognak","steam_id":76561198044710527,"connected_time":614000000000,"state":"active","ping":89},{"user_id":835,"name":"sibling wile üü† „ÉÑ","steam_id":76561198125261443,"connected_time":3780000000000,"state":"active","ping":111},{"user_id":896,"name":"pim","steam_id":76561198095163441,"connected_time":193000000000,"state":"active","ping":62},{"user_id":865,"name":"Tis_Me_Hacksoulslayer1","steam_id":76561198340064206,"connected_time":1975000000000,"state":"active","ping":82},{"user_id":870,"name":"NotHughesy","steam_id":76561198113064655,"connected_time":1462000000000,"state":"active","ping":53},{"user_id":882,"name":"‚òÜmatt hardy‚òÜ","steam_id":76561198994032319,"connected_time":818000000000,"state":"active","ping":72},{"user_id":862,"name":"garfield","steam_id":76561198114119308,"connected_time":2056000000000,"state":"active","ping":61},{"user_id":879,"name":"stall","steam_id":76561199152861652,"connected_time":949000000000,"state":"active","ping":60},{"user_id":881,"name":"nobodyy","steam_id":76561198027735766,"connected_time":878000000000,"state":"active","ping":151},{"user_id":889,"name":"roast pig with apple in mouth","steam_id":76561198051353647,"connected_time":294000000000,"state":"active","ping":65},{"user_id":876,"name":"Sheev Palpatine","steam_id":76561198252332430,"connected_time":1086000000000,"state":"active","ping":83},{"user_id":891,"name":"cheetaz","steam_id":76561198224614084,"connected_time":282000000000,"state":"active","ping":71},{"user_id":883,"name":"Hat Stack","steam_id":76561198806729611,"connected_time":677000000000,"state":"active","ping":91},{"user_id":897,"name":"Dalek","steam_id":76561198154841459,"connected_time":189000000000,"state":"active","ping":87}]},{"server_id":403,"name":"Uncletopia | Chicago | 4 | All Maps","name_short":"chi-4","host":"chi-1.us.uncletopia.com","port":27045,"enabled":true,"region":"us-central","cc":"us","latitude":41.881832,"longitude":-87.62318,"reserved":0,"last_update":"0001-01-01T00:00:00Z","name_a2s":"Uncletopia | Chicago | 4 | All Maps","protocol":17,"map":"pl_snowycoast","folder":"tf","game":"Team Fortress","app_id":440,"player_count":24,"max_players":24,"Bots":0,"server_type":"Dedicated","server_os":"Linux","password":true,"vac":true,"version":"7961495","steam_id":85568392924515193,"keywords":["nocrits","nodmgspread","payload","uncletopia"],"game_id":440,"stv_port":27046,"stv_name":"Uncletopia | Chicago | 4 | All Maps | STV","players":[{"user_id":657,"name":"ApertureCity","steam_id":76561198004153607,"connected_time":609000000000,"state":"active","ping":88},{"user_id":658,"name":"my friend can take 5guys anyday","steam_id":76561198144766439,"connected_time":604000000000,"state":"active","ping":44},{"user_id":656,"name":"LVL","steam_id":76561198334403617,"connected_time":633000000000,"state":"active","ping":60},{"user_id":662,"name":"--_Cook_--","steam_id":76561198080855748,"connected_time":156000000000,"state":"active","ping":48},{"user_id":654,"name":"Zanartan","steam_id":76561198050528902,"connected_time":757000000000,"state":"active","ping":177},{"user_id":622,"name":"NovaSc6ut","steam_id":76561198277163301,"connected_time":2959000000000,"state":"active","ping":62},{"user_id":663,"name":"Brendan","steam_id":76561198041079914,"connected_time":143000000000,"state":"active","ping":64},{"user_id":600,"name":"RusticCarp42989","steam_id":76561198361151865,"connected_time":5673000000000,"state":"active","ping":124},{"user_id":624,"name":"Strange Festive Femboy","steam_id":76561198050385093,"connected_time":2948000000000,"state":"active","ping":91},{"user_id":601,"name":"SiltyStar85","steam_id":76561198309175923,"connected_time":5651000000000,"state":"active","ping":80},{"user_id":625,"name":"ATL1 | Krissy","steam_id":76561197960848174,"connected_time":2945000000000,"state":"active","ping":66},{"user_id":659,"name":"GooniOoni","steam_id":76561198102154561,"connected_time":586000000000,"state":"active","ping":45},{"user_id":628,"name":"tools","steam_id":76561199010542612,"connected_time":2720000000000,"state":"active","ping":60},{"user_id":664,"name":"man man","steam_id":76561198016826181,"connected_time":139000000000,"state":"active","ping":72},{"user_id":618,"name":"Amoxicilina","steam_id":76561198168486429,"connected_time":4121000000000,"state":"active","ping":127},{"user_id":661,"name":":)","steam_id":76561198093921290,"connected_time":270000000000,"state":"active","ping":47},{"user_id":620,"name":"Donnie Blasto","steam_id":76561198043432005,"connected_time":3200000000000,"state":"active","ping":53},{"user_id":650,"name":"phone","steam_id":76561198029268743,"connected_time":967000000000,"state":"active","ping":71},{"user_id":653,"name":"slugnuts?","steam_id":76561198142129648,"connected_time":888000000000,"state":"active","ping":63},{"user_id":619,"name":"Uwu Micster","steam_id":76561198843890616,"connected_time":3937000000000,"state":"active","ping":87},{"user_id":643,"name":"C Papi","steam_id":76561198027779564,"connected_time":1152000000000,"state":"active","ping":61},{"user_id":665,"name":"‚ô•‚ô°‚àûiMaCH‚àû‚ô°‚ô•","steam_id":76561198820527565,"connected_time":133000000000,"state":"active","ping":95},{"user_id":616,"name":"The strongest ‚ë® ball","steam_id":76561198126760743,"connected_time":4347000000000,"state":"active","ping":76},{"user_id":666,"name":"Monty","steam_id":76561197993567253,"connected_time":117000000000,"state":"active","ping":93}]},{"server_id":36,"name":"Uncletopia | Chicago | 5 | All Maps","name_short":"chi-5","host":"chi-2.us.uncletopia.com","port":27015,"enabled":true,"region":"us-central","cc":"us","latitude":41.881832,"longitude":-87.62318,"reserved":0,"last_update":"0001-01-01T00:00:00Z","name_a2s":"Uncletopia | Chicago | 5 | All Maps","protocol":17,"map":"pl_swiftwater_final1","folder":"tf","game":"Team Fortress","app_id":440,"player_count":24,"max_players":24,"Bots":0,"server_type":"Dedicated","server_os":"Linux","password":true,"vac":true,"version":"7961495","steam_id":85568392924866362,"keywords":["nocrits","nodmgspread","payload","uncletopia"],"game_id":440,"stv_port":27016,"stv_name":"Uncletopia | Chicago | 5 | All Maps | STV","players":[{"user_id":332,"name":"Smiley_R5","steam_id":76561198113083770,"connected_time":4201000000000,"state":"active","ping":66},{"user_id":320,"name":"XKarma","steam_id":76561198262503116,"connected_time":4762000000000,"state":"active","ping":64},{"user_id":343,"name":"brenden","steam_id":76561198120346280,"connected_time":3041000000000,"state":"active","ping":65},{"user_id":349,"name":"Andrestor","steam_id":76561198005934930,"connected_time":2580000000000,"state":"active","ping":140},{"user_id":364,"name":"Acuzik","steam_id":76561198045453400,"connected_time":593000000000,"state":"active","ping":37},{"user_id":350,"name":"Likeia #Savetf2","steam_id":76561198005214207,"connected_time":2558000000000,"state":"active","ping":68},{"user_id":341,"name":"Slapass Shitman","steam_id":76561199219852129,"connected_time":3254000000000,"state":"active","ping":185},{"user_id":363,"name":"Techo","steam_id":76561199169405285,"connected_time":1190000000000,"state":"active","ping":100},{"user_id":325,"name":"Space‚≠êTaffy","steam_id":76561198002271720,"connected_time":4504000000000,"state":"active","ping":72},{"user_id":374,"name":"OneLess","steam_id":76561198150870338,"connected_time":4000000000,"state":"spawning","ping":75},{"user_id":353,"name":"feudalism","steam_id":76561198057374871,"connected_time":2540000000000,"state":"active","ping":63},{"user_id":365,"name":"Braingoo Hex","steam_id":76561198083094783,"connected_time":586000000000,"state":"active","ping":100},{"user_id":333,"name":"i remember you was cumflated","steam_id":76561198097330521,"connected_time":4200000000000,"state":"active","ping":155},{"user_id":366,"name":"MothBoi","steam_id":76561198311422010,"connected_time":572000000000,"state":"active","ping":97},{"user_id":355,"name":"mudspaw","steam_id":76561198101327448,"connected_time":2516000000000,"state":"active","ping":72},{"user_id":367,"name":"Koishi","steam_id":76561198054541054,"connected_time":570000000000,"state":"active","ping":55},{"user_id":372,"name":"Festive Conch Shell","steam_id":76561198042072993,"connected_time":212000000000,"state":"active","ping":67},{"user_id":368,"name":"Rakujo_","steam_id":76561198152672051,"connected_time":570000000000,"state":"active","ping":91},{"user_id":360,"name":"ThePatheticMedic","steam_id":76561198873083105,"connected_time":2352000000000,"state":"active","ping":62},{"user_id":334,"name":"are","steam_id":76561198154405722,"connected_time":4189000000000,"state":"active","ping":66},{"user_id":369,"name":"drwwby","steam_id":76561198067741339,"connected_time":537000000000,"state":"active","ping":56},{"user_id":371,"name":"Mr.Pwesident","steam_id":76561198058114703,"connected_time":235000000000,"state":"active","ping":100},{"user_id":362,"name":"Merchant","steam_id":76561198130468663,"connected_time":1414000000000,"state":"active","ping":60},{"user_id":327,"name":"Ace Attorney","steam_id":76561198133011705,"connected_time":4486000000000,"state":"active","ping":69}]},{"server_id":37,"name":"Uncletopia | Chicago | 6 | All Maps","name_short":"chi-6","host":"chi-2.us.uncletopia.com","port":27025,"enabled":true,"region":"us-central","cc":"us","latitude":41.881832,"longitude":-87.62318,"reserved":0,"last_update":"0001-01-01T00:00:00Z","name_a2s":"Uncletopia | Chicago | 6 | All Maps","protocol":17,"map":"cp_dustbowl","folder":"tf","game":"Team Fortress","app_id":440,"player_count":24,"max_players":24,"Bots":0,"server_type":"Dedicated","server_os":"Linux","password":true,"vac":true,"version":"7961495","steam_id":85568392924866363,"keywords":["cp","nocrits","nodmgspread","uncletopia"],"game_id":440,"stv_port":27026,"stv_name":"Uncletopia | Chicago | 6 | All Maps | STV","players":[{"user_id":631,"name":"The Pan Man From Slavic Land","steam_id":76561198401875841,"connected_time":10234000000000,"state":"active","ping":54},{"user_id":748,"name":"dad playing in between naps","steam_id":76561198009425458,"connected_time":564000000000,"state":"active","ping":102},{"user_id":718,"name":"Im the puncher","steam_id":76561199059653595,"connected_time":3251000000000,"state":"active","ping":99},{"user_id":659,"name":"Raccoon.Of.Waffle.House","steam_id":76561199018770554,"connected_time":8142000000000,"state":"active","ping":79},{"user_id":719,"name":"laaghice","steam_id":76561198274021552,"connected_time":3224000000000,"state":"active","ping":73},{"user_id":720,"name":"Mongoose","steam_id":76561198020361641,"connected_time":3140000000000,"state":"active","ping":114},{"user_id":701,"name":"GruntRule","steam_id":76561198039987143,"connected_time":5014000000000,"state":"active","ping":80},{"user_id":721,"name":"ShootyMcBANGBANG","steam_id":76561198323105659,"connected_time":3066000000000,"state":"active","ping":48},{"user_id":727,"name":"Missing Minus","steam_id":76561198120822928,"connected_time":2856000000000,"state":"active","ping":56},{"user_id":729,"name":"Beyblade","steam_id":76561198893358191,"connected_time":2685000000000,"state":"active","ping":99},{"user_id":749,"name":"hashmap","steam_id":76561198043794014,"connected_time":477000000000,"state":"active","ping":49},{"user_id":723,"name":"icy steel","steam_id":76561198997700029,"connected_time":3053000000000,"state":"active","ping":68},{"user_id":712,"name":"Carton","steam_id":76561198989473391,"connected_time":4116000000000,"state":"active","ping":64},{"user_id":724,"name":"AnyaDelights","steam_id":76561198141671765,"connected_time":3038000000000,"state":"active","ping":79},{"user_id":725,"name":"Mi cara","steam_id":76561198190771759,"connected_time":3032000000000,"state":"active","ping":96},{"user_id":738,"name":"double xp weekend","steam_id":76561198052950547,"connected_time":1121000000000,"state":"active","ping":44},{"user_id":743,"name":"Jray","steam_id":76561198831619367,"connected_time":1072000000000,"state":"active","ping":94},{"user_id":732,"name":"Movy","steam_id":76561198835647241,"connected_time":2160000000000,"state":"active","ping":83},{"user_id":751,"name":"galaxy_nova379","steam_id":76561199004274122,"connected_time":158000000000,"state":"active","ping":71},{"user_id":742,"name":"a.w.e.kwardness","steam_id":76561199218177050,"connected_time":1103000000000,"state":"active","ping":104},{"user_id":731,"name":"welcometojersey","steam_id":76561198821314557,"connected_time":2263000000000,"state":"active","ping":85},{"user_id":704,"name":"Unlicensed Fed","steam_id":76561198166040449,"connected_time":4980000000000,"state":"active","ping":114},{"user_id":741,"name":"Bio_Optical","steam_id":76561199128084374,"connected_time":1108000000000,"state":"active","ping":60},{"user_id":752,"name":"es","steam_id":76561198006892337,"connected_time":88000000000,"state":"active","ping":118}]},{"server_id":38,"name":"Uncletopia | Chicago | 7 | Stopwatch","name_short":"chi-7","host":"chi-2.us.uncletopia.com","port":27035,"enabled":true,"region":"us-central","cc":"us","latitude":41.881832,"longitude":-87.62318,"reserved":0,"last_update":"0001-01-01T00:00:00Z","name_a2s":"Uncletopia | Chicago | 7 | Stopwatch","protocol":17,"map":"pl_badwater","folder":"tf","game":"Team Fortress","app_id":440,"player_count":0,"max_players":24,"Bots":0,"server_type":"Dedicated","server_os":"Linux","password":true,"vac":true,"version":"7961495","steam_id":85568392924866364,"keywords":["nocrits","nodmgspread","payload","uncletopia"],"game_id":440,"stv_port":27036,"stv_name":"Uncletopia | Chicago | 7 | Stopwatch | STV","players":null},{"server_id":39,"name":"Uncletopia | Chicago | 8 | Community","name_short":"chi-8","host":"chi-2.us.uncletopia.com","port":27045,"enabled":true,"region":"us-central","cc":"us","latitude":41.881832,"longitude":-87.62318,"reserved":0,"last_update":"0001-01-01T00:00:00Z","name_a2s":"Uncletopia | Chicago | 8 | Community","protocol":17,"map":"workshop/pl_cactuscanyon_redux_final2.ugc2579644293","folder":"tf","game":"Team Fortress","app_id":440,"player_count":24,"max_players":24,"Bots":0,"server_type":"Dedicated","server_os":"Linux","password":true,"vac":true,"version":"7961495","steam_id":85568392924866365,"keywords":["nocrits","nodmgspread","payload","uncletopia"],"game_id":440,"stv_port":27046,"stv_name":"Uncletopia | Chicago | 8 | Community | STV","players":[{"user_id":15,"name":"F. Bomb Fitzgerald","steam_id":76561198031791060,"connected_time":3544000000000,"state":"active","ping":82},{"user_id":16,"name":"thedittofemboy","steam_id":76561199013129784,"connected_time":3533000000000,"state":"active","ping":84},{"user_id":17,"name":"Durazorn","steam_id":76561198096327396,"connected_time":3493000000000,"state":"active","ping":110},{"user_id":19,"name":"Mantis987","steam_id":76561198334850897,"connected_time":3421000000000,"state":"active","ping":117},{"user_id":20,"name":"Gork","steam_id":76561197970506809,"connected_time":3378000000000,"state":"active","ping":58},{"user_id":62,"name":"recollision","steam_id":76561198417822430,"connected_time":312000000000,"state":"active","ping":109},{"user_id":22,"name":"horse plinko","steam_id":76561198433345421,"connected_time":3374000000000,"state":"active","ping":98},{"user_id":23,"name":"Mr. Everett","steam_id":76561198401204033,"connected_time":3371000000000,"state":"active","ping":48},{"user_id":54,"name":"Average Bay Leaf","steam_id":76561198045202664,"connected_time":771000000000,"state":"active","ping":45},{"user_id":30,"name":"Kitsune King","steam_id":76561199015766238,"connected_time":3052000000000,"state":"active","ping":93},{"user_id":31,"name":"GX Compress Dong","steam_id":76561198018950826,"connected_time":3052000000000,"state":"active","ping":90},{"user_id":27,"name":"WorldsLargestPlanet","steam_id":76561199042160997,"connected_time":3206000000000,"state":"active","ping":89},{"user_id":28,"name":"Acorn","steam_id":76561198353480153,"connected_time":3161000000000,"state":"active","ping":61},{"user_id":40,"name":"R3allyDAvid011","steam_id":76561199221392345,"connected_time":2529000000000,"state":"active","ping":87},{"user_id":51,"name":"I have no idea what I am doing?","steam_id":76561198093152207,"connected_time":1349000000000,"state":"active","ping":77},{"user_id":38,"name":"The Hottest Sauce","steam_id":76561197961152067,"connected_time":2553000000000,"state":"active","ping":77},{"user_id":41,"name":"smol bjord","steam_id":76561198246903874,"connected_time":2528000000000,"state":"active","ping":76},{"user_id":42,"name":"Mr. Bananagrabber","steam_id":76561197961277652,"connected_time":2514000000000,"state":"active","ping":72},{"user_id":43,"name":"Ctwee","steam_id":76561198239355084,"connected_time":2457000000000,"state":"active","ping":70},{"user_id":50,"name":"qouesm","steam_id":76561198042673929,"connected_time":1865000000000,"state":"active","ping":75},{"user_id":57,"name":"Tomfoolery","steam_id":76561198381365665,"connected_time":595000000000,"state":"active","ping":69},{"user_id":58,"name":"Count Ejacula","steam_id":76561198058400387,"connected_time":520000000000,"state":"active","ping":93},{"user_id":59,"name":"LittleGremlin","steam_id":76561199125756735,"connected_time":494000000000,"state":"active","ping":63},{"user_id":60,"name":"Bebo Johnson","steam_id":76561197993590618,"connected_time":486000000000,"state":"active","ping":71}]},{"server_id":8,"name":"Uncletopia | Dallas | 1 | All Maps","name_short":"dal-1","host":"dal-1.us.uncletopia.com","port":27015,"enabled":true,"region":"us-central","cc":"us","latitude":32.779167,"longitude":-96.80889,"reserved":0,"last_update":"0001-01-01T00:00:00Z","name_a2s":"Uncletopia | Dallas | 1 | All Maps","protocol":17,"map":"cp_powerhouse","folder":"tf","game":"Team Fortress","app_id":440,"player_count":24,"max_players":24,"Bots":0,"server_type":"Dedicated","server_os":"Linux","password":true,"vac":true,"version":"7961495","steam_id":85568392924469986,"keywords":["cp","nocrits","nodmgspread","uncletopia"],"game_id":440,"stv_port":27016,"stv_name":"Uncletopia | Dallas | 1 | All Maps | STV","players":[{"user_id":643,"name":"Imrgrim","steam_id":76561198135866481,"connected_time":3139000000000,"state":"active","ping":64},{"user_id":659,"name":"I am a mooshroom","steam_id":76561198104198295,"connected_time":400000000000,"state":"active","ping":65},{"user_id":645,"name":"`o2","steam_id":76561197992030936,"connected_time":3018000000000,"state":"active","ping":76},{"user_id":660,"name":"Sabaktes","steam_id":76561199018313476,"connected_time":394000000000,"state":"active","ping":68},{"user_id":661,"name":"Rock Kickass","steam_id":76561198450510841,"connected_time":354000000000,"state":"active","ping":100},{"user_id":667,"name":"rachael rabies","steam_id":76561198000851637,"connected_time":246000000000,"state":"active","ping":101},{"user_id":670,"name":"Murgatroyd","steam_id":76561198077350331,"connected_time":36000000000,"state":"active","ping":75},{"user_id":668,"name":"Baannaannaa","steam_id":76561198042895194,"connected_time":231000000000,"state":"active","ping":62},{"user_id":663,"name":"Biscipline","steam_id":76561198019206178,"connected_time":316000000000,"state":"active","ping":81},{"user_id":657,"name":"banana gaming","steam_id":76561198334907218,"connected_time":978000000000,"state":"active","ping":63},{"user_id":642,"name":"Rowmaster","steam_id":76561198271659574,"connected_time":3224000000000,"state":"active","ping":63},{"user_id":627,"name":"Bloop","steam_id":76561198253563271,"connected_time":5126000000000,"state":"active","ping":62},{"user_id":486,"name":"THRONGLER","steam_id":76561198198563466,"connected_time":19284000000000,"state":"active","ping":38},{"user_id":592,"name":"Moonflower ‚ú¶","steam_id":76561198191782483,"connected_time":9527000000000,"state":"active","ping":50},{"user_id":664,"name":"leesh","steam_id":76561198079603938,"connected_time":308000000000,"state":"active","ping":60},{"user_id":638,"name":"jizz gaming","steam_id":76561198984762462,"connected_time":4182000000000,"state":"active","ping":90},{"user_id":665,"name":"BackToSchoolAds","steam_id":76561198870281128,"connected_time":281000000000,"state":"active","ping":105},{"user_id":652,"name":"Sup m8","steam_id":76561198081659121,"connected_time":1776000000000,"state":"active","ping":45},{"user_id":666,"name":"Insizhen","steam_id":76561198051352605,"connected_time":281000000000,"state":"active","ping":60},{"user_id":655,"name":"SandHanitizer","steam_id":76561198234676500,"connected_time":1671000000000,"state":"active","ping":96},{"user_id":653,"name":"Rob","steam_id":76561199187786660,"connected_time":1762000000000,"state":"active","ping":54},{"user_id":656,"name":"Manic","steam_id":76561198128149670,"connected_time":1314000000000,"state":"active","ping":49},{"user_id":596,"name":"Gary Busey","steam_id":76561197970096950,"connected_time":8812000000000,"state":"active","ping":43},{"user_id":614,"name":"Lavender","steam_id":76561198142770666,"connected_time":7078000000000,"state":"active","ping":64}]},{"server_id":108,"name":"Uncletopia | Dallas | 2 | All Maps","name_short":"dal-2","host":"dal-1.us.uncletopia.com","port":27025,"enabled":true,"region":"us-central","cc":"us","latitude":32.779167,"longitude":-96.80889,"reserved":0,"last_update":"0001-01-01T00:00:00Z","name_a2s":"Uncletopia | Dallas | 2 | All Maps","protocol":17,"map":"pl_badwater","folder":"tf","game":"Team Fortress","app_id":440,"player_count":24,"max_players":24,"Bots":0,"server_type":"Dedicated","server_os":"Linux","password":true,"vac":true,"version":"7961495","steam_id":85568392924469988,"keywords":["nocrits","nodmgspread","payload","uncletopia"],"game_id":440,"stv_port":27026,"stv_name":"Uncletopia | Dallas | 2 | All Maps | STV","players":[{"user_id":486,"name":"vifi269","steam_id":76561198283749166,"connected_time":1679000000000,"state":"active","ping":47},{"user_id":436,"name":"Urbanzpinapple","steam_id":76561198115426938,"connected_time":5326000000000,"state":"active","ping":93},{"user_id":487,"name":"pirate pete","steam_id":76561198151048590,"connected_time":1179000000000,"state":"active","ping":88},{"user_id":477,"name":"Kenku","steam_id":76561199086762926,"connected_time":2493000000000,"state":"active","ping":72},{"user_id":433,"name":"BamBam","steam_id":76561198063110026,"connected_time":5344000000000,"state":"active","ping":73},{"user_id":488,"name":"Da Big Bumby","steam_id":76561198044511738,"connected_time":1162000000000,"state":"active","ping":80},{"user_id":478,"name":"Hey","steam_id":76561198447517893,"connected_time":2391000000000,"state":"active","ping":76},{"user_id":468,"name":"JayRawgTV","steam_id":76561198044402840,"connected_time":2840000000000,"state":"active","ping":45},{"user_id":494,"name":"bigboimarven","steam_id":76561198844778810,"connected_time":968000000000,"state":"active","ping":63},{"user_id":500,"name":"Cat doin laundry","steam_id":76561198063895852,"connected_time":575000000000,"state":"active","ping":50},{"user_id":489,"name":"gusano","steam_id":76561198097887193,"connected_time":1162000000000,"state":"active","ping":120},{"user_id":502,"name":"Dent","steam_id":76561198304978514,"connected_time":435000000000,"state":"active","ping":82},{"user_id":501,"name":"Levi","steam_id":76561198089832776,"connected_time":567000000000,"state":"active","ping":53},{"user_id":457,"name":"Doctor Emerald(Bison enjoyer)","steam_id":76561199123003872,"connected_time":3868000000000,"state":"active","ping":87},{"user_id":456,"name":"xLeoparrd","steam_id":76561198940657194,"connected_time":4027000000000,"state":"active","ping":55},{"user_id":492,"name":"TOKENLIZARD","steam_id":76561198218765205,"connected_time":1099000000000,"state":"active","ping":64},{"user_id":491,"name":"‡∂û","steam_id":76561199365672047,"connected_time":1139000000000,"state":"active","ping":101},{"user_id":424,"name":"i love men","steam_id":76561199026721822,"connected_time":6380000000000,"state":"active","ping":89},{"user_id":484,"name":"Mr.Nostalgic","steam_id":76561198083240822,"connected_time":1873000000000,"state":"active","ping":103},{"user_id":418,"name":"Marc Antony","steam_id":76561198011366517,"connected_time":7109000000000,"state":"active","ping":73},{"user_id":503,"name":"menonamed","steam_id":76561198199564382,"connected_time":321000000000,"state":"active","ping":85},{"user_id":399,"name":"Blessin","steam_id":76561198179305695,"connected_time":8709000000000,"state":"active","ping":56},{"user_id":473,"name":"Kng","steam_id":76561198993248203,"connected_time":2633000000000,"state":"active","ping":88},{"user_id":474,"name":"Cosmic Soup","steam_id":76561198448801117,"connected_time":2603000000000,"state":"active","ping":210}]},{"server_id":404,"name":"Uncletopia | Dallas | 3 | All Maps","name_short":"dal-3","host":"dal-1.us.uncletopia.com","port":27035,"enabled":true,"region":"us-central","cc":"us","latitude":32.779167,"longitude":-96.80889,"reserved":0,"last_update":"0001-01-01T00:00:00Z","name_a2s":"Uncletopia | Dallas | 3 | All Maps","protocol":17,"map":"pl_badwater","folder":"tf","game":"Team Fortress","app_id":440,"player_count":24,"max_players":24,"Bots":0,"server_type":"Dedicated","server_os":"Linux","password":true,"vac":true,"version":"7961495","steam_id":85568392924515219,"keywords":["nocrits","nodmgspread","payload","uncletopia"],"game_id":440,"stv_port":27036,"stv_name":"Uncletopia | Dallas | 3 | All Maps | STV","players":[{"user_id":467,"name":"mepes","steam_id":76561198080430008,"connected_time":101000000000,"state":"active","ping":45},{"user_id":468,"name":"Gramma!","steam_id":76561198340989175,"connected_time":82000000000,"state":"active","ping":67},{"user_id":469,"name":"Mally","steam_id":76561198025013765,"connected_time":66000000000,"state":"active","ping":93},{"user_id":432,"name":"Synthic","steam_id":76561198999659192,"connected_time":3175000000000,"state":"active","ping":90},{"user_id":434,"name":"Captain Buggy","steam_id":76561198024444448,"connected_time":3141000000000,"state":"active","ping":98},{"user_id":446,"name":"MOVEMENTPLAYER bladeefan12","steam_id":76561198274959371,"connected_time":2244000000000,"state":"active","ping":90},{"user_id":470,"name":"leumas","steam_id":76561198240408540,"connected_time":62000000000,"state":"active","ping":90},{"user_id":471,"name":"Ashen One","steam_id":76561198188489245,"connected_time":53000000000,"state":"active","ping":100},{"user_id":422,"name":"inzang","steam_id":76561198088318074,"connected_time":3833000000000,"state":"active","ping":58},{"user_id":459,"name":"cc","steam_id":76561199215821942,"connected_time":1091000000000,"state":"active","ping":54},{"user_id":457,"name":"Stacy","steam_id":76561198305817355,"connected_time":1311000000000,"state":"active","ping":93},{"user_id":397,"name":"Coach McFish","steam_id":76561198210456405,"connected_time":4942000000000,"state":"active","ping":95},{"user_id":472,"name":"MrMind","steam_id":76561199321657653,"connected_time":43000000000,"state":"active","ping":74},{"user_id":455,"name":"skeleton the stairphobic","steam_id":76561198315213115,"connected_time":1731000000000,"state":"active","ping":96},{"user_id":473,"name":"Raz","steam_id":76561198002426150,"connected_time":26000000000,"state":"active","ping":53},{"user_id":428,"name":"Phos","steam_id":76561198122339506,"connected_time":3433000000000,"state":"active","ping":65},{"user_id":437,"name":"Lemon Scented","steam_id":76561199221539724,"connected_time":3042000000000,"state":"active","ping":134},{"user_id":427,"name":"the gaba ghoul","steam_id":76561198330246543,"connected_time":3490000000000,"state":"active","ping":90},{"user_id":458,"name":"Boingo","steam_id":76561199086931535,"connected_time":1251000000000,"state":"active","ping":61},{"user_id":379,"name":"SynSten","steam_id":76561199122281764,"connected_time":6291000000000,"state":"active","ping":78},{"user_id":412,"name":"Mayan","steam_id":76561198087915957,"connected_time":4607000000000,"state":"active","ping":70},{"user_id":407,"name":"jxh300","steam_id":76561199196579894,"connected_time":4742000000000,"state":"active","ping":97},{"user_id":474,"name":"daddy's bitch","steam_id":76561197994492154,"connected_time":23000000000,"state":"active","ping":266},{"user_id":465,"name":"doughboy","steam_id":76561198219012928,"connected_time":224000000000,"state":"active","ping":84}]},{"server_id":405,"name":"Uncletopia | Dallas | 4 | Community","name_short":"dal-4","host":"dal-1.us.uncletopia.com","port":27045,"enabled":true,"region":"us-central","cc":"us","latitude":32.779167,"longitude":-96.80889,"reserved":0,"last_update":"0001-01-01T00:00:00Z","name_a2s":"Uncletopia | Dallas | 4 | Community","protocol":17,"map":"workshop/koth_bagel_rc6.ugc2514036946","folder":"tf","game":"Team Fortress","app_id":440,"player_count":0,"max_players":24,"Bots":0,"server_type":"Dedicated","server_os":"Linux","password":true,"vac":true,"version":"7961495","steam_id":85568392924515220,"keywords":["cp","nocrits","nodmgspread","uncletopia"],"game_id":440,"stv_port":27046,"stv_name":"Uncletopia | Dallas | 4 | Community | STV","players":null},{"server_id":5,"name":"Uncletopia | Frankfurt | 1 | All Maps","name_short":"frk-1","host":"frk-1.de.uncletopia.com","port":27015,"enabled":true,"region":"eu","cc":"de","latitude":50.110924,"longitude":8.682127,"reserved":0,"last_update":"0001-01-01T00:00:00Z","name_a2s":"Uncletopia | Frankfurt | 1 | All Maps","protocol":17,"map":"pl_snowycoast","folder":"tf","game":"Team Fortress","app_id":440,"player_count":0,"max_players":24,"Bots":0,"server_type":"Dedicated","server_os":"Linux","password":true,"vac":true,"version":"7961495","steam_id":85568392924469989,"keywords":["nocrits","nodmgspread","payload","uncletopia"],"game_id":440,"stv_port":27016,"stv_name":"Uncletopia | Frankfurt | 1 | All Maps | STV","players":null},{"server_id":110,"name":"Uncletopia | Frankfurt | 2 | All Maps","name_short":"frk-2","host":"frk-1.de.uncletopia.com","port":27025,"enabled":true,"region":"eu","cc":"de","latitude":50.110924,"longitude":8.682127,"reserved":0,"last_update":"0001-01-01T00:00:00Z","name_a2s":"Uncletopia | Frankfurt | 2 | All Maps","protocol":17,"map":"koth_viaduct","folder":"tf","game":"Team Fortress","app_id":440,"player_count":0,"max_players":24,"Bots":0,"server_type":"Dedicated","server_os":"Linux","password":true,"vac":true,"version":"7961495","steam_id":85568392924469990,"keywords":["cp","nocrits","nodmgspread","uncletopia"],"game_id":440,"stv_port":27026,"stv_name":"Uncletopia | Frankfurt | 2 | All Maps | STV","players":null},{"server_id":308,"name":"Uncletopia | Frankfurt | 3 | All Maps","name_short":"frk-3","host":"frk-1.de.uncletopia.com","port":27035,"enabled":true,"region":"eu","cc":"de","latitude":50.110924,"longitude":8.682127,"reserved":0,"last_update":"0001-01-01T00:00:00Z","name_a2s":"Uncletopia | Frankfurt | 3 | All Maps","protocol":17,"map":"pl_barnblitz","folder":"tf","game":"Team Fortress","app_id":440,"player_count":24,"max_players":24,"Bots":0,"server_type":"Dedicated","server_os":"Linux","password":true,"vac":true,"version":"7961495","steam_id":85568392924504274,"keywords":["nocrits","nodmgspread","payload","uncletopia"],"game_id":440,"stv_port":27036,"stv_name":"Uncletopia | Frankfurt | 3 | All Maps | STV","players":[{"user_id":819,"name":"Blackgdkcb","steam_id":76561199027950389,"connected_time":2088000000000,"state":"active","ping":52},{"user_id":831,"name":"rai","steam_id":76561199408923294,"connected_time":1044000000000,"state":"active","ping":62},{"user_id":808,"name":"Vix The Vulpix","steam_id":76561198292181452,"connected_time":3285000000000,"state":"active","ping":163},{"user_id":825,"name":"nhelv fart","steam_id":76561199008643754,"connected_time":1620000000000,"state":"active","ping":110},{"user_id":820,"name":"K","steam_id":76561198144604444,"connected_time":2022000000000,"state":"active","ping":74},{"user_id":843,"name":"King Goomba","steam_id":76561198146467813,"connected_time":283000000000,"state":"active","ping":77},{"user_id":790,"name":"noseb","steam_id":76561199480942903,"connected_time":4543000000000,"state":"active","ping":68},{"user_id":833,"name":"Ivan","steam_id":76561198874503008,"connected_time":969000000000,"state":"active","ping":100},{"user_id":796,"name":"TheDemoKnight","steam_id":76561198035168657,"connected_time":4059000000000,"state":"active","ping":55},{"user_id":827,"name":"Philosophos_Alpha","steam_id":76561198951264580,"connected_time":1338000000000,"state":"active","ping":110},{"user_id":823,"name":"ion luca caragiale","steam_id":76561198132025408,"connected_time":1776000000000,"state":"active","ping":56},{"user_id":816,"name":"sad monkey hands on his head","steam_id":76561198116530769,"connected_time":2514000000000,"state":"active","ping":79},{"user_id":812,"name":"Loaf","steam_id":76561198369922194,"connected_time":2956000000000,"state":"active","ping":71},{"user_id":824,"name":"Fluffy","steam_id":76561198079404910,"connected_time":1744000000000,"state":"active","ping":57},{"user_id":829,"name":"Genesis","steam_id":76561198999652040,"connected_time":1095000000000,"state":"active","ping":45},{"user_id":834,"name":"toyop","steam_id":76561198041708820,"connected_time":965000000000,"state":"active","ping":73},{"user_id":817,"name":"Cap Karma","steam_id":76561198983234981,"connected_time":2508000000000,"state":"active","ping":78},{"user_id":835,"name":"skateboard","steam_id":76561199159557324,"connected_time":962000000000,"state":"active","ping":60},{"user_id":836,"name":"Garzo","steam_id":76561198144111131,"connected_time":958000000000,"state":"active","ping":79},{"user_id":837,"name":"Wokfish","steam_id":76561199014465909,"connected_time":952000000000,"state":"active","ping":70},{"user_id":838,"name":"WARIO IS MY IDOL.","steam_id":76561198126121555,"connected_time":952000000000,"state":"active","ping":160},{"user_id":804,"name":"Draco","steam_id":76561198031226933,"connected_time":3598000000000,"state":"active","ping":62},{"user_id":845,"name":"FR3NLI, The Most Powerful Ball","steam_id":76561198337468472,"connected_time":67000000000,"state":"active","ping":211},{"user_id":842,"name":"Stoowie DooM","steam_id":76561199061820847,"connected_time":789000000000,"state":"active","ping":174}]},{"server_id":309,"name":"Uncletopia | Frankfurt | 4 | All Maps","name_short":"frk-4","host":"frk-1.de.uncletopia.com","port":27045,"enabled":true,"region":"eu","cc":"de","latitude":50.110924,"longitude":8.682127,"reserved":0,"last_update":"0001-01-01T00:00:00Z","name_a2s":"Uncletopia | Frankfurt | 4 | All Maps","protocol":17,"map":"koth_lakeside_final","folder":"tf","game":"Team Fortress","app_id":440,"player_count":2,"max_players":24,"Bots":0,"server_type":"Dedicated","server_os":"Linux","password":true,"vac":true,"version":"7961495","steam_id":85568392924504275,"keywords":["cp","nocrits","nodmgspread","uncletopia"],"game_id":440,"stv_port":27046,"stv_name":"Uncletopia | Frankfurt | 4 | All Maps | STV","players":[{"user_id":810,"name":"stinky23","steam_id":76561199493209104,"connected_time":997000000000,"state":"active","ping":171},{"user_id":811,"name":"Cardboard Box","steam_id":76561199045954216,"connected_time":944000000000,"state":"active","ping":178}]},{"server_id":310,"name":"Uncletopia | Frankfurt | 5 | All Maps","name_short":"frk-5","host":"frk-1.de.uncletopia.com","port":27055,"enabled":true,"region":"eu","cc":"de","latitude":50.110924,"longitude":8.682127,"reserved":0,"last_update":"0001-01-01T00:00:00Z","name_a2s":"Uncletopia | Frankfurt | 5 | All Maps","protocol":17,"map":"cp_sunshine","folder":"tf","game":"Team Fortress","app_id":440,"player_count":0,"max_players":24,"Bots":0,"server_type":"Dedicated","server_os":"Linux","password":true,"vac":true,"version":"7961495","steam_id":85568392924504277,"keywords":["cp","nocrits","nodmgspread","uncletopia"],"game_id":440,"stv_port":27056,"stv_name":"Uncletopia | Frankfurt | 5 | All Maps | STV","players":null},{"server_id":311,"name":"Uncletopia | Frankfurt | 6 | All Maps","name_short":"frk-6","host":"frk-1.de.uncletopia.com","port":27065,"enabled":true,"region":"eu","cc":"de","latitude":50.110924,"longitude":8.682127,"reserved":0,"last_update":"0001-01-01T00:00:00Z","name_a2s":"Uncletopia | Frankfurt | 6 | All Maps","protocol":17,"map":"cp_dustbowl","folder":"tf","game":"Team Fortress","app_id":440,"player_count":0,"max_players":24,"Bots":0,"server_type":"Dedicated","server_os":"Linux","password":true,"vac":true,"version":"7961495","steam_id":85568392924504278,"keywords":["cp","nocrits","nodmgspread","uncletopia"],"game_id":440,"stv_port":27066,"stv_name":"Uncletopia | Frankfurt | 6 | All Maps | STV","players":null},{"server_id":23,"name":"Uncletopia | Frankfurt | 7 | Stopwatch","name_short":"frk-7","host":"frk-1.de.uncletopia.com","port":27075,"enabled":true,"region":"eu","cc":"de","latitude":50.110924,"longitude":8.682127,"reserved":0,"last_update":"0001-01-01T00:00:00Z","name_a2s":"Uncletopia | Frankfurt | 7 | Stopwatch","protocol":17,"map":"koth_highpass","folder":"tf","game":"Team Fortress","app_id":440,"player_count":0,"max_players":24,"Bots":0,"server_type":"Dedicated","server_os":"Linux","password":true,"vac":true,"version":"7961495","steam_id":85568392924742827,"keywords":["cp","nocrits","nodmgspread","uncletopia"],"game_id":440,"stv_port":27076,"stv_name":"Uncletopia | Frankfurt | 7 | Stopwatch | STV","players":null},{"server_id":24,"name":"Uncletopia | Frankfurt | 8 | Community","name_short":"frk-8","host":"frk-1.de.uncletopia.com","port":27085,"enabled":true,"region":"eu","cc":"de","latitude":50.110924,"longitude":8.682127,"reserved":0,"last_update":"0001-01-01T00:00:00Z","name_a2s":"Uncletopia | Frankfurt | 8 | Community","protocol":17,"map":"workshop/koth_trenchfoot_b1a.ugc731436616","folder":"tf","game":"Team Fortress","app_id":440,"player_count":0,"max_players":24,"Bots":0,"server_type":"Dedicated","server_os":"Linux","password":true,"vac":true,"version":"7961495","steam_id":85568392924742828,"keywords":["cp","nocrits","nodmgspread","uncletopia"],"game_id":440,"stv_port":27086,"stv_name":"Uncletopia | Frankfurt | 8 | Community | STV","players":null},{"server_id":202,"name":"Uncletopia | Hong Kong | 1 | All Maps","name_short":"hgk-1","host":"hgk-1.hk.uncletopia.com","port":27015,"enabled":true,"region":"asia","cc":"hk","latitude":22.302711,"longitude":114.177216,"reserved":0,"last_update":"0001-01-01T00:00:00Z","name_a2s":"Uncletopia | Hong Kong | 1 | All Maps","protocol":17,"map":"pl_badwater","folder":"tf","game":"Team Fortress","app_id":440,"player_count":24,"max_players":24,"Bots":0,"server_type":"Dedicated","server_os":"Linux","password":true,"vac":true,"version":"7961495","steam_id":85568392924494504,"keywords":["nocrits","nodmgspread","payload","uncletopia"],"game_id":440,"stv_port":27016,"stv_name":"Uncletopia | Hong Kong | 1 | All Maps | STV","players":[{"user_id":28,"name":"3wfFbdrjEze5d2G","steam_id":76561198435900451,"connected_time":2846000000000,"state":"active","ping":109},{"user_id":32,"name":"pomudachi#12","steam_id":76561199236014301,"connected_time":2407000000000,"state":"active","ping":99},{"user_id":29,"name":"Scrappy","steam_id":76561198970038475,"connected_time":2667000000000,"state":"active","ping":145},{"user_id":52,"name":"TomProPlayer","steam_id":76561199223292521,"connected_time":997000000000,"state":"active","ping":74},{"user_id":33,"name":"vansire","steam_id":76561198996517121,"connected_time":2275000000000,"state":"active","ping":67},{"user_id":72,"name":"Nonexistent","steam_id":76561198980563251,"connected_time":165000000000,"state":"active","ping":82},{"user_id":62,"name":"Jimmy","steam_id":76561198411087075,"connected_time":717000000000,"state":"active","ping":53},{"user_id":73,"name":"Blarx","steam_id":76561198837822442,"connected_time":136000000000,"state":"active","ping":99},{"user_id":61,"name":"Giouri","steam_id":76561199152247162,"connected_time":748000000000,"state":"active","ping":179},{"user_id":43,"name":"RAHHHHH!!!!!!!","steam_id":76561198324008555,"connected_time":1366000000000,"state":"active","ping":56},{"user_id":39,"name":"Musicaster","steam_id":76561199054360834,"connected_time":1799000000000,"state":"active","ping":131},{"user_id":53,"name":"Lunacia","steam_id":76561198429887240,"connected_time":925000000000,"state":"active","ping":76},{"user_id":55,"name":"guitar","steam_id":76561198180363385,"connected_time":890000000000,"state":"active","ping":82},{"user_id":56,"name":"solo","steam_id":76561199221433871,"connected_time":867000000000,"state":"active","ping":139},{"user_id":64,"name":"‰Ω†ÂÆ∂ÁàÜÁÇ∏","steam_id":76561198071257762,"connected_time":540000000000,"state":"active","ping":117},{"user_id":49,"name":"wom","steam_id":76561199375834537,"connected_time":1111000000000,"state":"active","ping":117},{"user_id":50,"name":"Tonto","steam_id":76561199028083698,"connected_time":1049000000000,"state":"active","ping":42},{"user_id":51,"name":"SunShine","steam_id":76561198323642446,"connected_time":1040000000000,"state":"active","ping":103},{"user_id":65,"name":"JDSFE","steam_id":76561198975490851,"connected_time":502000000000,"state":"active","ping":89},{"user_id":66,"name":"Manglu","steam_id":76561198157297574,"connected_time":466000000000,"state":"active","ping":85},{"user_id":60,"name":"Requiem","steam_id":76561197993400606,"connected_time":762000000000,"state":"active","ping":108},{"user_id":67,"name":"vutueminh907","steam_id":76561199491967126,"connected_time":415000000000,"state":"active","ping":78},{"user_id":70,"name":"Theducktube","steam_id":76561198137265224,"connected_time":353000000000,"state":"active","ping":124},{"user_id":71,"name":"toad„ÉÑ","steam_id":76561198082199290,"connected_time":343000000000,"state":"active","ping":45}]},{"server_id":1,"name":"Uncletopia | Los Angeles | 1 | All Maps","name_short":"lax-1","host":"lax-1.us.uncletopia.com","port":27015,"enabled":true,"region":"us-west","cc":"us","latitude":33.94279,"longitude":-118.41004,"reserved":0,"last_update":"0001-01-01T00:00:00Z","name_a2s":"Uncletopia | Los Angeles | 1 | All Maps","protocol":17,"map":"plr_bananabay","folder":"tf","game":"Team Fortress","app_id":440,"player_count":23,"max_players":24,"Bots":0,"server_type":"Dedicated","server_os":"Linux","password":true,"vac":true,"version":"7961495","steam_id":85568392924469991,"keywords":["nocrits","nodmgspread","payload","uncletopia"],"game_id":440,"stv_port":27016,"stv_name":"Uncletopia | Los Angeles | 1 | All Maps | STV","players":[{"user_id":431,"name":"jovial","steam_id":76561198297130941,"connected_time":2087000000000,"state":"active","ping":55},{"user_id":452,"name":"miwo","steam_id":76561198024850034,"connected_time":865000000000,"state":"active","ping":45},{"user_id":442,"name":"silly jester","steam_id":76561198079609974,"connected_time":1585000000000,"state":"active","ping":59},{"user_id":453,"name":"MayKaye","steam_id":76561199016092265,"connected_time":840000000000,"state":"active","ping":58},{"user_id":459,"name":"Kylar","steam_id":76561198196979431,"connected_time":261000000000,"state":"active","ping":61},{"user_id":430,"name":"Sivinus","steam_id":76561198025589541,"connected_time":2221000000000,"state":"active","ping":63},{"user_id":443,"name":"Awesome Biscuit :0","steam_id":76561199123614910,"connected_time":1574000000000,"state":"active","ping":56},{"user_id":418,"name":"Frosted Snow ‚ùÑ","steam_id":76561198145095244,"connected_time":3250000000000,"state":"active","ping":112},{"user_id":469,"name":"vozz","steam_id":76561198242065410,"connected_time":1000000000,"state":"spawning","ping":45},{"user_id":454,"name":"caca sniffer","steam_id":76561199099914725,"connected_time":836000000000,"state":"active","ping":75},{"user_id":468,"name":"grape","steam_id":76561197993980328,"connected_time":89000000000,"state":"active","ping":95},{"user_id":414,"name":"FunnyGoomba","steam_id":76561198279865229,"connected_time":3544000000000,"state":"active","ping":87},{"user_id":441,"name":"Actual Tree Man","steam_id":76561198041277511,"connected_time":1630000000000,"state":"active","ping":102},{"user_id":455,"name":"HeHedron","steam_id":76561199199667164,"connected_time":811000000000,"state":"active","ping":66},{"user_id":439,"name":"pinky","steam_id":76561198093039871,"connected_time":1661000000000,"state":"active","ping":100},{"user_id":425,"name":"lazy catboy","steam_id":76561198359994674,"connected_time":3104000000000,"state":"active","ping":95},{"user_id":458,"name":"turnip","steam_id":76561197999375941,"connected_time":643000000000,"state":"active","ping":88},{"user_id":196,"name":"cool beans","steam_id":76561198045758072,"connected_time":20287000000000,"state":"active","ping":56},{"user_id":444,"name":"[Industrial] A_HUMBLEBUMBLED","steam_id":76561198064771878,"connected_time":1568000000000,"state":"active","ping":77},{"user_id":411,"name":"cyren caster","steam_id":76561198204509499,"connected_time":3808000000000,"state":"active","ping":67},{"user_id":445,"name":"dab","steam_id":76561197997990613,"connected_time":1564000000000,"state":"active","ping":61},{"user_id":447,"name":"Tetra","steam_id":76561198012329955,"connected_time":1534000000000,"state":"active","ping":80},{"user_id":449,"name":"i cant aim","steam_id":76561198065873462,"connected_time":1316000000000,"state":"active","ping":46}]},{"server_id":112,"name":"Uncletopia | Los Angeles | 2 | All Maps","name_short":"lax-2","host":"lax-1.us.uncletopia.com","port":27025,"enabled":true,"region":"us-west","cc":"us","latitude":33.94279,"longitude":-118.41004,"reserved":0,"last_update":"0001-01-01T00:00:00Z","name_a2s":"Uncletopia | Los Angeles | 2 | All Maps","protocol":17,"map":"cp_process_final","folder":"tf","game":"Team Fortress","app_id":440,"player_count":24,"max_players":24,"Bots":0,"server_type":"Dedicated","server_os":"Linux","password":true,"vac":true,"version":"7961495","steam_id":85568392924469992,"keywords":["cp","nocrits","nodmgspread","uncletopia"],"game_id":440,"stv_port":27026,"stv_name":"Uncletopia | Los Angeles | 2 | All Maps | STV","players":[{"user_id":776,"name":"erutoumo","steam_id":76561198093146919,"connected_time":4293000000000,"state":"active","ping":64},{"user_id":810,"name":"Magical.Puffin","steam_id":76561198129039275,"connected_time":1287000000000,"state":"active","ping":64},{"user_id":748,"name":"Lycan","steam_id":76561198151499868,"connected_time":5511000000000,"state":"active","ping":50},{"user_id":799,"name":"Pixelated Pussy","steam_id":76561198002511088,"connected_time":2108000000000,"state":"active","ping":61},{"user_id":800,"name":"MERCHANT","steam_id":76561198210010549,"connected_time":2065000000000,"state":"active","ping":74},{"user_id":820,"name":"Larry Gooseman","steam_id":76561198018696922,"connected_time":709000000000,"state":"active","ping":56},{"user_id":823,"name":"Jabroni RIP DOOM","steam_id":76561198066385842,"connected_time":332000000000,"state":"active","ping":57},{"user_id":802,"name":"Tideflat","steam_id":76561198179850851,"connected_time":1860000000000,"state":"active","ping":97},{"user_id":797,"name":"NOT FRIENDLY","steam_id":76561198041327231,"connected_time":2284000000000,"state":"active","ping":83},{"user_id":825,"name":"tum","steam_id":76561198084712019,"connected_time":276000000000,"state":"active","ping":47},{"user_id":803,"name":"Who","steam_id":76561198013049671,"connected_time":1845000000000,"state":"active","ping":46},{"user_id":818,"name":"zzZZzz","steam_id":76561198346823843,"connected_time":832000000000,"state":"active","ping":55},{"user_id":796,"name":"walrooos #hotlinebling","steam_id":76561198024521839,"connected_time":2636000000000,"state":"active","ping":53},{"user_id":791,"name":"Keyboardbreaker","steam_id":76561198372836132,"connected_time":3303000000000,"state":"active","ping":75},{"user_id":824,"name":"Underscorn","steam_id":76561198374209415,"connected_time":314000000000,"state":"active","ping":94},{"user_id":817,"name":"NightGhost1400","steam_id":76561198810730471,"connected_time":967000000000,"state":"active","ping":81},{"user_id":814,"name":"Owl_eyes","steam_id":76561198066199203,"connected_time":1197000000000,"state":"active","ping":59},{"user_id":789,"name":"Mokineer","steam_id":76561198163022669,"connected_time":3354000000000,"state":"active","ping":109},{"user_id":775,"name":"Sussin'","steam_id":76561198059813696,"connected_time":4375000000000,"state":"active","ping":108},{"user_id":816,"name":"T√ºCold","steam_id":76561198111278197,"connected_time":1012000000000,"state":"active","ping":67},{"user_id":793,"name":"Gerbias","steam_id":76561198001002427,"connected_time":3219000000000,"state":"active","ping":61},{"user_id":780,"name":"Kris-The Moss Eater","steam_id":76561198060061139,"connected_time":4064000000000,"state":"active","ping":51},{"user_id":821,"name":"triph","steam_id":76561198067196509,"connected_time":503000000000,"state":"active","ping":44},{"user_id":819,"name":"Olitude","steam_id":76561199238964574,"connected_time":802000000000,"state":"active","ping":73}]},{"server_id":324,"name":"Uncletopia | Los Angeles | 3 | All Maps","name_short":"lax-3","host":"lax-1.us.uncletopia.com","port":27035,"enabled":true,"region":"us-west","cc":"us","latitude":33.94279,"longitude":-118.41004,"reserved":0,"last_update":"0001-01-01T00:00:00Z","name_a2s":"Uncletopia | Los Angeles | 3 | All Maps","protocol":17,"map":"cp_dustbowl","folder":"tf","game":"Team Fortress","app_id":440,"player_count":24,"max_players":24,"Bots":0,"server_type":"Dedicated","server_os":"Linux","password":true,"vac":true,"version":"7961495","steam_id":85568392924510198,"keywords":["cp","nocrits","nodmgspread","uncletopia"],"game_id":440,"stv_port":27036,"stv_name":"Uncletopia | Los Angeles | 3 | All Maps | STV","players":[{"user_id":198,"name":"Gamer2468","steam_id":76561199197032021,"connected_time":684000000000,"state":"active","ping":102},{"user_id":210,"name":"woohooren","steam_id":76561198101840527,"connected_time":281000000000,"state":"active","ping":48},{"user_id":196,"name":"Stevokenivo","steam_id":76561198083369950,"connected_time":730000000000,"state":"active","ping":82},{"user_id":199,"name":"The Comedian","steam_id":76561198037780226,"connected_time":674000000000,"state":"active","ping":46},{"user_id":194,"name":"Schnitz","steam_id":76561198265484253,"connected_time":836000000000,"state":"active","ping":57},{"user_id":171,"name":"allMAX","steam_id":76561198270980670,"connected_time":2271000000000,"state":"active","ping":165},{"user_id":168,"name":"no vc no c","steam_id":76561197989503095,"connected_time":2506000000000,"state":"active","ping":164},{"user_id":184,"name":"rustyfloofs","steam_id":76561199241064467,"connected_time":1890000000000,"state":"active","ping":131},{"user_id":201,"name":"ark","steam_id":76561198041066271,"connected_time":523000000000,"state":"active","ping":74},{"user_id":189,"name":"Wordly Eggplant","steam_id":76561198166704083,"connected_time":1587000000000,"state":"active","ping":78},{"user_id":173,"name":"Burito Bandit","steam_id":76561198107367471,"connected_time":2176000000000,"state":"active","ping":79},{"user_id":197,"name":"zz.","steam_id":76561198077970399,"connected_time":719000000000,"state":"active","ping":83},{"user_id":180,"name":"Maxmind24","steam_id":76561198859888778,"connected_time":2024000000000,"state":"active","ping":89},{"user_id":202,"name":"The Potato Romancer","steam_id":76561198204197648,"connected_time":516000000000,"state":"active","ping":59},{"user_id":203,"name":"finman","steam_id":76561198127639913,"connected_time":515000000000,"state":"active","ping":45},{"user_id":204,"name":"‚ô•‚ô•‚ô•Let's Get Physical‚ô•\ufffd","steam_id":76561197961107982,"connected_time":509000000000,"state":"active","ping":104},{"user_id":178,"name":"......","steam_id":76561198067612741,"connected_time":2071000000000,"state":"active","ping":70},{"user_id":205,"name":"How To Hear God","steam_id":76561199494996720,"connected_time":478000000000,"state":"active","ping":55},{"user_id":211,"name":"robert","steam_id":76561198071099414,"connected_time":258000000000,"state":"active","ping":43},{"user_id":207,"name":"Rodiisss","steam_id":76561198931321068,"connected_time":446000000000,"state":"active","ping":45},{"user_id":193,"name":"waffles con leche","steam_id":76561198246934872,"connected_time":958000000000,"state":"active","ping":69},{"user_id":183,"name":"Wick","steam_id":76561198062996360,"connected_time":1956000000000,"state":"active","ping":67},{"user_id":185,"name":"Lemonade Juice","steam_id":76561198402892608,"connected_time":1835000000000,"state":"active","ping":48},{"user_id":209,"name":"idarmed","steam_id":76561198420064361,"connected_time":390000000000,"state":"active","ping":132}]},{"server_id":25,"name":"Uncletopia | Los Angeles | 4 | Stopwatch","name_short":"lax-4","host":"lax-1.us.uncletopia.com","port":27045,"enabled":true,"region":"us-west","cc":"us","latitude":33.94279,"longitude":-118.41004,"reserved":0,"last_update":"0001-01-01T00:00:00Z","name_a2s":"Uncletopia | Los Angeles | 4 | Stopwatch","protocol":17,"map":"workshop/pl_barnblitz_pro7.ugc582280235","folder":"tf","game":"Team Fortress","app_id":440,"player_count":0,"max_players":24,"Bots":0,"server_type":"Dedicated","server_os":"Linux","password":true,"vac":true,"version":"7961495","steam_id":85568392924510199,"keywords":["nocrits","nodmgspread","payload","uncletopia"],"game_id":440,"stv_port":27046,"stv_name":"Uncletopia | Los Angeles | 4 | Stopwatch | STV","players":null},{"server_id":11,"name":"Uncletopia | London | 1 | All Maps","name_short":"lon-1","host":"lon-1.uk.uncletopia.com","port":27015,"enabled":true,"region":"eu","cc":"gb","latitude":51.509865,"longitude":-0.118092,"reserved":0,"last_update":"0001-01-01T00:00:00Z","name_a2s":"Uncletopia | London | 1 | All Maps","protocol":17,"map":"pl_barnblitz","folder":"tf","game":"Team Fortress","app_id":440,"player_count":0,"max_players":24,"Bots":0,"server_type":"Dedicated","server_os":"Linux","password":true,"vac":true,"version":"7961495","steam_id":85568392924367362,"keywords":["nocrits","nodmgspread","payload","uncletopia"],"game_id":440,"stv_port":27016,"stv_name":"Uncletopia | London | 1 | All Maps | STV","players":null},{"server_id":114,"name":"Uncletopia | London | 2 | All Maps","name_short":"lon-2","host":"lon-1.uk.uncletopia.com","port":27025,"enabled":true,"region":"eu","cc":"gb","latitude":51.509865,"longitude":-0.118092,"reserved":0,"last_update":"0001-01-01T00:00:00Z","name_a2s":"Uncletopia | London | 2 | All Maps","protocol":17,"map":"pl_snowycoast","folder":"tf","game":"Team Fortress","app_id":440,"player_count":0,"max_players":24,"Bots":0,"server_type":"Dedicated","server_os":"Linux","password":true,"vac":true,"version":"7961495","steam_id":85568392924470941,"keywords":["nocrits","nodmgspread","payload","uncletopia"],"game_id":440,"stv_port":27026,"stv_name":"Uncletopia | London | 2 | All Maps | STV","players":null},{"server_id":320,"name":"Uncletopia | London | 3 | All Maps","name_short":"lon-3","host":"lon-1.uk.uncletopia.com","port":27035,"enabled":true,"region":"eu","cc":"gb","latitude":51.509865,"longitude":-0.118092,"reserved":0,"last_update":"0001-01-01T00:00:00Z","name_a2s":"Uncletopia | London | 3 | All Maps","protocol":17,"map":"koth_lakeside_final","folder":"tf","game":"Team Fortress","app_id":440,"player_count":0,"max_players":24,"Bots":0,"server_type":"Dedicated","server_os":"Linux","password":true,"vac":true,"version":"7961495","steam_id":85568392924510192,"keywords":["cp","nocrits","nodmgspread","uncletopia"],"game_id":440,"stv_port":27036,"stv_name":"Uncletopia | London | 3 | All Maps | STV","players":null},{"server_id":321,"name":"Uncletopia | London | 4 | All Maps","name_short":"lon-4","host":"lon-1.uk.uncletopia.com","port":27045,"enabled":true,"region":"eu","cc":"gb","latitude":51.509865,"longitude":-0.118092,"reserved":0,"last_update":"0001-01-01T00:00:00Z","name_a2s":"Uncletopia | London | 4 | All Maps","protocol":17,"map":"cp_dustbowl","folder":"tf","game":"Team Fortress","app_id":440,"player_count":0,"max_players":24,"Bots":0,"server_type":"Dedicated","server_os":"Linux","password":true,"vac":true,"version":"7961495","steam_id":85568392924510193,"keywords":["cp","nocrits","nodmgspread","uncletopia"],"game_id":440,"stv_port":27046,"stv_name":"Uncletopia | London | 4 | All Maps | STV","players":null},{"server_id":21,"name":"Uncletopia | London | 5 | All Maps","name_short":"lon-5","host":"lon-1.uk.uncletopia.com","port":27055,"enabled":true,"region":"eu","cc":"gb","latitude":51.509865,"longitude":-0.118092,"reserved":0,"last_update":"0001-01-01T00:00:00Z","name_a2s":"Uncletopia | London | 5 | All Maps","protocol":17,"map":"cp_dustbowl","folder":"tf","game":"Team Fortress","app_id":440,"player_count":0,"max_players":24,"Bots":0,"server_type":"Dedicated","server_os":"Linux","password":true,"vac":true,"version":"7961495","steam_id":85568392924742829,"keywords":["cp","nocrits","nodmgspread","uncletopia"],"game_id":440,"stv_port":27056,"stv_name":"Uncletopia | London | 5 | All Maps | STV","players":null},{"server_id":22,"name":"Uncletopia | London | 6 | All Maps","name_short":"lon-6","host":"lon-1.uk.uncletopia.com","port":27065,"enabled":true,"region":"eu","cc":"gb","latitude":51.509865,"longitude":-0.118092,"reserved":0,"last_update":"0001-01-01T00:00:00Z","name_a2s":"Uncletopia | London | 6 | All Maps","protocol":17,"map":"koth_lakeside_final","folder":"tf","game":"Team Fortress","app_id":440,"player_count":0,"max_players":24,"Bots":0,"server_type":"Dedicated","server_os":"Linux","password":true,"vac":true,"version":"7961495","steam_id":85568392924742830,"keywords":["cp","nocrits","nodmgspread","uncletopia"],"game_id":440,"stv_port":27066,"stv_name":"Uncletopia | London | 6 | All Maps | STV","players":null},{"server_id":40,"name":"Uncletopia | London | 7 | Stopwatch","name_short":"lon-7","host":"lon-1.uk.uncletopia.com","port":27075,"enabled":true,"region":"eu","cc":"gb","latitude":51.509865,"longitude":-0.118092,"reserved":0,"last_update":"0001-01-01T00:00:00Z","name_a2s":"Uncletopia | London | 7 | Stopwatch","protocol":17,"map":"workshop/koth_ashville_final.ugc2130459942","folder":"tf","game":"Team Fortress","app_id":440,"player_count":0,"max_players":24,"Bots":0,"server_type":"Dedicated","server_os":"Linux","password":true,"vac":true,"version":"7961495","steam_id":85568392924964314,"keywords":["cp","nocrits","nodmgspread","uncletopia"],"game_id":440,"stv_port":27076,"stv_name":"Uncletopia | London | 7 | Stopwatch | STV","players":null},{"server_id":41,"name":"Uncletopia | London | 8 | Community","name_short":"lon-8","host":"lon-1.uk.uncletopia.com","port":27085,"enabled":true,"region":"eu","cc":"gb","latitude":51.509865,"longitude":-0.118092,"reserved":0,"last_update":"0001-01-01T00:00:00Z","name_a2s":"Uncletopia | London | 8 | Community","protocol":17,"map":"workshop/koth_synthetic_rc6a.ugc1549817316","folder":"tf","game":"Team Fortress","app_id":440,"player_count":0,"max_players":24,"Bots":0,"server_type":"Dedicated","server_os":"Linux","password":true,"vac":true,"version":"7961495","steam_id":85568392924964315,"keywords":["cp","nocrits","nodmgspread","uncletopia"],"game_id":440,"stv_port":27086,"stv_name":"Uncletopia | London | 8 | Community | STV","players":null},{"server_id":300,"name":"Uncletopia | Montr√©al | 1 | All Maps","name_short":"mtl-1","host":"mtl-1.ca.uncletopia.com","port":27015,"enabled":true,"region":"us-east","cc":"ca","latitude":45.50889,"longitude":-73.56167,"reserved":0,"last_update":"0001-01-01T00:00:00Z","name_a2s":"","protocol":0,"map":"","folder":"","game":"","app_id":0,"player_count":23,"max_players":0,"Bots":0,"server_type":"","server_os":"","password":false,"vac":false,"version":"","steam_id":0,"keywords":null,"game_id":0,"stv_port":0,"stv_name":"","players":[{"user_id":417,"name":"Jack","steam_id":76561198254716942,"connected_time":40000000000,"state":"active","ping":51},{"user_id":403,"name":"Hollow gamer","steam_id":76561198426798913,"connected_time":890000000000,"state":"active","ping":119},{"user_id":337,"name":"Hellbound","steam_id":76561198319648930,"connected_time":6255000000000,"state":"active","ping":67},{"user_id":404,"name":"Rubber Glove of Seduction","steam_id":76561198013258632,"connected_time":866000000000,"state":"active","ping":54},{"user_id":405,"name":"surrender to the void","steam_id":76561198055494039,"connected_time":728000000000,"state":"active","ping":57},{"user_id":401,"name":"Jetstream Sam","steam_id":76561198842076296,"connected_time":978000000000,"state":"active","ping":84},{"user_id":406,"name":"BrownMemeSter","steam_id":76561198113745020,"connected_time":676000000000,"state":"active","ping":52},{"user_id":412,"name":"SaintNick_06","steam_id":76561198257402665,"connected_time":266000000000,"state":"active","ping":86},{"user_id":400,"name":"brian eno","steam_id":76561198109901138,"connected_time":1186000000000,"state":"active","ping":62},{"user_id":386,"name":"squingle","steam_id":76561198108028616,"connected_time":2989000000000,"state":"active","ping":30},{"user_id":402,"name":"jimbabwe","steam_id":76561198028134960,"connected_time":960000000000,"state":"active","ping":59},{"user_id":408,"name":"TTV Hunter","steam_id":76561198115812405,"connected_time":647000000000,"state":"active","ping":46},{"user_id":409,"name":"QueenCake575","steam_id":76561198996882407,"connected_time":572000000000,"state":"active","ping":136},{"user_id":410,"name":"A Rope, for big pits","steam_id":76561198068044782,"connected_time":500000000000,"state":"active","ping":60},{"user_id":411,"name":"Fuzzy","steam_id":76561198113445043,"connected_time":375000000000,"state":"active","ping":52},{"user_id":358,"name":"eipi","steam_id":76561199084492097,"connected_time":4761000000000,"state":"active","ping":38},{"user_id":413,"name":"Poyo Boyo","steam_id":76561198010201227,"connected_time":242000000000,"state":"active","ping":139},{"user_id":414,"name":"SpicyFingers","steam_id":76561198125489143,"connected_time":235000000000,"state":"active","ping":52},{"user_id":415,"name":"TheVikingTheRed","steam_id":76561199221731253,"connected_time":163000000000,"state":"active","ping":114},{"user_id":416,"name":"goth loli enjoyer","steam_id":76561198075216115,"connected_time":160000000000,"state":"active","ping":149},{"user_id":383,"name":"Sunshine On Me","steam_id":76561198042570322,"connected_time":3321000000000,"state":"active","ping":73},{"user_id":393,"name":"canakblasteran","steam_id":76561199472518822,"connected_time":2230000000000,"state":"active","ping":133},{"user_id":394,"name":"Zidjit","steam_id":76561199072950598,"connected_time":2217000000000,"state":"active","ping":124}]},{"server_id":301,"name":"Uncletopia | Montr√©al | 2 | ???","name_short":"mtl-2","host":"mtl-1.ca.uncletopia.com","port":27025,"enabled":true,"region":"us-east","cc":"ca","latitude":45.50889,"longitude":-73.56167,"reserved":0,"last_update":"0001-01-01T00:00:00Z","name_a2s":"","protocol":0,"map":"","folder":"","game":"","app_id":0,"player_count":0,"max_players":0,"Bots":0,"server_type":"","server_os":"","password":false,"vac":false,"version":"","steam_id":0,"keywords":null,"game_id":0,"stv_port":0,"stv_name":"","players":null},{"server_id":13,"name":"Uncletopia | New York City | 1 | All Maps","name_short":"nyc-1","host":"nyc-1.us.uncletopia.com","port":27015,"enabled":true,"region":"us-east","cc":"us","latitude":40.73061,"longitude":-73.93524,"reserved":0,"last_update":"0001-01-01T00:00:00Z","name_a2s":"Uncletopia | New York City | 1 | All Maps","protocol":17,"map":"pl_badwater","folder":"tf","game":"Team Fortress","app_id":440,"player_count":24,"max_players":24,"Bots":0,"server_type":"Dedicated","server_os":"Linux","password":true,"vac":true,"version":"7961495","steam_id":85568392924469993,"keywords":["nocrits","nodmgspread","payload","uncletopia"],"game_id":440,"stv_port":27016,"stv_name":"Uncletopia | New York City | 1 | All Maps | STV","players":[{"user_id":623,"name":"8UC33","steam_id":76561198027690865,"connected_time":284000000000,"state":"active","ping":82},{"user_id":611,"name":"Lutz","steam_id":76561198319233787,"connected_time":1510000000000,"state":"active","ping":120},{"user_id":626,"name":"JP19gamerkitty","steam_id":76561198995727671,"connected_time":6000000000,"state":"spawning","ping":67},{"user_id":544,"name":"PieSpie","steam_id":76561198054531169,"connected_time":6520000000000,"state":"active","ping":93},{"user_id":620,"name":"JtsRes","steam_id":76561197994809241,"connected_time":426000000000,"state":"active","ping":91},{"user_id":618,"name":"A Real American","steam_id":76561198061679524,"connected_time":470000000000,"state":"active","ping":56},{"user_id":599,"name":"Gentoo Linux Gaming","steam_id":76561197999657118,"connected_time":2609000000000,"state":"active","ping":64},{"user_id":602,"name":"patdine","steam_id":76561198060865671,"connected_time":2096000000000,"state":"active","ping":62},{"user_id":603,"name":"Elliot","steam_id":76561198052843856,"connected_time":2003000000000,"state":"active","ping":47},{"user_id":596,"name":"yeyoi","steam_id":76561198069821885,"connected_time":3067000000000,"state":"active","ping":57},{"user_id":607,"name":"Nerrrd_","steam_id":76561198870129960,"connected_time":1708000000000,"state":"active","ping":45},{"user_id":624,"name":"DRUMMY GRAMMY","steam_id":76561198047642540,"connected_time":188000000000,"state":"active","ping":80},{"user_id":604,"name":"Voltaire!","steam_id":76561198047528141,"connected_time":2003000000000,"state":"active","ping":85},{"user_id":625,"name":"Oni","steam_id":76561198112066584,"connected_time":95000000000,"state":"active","ping":79},{"user_id":621,"name":"Ghille","steam_id":76561198027234838,"connected_time":416000000000,"state":"active","ping":69},{"user_id":616,"name":"ndvr","steam_id":76561199379200102,"connected_time":648000000000,"state":"active","ping":55},{"user_id":545,"name":"trying to get my bf pregnant","steam_id":76561198097175164,"connected_time":6391000000000,"state":"active","ping":75},{"user_id":421,"name":"pea ttv/peabeanz","steam_id":76561198119551968,"connected_time":16511000000000,"state":"active","ping":69},{"user_id":560,"name":"Goose","steam_id":76561198245716618,"connected_time":5696000000000,"state":"active","ping":78},{"user_id":622,"name":"terrapieseven","steam_id":76561198072062415,"connected_time":407000000000,"state":"active","ping":62},{"user_id":617,"name":"Chestnnut","steam_id":76561198077782729,"connected_time":485000000000,"state":"active","ping":85},{"user_id":595,"name":"salty like Lot's wife","steam_id":76561197998619845,"connected_time":3146000000000,"state":"active","ping":54},{"user_id":541,"name":"eWVra2Vy","steam_id":76561198453565942,"connected_time":7022000000000,"state":"active","ping":73},{"user_id":579,"name":"minecrafterking8","steam_id":76561198366299848,"connected_time":4418000000000,"state":"active","ping":61}]},{"server_id":14,"name":"Uncletopia | New York City | 2 | All Maps","name_short":"nyc-2","host":"nyc-1.us.uncletopia.com","port":27025,"enabled":true,"region":"us-east","cc":"us","latitude":40.73061,"longitude":-73.93524,"reserved":0,"last_update":"0001-01-01T00:00:00Z","name_a2s":"Uncletopia | New York City | 2 | All Maps","protocol":17,"map":"cp_mercenarypark","folder":"tf","game":"Team Fortress","app_id":440,"player_count":23,"max_players":24,"Bots":0,"server_type":"Dedicated","server_os":"Linux","password":true,"vac":true,"version":"7961495","steam_id":85568392924469994,"keywords":["cp","nocrits","nodmgspread","uncletopia"],"game_id":440,"stv_port":27026,"stv_name":"Uncletopia | New York City | 2 | All Maps | STV","players":[{"user_id":524,"name":"Wooper","steam_id":76561198047491931,"connected_time":313000000000,"state":"active","ping":36},{"user_id":491,"name":"Blizzero","steam_id":76561198249172512,"connected_time":3091000000000,"state":"active","ping":56},{"user_id":525,"name":"Cunt Force Trauma","steam_id":76561198086121413,"connected_time":312000000000,"state":"active","ping":59},{"user_id":510,"name":"Taco","steam_id":76561198185185694,"connected_time":1683000000000,"state":"active","ping":94},{"user_id":494,"name":"saurhead","steam_id":76561198132937722,"connected_time":2960000000000,"state":"active","ping":46},{"user_id":526,"name":"Gubbington","steam_id":76561198959381302,"connected_time":308000000000,"state":"active","ping":76},{"user_id":527,"name":"bluebluepickles","steam_id":76561198119503953,"connected_time":300000000000,"state":"active","ping":83},{"user_id":507,"name":"MacAndCheese69","steam_id":76561199013464592,"connected_time":2323000000000,"state":"active","ping":56},{"user_id":513,"name":"Cat_Soldier","steam_id":76561198799974610,"connected_time":1512000000000,"state":"active","ping":67},{"user_id":529,"name":"TwelvePackofSaltyBones","steam_id":76561198224764664,"connected_time":161000000000,"state":"active","ping":71},{"user_id":470,"name":"Stormartillery","steam_id":76561198408982577,"connected_time":4724000000000,"state":"active","ping":60},{"user_id":514,"name":"Khorne Looney","steam_id":76561197988500167,"connected_time":1509000000000,"state":"active","ping":76},{"user_id":461,"name":"superman545454545454545454","steam_id":76561199182863907,"connected_time":5447000000000,"state":"active","ping":55},{"user_id":523,"name":"HeavenHearst","steam_id":76561198066083947,"connected_time":578000000000,"state":"active","ping":90},{"user_id":489,"name":"Vanderbean","steam_id":76561198799240913,"connected_time":3137000000000,"state":"active","ping":72},{"user_id":474,"name":"breesey","steam_id":76561198341658826,"connected_time":3739000000000,"state":"active","ping":40},{"user_id":433,"name":"linklol262","steam_id":76561198305620134,"connected_time":6485000000000,"state":"active","ping":80},{"user_id":515,"name":"rin","steam_id":76561198155841915,"connected_time":1507000000000,"state":"active","ping":90},{"user_id":522,"name":"Wahhpah","steam_id":76561198180734567,"connected_time":631000000000,"state":"active","ping":86},{"user_id":531,"name":"wool","steam_id":76561198869689933,"connected_time":58000000000,"state":"active","ping":57},{"user_id":530,"name":"Postarization","steam_id":76561199229658714,"connected_time":140000000000,"state":"active","ping":87},{"user_id":481,"name":"Baron von Whoopsie","steam_id":76561197996691013,"connected_time":3452000000000,"state":"active","ping":62},{"user_id":498,"name":"cyberas","steam_id":76561198257092290,"connected_time":2901000000000,"state":"active","ping":71}]},{"server_id":15,"name":"Uncletopia | New York City | 3 | Stopwatch","name_short":"nyc-3","host":"nyc-1.us.uncletopia.com","port":27035,"enabled":true,"region":"us-east","cc":"us","latitude":40.73061,"longitude":-73.93524,"reserved":0,"last_update":"0001-01-01T00:00:00Z","name_a2s":"Uncletopia | New York City | 3 | Stopwatch","protocol":17,"map":"workshop/pl_summercoast_rc8e.ugc1761528829","folder":"tf","game":"Team Fortress","app_id":440,"player_count":16,"max_players":24,"Bots":0,"server_type":"Dedicated","server_os":"Linux","password":true,"vac":true,"version":"7961495","steam_id":85568392924742820,"keywords":["nocrits","nodmgspread","payload","uncletopia"],"game_id":440,"stv_port":27036,"stv_name":"Uncletopia | New York City | 3 | Stopwatch | STV","players":[{"user_id":640,"name":"Lamp","steam_id":76561198369922506,"connected_time":1478000000000,"state":"active","ping":45},{"user_id":641,"name":"Exetior","steam_id":76561198978688451,"connected_time":1412000000000,"state":"active","ping":73},{"user_id":586,"name":"Virtual Zorua","steam_id":76561198196180302,"connected_time":4217000000000,"state":"active","ping":61},{"user_id":651,"name":"mak O donald","steam_id":76561198856016840,"connected_time":275000000000,"state":"active","ping":53},{"user_id":649,"name":"coffee bagel","steam_id":76561198141198352,"connected_time":465000000000,"state":"active","ping":61},{"user_id":631,"name":"EliAwesome1311","steam_id":76561198884612299,"connected_time":1813000000000,"state":"active","ping":75},{"user_id":650,"name":"Popcorn Turkey","steam_id":76561199145523399,"connected_time":432000000000,"state":"active","ping":80},{"user_id":595,"name":"gendermutt","steam_id":76561198152857317,"connected_time":3857000000000,"state":"active","ping":65},{"user_id":630,"name":"Franticraven177","steam_id":76561198334105579,"connected_time":1825000000000,"state":"active","ping":107},{"user_id":636,"name":"Orange Chicken","steam_id":76561198040940127,"connected_time":1647000000000,"state":"active","ping":78},{"user_id":628,"name":"RedBread | Scotian Punish","steam_id":76561197999362370,"connected_time":1980000000000,"state":"active","ping":52},{"user_id":577,"name":"MuffinConsumer","steam_id":76561199472498725,"connected_time":5331000000000,"state":"active","ping":90},{"user_id":601,"name":"jfrizzle420","steam_id":76561198105544691,"connected_time":3708000000000,"state":"active","ping":101},{"user_id":644,"name":"Roken","steam_id":76561198037836282,"connected_time":993000000000,"state":"active","ping":63},{"user_id":623,"name":"eMcP!","steam_id":76561198382509396,"connected_time":2616000000000,"state":"active","ping":126},{"user_id":638,"name":"M4TT","steam_id":76561198118496274,"connected_time":1634000000000,"state":"active","ping":57}]},{"server_id":16,"name":"Uncletopia | New York City | 4 | Community","name_short":"nyc-4","host":"nyc-1.us.uncletopia.com","port":27045,"enabled":true,"region":"us-east","cc":"us","latitude":40.73061,"longitude":-73.93524,"reserved":0,"last_update":"0001-01-01T00:00:00Z","name_a2s":"Uncletopia | New York City | 4 | Community","protocol":17,"map":"workshop/cp_hazyfort_rc6.ugc1365963729","folder":"tf","game":"Team Fortress","app_id":440,"player_count":0,"max_players":24,"Bots":0,"server_type":"Dedicated","server_os":"Linux","password":true,"vac":true,"version":"7961495","steam_id":85568392924742821,"keywords":["cp","nocrits","nodmgspread","uncletopia"],"game_id":440,"stv_port":27046,"stv_name":"Uncletopia | New York City | 4 | Community | STV","players":null},{"server_id":142,"name":"Uncletopia | S√£o Paulo | 1 | All Maps","name_short":"sao-1","host":"sao-1.br.uncletopia.com","port":27015,"enabled":true,"region":"sa","cc":"br","latitude":-23.533773,"longitude":-46.62529,"reserved":0,"last_update":"0001-01-01T00:00:00Z","name_a2s":"Uncletopia | S√£o Paulo | 1 | All Maps","protocol":17,"map":"koth_highpass","folder":"tf","game":"Team Fortress","app_id":440,"player_count":0,"max_players":24,"Bots":0,"server_type":"Dedicated","server_os":"Linux","password":true,"vac":true,"version":"7961495","steam_id":85568392924469996,"keywords":["cp","nocrits","nodmgspread","uncletopia"],"game_id":440,"stv_port":27016,"stv_name":"Uncletopia | S√£o Paulo | 1 | All Maps | STV","players":null},{"server_id":143,"name":"Uncletopia | S√£o Paulo | 2 | Community","name_short":"sao-2","host":"sao-2.br.uncletopia.com","port":27015,"enabled":true,"region":"sa","cc":"br","latitude":-23.533773,"longitude":-46.62529,"reserved":0,"last_update":"0001-01-01T00:00:00Z","name_a2s":"Uncletopia | S√£o Paulo | 2 | Community","protocol":17,"map":"workshop/cp_indulge.ugc528106646","folder":"tf","game":"Team Fortress","app_id":440,"player_count":0,"max_players":24,"Bots":0,"server_type":"Dedicated","server_os":"Linux","password":true,"vac":true,"version":"7961495","steam_id":85568392924485349,"keywords":["cp","nocrits","nodmgspread","uncletopia"],"game_id":440,"stv_port":27016,"stv_name":"Uncletopia | S√£o Paulo | 2 | Community | STV","players":null},{"server_id":7,"name":"Uncletopia | Seattle | 1 | All Maps","name_short":"sea-1","host":"sea-1.us.uncletopia.com","port":27015,"enabled":true,"region":"us-west","cc":"us","latitude":47.608013,"longitude":-122.33517,"reserved":0,"last_update":"0001-01-01T00:00:00Z","name_a2s":"Uncletopia | Seattle | 1 | All Maps","protocol":17,"map":"koth_cascade","folder":"tf","game":"Team Fortress","app_id":440,"player_count":24,"max_players":24,"Bots":0,"server_type":"Dedicated","server_os":"Linux","password":true,"vac":true,"version":"7961495","steam_id":85568392924469997,"keywords":["cp","nocrits","nodmgspread","uncletopia"],"game_id":440,"stv_port":27016,"stv_name":"Uncletopia | Seattle | 1 | All Maps | STV","players":[{"user_id":455,"name":"Retesaurus","steam_id":76561198045189319,"connected_time":1747000000000,"state":"active","ping":78},{"user_id":410,"name":"Grand","steam_id":76561198290143399,"connected_time":6399000000000,"state":"active","ping":75},{"user_id":468,"name":"lusty","steam_id":76561198138478947,"connected_time":975000000000,"state":"active","ping":40},{"user_id":425,"name":"Attrition","steam_id":76561197969881916,"connected_time":5440000000000,"state":"active","ping":59},{"user_id":437,"name":"frank","steam_id":76561198137777483,"connected_time":3424000000000,"state":"active","ping":119},{"user_id":478,"name":"hungry kibten","steam_id":76561198184099558,"connected_time":99000000000,"state":"active","ping":45},{"user_id":447,"name":"Bendidy","steam_id":76561198041964300,"connected_time":2715000000000,"state":"active","ping":62},{"user_id":464,"name":"Cheezbeargur","steam_id":76561198164702899,"connected_time":1074000000000,"state":"active","ping":65},{"user_id":477,"name":"rat gets the cheese","steam_id":76561198031234032,"connected_time":214000000000,"state":"active","ping":98},{"user_id":397,"name":"Unk","steam_id":76561198031717617,"connected_time":7487000000000,"state":"active","ping":105},{"user_id":434,"name":"Truffles","steam_id":76561198095868800,"connected_time":4083000000000,"state":"active","ping":100},{"user_id":399,"name":"Invis","steam_id":76561198054546884,"connected_time":7425000000000,"state":"active","ping":105},{"user_id":440,"name":"Snoe","steam_id":76561198102210669,"connected_time":3151000000000,"state":"active","ping":93},{"user_id":405,"name":"pepe warlord","steam_id":76561198080819197,"connected_time":6971000000000,"state":"active","ping":80},{"user_id":479,"name":"eryn üó∫","steam_id":76561198004433070,"connected_time":9000000000,"state":"spawning","ping":132},{"user_id":456,"name":"zzrat","steam_id":76561198014925415,"connected_time":1536000000000,"state":"active","ping":46},{"user_id":465,"name":"weegeebad","steam_id":76561198280841437,"connected_time":1048000000000,"state":"active","ping":116},{"user_id":448,"name":"‚ù§ Ashley ‚ù§","steam_id":76561198056428303,"connected_time":2648000000000,"state":"active","ping":73},{"user_id":470,"name":"O","steam_id":76561198450073779,"connected_time":619000000000,"state":"active","ping":47},{"user_id":454,"name":"spenca","steam_id":76561198025371154,"connected_time":1992000000000,"state":"active","ping":75},{"user_id":462,"name":":)","steam_id":76561198210322871,"connected_time":1095000000000,"state":"active","ping":97},{"user_id":449,"name":"self sufficient kitten","steam_id":76561197960592612,"connected_time":2640000000000,"state":"active","ping":45},{"user_id":442,"name":"Haydob13","steam_id":76561198110378191,"connected_time":3149000000000,"state":"active","ping":59},{"user_id":463,"name":"porfer","steam_id":76561199118049168,"connected_time":1094000000000,"state":"active","ping":83}]},{"server_id":119,"name":"Uncletopia | Seattle | 2 | All Maps","name_short":"sea-2","host":"sea-1.us.uncletopia.com","port":27025,"enabled":true,"region":"us-west","cc":"us","latitude":47.608013,"longitude":-122.33517,"reserved":0,"last_update":"0001-01-01T00:00:00Z","name_a2s":"Uncletopia | Seattle | 2 | All Maps","protocol":17,"map":"pl_pier","folder":"tf","game":"Team Fortress","app_id":440,"player_count":24,"max_players":24,"Bots":0,"server_type":"Dedicated","server_os":"Linux","password":true,"vac":true,"version":"7961495","steam_id":85568392924469998,"keywords":["nocrits","nodmgspread","payload","uncletopia"],"game_id":440,"stv_port":27026,"stv_name":"Uncletopia | Seattle | 2 | All Maps | STV","players":[{"user_id":389,"name":"S Q U I S H E  T H A T  C A T","steam_id":76561198293865429,"connected_time":331000000000,"state":"active","ping":38},{"user_id":365,"name":"Kipper","steam_id":76561198008515450,"connected_time":2701000000000,"state":"active","ping":66},{"user_id":373,"name":"Greskrendtregk","steam_id":76561197969553142,"connected_time":2439000000000,"state":"active","ping":53},{"user_id":385,"name":"Branta","steam_id":76561199103842843,"connected_time":894000000000,"state":"active","ping":40},{"user_id":231,"name":"Flap","steam_id":76561198078889633,"connected_time":12814000000000,"state":"active","ping":90},{"user_id":386,"name":"mizurush","steam_id":76561198039595304,"connected_time":894000000000,"state":"active","ping":125},{"user_id":378,"name":"slushy :))","steam_id":76561198135281802,"connected_time":1142000000000,"state":"active","ping":36},{"user_id":380,"name":"Jose THE MAN (the man)","steam_id":76561199133395169,"connected_time":1008000000000,"state":"active","ping":119},{"user_id":374,"name":"Magic Sam","steam_id":76561198089426224,"connected_time":2357000000000,"state":"active","ping":49},{"user_id":362,"name":"ajkitz","steam_id":76561198065701344,"connected_time":3449000000000,"state":"active","ping":106},{"user_id":382,"name":"Motto tsuyoku, Ani-san","steam_id":76561198851421641,"connected_time":982000000000,"state":"active","ping":45},{"user_id":387,"name":"moonfruit","steam_id":76561198093053238,"connected_time":344000000000,"state":"active","ping":43},{"user_id":388,"name":"onionman0106","steam_id":76561199067766868,"connected_time":336000000000,"state":"active","ping":48},{"user_id":355,"name":"Kalir","steam_id":76561197996125658,"connected_time":4306000000000,"state":"active","ping":82},{"user_id":315,"name":"MrMacMundy","steam_id":76561198835230572,"connected_time":8301000000000,"state":"active","ping":95},{"user_id":384,"name":"Gloomy","steam_id":76561198053742522,"connected_time":980000000000,"state":"active","ping":48},{"user_id":344,"name":"blossssssommmmm","steam_id":76561198042735130,"connected_time":5509000000000,"state":"active","ping":60},{"user_id":368,"name":"rad killl raccoon","steam_id":76561198980975595,"connected_time":2642000000000,"state":"active","ping":55},{"user_id":376,"name":"Petrivus","steam_id":76561198202152453,"connected_time":1651000000000,"state":"active","ping":45},{"user_id":327,"name":"General Fisticuffs","steam_id":76561198255721392,"connected_time":6710000000000,"state":"active","ping":119},{"user_id":357,"name":"Mii Guest C, From Wii Sports","steam_id":76561198197964803,"connected_time":3843000000000,"state":"active","ping":56},{"user_id":371,"name":"Thequirka (regular trackpad use","steam_id":76561198968058652,"connected_time":2607000000000,"state":"active","ping":51},{"user_id":372,"name":"The local hobo","steam_id":76561198289650060,"connected_time":2602000000000,"state":"active","ping":98},{"user_id":379,"name":"rushy :))","steam_id":76561198065825165,"connected_time":1122000000000,"state":"active","ping":109}]},{"server_id":406,"name":"Uncletopia | Seattle | 3 | Stopwatch","name_short":"sea-3","host":"sea-1.us.uncletopia.com","port":27035,"enabled":true,"region":"us-west","cc":"us","latitude":47.608013,"longitude":-122.33517,"reserved":0,"last_update":"0001-01-01T00:00:00Z","name_a2s":"Uncletopia | Seattle | 3 | Stopwatch","protocol":17,"map":"koth_lakeside_final","folder":"tf","game":"Team Fortress","app_id":440,"player_count":0,"max_players":24,"Bots":0,"server_type":"Dedicated","server_os":"Linux","password":true,"vac":true,"version":"7961495","steam_id":85568392924515217,"keywords":["cp","nocrits","nodmgspread","uncletopia"],"game_id":440,"stv_port":27036,"stv_name":"Uncletopia | Seattle | 3 | Stopwatch | STV","players":null},{"server_id":17,"name":"Uncletopia | San Francisco | 1 | All Maps","name_short":"sfo-1","host":"sfo-1.us.uncletopia.com","port":27015,"enabled":true,"region":"us-west","cc":"us","latitude":37.77397,"longitude":-122.4313,"reserved":0,"last_update":"0001-01-01T00:00:00Z","name_a2s":"Uncletopia | San Francisco | 1 | All Maps","protocol":17,"map":"pl_snowycoast","folder":"tf","game":"Team Fortress","app_id":440,"player_count":24,"max_players":24,"Bots":0,"server_type":"Dedicated","server_os":"Linux","password":true,"vac":true,"version":"7961495","steam_id":85568392924469999,"keywords":["nocrits","nodmgspread","payload","uncletopia"],"game_id":440,"stv_port":27016,"stv_name":"Uncletopia | San Francisco | 1 | All Maps | STV","players":[{"user_id":177,"name":"lasagnalarry12","steam_id":76561198162688146,"connected_time":222000000000,"state":"active","ping":56},{"user_id":178,"name":"Fargo","steam_id":76561198044703931,"connected_time":210000000000,"state":"active","ping":75},{"user_id":179,"name":"jaxonb423","steam_id":76561199061906685,"connected_time":186000000000,"state":"active","ping":58},{"user_id":168,"name":"PizzaMuncher89","steam_id":76561199121856753,"connected_time":492000000000,"state":"active","ping":108},{"user_id":173,"name":"a cat plushie","steam_id":76561198080046542,"connected_time":327000000000,"state":"active","ping":66},{"user_id":180,"name":"Horsie from Tonga","steam_id":76561198840536144,"connected_time":173000000000,"state":"active","ping":140},{"user_id":186,"name":"Nobongo","steam_id":76561198137957455,"connected_time":71000000000,"state":"active","ping":121},{"user_id":185,"name":"Catherine","steam_id":76561198125233120,"connected_time":97000000000,"state":"active","ping":48},{"user_id":162,"name":"Livin' Like Larry","steam_id":76561198313360974,"connected_time":711000000000,"state":"active","ping":34},{"user_id":184,"name":"EatSomeBEES","steam_id":76561198047334307,"connected_time":138000000000,"state":"active","ping":73},{"user_id":183,"name":"RedWireFTW","steam_id":76561198139267825,"connected_time":141000000000,"state":"active","ping":72},{"user_id":187,"name":"PLATNUMHANNYA","steam_id":76561198451426311,"connected_time":59000000000,"state":"active","ping":82},{"user_id":160,"name":"ilun","steam_id":76561198042913843,"connected_time":749000000000,"state":"active","ping":73},{"user_id":158,"name":"Lili W.","steam_id":76561199391478575,"connected_time":791000000000,"state":"active","ping":81},{"user_id":151,"name":"Reisen Udongein Inaba","steam_id":76561198051082314,"connected_time":899000000000,"state":"active","ping":58},{"user_id":152,"name":"nut crusher","steam_id":76561198093253104,"connected_time":878000000000,"state":"active","ping":64},{"user_id":176,"name":"feed chakra","steam_id":76561198105065307,"connected_time":286000000000,"state":"active","ping":91},{"user_id":154,"name":"Junko","steam_id":76561198146089003,"connected_time":866000000000,"state":"active","ping":98},{"user_id":155,"name":"Jomo716","steam_id":76561199098476021,"connected_time":858000000000,"state":"active","ping":60},{"user_id":188,"name":"6.5 In/360¬∞","steam_id":76561198889997809,"connected_time":56000000000,"state":"active","ping":60},{"user_id":157,"name":"Major_Pippy","steam_id":76561198004482878,"connected_time":832000000000,"state":"active","ping":72},{"user_id":189,"name":"dust | it/she","steam_id":76561198045218909,"connected_time":48000000000,"state":"active","ping":61},{"user_id":190,"name":"jailbreak","steam_id":76561198802085218,"connected_time":47000000000,"state":"active","ping":98},{"user_id":191,"name":"lytewerk","steam_id":76561198002819791,"connected_time":19000000000,"state":"active","ping":82}]},{"server_id":18,"name":"Uncletopia | San Francisco | 2 | All Maps","name_short":"sfo-2","host":"sfo-1.us.uncletopia.com","port":27025,"enabled":true,"region":"us-west","cc":"us","latitude":37.77397,"longitude":-122.4313,"reserved":0,"last_update":"0001-01-01T00:00:00Z","name_a2s":"Uncletopia | San Francisco | 2 | All Maps","protocol":17,"map":"pl_borneo","folder":"tf","game":"Team Fortress","app_id":440,"player_count":24,"max_players":24,"Bots":0,"server_type":"Dedicated","server_os":"Linux","password":true,"vac":true,"version":"7961495","steam_id":85568392924470000,"keywords":["nocrits","nodmgspread","payload","uncletopia"],"game_id":440,"stv_port":27026,"stv_name":"Uncletopia | San Francisco | 2 | All Maps | STV","players":[{"user_id":196,"name":"Fludd-Stop","steam_id":76561198161703678,"connected_time":3410000000000,"state":"active","ping":132},{"user_id":237,"name":"Wyvern","steam_id":76561198392331213,"connected_time":1078000000000,"state":"active","ping":83},{"user_id":234,"name":"card carrying member","steam_id":76561198043558709,"connected_time":1637000000000,"state":"active","ping":61},{"user_id":235,"name":"CheesyPoofs","steam_id":76561197998650617,"connected_time":1464000000000,"state":"active","ping":75},{"user_id":187,"name":"Borgor Boi","steam_id":76561199061388107,"connected_time":5189000000000,"state":"active","ping":61},{"user_id":220,"name":"roach","steam_id":76561198354811369,"connected_time":2434000000000,"state":"active","ping":58},{"user_id":226,"name":"thunderous prophet","steam_id":76561198131166135,"connected_time":2300000000000,"state":"active","ping":52},{"user_id":245,"name":"Aeryn","steam_id":76561198082989858,"connected_time":794000000000,"state":"active","ping":69},{"user_id":218,"name":"Grungus","steam_id":76561198047700230,"connected_time":2547000000000,"state":"active","ping":52},{"user_id":153,"name":"The Spook Man","steam_id":76561199117626080,"connected_time":7008000000000,"state":"active","ping":113},{"user_id":248,"name":"JDizzle","steam_id":76561199122696841,"connected_time":486000000000,"state":"active","ping":74},{"user_id":190,"name":"Cebula33","steam_id":76561197984964095,"connected_time":4594000000000,"state":"active","ping":67},{"user_id":125,"name":"Weird","steam_id":76561199082362722,"connected_time":8570000000000,"state":"active","ping":113},{"user_id":229,"name":"jorts","steam_id":76561199041179985,"connected_time":2256000000000,"state":"active","ping":71},{"user_id":134,"name":"D.tox","steam_id":76561199012962151,"connected_time":8145000000000,"state":"active","ping":115},{"user_id":206,"name":"pup","steam_id":76561198145921847,"connected_time":3306000000000,"state":"active","ping":60},{"user_id":236,"name":"NEBULA","steam_id":76561198086878595,"connected_time":1182000000000,"state":"active","ping":47},{"user_id":232,"name":"poopfart messiah","steam_id":76561198082551861,"connected_time":1748000000000,"state":"active","ping":68},{"user_id":222,"name":"Amateur Glaswegian","steam_id":76561198030851956,"connected_time":2429000000000,"state":"active","ping":71},{"user_id":207,"name":"Scuzzyman","steam_id":76561198061335030,"connected_time":3297000000000,"state":"active","ping":71},{"user_id":225,"name":"phalically exclusive","steam_id":76561198073269122,"connected_time":2317000000000,"state":"active","ping":120},{"user_id":240,"name":"viedoamges","steam_id":76561198025295263,"connected_time":968000000000,"state":"active","ping":92},{"user_id":250,"name":"resh","steam_id":76561198239598834,"connected_time":214000000000,"state":"active","ping":114},{"user_id":247,"name":"Pyrotek‚Å¥","steam_id":76561198072747672,"connected_time":675000000000,"state":"active","ping":59}]},{"server_id":19,"name":"Uncletopia | San Francisco | 3 | Stopwatch","name_short":"sfo-3","host":"sfo-1.us.uncletopia.com","port":27035,"enabled":true,"region":"us-west","cc":"us","latitude":37.77397,"longitude":-122.4313,"reserved":0,"last_update":"0001-01-01T00:00:00Z","name_a2s":"Uncletopia | San Francisco | 3 | Stopwatch","protocol":17,"map":"workshop/koth_product_final.ugc454272353","folder":"tf","game":"Team Fortress","app_id":440,"player_count":0,"max_players":24,"Bots":0,"server_type":"Dedicated","server_os":"Linux","password":true,"vac":true,"version":"7961495","steam_id":85568392924742824,"keywords":["cp","nocrits","nodmgspread","uncletopia"],"game_id":440,"stv_port":27036,"stv_name":"Uncletopia | San Francisco | 3 | Stopwatch | STV","players":null},{"server_id":20,"name":"Uncletopia | San Francisco | 4 | Community","name_short":"sfo-4","host":"sfo-1.us.uncletopia.com","port":27045,"enabled":true,"region":"us-west","cc":"us","latitude":37.77397,"longitude":-122.4313,"reserved":0,"last_update":"0001-01-01T00:00:00Z","name_a2s":"Uncletopia | San Francisco | 4 | Community","protocol":17,"map":"workshop/pl_divulgence_b4b.ugc2884808746","folder":"tf","game":"Team Fortress","app_id":440,"player_count":0,"max_players":24,"Bots":0,"server_type":"Dedicated","server_os":"Linux","password":true,"vac":true,"version":"7961495","steam_id":85568392924742826,"keywords":["nocrits","nodmgspread","payload","uncletopia"],"game_id":440,"stv_port":27046,"stv_name":"Uncletopia | San Francisco | 4 | Community | STV","players":null},{"server_id":141,"name":"Uncletopia | Sydney | 1 | All Maps","name_short":"syd-1","host":"syd-1.au.uncletopia.com","port":27015,"enabled":true,"region":"au","cc":"au","latitude":-33.865143,"longitude":151.2099,"reserved":0,"last_update":"0001-01-01T00:00:00Z","name_a2s":"Uncletopia | Sydney | 1 | All Maps","protocol":17,"map":"koth_cascade","folder":"tf","game":"Team Fortress","app_id":440,"player_count":0,"max_players":24,"Bots":0,"server_type":"Dedicated","server_os":"Linux","password":true,"vac":true,"version":"7961495","steam_id":85568392924470001,"keywords":["cp","nocrits","nodmgspread","uncletopia"],"game_id":440,"stv_port":27016,"stv_name":"Uncletopia | Sydney | 1 | All Maps | STV","players":null},{"server_id":123,"name":"Uncletopia | Sydney | 2 | All Maps","name_short":"syd-2","host":"syd-1.au.uncletopia.com","port":27025,"enabled":true,"region":"au","cc":"au","latitude":-33.865143,"longitude":151.2099,"reserved":0,"last_update":"0001-01-01T00:00:00Z","name_a2s":"Uncletopia | Sydney | 2 | All Maps","protocol":17,"map":"koth_lakeside_final","folder":"tf","game":"Team Fortress","app_id":440,"player_count":0,"max_players":24,"Bots":0,"server_type":"Dedicated","server_os":"Linux","password":true,"vac":true,"version":"7961495","steam_id":85568392924470002,"keywords":["cp","nocrits","nodmgspread","uncletopia"],"game_id":440,"stv_port":27026,"stv_name":"Uncletopia | Sydney | 2 | All Maps | STV","players":null},{"server_id":395,"name":"Uncletopia | Sydney | 3 | All Maps","name_short":"syd-3","host":"syd-1.au.uncletopia.com","port":27035,"enabled":true,"region":"au","cc":"au","latitude":-33.865143,"longitude":151.2099,"reserved":0,"last_update":"0001-01-01T00:00:00Z","name_a2s":"Uncletopia | Sydney | 3 | All Maps","protocol":17,"map":"koth_viaduct","folder":"tf","game":"Team Fortress","app_id":440,"player_count":0,"max_players":24,"Bots":0,"server_type":"Dedicated","server_os":"Linux","password":true,"vac":true,"version":"7961495","steam_id":85568392925194467,"keywords":["cp","nocrits","nodmgspread","uncletopia"],"game_id":440,"stv_port":27036,"stv_name":"Uncletopia | Sydney | 3 | All Maps | STV","players":null},{"server_id":396,"name":"Uncletopia | Sydney | 4 | All Maps","name_short":"syd-4","host":"syd-1.au.uncletopia.com","port":27045,"enabled":true,"region":"au","cc":"au","latitude":-33.865143,"longitude":151.2099,"reserved":0,"last_update":"0001-01-01T00:00:00Z","name_a2s":"Uncletopia | Sydney | 4 | All Maps","protocol":17,"map":"cp_process_final","folder":"tf","game":"Team Fortress","app_id":440,"player_count":0,"max_players":24,"Bots":0,"server_type":"Dedicated","server_os":"Linux","password":true,"vac":true,"version":"7961495","steam_id":85568392925397958,"keywords":["cp","nocrits","nodmgspread","uncletopia"],"game_id":440,"stv_port":27046,"stv_name":"Uncletopia | Sydney | 4 | All Maps | STV","players":null},{"server_id":58,"name":"Uncletopia | Sydney | 5 | Stopwatch","name_short":"syd-5","host":"syd-1.au.uncletopia.com","port":27055,"enabled":true,"region":"au","cc":"au","latitude":-33.865143,"longitude":151.2099,"reserved":0,"last_update":"0001-01-01T00:00:00Z","name_a2s":"Uncletopia | Sydney | 5 | Stopwatch","protocol":17,"map":"pl_frontier_final","folder":"tf","game":"Team Fortress","app_id":440,"player_count":0,"max_players":24,"Bots":0,"server_type":"Dedicated","server_os":"Linux","password":true,"vac":true,"version":"7961495","steam_id":85568392925397959,"keywords":["nocrits","nodmgspread","payload","uncletopia"],"game_id":440,"stv_port":27056,"stv_name":"Uncletopia | Sydney | 5 | Stopwatch | STV","players":null},{"server_id":59,"name":"Uncletopia | Sydney | 6 | Community","name_short":"syd-6","host":"syd-1.au.uncletopia.com","port":27065,"enabled":true,"region":"au","cc":"au","latitude":-33.865143,"longitude":151.2099,"reserved":0,"last_update":"0001-01-01T00:00:00Z","name_a2s":"Uncletopia | Sydney | 6 | Community","protocol":17,"map":"cp_sunshine","folder":"tf","game":"Team Fortress","app_id":440,"player_count":0,"max_players":24,"Bots":0,"server_type":"Dedicated","server_os":"Linux","password":true,"vac":true,"version":"7961495","steam_id":85568392925397960,"keywords":["cp","nocrits","nodmgspread","uncletopia"],"game_id":440,"stv_port":27066,"stv_name":"Uncletopia | Sydney | 6 | Community | STV","players":null},{"server_id":49,"name":"Uncletopia | Warsaw | 1 | All Maps","name_short":"waw-1","host":"waw-1.pl.uncletopia.com","port":27015,"enabled":true,"region":"eu","cc":"pl","latitude":52.2297,"longitude":21.017532,"reserved":0,"last_update":"0001-01-01T00:00:00Z","name_a2s":"Uncletopia | Warsaw | 1 | All Maps","protocol":17,"map":"koth_lakeside_final","folder":"tf","game":"Team Fortress","app_id":440,"player_count":0,"max_players":24,"Bots":0,"server_type":"Dedicated","server_os":"Linux","password":true,"vac":true,"version":"7961495","steam_id":85568392925397850,"keywords":["cp","nocrits","nodmgspread","uncletopia"],"game_id":440,"stv_port":27016,"stv_name":"Uncletopia | Warsaw | 1 | All Maps | STV","players":null},{"server_id":50,"name":"Uncletopia | Warsaw | 2 | All Maps","name_short":"waw-2","host":"waw-1.pl.uncletopia.com","port":27025,"enabled":true,"region":"eu","cc":"pl","latitude":52.2297,"longitude":21.017532,"reserved":0,"last_update":"0001-01-01T00:00:00Z","name_a2s":"Uncletopia | Warsaw | 2 | All Maps","protocol":17,"map":"pl_badwater","folder":"tf","game":"Team Fortress","app_id":440,"player_count":0,"max_players":24,"Bots":0,"server_type":"Dedicated","server_os":"Linux","password":true,"vac":true,"version":"7961495","steam_id":85568392925397851,"keywords":["nocrits","nodmgspread","payload","uncletopia"],"game_id":440,"stv_port":27026,"stv_name":"Uncletopia | Warsaw | 2 | All Maps | STV","players":null},{"server_id":51,"name":"Uncletopia | Warsaw | 3 | All Maps","name_short":"waw-3","host":"waw-1.pl.uncletopia.com","port":27035,"enabled":true,"region":"eu","cc":"pl","latitude":52.2297,"longitude":21.017532,"reserved":0,"last_update":"0001-01-01T00:00:00Z","name_a2s":"Uncletopia | Warsaw | 3 | All Maps","protocol":17,"map":"koth_lakeside_final","folder":"tf","game":"Team Fortress","app_id":440,"player_count":0,"max_players":24,"Bots":0,"server_type":"Dedicated","server_os":"Linux","password":true,"vac":true,"version":"7961495","steam_id":85568392925397852,"keywords":["cp","nocrits","nodmgspread","uncletopia"],"game_id":440,"stv_port":27036,"stv_name":"Uncletopia | Warsaw | 3 | All Maps | STV","players":null},{"server_id":52,"name":"Uncletopia | Warsaw | 4 | All Maps","name_short":"waw-4","host":"waw-1.pl.uncletopia.com","port":27045,"enabled":true,"region":"eu","cc":"pl","latitude":52.2297,"longitude":21.017532,"reserved":0,"last_update":"0001-01-01T00:00:00Z","name_a2s":"Uncletopia | Warsaw | 4 | All Maps","protocol":17,"map":"pl_snowycoast","folder":"tf","game":"Team Fortress","app_id":440,"player_count":0,"max_players":24,"Bots":0,"server_type":"Dedicated","server_os":"Linux","password":true,"vac":true,"version":"7961495","steam_id":85568392925397853,"keywords":["nocrits","nodmgspread","payload","uncletopia"],"game_id":440,"stv_port":27046,"stv_name":"Uncletopia | Warsaw | 4 | All Maps | STV","players":null},{"server_id":53,"name":"Uncletopia | Warsaw | 5 | Stopwatch","name_short":"waw-5","host":"waw-1.pl.uncletopia.com","port":27055,"enabled":true,"region":"eu","cc":"pl","latitude":52.2297,"longitude":21.017532,"reserved":0,"last_update":"0001-01-01T00:00:00Z","name_a2s":"Uncletopia | Warsaw | 5 | Stopwatch","protocol":17,"map":"workshop/koth_ramjam_rc1.ugc459778887","folder":"tf","game":"Team Fortress","app_id":440,"player_count":0,"max_players":24,"Bots":0,"server_type":"Dedicated","server_os":"Linux","password":true,"vac":true,"version":"7961495","steam_id":85568392925397854,"keywords":["cp","nocrits","nodmgspread","uncletopia"],"game_id":440,"stv_port":27056,"stv_name":"Uncletopia | Warsaw | 5 | Stopwatch | STV","players":null},{"server_id":54,"name":"Uncletopia | Warsaw | 6 | Community","name_short":"waw-6","host":"waw-1.pl.uncletopia.com","port":27065,"enabled":true,"region":"eu","cc":"pl","latitude":52.2297,"longitude":21.017532,"reserved":0,"last_update":"0001-01-01T00:00:00Z","name_a2s":"Uncletopia | Warsaw | 6 | Community","protocol":17,"map":"workshop/koth_kemptown_rc1.ugc767410655","folder":"tf","game":"Team Fortress","app_id":440,"player_count":0,"max_players":24,"Bots":0,"server_type":"Dedicated","server_os":"Linux","password":true,"vac":true,"version":"7961495","steam_id":85568392925397856,"keywords":["cp","nocrits","nodmgspread","uncletopia"],"game_id":440,"stv_port":27066,"stv_name":"Uncletopia | Warsaw | 6 | Community | STV","players":null}]}