{"status":true,"message":"","result":[{"server_id":9,"name":"Uncletopia | Atlanta | 1 | All Maps","name_short":"atl-1","host":"atl-1.us.uncletopia.com","port":27015,"enabled":true,"region":"us-east","cc":"us","latitude":33.753746,"longitude":-84.38633,"reserved":0,"last_update":"0001-01-01T00:00:00Z","name_a2s":"Uncletopia | Atlanta | 1 | All Maps","protocol":17,"map":"cp_sunshine","folder":"tf","game":"Team Fortress","app_id":440,"player_count":24,"max_players":24,"Bots":0,"server_type":"Dedicated","server_os":"Linux","password":true,"vac":true,"version":"7695204","steam_id":85568392924469982,"keywords":["cp","nocrits","nodmgspread","uncletopia"],"game_id":440,"stv_port":27016,"stv_name":"Uncletopia | Atlanta | 1 | All Maps | STV","players":[{"user_id":470,"name":"merry mommy","steam_id":76561199230929836,"connected_time":8125000000000,"state":"active","ping":82},{"user_id":502,"name":"merryy","steam_id":76561198968001329,"connected_time":5335000000000,"state":"active","ping":51},{"user_id":531,"name":"ATL1 | Dec the halls","steam_id":76561199045608372,"connected_time":692000000000,"state":"active","ping":70},{"user_id":477,"name":"ATL1 | p4ka","steam_id":76561198315291317,"connected_time":7200000000000,"state":"active","ping":70},{"user_id":526,"name":"Benjy52 | YT","steam_id":76561198055093844,"connected_time":1761000000000,"state":"active","ping":105},{"user_id":242,"name":"ATL1 | eish","steam_id":76561198089463603,"connected_time":29074000000000,"state":"active","ping":106},{"user_id":342,"name":"ATL6 Le4n Nog!!!","steam_id":76561198045522596,"connected_time":20049000000000,"state":"active","ping":72},{"user_id":489,"name":"ATL1 | Phestive Pango","steam_id":76561198069811545,"connected_time":6626000000000,"state":"active","ping":52},{"user_id":524,"name":"ATL1 | Kramer","steam_id":76561198083595936,"connected_time":2261000000000,"state":"active","ping":81},{"user_id":522,"name":"Chubmundo","steam_id":76561198132710768,"connected_time":3028000000000,"state":"active","ping":43},{"user_id":259,"name":"joe lft","steam_id":76561198045781320,"connected_time":27753000000000,"state":"active","ping":68},{"user_id":511,"name":"Stampdawg","steam_id":76561198050500060,"connected_time":4357000000000,"state":"active","ping":86},{"user_id":501,"name":"Swoletard","steam_id":76561198074212758,"connected_time":5493000000000,"state":"active","ping":82},{"user_id":503,"name":"Obelisk","steam_id":76561198049416866,"connected_time":4852000000000,"state":"active","ping":46},{"user_id":498,"name":"Clowover","steam_id":76561198867829774,"connected_time":5712000000000,"state":"active","ping":65},{"user_id":520,"name":"ATL1 | Sunny004","steam_id":76561198105397410,"connected_time":3035000000000,"state":"active","ping":51},{"user_id":485,"name":"Mickey","steam_id":76561197976868960,"connected_time":6710000000000,"state":"active","ping":153},{"user_id":528,"name":"ATL1 | spoonful","steam_id":76561198927517471,"connected_time":1311000000000,"state":"active","ping":52},{"user_id":475,"name":"Bottom Trans Cowgirl","steam_id":76561198304239680,"connected_time":7384000000000,"state":"active","ping":60},{"user_id":493,"name":"paypur -rng","steam_id":76561198214370515,"connected_time":5958000000000,"state":"active","ping":69},{"user_id":533,"name":"Kerosene","steam_id":76561198978778718,"connected_time":315000000000,"state":"active","ping":130},{"user_id":525,"name":"snoops","steam_id":76561197986760351,"connected_time":2115000000000,"state":"active","ping":83},{"user_id":523,"name":"Krissy","steam_id":76561197960848174,"connected_time":3009000000000,"state":"active","ping":67},{"user_id":534,"name":"corridos belicos y modelo negra","steam_id":76561198025668771,"connected_time":314000000000,"state":"active","ping":111}]},{"server_id":400,"name":"Uncletopia | Atlanta | 3 | All Maps","name_short":"atl-3","host":"atl-1.us.uncletopia.com","port":27035,"enabled":true,"region":"us-east","cc":"us","latitude":33.753746,"longitude":-84.38633,"reserved":0,"last_update":"0001-01-01T00:00:00Z","name_a2s":"Uncletopia | Atlanta | 3 | All Maps","protocol":17,"map":"pl_borneo","folder":"tf","game":"Team Fortress","app_id":440,"player_count":24,"max_players":24,"Bots":0,"server_type":"Dedicated","server_os":"Linux","password":true,"vac":true,"version":"7695204","steam_id":85568392924515187,"keywords":["nocrits","nodmgspread","payload","uncletopia"],"game_id":440,"stv_port":27036,"stv_name":"Uncletopia | Atlanta | 3 | All Maps | STV","players":[{"user_id":341,"name":"Zhong Xina ÈíüÊñ∞Â®ú","steam_id":76561198044022060,"connected_time":723000000000,"state":"active","ping":59},{"user_id":348,"name":"The Christmas Cretin","steam_id":76561198153295874,"connected_time":542000000000,"state":"active","ping":113},{"user_id":340,"name":"sB","steam_id":76561198041610406,"connected_time":1036000000000,"state":"active","ping":75},{"user_id":338,"name":"RelativeToZero","steam_id":76561198175875733,"connected_time":1684000000000,"state":"active","ping":113},{"user_id":345,"name":"DillPickle","steam_id":76561198321577968,"connected_time":595000000000,"state":"active","ping":92},{"user_id":361,"name":"Inadequate","steam_id":76561198108263810,"connected_time":121000000000,"state":"active","ping":116},{"user_id":349,"name":"chexo4","steam_id":76561198150532531,"connected_time":520000000000,"state":"active","ping":50},{"user_id":346,"name":"gentlehushpuppy","steam_id":76561198082355082,"connected_time":591000000000,"state":"active","ping":54},{"user_id":347,"name":"Styx","steam_id":76561198104657428,"connected_time":574000000000,"state":"active","ping":62},{"user_id":350,"name":"StupidWizardYT","steam_id":76561198285264050,"connected_time":494000000000,"state":"active","ping":77},{"user_id":333,"name":"‚ô°Mazzy‚ô°","steam_id":76561198813450901,"connected_time":2815000000000,"state":"active","ping":73},{"user_id":351,"name":"Psychosis","steam_id":76561198078659070,"connected_time":399000000000,"state":"active","ping":74},{"user_id":320,"name":"xen","steam_id":76561198145959964,"connected_time":3679000000000,"state":"active","ping":54},{"user_id":330,"name":"spunk pap","steam_id":76561198202278895,"connected_time":3123000000000,"state":"active","ping":70},{"user_id":352,"name":"LordCasuel6173","steam_id":76561199389029201,"connected_time":389000000000,"state":"active","ping":67},{"user_id":353,"name":"non_ai","steam_id":76561198270951938,"connected_time":348000000000,"state":"active","ping":64},{"user_id":354,"name":"mr.fart","steam_id":76561198363948501,"connected_time":346000000000,"state":"active","ping":82},{"user_id":355,"name":"blehz","steam_id":76561198048429098,"connected_time":343000000000,"state":"active","ping":114},{"user_id":334,"name":"spinglebarp","steam_id":76561198091472345,"connected_time":2429000000000,"state":"active","ping":89},{"user_id":356,"name":"Severeburrito16","steam_id":76561198353155991,"connected_time":327000000000,"state":"active","ping":61},{"user_id":357,"name":"Marp","steam_id":76561197999988084,"connected_time":318000000000,"state":"active","ping":119},{"user_id":332,"name":"Schlooper","steam_id":76561198879313485,"connected_time":2945000000000,"state":"active","ping":68},{"user_id":358,"name":"112 Salt","steam_id":76561198418001135,"connected_time":268000000000,"state":"active","ping":56},{"user_id":359,"name":"Jazz2T","steam_id":76561198154418867,"connected_time":211000000000,"state":"active","ping":88}]},{"server_id":401,"name":"Uncletopia | Atlanta | 4 | No Payload","name_short":"atl-4","host":"atl-1.us.uncletopia.com","port":27045,"enabled":true,"region":"us-east","cc":"us","latitude":33.753746,"longitude":-84.38633,"reserved":0,"last_update":"0001-01-01T00:00:00Z","name_a2s":"Uncletopia | Atlanta | 4 | No Payload","protocol":17,"map":"ctf_landfall","folder":"tf","game":"Team Fortress","app_id":440,"player_count":6,"max_players":24,"Bots":0,"server_type":"Dedicated","server_os":"Linux","password":true,"vac":true,"version":"7695204","steam_id":85568392924515188,"keywords":["ctf","nocrits","nodmgspread","uncletopia"],"game_id":440,"stv_port":27046,"stv_name":"Uncletopia | Atlanta | 4 | No Payload | STV","players":[{"user_id":348,"name":"Moe the lawn \u003c3","steam_id":76561198195620945,"connected_time":239000000000,"state":"active","ping":52},{"user_id":309,"name":"Villenova","steam_id":76561198073606416,"connected_time":3325000000000,"state":"active","ping":104},{"user_id":322,"name":"LooseJuice","steam_id":76561198042181014,"connected_time":1861000000000,"state":"active","ping":69},{"user_id":330,"name":"John","steam_id":76561198070700732,"connected_time":1691000000000,"state":"active","ping":74},{"user_id":300,"name":"G_Bob","steam_id":76561198098133233,"connected_time":3935000000000,"state":"active","ping":62},{"user_id":316,"name":"Wonder Of U","steam_id":76561198208110221,"connected_time":2961000000000,"state":"active","ping":53}]},{"server_id":2,"name":"Uncletopia | Chicago | 1 | All Maps","name_short":"chi-1","host":"chi-1.us.uncletopia.com","port":27015,"enabled":true,"region":"us-central","cc":"us","latitude":41.881832,"longitude":-87.62318,"reserved":0,"last_update":"0001-01-01T00:00:00Z","name_a2s":"Uncletopia | Chicago | 1 | All Maps","protocol":17,"map":"cp_process_final","folder":"tf","game":"Team Fortress","app_id":440,"player_count":12,"max_players":24,"Bots":0,"server_type":"Dedicated","server_os":"Linux","password":true,"vac":true,"version":"7695204","steam_id":85568392924469984,"keywords":["cp","nocrits","nodmgspread","uncletopia"],"game_id":440,"stv_port":27016,"stv_name":"Uncletopia | Chicago | 1 | All Maps | STV","players":[{"user_id":722,"name":"[UHG]barracks obimbo","steam_id":76561198009832041,"connected_time":336000000000,"state":"active","ping":60},{"user_id":725,"name":"CarnageCosmic","steam_id":76561198169961002,"connected_time":236000000000,"state":"active","ping":66},{"user_id":728,"name":"Aristotle Voulton","steam_id":76561198100174923,"connected_time":111000000000,"state":"active","ping":82},{"user_id":721,"name":"bobbyreinman2009","steam_id":76561198804763186,"connected_time":350000000000,"state":"active","ping":59},{"user_id":729,"name":"november","steam_id":76561198148357768,"connected_time":104000000000,"state":"active","ping":60},{"user_id":685,"name":"dbelow_","steam_id":76561198056148853,"connected_time":2647000000000,"state":"active","ping":62},{"user_id":730,"name":"Be My Bad Boy AMV (Tony Soprano","steam_id":76561198028381486,"connected_time":66000000000,"state":"active","ping":106},{"user_id":679,"name":"Cyclops_672","steam_id":76561198080169497,"connected_time":3022000000000,"state":"active","ping":46},{"user_id":724,"name":"Sully","steam_id":76561198310784589,"connected_time":284000000000,"state":"active","ping":65},{"user_id":714,"name":"Sanuary","steam_id":76561198075597588,"connected_time":776000000000,"state":"active","ping":59},{"user_id":603,"name":"Casual Costanza","steam_id":76561198024409325,"connected_time":8530000000000,"state":"active","ping":61},{"user_id":665,"name":"Mengle","steam_id":76561198001953684,"connected_time":4623000000000,"state":"active","ping":60}]},{"server_id":106,"name":"Uncletopia | Chicago | 2 | All Maps","name_short":"chi-2","host":"chi-1.us.uncletopia.com","port":27025,"enabled":true,"region":"us-central","cc":"us","latitude":41.881832,"longitude":-87.62318,"reserved":0,"last_update":"0001-01-01T00:00:00Z","name_a2s":"Uncletopia | Chicago | 2 | All Maps","protocol":17,"map":"pl_badwater","folder":"tf","game":"Team Fortress","app_id":440,"player_count":24,"max_players":24,"Bots":0,"server_type":"Dedicated","server_os":"Linux","password":true,"vac":true,"version":"7695204","steam_id":85568392924469985,"keywords":["nocrits","nodmgspread","payload","uncletopia"],"game_id":440,"stv_port":27026,"stv_name":"Uncletopia | Chicago | 2 | All Maps | STV","players":[{"user_id":536,"name":"d!eing pigs Wh3n?","steam_id":76561198963410515,"connected_time":112000000000,"state":"active","ping":60},{"user_id":537,"name":"Connie in the Corner Condo","steam_id":76561198060298870,"connected_time":91000000000,"state":"active","ping":70},{"user_id":538,"name":"JYNACCI","steam_id":76561198100942212,"connected_time":50000000000,"state":"active","ping":75},{"user_id":533,"name":"sinisterMayo","steam_id":76561198087244649,"connected_time":153000000000,"state":"active","ping":89},{"user_id":539,"name":"LynBoByn","steam_id":76561198052911142,"connected_time":48000000000,"state":"active","ping":68},{"user_id":525,"name":"Outlier","steam_id":76561199093787770,"connected_time":503000000000,"state":"active","ping":75},{"user_id":534,"name":"intermediate bowsman","steam_id":76561198190100027,"connected_time":134000000000,"state":"active","ping":53},{"user_id":535,"name":"ashelin praxis nude mod","steam_id":76561198167907089,"connected_time":133000000000,"state":"active","ping":70},{"user_id":540,"name":"A Rope, for big pits","steam_id":76561198068044782,"connected_time":37000000000,"state":"active","ping":70},{"user_id":473,"name":"orangejuiq","steam_id":76561198799773207,"connected_time":6358000000000,"state":"active","ping":107},{"user_id":523,"name":"krypt","steam_id":76561198056186750,"connected_time":563000000000,"state":"active","ping":48},{"user_id":515,"name":"superx","steam_id":76561198044976613,"connected_time":1430000000000,"state":"active","ping":66},{"user_id":526,"name":"Question Mark","steam_id":76561199433313023,"connected_time":489000000000,"state":"active","ping":135},{"user_id":541,"name":"TastyWheat","steam_id":76561198855061918,"connected_time":28000000000,"state":"active","ping":99},{"user_id":527,"name":"MFB","steam_id":76561198170923095,"connected_time":412000000000,"state":"active","ping":65},{"user_id":542,"name":"Chilidestroy","steam_id":76561199101551797,"connected_time":25000000000,"state":"active","ping":72},{"user_id":520,"name":"the12xu","steam_id":76561198197086561,"connected_time":829000000000,"state":"active","ping":62},{"user_id":492,"name":"Ace Chromatica","steam_id":76561198042211131,"connected_time":4583000000000,"state":"active","ping":59},{"user_id":507,"name":"A Bic Lighter","steam_id":76561198070606068,"connected_time":2456000000000,"state":"active","ping":49},{"user_id":512,"name":"Spaghetti Yeti","steam_id":76561198879676617,"connected_time":2099000000000,"state":"active","ping":83},{"user_id":543,"name":"Souper Scott","steam_id":76561198045518926,"connected_time":6000000000,"state":"spawning","ping":73},{"user_id":524,"name":"CC","steam_id":76561198071226149,"connected_time":554000000000,"state":"active","ping":68},{"user_id":424,"name":"cringeass nae-nae girl","steam_id":76561198108753857,"connected_time":9509000000000,"state":"active","ping":82},{"user_id":486,"name":"Knightshade","steam_id":76561198047225393,"connected_time":5233000000000,"state":"active","ping":76}]},{"server_id":402,"name":"Uncletopia | Chicago | 3 | All Maps","name_short":"chi-3","host":"chi-1.us.uncletopia.com","port":27035,"enabled":true,"region":"us-central","cc":"us","latitude":41.881832,"longitude":-87.62318,"reserved":0,"last_update":"0001-01-01T00:00:00Z","name_a2s":"Uncletopia | Chicago | 3 | All Maps","protocol":17,"map":"cp_dustbowl","folder":"tf","game":"Team Fortress","app_id":440,"player_count":12,"max_players":24,"Bots":0,"server_type":"Dedicated","server_os":"Linux","password":true,"vac":true,"version":"7695204","steam_id":85568392924515191,"keywords":["cp","nocrits","nodmgspread","uncletopia"],"game_id":440,"stv_port":27036,"stv_name":"Uncletopia | Chicago | 3 | All Maps | STV","players":[{"user_id":539,"name":"Anime Racist","steam_id":76561198100775015,"connected_time":58000000000,"state":"active","ping":115},{"user_id":489,"name":"Elegant Ejaculation","steam_id":76561198014190878,"connected_time":4441000000000,"state":"active","ping":101},{"user_id":524,"name":"rainingmudkips","steam_id":76561198018010854,"connected_time":1019000000000,"state":"active","ping":58},{"user_id":439,"name":"Ion{M}","steam_id":76561197993457435,"connected_time":8706000000000,"state":"active","ping":62},{"user_id":528,"name":"Rub the bear","steam_id":76561198170157145,"connected_time":967000000000,"state":"active","ping":52},{"user_id":529,"name":"HyperOrange|#SaveTF2","steam_id":76561198068071327,"connected_time":958000000000,"state":"active","ping":60},{"user_id":532,"name":"‚Ñã‚Ñá·ºÇ·πº‡¥¥","steam_id":76561199062259389,"connected_time":911000000000,"state":"active","ping":100},{"user_id":530,"name":"treeCheezquest","steam_id":76561199066499328,"connected_time":949000000000,"state":"active","ping":63},{"user_id":531,"name":"demoknight tf2","steam_id":76561198070393998,"connected_time":947000000000,"state":"active","ping":58},{"user_id":533,"name":"SortOfABigDeal","steam_id":76561198323397375,"connected_time":782000000000,"state":"active","ping":137},{"user_id":534,"name":"Zigadox","steam_id":76561198079813479,"connected_time":771000000000,"state":"active","ping":78},{"user_id":536,"name":"Meatwad","steam_id":76561198803721236,"connected_time":681000000000,"state":"active","ping":58}]},{"server_id":403,"name":"Uncletopia | Chicago | 4 | All Maps","name_short":"chi-4","host":"chi-1.us.uncletopia.com","port":27045,"enabled":true,"region":"us-central","cc":"us","latitude":41.881832,"longitude":-87.62318,"reserved":0,"last_update":"0001-01-01T00:00:00Z","name_a2s":"Uncletopia | Chicago | 4 | All Maps","protocol":17,"map":"cp_dustbowl","folder":"tf","game":"Team Fortress","app_id":440,"player_count":23,"max_players":24,"Bots":0,"server_type":"Dedicated","server_os":"Linux","password":true,"vac":true,"version":"7695204","steam_id":85568392924515193,"keywords":["cp","nocrits","nodmgspread","uncletopia"],"game_id":440,"stv_port":27046,"stv_name":"Uncletopia | Chicago | 4 | All Maps | STV","players":[{"user_id":550,"name":"Octanoip","steam_id":76561199057752358,"connected_time":4134000000000,"state":"active","ping":68},{"user_id":521,"name":"Mr.Silver","steam_id":76561198156382508,"connected_time":5744000000000,"state":"active","ping":58},{"user_id":587,"name":"gyozaking","steam_id":76561197972312696,"connected_time":647000000000,"state":"active","ping":41},{"user_id":589,"name":"defcon","steam_id":76561198100656328,"connected_time":539000000000,"state":"active","ping":72},{"user_id":593,"name":"noahlazer","steam_id":76561198081318352,"connected_time":76000000000,"state":"active","ping":69},{"user_id":568,"name":"Wug","steam_id":76561198084112264,"connected_time":2357000000000,"state":"active","ping":75},{"user_id":564,"name":"Zodyxajon","steam_id":76561198165561581,"connected_time":2651000000000,"state":"active","ping":85},{"user_id":581,"name":"Twilight Princess","steam_id":76561198049460281,"connected_time":886000000000,"state":"active","ping":50},{"user_id":582,"name":"majorbobfunction","steam_id":76561198042464632,"connected_time":732000000000,"state":"active","ping":45},{"user_id":594,"name":"Anth","steam_id":76561198091363063,"connected_time":46000000000,"state":"active","ping":56},{"user_id":446,"name":"Fudgely","steam_id":76561198039425862,"connected_time":14558000000000,"state":"active","ping":65},{"user_id":584,"name":"Plugget101","steam_id":76561197992005168,"connected_time":699000000000,"state":"active","ping":45},{"user_id":595,"name":"Gribbith","steam_id":76561198067836309,"connected_time":24000000000,"state":"active","ping":82},{"user_id":592,"name":"Nave","steam_id":76561198152862549,"connected_time":153000000000,"state":"active","ping":51},{"user_id":571,"name":"MibWib","steam_id":76561199149786430,"connected_time":2337000000000,"state":"active","ping":65},{"user_id":572,"name":"coal","steam_id":76561198027252280,"connected_time":2318000000000,"state":"active","ping":63},{"user_id":565,"name":"ghostedghost","steam_id":76561198111410905,"connected_time":2553000000000,"state":"active","ping":89},{"user_id":430,"name":"Chode Mode","steam_id":76561198353840477,"connected_time":15551000000000,"state":"active","ping":45},{"user_id":590,"name":"CatoSicarius","steam_id":76561198185598330,"connected_time":536000000000,"state":"active","ping":66},{"user_id":555,"name":"Grease monkey","steam_id":76561199229169396,"connected_time":3737000000000,"state":"active","ping":55},{"user_id":586,"name":"kr1tsurf3r","steam_id":76561198076402476,"connected_time":680000000000,"state":"active","ping":113},{"user_id":545,"name":"t","steam_id":76561198175988929,"connected_time":4596000000000,"state":"active","ping":67},{"user_id":556,"name":"Nephs","steam_id":76561198136763403,"connected_time":3553000000000,"state":"active","ping":68}]},{"server_id":36,"name":"Uncletopia | Chicago | 5 | All Maps","name_short":"chi-5","host":"chi-2.us.uncletopia.com","port":27015,"enabled":true,"region":"us-central","cc":"us","latitude":41.881832,"longitude":-87.62318,"reserved":0,"last_update":"0001-01-01T00:00:00Z","name_a2s":"Uncletopia | Chicago | 5 | All Maps","protocol":17,"map":"pl_barnblitz","folder":"tf","game":"Team Fortress","app_id":440,"player_count":24,"max_players":24,"Bots":0,"server_type":"Dedicated","server_os":"Linux","password":true,"vac":true,"version":"7695204","steam_id":85568392924866362,"keywords":["nocrits","nodmgspread","payload","uncletopia"],"game_id":440,"stv_port":27016,"stv_name":"Uncletopia | Chicago | 5 | All Maps | STV","players":[{"user_id":352,"name":"floom","steam_id":76561198387571809,"connected_time":3855000000000,"state":"active","ping":63},{"user_id":397,"name":"KingTinkerer","steam_id":76561198226856548,"connected_time":445000000000,"state":"active","ping":75},{"user_id":398,"name":"wile","steam_id":76561198125261443,"connected_time":387000000000,"state":"active","ping":98},{"user_id":399,"name":"Candy Sparkles","steam_id":76561198126871264,"connected_time":314000000000,"state":"active","ping":84},{"user_id":343,"name":"Hodeman","steam_id":76561197975982368,"connected_time":4766000000000,"state":"active","ping":63},{"user_id":407,"name":"Wormy Getting Coal","steam_id":76561198054539200,"connected_time":116000000000,"state":"active","ping":90},{"user_id":370,"name":"Mischief of Rats","steam_id":76561198106307068,"connected_time":2919000000000,"state":"active","ping":50},{"user_id":386,"name":"Mitchacho74","steam_id":76561198087986935,"connected_time":1334000000000,"state":"active","ping":62},{"user_id":404,"name":"Discourse","steam_id":76561198984286678,"connected_time":202000000000,"state":"active","ping":49},{"user_id":361,"name":"evnobev","steam_id":76561198038966462,"connected_time":3580000000000,"state":"active","ping":53},{"user_id":372,"name":"Thilo","steam_id":76561197987278784,"connected_time":2551000000000,"state":"active","ping":79},{"user_id":400,"name":"Copter_Boy","steam_id":76561198322921312,"connected_time":310000000000,"state":"active","ping":74},{"user_id":328,"name":"ttv.scarybroccoli","steam_id":76561198296440084,"connected_time":6142000000000,"state":"active","ping":72},{"user_id":408,"name":"viscodolante","steam_id":76561198013650292,"connected_time":104000000000,"state":"active","ping":115},{"user_id":382,"name":"slipe","steam_id":76561199121819874,"connected_time":1900000000000,"state":"active","ping":54},{"user_id":322,"name":"watterson :3","steam_id":76561198035536955,"connected_time":6387000000000,"state":"active","ping":75},{"user_id":401,"name":"Squirt City DJs","steam_id":76561198085755375,"connected_time":299000000000,"state":"active","ping":95},{"user_id":402,"name":"Streetwise","steam_id":76561197971684268,"connected_time":277000000000,"state":"active","ping":97},{"user_id":335,"name":"Draconic Ballad","steam_id":76561198027191515,"connected_time":5330000000000,"state":"active","ping":61},{"user_id":403,"name":"footoftheday","steam_id":76561198052712449,"connected_time":263000000000,"state":"active","ping":74},{"user_id":410,"name":"Herbaltea","steam_id":76561198134998261,"connected_time":57000000000,"state":"active","ping":57},{"user_id":405,"name":"Wally The Fukn Walrus","steam_id":76561198019034045,"connected_time":194000000000,"state":"active","ping":55},{"user_id":392,"name":"Fresh","steam_id":76561198068565728,"connected_time":869000000000,"state":"active","ping":90},{"user_id":325,"name":"Rebel","steam_id":76561198056377621,"connected_time":6376000000000,"state":"active","ping":60}]},{"server_id":37,"name":"Uncletopia | Chicago | 6 | All Maps","name_short":"chi-6","host":"chi-2.us.uncletopia.com","port":27025,"enabled":true,"region":"us-central","cc":"us","latitude":41.881832,"longitude":-87.62318,"reserved":0,"last_update":"0001-01-01T00:00:00Z","name_a2s":"Uncletopia | Chicago | 6 | All Maps","protocol":17,"map":"koth_highpass","folder":"tf","game":"Team Fortress","app_id":440,"player_count":11,"max_players":24,"Bots":0,"server_type":"Dedicated","server_os":"Linux","password":true,"vac":true,"version":"7695204","steam_id":85568392924866363,"keywords":["cp","nocrits","nodmgspread","uncletopia"],"game_id":440,"stv_port":27026,"stv_name":"Uncletopia | Chicago | 6 | All Maps | STV","players":[{"user_id":229,"name":"Beezos","steam_id":76561198370692549,"connected_time":2676000000000,"state":"active","ping":62},{"user_id":236,"name":"Soatte","steam_id":76561198337996874,"connected_time":2585000000000,"state":"active","ping":57},{"user_id":239,"name":"pikazard","steam_id":76561198983088966,"connected_time":2529000000000,"state":"active","ping":66},{"user_id":240,"name":"HalfBloodTotoro","steam_id":76561198339559818,"connected_time":2469000000000,"state":"active","ping":65},{"user_id":242,"name":"Nolan (Femboy)","steam_id":76561198082534795,"connected_time":1774000000000,"state":"active","ping":53},{"user_id":243,"name":"Will (becoming Enlightened)","steam_id":76561198397037834,"connected_time":1505000000000,"state":"active","ping":69},{"user_id":244,"name":"Chillin Turt","steam_id":76561198025796849,"connected_time":1270000000000,"state":"active","ping":61},{"user_id":245,"name":"Asanez3","steam_id":76561198037381436,"connected_time":1099000000000,"state":"active","ping":62},{"user_id":246,"name":"OldRavensFan","steam_id":76561198043919562,"connected_time":998000000000,"state":"active","ping":65},{"user_id":247,"name":"Scum Knight","steam_id":76561198282444763,"connected_time":472000000000,"state":"active","ping":61},{"user_id":248,"name":"snow worm","steam_id":76561198328256922,"connected_time":267000000000,"state":"active","ping":47}]},{"server_id":38,"name":"Uncletopia | Chicago | 7 | No Payload","name_short":"chi-7","host":"chi-2.us.uncletopia.com","port":27035,"enabled":true,"region":"us-central","cc":"us","latitude":41.881832,"longitude":-87.62318,"reserved":0,"last_update":"0001-01-01T00:00:00Z","name_a2s":"Uncletopia | Chicago | 7 | No Payload","protocol":17,"map":"koth_harvest_final","folder":"tf","game":"Team Fortress","app_id":440,"player_count":4,"max_players":24,"Bots":0,"server_type":"Dedicated","server_os":"Linux","password":true,"vac":true,"version":"7695204","steam_id":85568392924866364,"keywords":["cp","nocrits","nodmgspread","uncletopia"],"game_id":440,"stv_port":27036,"stv_name":"Uncletopia | Chicago | 7 | No Payload | STV","players":[{"user_id":45,"name":"Yeah. I'm pretty stupid.","steam_id":76561199121190731,"connected_time":2265000000000,"state":"active","ping":73},{"user_id":46,"name":"crimson","steam_id":76561199179899072,"connected_time":2136000000000,"state":"active","ping":103},{"user_id":50,"name":"Pentium4Guy","steam_id":76561198303077613,"connected_time":51000000000,"state":"active","ping":48},{"user_id":51,"name":"Shmeg","steam_id":76561199019546787,"connected_time":37000000000,"state":"active","ping":92}]},{"server_id":39,"name":"Uncletopia | Chicago | 8 | Community","name_short":"chi-8","host":"chi-2.us.uncletopia.com","port":27045,"enabled":true,"region":"us-central","cc":"us","latitude":41.881832,"longitude":-87.62318,"reserved":0,"last_update":"0001-01-01T00:00:00Z","name_a2s":"Uncletopia | Chicago | 8 | Community","protocol":17,"map":"workshop/pl_cactuscanyon_redux_rc4b.ugc2579644293","folder":"tf","game":"Team Fortress","app_id":440,"player_count":0,"max_players":24,"Bots":0,"server_type":"Dedicated","server_os":"Linux","password":true,"vac":true,"version":"7695204","steam_id":85568392924866365,"keywords":["nocrits","nodmgspread","payload","uncletopia"],"game_id":440,"stv_port":27046,"stv_name":"Uncletopia | Chicago | 8 | Community | STV","players":null},{"server_id":8,"name":"Uncletopia | Dallas | 1 | All Maps","name_short":"dal-1","host":"dal-1.us.uncletopia.com","port":27015,"enabled":true,"region":"us-central","cc":"us","latitude":32.779167,"longitude":-96.80889,"reserved":0,"last_update":"0001-01-01T00:00:00Z","name_a2s":"Uncletopia | Dallas | 1 | All Maps","protocol":17,"map":"pl_snowycoast","folder":"tf","game":"Team Fortress","app_id":440,"player_count":24,"max_players":24,"Bots":0,"server_type":"Dedicated","server_os":"Linux","password":true,"vac":true,"version":"7695204","steam_id":85568392924469986,"keywords":["nocrits","nodmgspread","payload","uncletopia"],"game_id":440,"stv_port":27016,"stv_name":"Uncletopia | Dallas | 1 | All Maps | STV","players":[{"user_id":772,"name":"player who wants to use e","steam_id":76561198357042018,"connected_time":4864000000000,"state":"active","ping":82},{"user_id":786,"name":"Agent Bowtie","steam_id":76561198175839279,"connected_time":3383000000000,"state":"active","ping":54},{"user_id":768,"name":"Brahan","steam_id":76561198024629210,"connected_time":4900000000000,"state":"active","ping":95},{"user_id":812,"name":"raft enjoyer","steam_id":76561198046057008,"connected_time":800000000000,"state":"active","ping":78},{"user_id":823,"name":"CFGU || RAWRWAFL","steam_id":76561198032118386,"connected_time":128000000000,"state":"active","ping":71},{"user_id":806,"name":"Aegis","steam_id":76561198272052750,"connected_time":1091000000000,"state":"active","ping":78},{"user_id":777,"name":"üê∫-Iwky-ü¶ä","steam_id":76561198185616311,"connected_time":4494000000000,"state":"active","ping":78},{"user_id":818,"name":"Indigolake","steam_id":76561198202215807,"connected_time":640000000000,"state":"active","ping":98},{"user_id":807,"name":"Crystallixed","steam_id":76561198072263515,"connected_time":955000000000,"state":"active","ping":80},{"user_id":803,"name":"amagicowl","steam_id":76561199060487814,"connected_time":1477000000000,"state":"active","ping":75},{"user_id":790,"name":"Gazel #2","steam_id":76561198093667100,"connected_time":3336000000000,"state":"active","ping":83},{"user_id":811,"name":"Domino Jones","steam_id":76561198202195792,"connected_time":817000000000,"state":"active","ping":72},{"user_id":791,"name":"3-13","steam_id":76561198063929021,"connected_time":3317000000000,"state":"active","ping":52},{"user_id":745,"name":"Glitchy","steam_id":76561198037920420,"connected_time":6631000000000,"state":"active","ping":72},{"user_id":816,"name":"goblin botanist","steam_id":76561198013452541,"connected_time":745000000000,"state":"active","ping":75},{"user_id":813,"name":"Derply","steam_id":76561198871211642,"connected_time":800000000000,"state":"active","ping":70},{"user_id":819,"name":"Quansen","steam_id":76561198151594550,"connected_time":563000000000,"state":"active","ping":77},{"user_id":814,"name":"pillow","steam_id":76561198073898836,"connected_time":794000000000,"state":"active","ping":66},{"user_id":821,"name":"pel.org","steam_id":76561198021224745,"connected_time":280000000000,"state":"active","ping":76},{"user_id":797,"name":"GoLUIGIT","steam_id":76561199251157275,"connected_time":3170000000000,"state":"active","ping":102},{"user_id":712,"name":"Drakon","steam_id":76561198078210822,"connected_time":8861000000000,"state":"active","ping":81},{"user_id":771,"name":"Sugercrash","steam_id":76561199187685119,"connected_time":4890000000000,"state":"active","ping":79},{"user_id":822,"name":"Francis Gaming","steam_id":76561198295173122,"connected_time":212000000000,"state":"active","ping":109}]},{"server_id":108,"name":"Uncletopia | Dallas | 2 | All Maps","name_short":"dal-2","host":"dal-1.us.uncletopia.com","port":27025,"enabled":true,"region":"us-central","cc":"us","latitude":32.779167,"longitude":-96.80889,"reserved":0,"last_update":"0001-01-01T00:00:00Z","name_a2s":"Uncletopia | Dallas | 2 | All Maps","protocol":17,"map":"koth_harvest_final","folder":"tf","game":"Team Fortress","app_id":440,"player_count":24,"max_players":24,"Bots":0,"server_type":"Dedicated","server_os":"Linux","password":true,"vac":true,"version":"7695204","steam_id":85568392924469988,"keywords":["cp","nocrits","nodmgspread","uncletopia"],"game_id":440,"stv_port":27026,"stv_name":"Uncletopia | Dallas | 2 | All Maps | STV","players":[{"user_id":526,"name":"Krow","steam_id":76561198010392099,"connected_time":2814000000000,"state":"active","ping":51},{"user_id":506,"name":"El Benjador","steam_id":76561198345883103,"connected_time":4706000000000,"state":"active","ping":60},{"user_id":564,"name":"BUSTO","steam_id":76561198066420805,"connected_time":107000000000,"state":"active","ping":71},{"user_id":566,"name":"+","steam_id":76561198262422184,"connected_time":77000000000,"state":"active","ping":52},{"user_id":467,"name":"look up","steam_id":76561198057487880,"connected_time":8189000000000,"state":"active","ping":55},{"user_id":505,"name":"shrimp","steam_id":76561198092401427,"connected_time":4758000000000,"state":"active","ping":61},{"user_id":551,"name":"Farseer Ulwithy","steam_id":76561197965179245,"connected_time":1167000000000,"state":"active","ping":112},{"user_id":545,"name":"Steiner","steam_id":76561198030457066,"connected_time":2441000000000,"state":"active","ping":62},{"user_id":562,"name":"CodeRedDev","steam_id":76561198179982494,"connected_time":512000000000,"state":"active","ping":33},{"user_id":549,"name":"SN0W","steam_id":76561198153665468,"connected_time":1422000000000,"state":"active","ping":51},{"user_id":459,"name":"LobsterPot","steam_id":76561198072225973,"connected_time":8367000000000,"state":"active","ping":73},{"user_id":557,"name":"Pharma","steam_id":76561198258475476,"connected_time":842000000000,"state":"active","ping":76},{"user_id":544,"name":"the stallion","steam_id":76561198212242403,"connected_time":2506000000000,"state":"active","ping":61},{"user_id":547,"name":"lil boogie","steam_id":76561198064059721,"connected_time":1562000000000,"state":"active","ping":89},{"user_id":553,"name":"B33N_P0IS0N","steam_id":76561199092433962,"connected_time":1142000000000,"state":"active","ping":66},{"user_id":554,"name":"FRANKY!!!","steam_id":76561199211305343,"connected_time":1094000000000,"state":"active","ping":83},{"user_id":538,"name":"Frank","steam_id":76561198126681511,"connected_time":2659000000000,"state":"active","ping":95},{"user_id":546,"name":"Rin \"Hindwing\" Redtail","steam_id":76561199074865638,"connected_time":2437000000000,"state":"active","ping":46},{"user_id":555,"name":"CheeseCake488","steam_id":76561199407617942,"connected_time":1032000000000,"state":"active","ping":105},{"user_id":563,"name":"awfulArbiter","steam_id":76561198068189558,"connected_time":428000000000,"state":"active","ping":90},{"user_id":561,"name":"Blippy","steam_id":76561198225904600,"connected_time":542000000000,"state":"active","ping":69},{"user_id":515,"name":"Happytoe","steam_id":76561198001295503,"connected_time":4050000000000,"state":"active","ping":95},{"user_id":542,"name":"airbudenjoyer2012","steam_id":76561198150428763,"connected_time":2591000000000,"state":"active","ping":62},{"user_id":543,"name":"whatzhisface","steam_id":76561198127891646,"connected_time":2552000000000,"state":"active","ping":76}]},{"server_id":5,"name":"Uncletopia | Frankfurt | 1 | All Maps","name_short":"frk-1","host":"frk-1.de.uncletopia.com","port":27015,"enabled":true,"region":"eu","cc":"de","latitude":50.110924,"longitude":8.682127,"reserved":0,"last_update":"0001-01-01T00:00:00Z","name_a2s":"Uncletopia | Frankfurt | 1 | All Maps","protocol":17,"map":"koth_viaduct","folder":"tf","game":"Team Fortress","app_id":440,"player_count":0,"max_players":24,"Bots":0,"server_type":"Dedicated","server_os":"Linux","password":true,"vac":true,"version":"7695204","steam_id":85568392924469989,"keywords":["cp","nocrits","nodmgspread","uncletopia"],"game_id":440,"stv_port":0,"stv_name":"","players":null},{"server_id":110,"name":"Uncletopia | Frankfurt | 2 | All Maps","name_short":"frk-2","host":"frk-1.de.uncletopia.com","port":27025,"enabled":true,"region":"eu","cc":"de","latitude":50.110924,"longitude":8.682127,"reserved":0,"last_update":"0001-01-01T00:00:00Z","name_a2s":"Uncletopia | Frankfurt | 2 | All Maps","protocol":17,"map":"cp_altitude","folder":"tf","game":"Team Fortress","app_id":440,"player_count":0,"max_players":24,"Bots":0,"server_type":"Dedicated","server_os":"Linux","password":true,"vac":true,"version":"7695204","steam_id":85568392924469990,"keywords":["cp","nocrits","nodmgspread","uncletopia"],"game_id":440,"stv_port":0,"stv_name":"","players":null},{"server_id":308,"name":"Uncletopia | Frankfurt | 3 | All Maps","name_short":"frk-3","host":"frk-1.de.uncletopia.com","port":27035,"enabled":true,"region":"eu","cc":"de","latitude":50.110924,"longitude":8.682127,"reserved":0,"last_update":"0001-01-01T00:00:00Z","name_a2s":"Uncletopia | Frankfurt | 3 | All Maps","protocol":17,"map":"pl_badwater","folder":"tf","game":"Team Fortress","app_id":440,"player_count":0,"max_players":24,"Bots":0,"server_type":"Dedicated","server_os":"Linux","password":true,"vac":true,"version":"7695204","steam_id":85568392924504274,"keywords":["nocrits","nodmgspread","payload","uncletopia"],"game_id":440,"stv_port":0,"stv_name":"","players":null},{"server_id":309,"name":"Uncletopia | Frankfurt | 4 | All Maps","name_short":"frk-4","host":"frk-1.de.uncletopia.com","port":27045,"enabled":true,"region":"eu","cc":"de","latitude":50.110924,"longitude":8.682127,"reserved":0,"last_update":"0001-01-01T00:00:00Z","name_a2s":"Uncletopia | Frankfurt | 4 | All Maps","protocol":17,"map":"koth_highpass","folder":"tf","game":"Team Fortress","app_id":440,"player_count":0,"max_players":24,"Bots":0,"server_type":"Dedicated","server_os":"Linux","password":true,"vac":true,"version":"7695204","steam_id":85568392924504275,"keywords":["cp","nocrits","nodmgspread","uncletopia"],"game_id":440,"stv_port":0,"stv_name":"","players":null},{"server_id":310,"name":"Uncletopia | Frankfurt | 5 | All Maps","name_short":"frk-5","host":"frk-1.de.uncletopia.com","port":27055,"enabled":true,"region":"eu","cc":"de","latitude":50.110924,"longitude":8.682127,"reserved":0,"last_update":"0001-01-01T00:00:00Z","name_a2s":"Uncletopia | Frankfurt | 5 | All Maps","protocol":17,"map":"pl_pier","folder":"tf","game":"Team Fortress","app_id":440,"player_count":0,"max_players":24,"Bots":0,"server_type":"Dedicated","server_os":"Linux","password":true,"vac":true,"version":"7695204","steam_id":85568392924504277,"keywords":["nocrits","nodmgspread","payload","uncletopia"],"game_id":440,"stv_port":0,"stv_name":"","players":null},{"server_id":311,"name":"Uncletopia | Frankfurt | 6 | All Maps","name_short":"frk-6","host":"frk-1.de.uncletopia.com","port":27065,"enabled":true,"region":"eu","cc":"de","latitude":50.110924,"longitude":8.682127,"reserved":0,"last_update":"0001-01-01T00:00:00Z","name_a2s":"Uncletopia | Frankfurt | 6 | All Maps","protocol":17,"map":"pl_barnblitz","folder":"tf","game":"Team Fortress","app_id":440,"player_count":0,"max_players":24,"Bots":0,"server_type":"Dedicated","server_os":"Linux","password":true,"vac":true,"version":"7695204","steam_id":85568392924504278,"keywords":["nocrits","nodmgspread","payload","uncletopia"],"game_id":440,"stv_port":0,"stv_name":"","players":null},{"server_id":23,"name":"Uncletopia | Frankfurt | 7 | No Payload","name_short":"frk-7","host":"frk-1.de.uncletopia.com","port":27075,"enabled":true,"region":"eu","cc":"de","latitude":50.110924,"longitude":8.682127,"reserved":0,"last_update":"0001-01-01T00:00:00Z","name_a2s":"Uncletopia | Frankfurt | 7 | No Payload","protocol":17,"map":"pl_snowycoast","folder":"tf","game":"Team Fortress","app_id":440,"player_count":0,"max_players":24,"Bots":0,"server_type":"Dedicated","server_os":"Linux","password":true,"vac":true,"version":"7695204","steam_id":85568392924742827,"keywords":["nocrits","nodmgspread","payload","uncletopia"],"game_id":440,"stv_port":0,"stv_name":"","players":null},{"server_id":24,"name":"Uncletopia | Frankfurt | 8 | Community","name_short":"frk-8","host":"frk-1.de.uncletopia.com","port":27085,"enabled":true,"region":"eu","cc":"de","latitude":50.110924,"longitude":8.682127,"reserved":0,"last_update":"0001-01-01T00:00:00Z","name_a2s":"Uncletopia | Frankfurt | 8 | Community","protocol":17,"map":"koth_lakeside_final","folder":"tf","game":"Team Fortress","app_id":440,"player_count":0,"max_players":24,"Bots":0,"server_type":"Dedicated","server_os":"Linux","password":true,"vac":true,"version":"7695204","steam_id":85568392924742828,"keywords":["cp","nocrits","nodmgspread","uncletopia"],"game_id":440,"stv_port":0,"stv_name":"","players":null},{"server_id":202,"name":"Uncletopia | Hong Kong | 1 | All Maps","name_short":"hgk-1","host":"hgk-1.hk.uncletopia.com","port":27015,"enabled":true,"region":"asia","cc":"hk","latitude":22.302711,"longitude":114.177216,"reserved":0,"last_update":"0001-01-01T00:00:00Z","name_a2s":"Uncletopia | Hong Kong | 1 | All Maps","protocol":17,"map":"koth_highpass","folder":"tf","game":"Team Fortress","app_id":440,"player_count":24,"max_players":24,"Bots":0,"server_type":"Dedicated","server_os":"Linux","password":true,"vac":true,"version":"7695204","steam_id":85568392924494504,"keywords":["cp","nocrits","nodmgspread","uncletopia"],"game_id":440,"stv_port":27016,"stv_name":"Uncletopia | Hong Kong | 1 | All Maps | STV","players":[{"user_id":140,"name":"momosneakeradventure","steam_id":76561199046440440,"connected_time":1147000000000,"state":"active","ping":40},{"user_id":141,"name":":)","steam_id":76561198437941450,"connected_time":1034000000000,"state":"active","ping":82},{"user_id":127,"name":"Heal Bot","steam_id":76561199073984594,"connected_time":2690000000000,"state":"active","ping":75},{"user_id":151,"name":"godhood","steam_id":76561198412329672,"connected_time":450000000000,"state":"active","ping":89},{"user_id":112,"name":"terrybl","steam_id":76561198055553140,"connected_time":3358000000000,"state":"active","ping":79},{"user_id":116,"name":"Gab","steam_id":76561198863909723,"connected_time":3301000000000,"state":"active","ping":66},{"user_id":149,"name":"Xyans","steam_id":76561198373331511,"connected_time":455000000000,"state":"active","ping":98},{"user_id":115,"name":"DioDezir","steam_id":76561198387199941,"connected_time":3304000000000,"state":"active","ping":91},{"user_id":143,"name":"FweiD","steam_id":76561198057003021,"connected_time":976000000000,"state":"active","ping":120},{"user_id":147,"name":"mubkeEp","steam_id":76561197999099632,"connected_time":572000000000,"state":"active","ping":75},{"user_id":130,"name":"big poo (training arc)","steam_id":76561199104552936,"connected_time":2094000000000,"state":"active","ping":75},{"user_id":134,"name":"solo","steam_id":76561199221433871,"connected_time":1625000000000,"state":"active","ping":90},{"user_id":103,"name":"Du57Y","steam_id":76561198120973476,"connected_time":4317000000000,"state":"active","ping":87},{"user_id":122,"name":"Corn_Archer","steam_id":76561199185044554,"connected_time":2788000000000,"state":"active","ping":62},{"user_id":154,"name":"siya","steam_id":76561199151458742,"connected_time":432000000000,"state":"active","ping":115},{"user_id":104,"name":"timmy.1366","steam_id":76561199065433547,"connected_time":4317000000000,"state":"active","ping":82},{"user_id":97,"name":"…îu·ó°‡∂û …ü∆®u·íê","steam_id":76561199031283970,"connected_time":5644000000000,"state":"active","ping":80},{"user_id":153,"name":"skypot","steam_id":76561198073840014,"connected_time":448000000000,"state":"active","ping":87},{"user_id":128,"name":"furrymon","steam_id":76561199420453519,"connected_time":2642000000000,"state":"active","ping":80},{"user_id":152,"name":"tuxy","steam_id":76561198996816684,"connected_time":450000000000,"state":"active","ping":64},{"user_id":93,"name":"coward main","steam_id":76561198318184389,"connected_time":6075000000000,"state":"active","ping":81},{"user_id":96,"name":"n0961N k0nQu3r","steam_id":76561198017960428,"connected_time":5825000000000,"state":"active","ping":81},{"user_id":155,"name":"Puddin","steam_id":76561198140052918,"connected_time":432000000000,"state":"active","ping":91},{"user_id":133,"name":"TonXD","steam_id":76561199024372559,"connected_time":1642000000000,"state":"active","ping":105}]},{"server_id":1,"name":"Uncletopia | Los Angeles | 1 | All Maps","name_short":"lax-1","host":"lax-1.us.uncletopia.com","port":27015,"enabled":true,"region":"us-west","cc":"us","latitude":33.94279,"longitude":-118.41004,"reserved":0,"last_update":"0001-01-01T00:00:00Z","name_a2s":"Uncletopia | Los Angeles | 1 | All Maps","protocol":17,"map":"pl_badwater","folder":"tf","game":"Team Fortress","app_id":440,"player_count":21,"max_players":24,"Bots":0,"server_type":"Dedicated","server_os":"Linux","password":true,"vac":true,"version":"7695204","steam_id":85568392924469991,"keywords":["nocrits","nodmgspread","payload","uncletopia"],"game_id":440,"stv_port":27016,"stv_name":"Uncletopia | Los Angeles | 1 | All Maps | STV","players":[{"user_id":239,"name":"EpikThePenguin","steam_id":76561198080523036,"connected_time":32000000000,"state":"spawning","ping":60},{"user_id":200,"name":"plz talk about dogs","steam_id":76561198062924973,"connected_time":3775000000000,"state":"active","ping":49},{"user_id":214,"name":"Lambchop","steam_id":76561198043900363,"connected_time":2413000000000,"state":"active","ping":70},{"user_id":236,"name":"existential dread","steam_id":76561198041907345,"connected_time":302000000000,"state":"active","ping":54},{"user_id":235,"name":"Gregory Davidson","steam_id":76561198085260603,"connected_time":336000000000,"state":"active","ping":54},{"user_id":231,"name":"Sasha Vandal (YT)","steam_id":76561198063448831,"connected_time":862000000000,"state":"active","ping":133},{"user_id":225,"name":"Carne Asada?","steam_id":76561198157252638,"connected_time":1865000000000,"state":"active","ping":51},{"user_id":179,"name":"Barnacle Man","steam_id":76561198041142096,"connected_time":4435000000000,"state":"active","ping":53},{"user_id":240,"name":"Ludicolo","steam_id":76561198432166686,"connected_time":5000000000,"state":"spawning","ping":61},{"user_id":229,"name":"Harley [Ramiel]","steam_id":76561198079510840,"connected_time":1034000000000,"state":"active","ping":73},{"user_id":232,"name":"lol","steam_id":76561198026491738,"connected_time":835000000000,"state":"active","ping":52},{"user_id":228,"name":"fulices","steam_id":76561198420163702,"connected_time":1543000000000,"state":"active","ping":44},{"user_id":185,"name":"Skeel","steam_id":76561198089049258,"connected_time":4214000000000,"state":"active","ping":84},{"user_id":218,"name":"S√°bado Gigante","steam_id":76561197994685971,"connected_time":2355000000000,"state":"active","ping":55},{"user_id":233,"name":"Amogous Supreme","steam_id":76561198066091050,"connected_time":828000000000,"state":"active","ping":76},{"user_id":188,"name":"Archie","steam_id":76561198137112917,"connected_time":4126000000000,"state":"active","ping":55},{"user_id":190,"name":"dunnydunjo","steam_id":76561198069605283,"connected_time":4076000000000,"state":"active","ping":51},{"user_id":234,"name":"plutonium isotope","steam_id":76561198319442494,"connected_time":636000000000,"state":"active","ping":48},{"user_id":192,"name":"Big tiddy goth medic gf","steam_id":76561198836316052,"connected_time":4061000000000,"state":"active","ping":53},{"user_id":212,"name":"The Caretaker","steam_id":76561198125241411,"connected_time":2471000000000,"state":"active","ping":70},{"user_id":237,"name":"synca","steam_id":76561198124752453,"connected_time":300000000000,"state":"active","ping":74}]},{"server_id":112,"name":"Uncletopia | Los Angeles | 2 | All Maps","name_short":"lax-2","host":"lax-1.us.uncletopia.com","port":27025,"enabled":true,"region":"us-west","cc":"us","latitude":33.94279,"longitude":-118.41004,"reserved":0,"last_update":"0001-01-01T00:00:00Z","name_a2s":"Uncletopia | Los Angeles | 2 | All Maps","protocol":17,"map":"koth_highpass","folder":"tf","game":"Team Fortress","app_id":440,"player_count":0,"max_players":24,"Bots":0,"server_type":"Dedicated","server_os":"Linux","password":true,"vac":true,"version":"7695204","steam_id":85568392924469992,"keywords":["cp","nocrits","nodmgspread","uncletopia"],"game_id":440,"stv_port":27026,"stv_name":"Uncletopia | Los Angeles | 2 | All Maps | STV","players":null},{"server_id":324,"name":"Uncletopia | Los Angeles | 3 | All Maps","name_short":"lax-3","host":"lax-1.us.uncletopia.com","port":27035,"enabled":true,"region":"us-west","cc":"us","latitude":33.94279,"longitude":-118.41004,"reserved":0,"last_update":"0001-01-01T00:00:00Z","name_a2s":"Uncletopia | Los Angeles | 3 | All Maps","protocol":17,"map":"pl_upward","folder":"tf","game":"Team Fortress","app_id":440,"player_count":24,"max_players":24,"Bots":0,"server_type":"Dedicated","server_os":"Linux","password":true,"vac":true,"version":"7695204","steam_id":85568392924510198,"keywords":["nocrits","nodmgspread","payload","uncletopia"],"game_id":440,"stv_port":27036,"stv_name":"Uncletopia | Los Angeles | 3 | All Maps | STV","players":[{"user_id":200,"name":"Mafia Hitman","steam_id":76561198208996573,"connected_time":1684000000000,"state":"active","ping":58},{"user_id":198,"name":"üååvulc","steam_id":76561198049318932,"connected_time":1924000000000,"state":"active","ping":103},{"user_id":192,"name":"LittleJoeRambler","steam_id":76561198015890576,"connected_time":3322000000000,"state":"active","ping":101},{"user_id":207,"name":"KrispyKringle","steam_id":76561198119580848,"connected_time":1289000000000,"state":"active","ping":117},{"user_id":151,"name":"deadpixel","steam_id":76561198150249843,"connected_time":6342000000000,"state":"active","ping":104},{"user_id":193,"name":"neb","steam_id":76561198030565900,"connected_time":3288000000000,"state":"active","ping":70},{"user_id":170,"name":"melon soda","steam_id":76561198066748230,"connected_time":4861000000000,"state":"active","ping":115},{"user_id":202,"name":"Goatking","steam_id":76561198068447650,"connected_time":1459000000000,"state":"active","ping":99},{"user_id":219,"name":"haha funy pp man","steam_id":76561198116862395,"connected_time":761000000000,"state":"active","ping":80},{"user_id":220,"name":"Crazy Hungarian","steam_id":76561198025498172,"connected_time":760000000000,"state":"active","ping":70},{"user_id":209,"name":"saraph","steam_id":76561198070698533,"connected_time":1230000000000,"state":"active","ping":103},{"user_id":74,"name":"twitch.tv/skrpy","steam_id":76561198040969503,"connected_time":12192000000000,"state":"active","ping":60},{"user_id":199,"name":"joekster","steam_id":76561198060908516,"connected_time":1851000000000,"state":"active","ping":58},{"user_id":205,"name":"I am a mooshroom","steam_id":76561198104198295,"connected_time":1344000000000,"state":"active","ping":86},{"user_id":206,"name":"Swayze","steam_id":76561198138015867,"connected_time":1342000000000,"state":"active","ping":77},{"user_id":222,"name":"Xer","steam_id":76561198201640673,"connected_time":671000000000,"state":"active","ping":78},{"user_id":223,"name":"cielael","steam_id":76561198043971956,"connected_time":213000000000,"state":"active","ping":47},{"user_id":48,"name":"Phil Collins","steam_id":76561198068868644,"connected_time":14041000000000,"state":"active","ping":59},{"user_id":49,"name":"alpharuby","steam_id":76561198051638462,"connected_time":14030000000000,"state":"active","ping":47},{"user_id":217,"name":"Peridarren","steam_id":76561198041104426,"connected_time":861000000000,"state":"active","ping":58},{"user_id":224,"name":"vvichael","steam_id":76561198238148528,"connected_time":90000000000,"state":"active","ping":115},{"user_id":214,"name":"American freedom bird","steam_id":76561198366142388,"connected_time":1113000000000,"state":"active","ping":56},{"user_id":216,"name":":3","steam_id":76561198098099826,"connected_time":1000000000000,"state":"active","ping":66},{"user_id":197,"name":"moe","steam_id":76561198929586245,"connected_time":2479000000000,"state":"active","ping":48}]},{"server_id":25,"name":"Uncletopia | Los Angeles | 4 | No Payload","name_short":"lax-4","host":"lax-1.us.uncletopia.com","port":27045,"enabled":true,"region":"us-west","cc":"us","latitude":33.94279,"longitude":-118.41004,"reserved":0,"last_update":"0001-01-01T00:00:00Z","name_a2s":"Uncletopia | Los Angeles | 4 | No Payload","protocol":17,"map":"ctf_landfall","folder":"tf","game":"Team Fortress","app_id":440,"player_count":0,"max_players":24,"Bots":0,"server_type":"Dedicated","server_os":"Linux","password":true,"vac":true,"version":"7695204","steam_id":85568392924510199,"keywords":["ctf","nocrits","nodmgspread","uncletopia"],"game_id":440,"stv_port":27046,"stv_name":"Uncletopia | Los Angeles | 4 | No Payload | STV","players":null},{"server_id":11,"name":"Uncletopia | London | 1 | All Maps","name_short":"lon-1","host":"lon-1.uk.uncletopia.com","port":27015,"enabled":true,"region":"eu","cc":"gb","latitude":51.509865,"longitude":-0.118092,"reserved":0,"last_update":"0001-01-01T00:00:00Z","name_a2s":"Uncletopia | London | 1 | All Maps","protocol":17,"map":"pl_swiftwater_final1","folder":"tf","game":"Team Fortress","app_id":440,"player_count":7,"max_players":24,"Bots":0,"server_type":"Dedicated","server_os":"Linux","password":true,"vac":true,"version":"7695204","steam_id":85568392924367362,"keywords":["nocrits","nodmgspread","payload","uncletopia"],"game_id":440,"stv_port":27016,"stv_name":"Uncletopia | London | 1 | All Maps | STV","players":[{"user_id":468,"name":"Nightly","steam_id":76561199380734528,"connected_time":4266000000000,"state":"active","ping":158},{"user_id":498,"name":"GhostsAreSpooky","steam_id":76561198138654748,"connected_time":412000000000,"state":"active","ping":41},{"user_id":464,"name":"Shynii","steam_id":76561198194682105,"connected_time":4497000000000,"state":"active","ping":56},{"user_id":497,"name":"somey","steam_id":76561198083366012,"connected_time":780000000000,"state":"active","ping":48},{"user_id":461,"name":"hmscole09","steam_id":76561198811362788,"connected_time":4853000000000,"state":"active","ping":50},{"user_id":481,"name":"continually torn apart","steam_id":76561198051852765,"connected_time":2681000000000,"state":"active","ping":73},{"user_id":421,"name":"Nazuna","steam_id":76561198413225595,"connected_time":8595000000000,"state":"active","ping":102}]},{"server_id":114,"name":"Uncletopia | London | 2 | All Maps","name_short":"lon-2","host":"lon-1.uk.uncletopia.com","port":27025,"enabled":true,"region":"eu","cc":"gb","latitude":51.509865,"longitude":-0.118092,"reserved":0,"last_update":"0001-01-01T00:00:00Z","name_a2s":"Uncletopia | London | 2 | All Maps","protocol":17,"map":"koth_cascade","folder":"tf","game":"Team Fortress","app_id":440,"player_count":0,"max_players":24,"Bots":0,"server_type":"Dedicated","server_os":"Linux","password":true,"vac":true,"version":"7695204","steam_id":85568392924470941,"keywords":["cp","nocrits","nodmgspread","uncletopia"],"game_id":440,"stv_port":27026,"stv_name":"Uncletopia | London | 2 | All Maps | STV","players":null},{"server_id":320,"name":"Uncletopia | London | 3 | All Maps","name_short":"lon-3","host":"lon-1.uk.uncletopia.com","port":27035,"enabled":true,"region":"eu","cc":"gb","latitude":51.509865,"longitude":-0.118092,"reserved":0,"last_update":"0001-01-01T00:00:00Z","name_a2s":"Uncletopia | London | 3 | All Maps","protocol":17,"map":"pl_barnblitz","folder":"tf","game":"Team Fortress","app_id":440,"player_count":21,"max_players":24,"Bots":0,"server_type":"Dedicated","server_os":"Linux","password":true,"vac":true,"version":"7695204","steam_id":85568392924510192,"keywords":["nocrits","nodmgspread","payload","uncletopia"],"game_id":440,"stv_port":27036,"stv_name":"Uncletopia | London | 3 | All Maps | STV","players":[{"user_id":694,"name":"NUTHUT","steam_id":76561198138834947,"connected_time":2364000000000,"state":"active","ping":54},{"user_id":695,"name":"born to shit forced to wipe","steam_id":76561198053116096,"connected_time":2003000000000,"state":"active","ping":90},{"user_id":646,"name":"Badat Teefftoo","steam_id":76561198002162167,"connected_time":6431000000000,"state":"active","ping":54},{"user_id":689,"name":"BayanTheBear","steam_id":76561198134537476,"connected_time":3829000000000,"state":"active","ping":162},{"user_id":692,"name":"Thermalnight","steam_id":76561199348149583,"connected_time":3438000000000,"state":"active","ping":49},{"user_id":691,"name":"mr beast fortnite (REAL?!)","steam_id":76561198846784757,"connected_time":3498000000000,"state":"active","ping":53},{"user_id":669,"name":"Jar","steam_id":76561198156384007,"connected_time":5267000000000,"state":"active","ping":38},{"user_id":696,"name":"Hydron","steam_id":76561198341520996,"connected_time":1997000000000,"state":"active","ping":164},{"user_id":697,"name":"Kapo-Sama","steam_id":76561198090731537,"connected_time":1953000000000,"state":"active","ping":65},{"user_id":698,"name":"GunGuy","steam_id":76561198124510978,"connected_time":1832000000000,"state":"active","ping":43},{"user_id":709,"name":"BarrackOmaha","steam_id":76561198027922724,"connected_time":336000000000,"state":"active","ping":74},{"user_id":706,"name":"Sarip","steam_id":76561198113330438,"connected_time":582000000000,"state":"active","ping":56},{"user_id":712,"name":"Tymbark","steam_id":76561198531978435,"connected_time":155000000000,"state":"active","ping":56},{"user_id":708,"name":"social experiment","steam_id":76561198168119744,"connected_time":572000000000,"state":"active","ping":51},{"user_id":703,"name":"salim shahidy","steam_id":76561198416945706,"connected_time":841000000000,"state":"active","ping":149},{"user_id":704,"name":"‚ùé Weed ‚ùé","steam_id":76561198982470685,"connected_time":776000000000,"state":"active","ping":90},{"user_id":710,"name":"45 Cent","steam_id":76561198048690188,"connected_time":336000000000,"state":"active","ping":120},{"user_id":711,"name":"schizo gamer moment","steam_id":76561199414716848,"connected_time":245000000000,"state":"active","ping":141},{"user_id":656,"name":"outsmarted by an Idiot","steam_id":76561198253868228,"connected_time":5968000000000,"state":"active","ping":33},{"user_id":715,"name":"Roboolet","steam_id":76561198107353953,"connected_time":62000000000,"state":"active","ping":48},{"user_id":714,"name":"Peat","steam_id":76561197992168067,"connected_time":108000000000,"state":"active","ping":73}]},{"server_id":321,"name":"Uncletopia | London | 4 | All Maps","name_short":"lon-4","host":"lon-1.uk.uncletopia.com","port":27045,"enabled":true,"region":"eu","cc":"gb","latitude":51.509865,"longitude":-0.118092,"reserved":0,"last_update":"0001-01-01T00:00:00Z","name_a2s":"Uncletopia | London | 4 | All Maps","protocol":17,"map":"koth_lakeside_final","folder":"tf","game":"Team Fortress","app_id":440,"player_count":0,"max_players":24,"Bots":0,"server_type":"Dedicated","server_os":"Linux","password":true,"vac":true,"version":"7695204","steam_id":85568392924510193,"keywords":["cp","nocrits","nodmgspread","uncletopia"],"game_id":440,"stv_port":27046,"stv_name":"Uncletopia | London | 4 | All Maps | STV","players":null},{"server_id":21,"name":"Uncletopia | London | 5 | All Maps","name_short":"lon-5","host":"lon-1.uk.uncletopia.com","port":27055,"enabled":true,"region":"eu","cc":"gb","latitude":51.509865,"longitude":-0.118092,"reserved":0,"last_update":"0001-01-01T00:00:00Z","name_a2s":"Uncletopia | London | 5 | All Maps","protocol":17,"map":"cp_snakewater_final1","folder":"tf","game":"Team Fortress","app_id":440,"player_count":0,"max_players":24,"Bots":0,"server_type":"Dedicated","server_os":"Linux","password":true,"vac":true,"version":"7695204","steam_id":85568392924742829,"keywords":["cp","nocrits","nodmgspread","uncletopia"],"game_id":440,"stv_port":27056,"stv_name":"Uncletopia | London | 5 | All Maps | STV","players":null},{"server_id":22,"name":"Uncletopia | London | 6 | All Maps","name_short":"lon-6","host":"lon-1.uk.uncletopia.com","port":27065,"enabled":true,"region":"eu","cc":"gb","latitude":51.509865,"longitude":-0.118092,"reserved":0,"last_update":"0001-01-01T00:00:00Z","name_a2s":"Uncletopia | London | 6 | All Maps","protocol":17,"map":"pl_badwater","folder":"tf","game":"Team Fortress","app_id":440,"player_count":0,"max_players":24,"Bots":0,"server_type":"Dedicated","server_os":"Linux","password":true,"vac":true,"version":"7695204","steam_id":85568392924742830,"keywords":["nocrits","nodmgspread","payload","uncletopia"],"game_id":440,"stv_port":27066,"stv_name":"Uncletopia | London | 6 | All Maps | STV","players":null},{"server_id":40,"name":"Uncletopia | London | 7 | No Payload","name_short":"lon-7","host":"lon-1.uk.uncletopia.com","port":27075,"enabled":true,"region":"eu","cc":"gb","latitude":51.509865,"longitude":-0.118092,"reserved":0,"last_update":"0001-01-01T00:00:00Z","name_a2s":"Uncletopia | London | 7 | No Payload","protocol":17,"map":"koth_king","folder":"tf","game":"Team Fortress","app_id":440,"player_count":0,"max_players":24,"Bots":0,"server_type":"Dedicated","server_os":"Linux","password":true,"vac":true,"version":"7695204","steam_id":85568392924964314,"keywords":["cp","nocrits","nodmgspread","uncletopia"],"game_id":440,"stv_port":27076,"stv_name":"Uncletopia | London | 7 | No Payload | STV","players":null},{"server_id":41,"name":"Uncletopia | London | 8 | Community","name_short":"lon-8","host":"lon-1.uk.uncletopia.com","port":27085,"enabled":true,"region":"eu","cc":"gb","latitude":51.509865,"longitude":-0.118092,"reserved":0,"last_update":"0001-01-01T00:00:00Z","name_a2s":"Uncletopia | London | 8 | Community","protocol":17,"map":"workshop/cp_overgrown_rc7b.ugc503939302","folder":"tf","game":"Team Fortress","app_id":440,"player_count":0,"max_players":24,"Bots":0,"server_type":"Dedicated","server_os":"Linux","password":true,"vac":true,"version":"7695204","steam_id":85568392924964315,"keywords":["cp","nocrits","nodmgspread","uncletopia"],"game_id":440,"stv_port":27086,"stv_name":"Uncletopia | London | 8 | Community | STV","players":null},{"server_id":300,"name":"Uncletopia | Montr√©al | 1 | All Maps","name_short":"mtl-1","host":"mtl-1.ca.uncletopia.com","port":27015,"enabled":true,"region":"us-east","cc":"ca","latitude":45.50889,"longitude":-73.56167,"reserved":0,"last_update":"0001-01-01T00:00:00Z","name_a2s":"Uncletopia | Montr√©al | 1 | All Maps","protocol":17,"map":"koth_cascade","folder":"tf","game":"Team Fortress","app_id":440,"player_count":0,"max_players":24,"Bots":0,"server_type":"Dedicated","server_os":"Linux","password":true,"vac":true,"version":"7695204","steam_id":85568392924500087,"keywords":["cp","nocrits","nodmgspread","uncletopia"],"game_id":440,"stv_port":27016,"stv_name":"Uncletopia | Montr√©al | 1 | All Maps | STV","players":null},{"server_id":301,"name":"Uncletopia | Montr√©al | 2 | All Maps","name_short":"mtl-2","host":"mtl-1.ca.uncletopia.com","port":27025,"enabled":true,"region":"us-east","cc":"ca","latitude":45.50889,"longitude":-73.56167,"reserved":0,"last_update":"0001-01-01T00:00:00Z","name_a2s":"Uncletopia | Montr√©al | 2 | All Maps","protocol":17,"map":"pl_barnblitz","folder":"tf","game":"Team Fortress","app_id":440,"player_count":0,"max_players":24,"Bots":0,"server_type":"Dedicated","server_os":"Linux","password":true,"vac":true,"version":"7695204","steam_id":85568392924500088,"keywords":["nocrits","nodmgspread","payload","uncletopia"],"game_id":440,"stv_port":27026,"stv_name":"Uncletopia | Montr√©al | 2 | All Maps | STV","players":null},{"server_id":302,"name":"Uncletopia | Montr√©al | 3 | All Maps","name_short":"mtl-3","host":"mtl-1.ca.uncletopia.com","port":27035,"enabled":true,"region":"us-east","cc":"ca","latitude":45.50889,"longitude":-73.56167,"reserved":0,"last_update":"0001-01-01T00:00:00Z","name_a2s":"Uncletopia | Montr√©al | 3 | All Maps","protocol":17,"map":"koth_viaduct","folder":"tf","game":"Team Fortress","app_id":440,"player_count":0,"max_players":24,"Bots":0,"server_type":"Dedicated","server_os":"Linux","password":true,"vac":true,"version":"7695204","steam_id":85568392924500089,"keywords":["cp","nocrits","nodmgspread","uncletopia"],"game_id":440,"stv_port":0,"stv_name":"","players":null},{"server_id":303,"name":"Uncletopia | Montr√©al | 4 | No Payload","name_short":"mtl-4","host":"mtl-1.ca.uncletopia.com","port":27045,"enabled":true,"region":"us-east","cc":"ca","latitude":45.50889,"longitude":-73.56167,"reserved":0,"last_update":"0001-01-01T00:00:00Z","name_a2s":"Uncletopia | Montr√©al | 4 | No Payload","protocol":17,"map":"koth_king","folder":"tf","game":"Team Fortress","app_id":440,"player_count":0,"max_players":24,"Bots":0,"server_type":"Dedicated","server_os":"Linux","password":true,"vac":true,"version":"7695204","steam_id":85568392924500090,"keywords":["cp","nocrits","nodmgspread","uncletopia"],"game_id":440,"stv_port":27046,"stv_name":"Uncletopia | Montr√©al | 4 | No Payload | STV","players":null},{"server_id":13,"name":"Uncletopia | New York City | 1 | All Maps","name_short":"nyc-1","host":"nyc-1.us.uncletopia.com","port":27015,"enabled":true,"region":"us-east","cc":"us","latitude":40.73061,"longitude":-73.93524,"reserved":0,"last_update":"0001-01-01T00:00:00Z","name_a2s":"Uncletopia | New York City | 1 | All Maps","protocol":17,"map":"pl_borneo","folder":"tf","game":"Team Fortress","app_id":440,"player_count":24,"max_players":24,"Bots":0,"server_type":"Dedicated","server_os":"Linux","password":true,"vac":true,"version":"7695204","steam_id":85568392924469993,"keywords":["nocrits","nodmgspread","payload","uncletopia"],"game_id":440,"stv_port":27016,"stv_name":"Uncletopia | New York City | 1 | All Maps | STV","players":[{"user_id":581,"name":"veteranof100psychicwars","steam_id":76561198070903458,"connected_time":5174000000000,"state":"active","ping":56},{"user_id":570,"name":"sithreis","steam_id":76561198000564263,"connected_time":5791000000000,"state":"active","ping":74},{"user_id":571,"name":"AlecTheNefarious","steam_id":76561198035291230,"connected_time":5788000000000,"state":"active","ping":76},{"user_id":623,"name":"flygonboy127","steam_id":76561199105773990,"connected_time":361000000000,"state":"active","ping":76},{"user_id":627,"name":"[S]Mr. X [No Monitor]","steam_id":76561197963746035,"connected_time":296000000000,"state":"active","ping":98},{"user_id":572,"name":"java","steam_id":76561198030276792,"connected_time":5787000000000,"state":"active","ping":69},{"user_id":604,"name":"Temper","steam_id":76561198044123690,"connected_time":2225000000000,"state":"active","ping":62},{"user_id":624,"name":"Vladikr1","steam_id":76561198401495362,"connected_time":349000000000,"state":"active","ping":64},{"user_id":631,"name":"ndvr","steam_id":76561199379200102,"connected_time":105000000000,"state":"active","ping":48},{"user_id":599,"name":"Mr. Pringles","steam_id":76561199102896319,"connected_time":2663000000000,"state":"active","ping":81},{"user_id":611,"name":"Dr. Feelgood (Ph.D, MD)","steam_id":76561198040611061,"connected_time":1610000000000,"state":"active","ping":48},{"user_id":626,"name":"2 Percent Milk","steam_id":76561198118529039,"connected_time":317000000000,"state":"active","ping":70},{"user_id":569,"name":"--_Cook_--","steam_id":76561198080855748,"connected_time":5827000000000,"state":"active","ping":46},{"user_id":628,"name":"Abbreviated","steam_id":76561198088423054,"connected_time":232000000000,"state":"active","ping":75},{"user_id":584,"name":"Adam (Cursed Confetti Creature)","steam_id":76561198317690197,"connected_time":4750000000000,"state":"active","ping":64},{"user_id":593,"name":"lanoc","steam_id":76561198055415367,"connected_time":4135000000000,"state":"active","ping":69},{"user_id":614,"name":"kree","steam_id":76561197979960008,"connected_time":1455000000000,"state":"active","ping":48},{"user_id":620,"name":"Carbon8ed","steam_id":76561198188488341,"connected_time":1117000000000,"state":"active","ping":81},{"user_id":621,"name":"Dr. Feelsbad","steam_id":76561198117671709,"connected_time":1084000000000,"state":"active","ping":76},{"user_id":617,"name":"4d4","steam_id":76561198402360789,"connected_time":1255000000000,"state":"active","ping":284},{"user_id":580,"name":"stankonia","steam_id":76561198106690989,"connected_time":5359000000000,"state":"active","ping":49},{"user_id":622,"name":"cheetaz","steam_id":76561198224614084,"connected_time":958000000000,"state":"active","ping":61},{"user_id":629,"name":"Mr. Squidward","steam_id":76561198103821671,"connected_time":223000000000,"state":"active","ping":54},{"user_id":630,"name":"Rebecon","steam_id":76561198175827007,"connected_time":213000000000,"state":"active","ping":85}]},{"server_id":14,"name":"Uncletopia | New York City | 2 | All Maps","name_short":"nyc-2","host":"nyc-1.us.uncletopia.com","port":27025,"enabled":true,"region":"us-east","cc":"us","latitude":40.73061,"longitude":-73.93524,"reserved":0,"last_update":"0001-01-01T00:00:00Z","name_a2s":"Uncletopia | New York City | 2 | All Maps","protocol":17,"map":"pl_pier","folder":"tf","game":"Team Fortress","app_id":440,"player_count":21,"max_players":24,"Bots":0,"server_type":"Dedicated","server_os":"Linux","password":true,"vac":true,"version":"7695204","steam_id":85568392924469994,"keywords":["nocrits","nodmgspread","payload","uncletopia"],"game_id":440,"stv_port":27026,"stv_name":"Uncletopia | New York City | 2 | All Maps | STV","players":[{"user_id":409,"name":"Dog","steam_id":76561198059772038,"connected_time":1286000000000,"state":"active","ping":82},{"user_id":399,"name":"„Çπ„Éë„Ç§„ÇØ","steam_id":76561199417277716,"connected_time":2036000000000,"state":"active","ping":47},{"user_id":391,"name":"Big Man","steam_id":76561198353366625,"connected_time":2106000000000,"state":"active","ping":95},{"user_id":375,"name":"Christoph Waltz eating a burger","steam_id":76561199215811448,"connected_time":4317000000000,"state":"active","ping":60},{"user_id":410,"name":"Big Domino","steam_id":76561198055743516,"connected_time":1254000000000,"state":"active","ping":55},{"user_id":392,"name":"MrGruntington","steam_id":76561198081442888,"connected_time":2088000000000,"state":"active","ping":116},{"user_id":394,"name":"Beef Wellington","steam_id":76561197995635241,"connected_time":2077000000000,"state":"active","ping":90},{"user_id":289,"name":"BMongrel","steam_id":76561198072166677,"connected_time":10024000000000,"state":"active","ping":70},{"user_id":380,"name":"Kuroka Mishima","steam_id":76561198124311404,"connected_time":4005000000000,"state":"active","ping":70},{"user_id":416,"name":"ManHandledLemons","steam_id":76561198119547375,"connected_time":542000000000,"state":"active","ping":64},{"user_id":418,"name":"Miner2495","steam_id":76561198445904523,"connected_time":468000000000,"state":"active","ping":63},{"user_id":420,"name":"Mally","steam_id":76561198025013765,"connected_time":196000000000,"state":"active","ping":74},{"user_id":324,"name":"davidflyswag","steam_id":76561198979060652,"connected_time":7685000000000,"state":"active","ping":69},{"user_id":353,"name":"CRAZY engineer","steam_id":76561198887937902,"connected_time":5600000000000,"state":"active","ping":44},{"user_id":397,"name":"You Don't Nomi.","steam_id":76561197969137836,"connected_time":2057000000000,"state":"active","ping":50},{"user_id":413,"name":"ExtraSoap","steam_id":76561198008712409,"connected_time":985000000000,"state":"active","ping":52},{"user_id":407,"name":"Creeel","steam_id":76561198025718377,"connected_time":1763000000000,"state":"active","ping":64},{"user_id":417,"name":"boot","steam_id":76561198806968845,"connected_time":538000000000,"state":"active","ping":45},{"user_id":415,"name":"DO NOT call me BART SIMPSON!!","steam_id":76561198069113375,"connected_time":576000000000,"state":"active","ping":58},{"user_id":422,"name":"hugs for noob","steam_id":76561198063116291,"connected_time":61000000000,"state":"active","ping":67}]},{"server_id":15,"name":"Uncletopia | New York City | 3 | All Maps","name_short":"nyc-3","host":"nyc-1.us.uncletopia.com","port":27035,"enabled":true,"region":"us-east","cc":"us","latitude":40.73061,"longitude":-73.93524,"reserved":0,"last_update":"0001-01-01T00:00:00Z","name_a2s":"Uncletopia | New York City | 3 | All Maps","protocol":17,"map":"cp_gravelpit","folder":"tf","game":"Team Fortress","app_id":440,"player_count":24,"max_players":24,"Bots":0,"server_type":"Dedicated","server_os":"Linux","password":true,"vac":true,"version":"7695204","steam_id":85568392924742820,"keywords":["cp","nocrits","nodmgspread","uncletopia"],"game_id":440,"stv_port":27036,"stv_name":"Uncletopia | New York City | 3 | All Maps | STV","players":[{"user_id":638,"name":"fennec_zak_","steam_id":76561198125406216,"connected_time":72000000000,"state":"active","ping":98},{"user_id":622,"name":"DragonWing","steam_id":76561198353039415,"connected_time":991000000000,"state":"active","ping":127},{"user_id":606,"name":"Madrox Who?","steam_id":76561197988859134,"connected_time":2481000000000,"state":"active","ping":88},{"user_id":587,"name":"the prowler","steam_id":76561199013645661,"connected_time":3413000000000,"state":"active","ping":87},{"user_id":602,"name":"Pomegranate88","steam_id":76561198056385456,"connected_time":2666000000000,"state":"active","ping":53},{"user_id":581,"name":"CoolMrCortez","steam_id":76561198962626776,"connected_time":3539000000000,"state":"active","ping":100},{"user_id":611,"name":"StuartBell511","steam_id":76561198060931721,"connected_time":2277000000000,"state":"active","ping":65},{"user_id":628,"name":"JaFart","steam_id":76561198010603708,"connected_time":650000000000,"state":"active","ping":92},{"user_id":624,"name":"Dajer","steam_id":76561198321675742,"connected_time":938000000000,"state":"active","ping":72},{"user_id":626,"name":"mudturtle","steam_id":76561198292734035,"connected_time":831000000000,"state":"active","ping":83},{"user_id":630,"name":"GiraffeMan","steam_id":76561198042104084,"connected_time":521000000000,"state":"active","ping":50},{"user_id":614,"name":"PizzaPasta","steam_id":76561199125109082,"connected_time":1535000000000,"state":"active","ping":65},{"user_id":631,"name":"a zephyr","steam_id":76561198182506001,"connected_time":507000000000,"state":"active","ping":45},{"user_id":608,"name":"Dealyo","steam_id":76561198282395338,"connected_time":2434000000000,"state":"active","ping":55},{"user_id":632,"name":"MrBajaBlast","steam_id":76561199052471047,"connected_time":474000000000,"state":"active","ping":71},{"user_id":590,"name":"A used self heating flesh-light","steam_id":76561198069918221,"connected_time":3273000000000,"state":"active","ping":45},{"user_id":556,"name":"eldritchsigns","steam_id":76561198380930571,"connected_time":6247000000000,"state":"active","ping":247},{"user_id":601,"name":"Fish Fisherman","steam_id":76561198018656022,"connected_time":2746000000000,"state":"active","ping":52},{"user_id":633,"name":"Sicko Mode (Chris Pratt Cover)","steam_id":76561198315786174,"connected_time":447000000000,"state":"active","ping":50},{"user_id":620,"name":"Insanity_Book","steam_id":76561198282715309,"connected_time":1038000000000,"state":"active","ping":105},{"user_id":613,"name":"Don william","steam_id":76561199066025998,"connected_time":2116000000000,"state":"active","ping":118},{"user_id":634,"name":"PapaTheBear123","steam_id":76561198885286869,"connected_time":437000000000,"state":"active","ping":97},{"user_id":635,"name":"no one","steam_id":76561197996074396,"connected_time":422000000000,"state":"active","ping":69},{"user_id":636,"name":"pathulhu","steam_id":76561198323941614,"connected_time":341000000000,"state":"active","ping":87}]},{"server_id":16,"name":"Uncletopia | New York City | 4 | Community","name_short":"nyc-4","host":"nyc-1.us.uncletopia.com","port":27045,"enabled":true,"region":"us-east","cc":"us","latitude":40.73061,"longitude":-73.93524,"reserved":0,"last_update":"0001-01-01T00:00:00Z","name_a2s":"Uncletopia | New York City | 4 | Community","protocol":17,"map":"workshop/pl_fifthcurve_rc1.ugc648227046","folder":"tf","game":"Team Fortress","app_id":440,"player_count":5,"max_players":24,"Bots":0,"server_type":"Dedicated","server_os":"Linux","password":true,"vac":true,"version":"7695204","steam_id":85568392924742821,"keywords":["nocrits","nodmgspread","payload","uncletopia"],"game_id":440,"stv_port":27046,"stv_name":"Uncletopia | New York City | 4 | Community | STV","players":[{"user_id":140,"name":"Malir","steam_id":76561198058307899,"connected_time":945000000000,"state":"active","ping":122},{"user_id":142,"name":"BigBadBaldDad","steam_id":76561198121332324,"connected_time":800000000000,"state":"active","ping":68},{"user_id":128,"name":"mothic","steam_id":76561198309636424,"connected_time":2674000000000,"state":"active","ping":127},{"user_id":78,"name":"William Phigglebottom IV","steam_id":76561198437404353,"connected_time":6075000000000,"state":"active","ping":60},{"user_id":134,"name":"FittleLiddley","steam_id":76561197999114860,"connected_time":1789000000000,"state":"active","ping":45}]},{"server_id":142,"name":"Uncletopia | S√£o Paulo | 1 | All Maps","name_short":"sao-1","host":"sao-1.br.uncletopia.com","port":27015,"enabled":true,"region":"sa","cc":"br","latitude":-23.533773,"longitude":-46.62529,"reserved":0,"last_update":"0001-01-01T00:00:00Z","name_a2s":"Uncletopia | S√£o Paulo | 1 | All Maps","protocol":17,"map":"koth_highpass","folder":"tf","game":"Team Fortress","app_id":440,"player_count":0,"max_players":24,"Bots":0,"server_type":"Dedicated","server_os":"Linux","password":true,"vac":true,"version":"7695204","steam_id":85568392924469996,"keywords":["cp","nocrits","nodmgspread","uncletopia"],"game_id":440,"stv_port":27016,"stv_name":"Uncletopia | S√£o Paulo | 1 | All Maps | STV","players":null},{"server_id":143,"name":"Uncletopia | S√£o Paulo | 2 | All Maps","name_short":"sao-2","host":"sao-2.br.uncletopia.com","port":27015,"enabled":true,"region":"sa","cc":"br","latitude":-23.533773,"longitude":-46.62529,"reserved":0,"last_update":"0001-01-01T00:00:00Z","name_a2s":"Uncletopia | S√£o Paulo | 2 | All Maps","protocol":17,"map":"pl_snowycoast","folder":"tf","game":"Team Fortress","app_id":440,"player_count":0,"max_players":24,"Bots":0,"server_type":"Dedicated","server_os":"Linux","password":true,"vac":true,"version":"7695204","steam_id":85568392924485349,"keywords":["nocrits","nodmgspread","payload","uncletopia"],"game_id":440,"stv_port":27016,"stv_name":"Uncletopia | S√£o Paulo | 2 | All Maps | STV","players":null},{"server_id":7,"name":"Uncletopia | Seattle | 1 | All Maps","name_short":"sea-1","host":"sea-1.us.uncletopia.com","port":27015,"enabled":true,"region":"us-west","cc":"us","latitude":47.608013,"longitude":-122.33517,"reserved":0,"last_update":"0001-01-01T00:00:00Z","name_a2s":"Uncletopia | Seattle | 1 | All Maps","protocol":17,"map":"pl_thundermountain","folder":"tf","game":"Team Fortress","app_id":440,"player_count":24,"max_players":24,"Bots":0,"server_type":"Dedicated","server_os":"Linux","password":true,"vac":true,"version":"7695204","steam_id":85568392924469997,"keywords":["nocrits","nodmgspread","payload","uncletopia"],"game_id":440,"stv_port":27016,"stv_name":"Uncletopia | Seattle | 1 | All Maps | STV","players":[{"user_id":428,"name":"Vineboom","steam_id":76561198298722482,"connected_time":10000000000,"state":"spawning","ping":121},{"user_id":388,"name":"Crake","steam_id":76561198001959071,"connected_time":4103000000000,"state":"active","ping":49},{"user_id":423,"name":"Wyvern","steam_id":76561198392331213,"connected_time":595000000000,"state":"active","ping":132},{"user_id":407,"name":"marlex20","steam_id":76561198043779844,"connected_time":2146000000000,"state":"active","ping":93},{"user_id":406,"name":"cirno","steam_id":76561198166081596,"connected_time":2248000000000,"state":"active","ping":74},{"user_id":353,"name":"Sleuth","steam_id":76561198418288939,"connected_time":6534000000000,"state":"active","ping":66},{"user_id":397,"name":"Zelumie","steam_id":76561198147335801,"connected_time":3097000000000,"state":"active","ping":96},{"user_id":408,"name":"JV","steam_id":76561199107368676,"connected_time":2105000000000,"state":"active","ping":70},{"user_id":325,"name":"Mom","steam_id":76561198207936000,"connected_time":8898000000000,"state":"active","ping":65},{"user_id":419,"name":"hotdog every meal","steam_id":76561198392514273,"connected_time":847000000000,"state":"active","ping":57},{"user_id":304,"name":"nosmas","steam_id":76561198113728520,"connected_time":11302000000000,"state":"active","ping":46},{"user_id":421,"name":"Mr.Thirteen","steam_id":76561198047468836,"connected_time":809000000000,"state":"active","ping":67},{"user_id":311,"name":"CasualCakeEater","steam_id":76561199406096223,"connected_time":10824000000000,"state":"active","ping":83},{"user_id":369,"name":"egyptiangodcard","steam_id":76561198855935442,"connected_time":6048000000000,"state":"active","ping":63},{"user_id":414,"name":"resting neutral face","steam_id":76561197999259502,"connected_time":1137000000000,"state":"active","ping":53},{"user_id":424,"name":"Ahzain","steam_id":76561198035894333,"connected_time":595000000000,"state":"active","ping":79},{"user_id":396,"name":"Wacks","steam_id":76561198079476100,"connected_time":3200000000000,"state":"active","ping":72},{"user_id":416,"name":"ikuyo","steam_id":76561198996950205,"connected_time":1022000000000,"state":"active","ping":70},{"user_id":400,"name":"snorlax_gamer","steam_id":76561199084972996,"connected_time":2632000000000,"state":"active","ping":55},{"user_id":426,"name":"kronk","steam_id":76561198054623686,"connected_time":411000000000,"state":"active","ping":86},{"user_id":412,"name":"aporophobia","steam_id":76561198068672882,"connected_time":1999000000000,"state":"active","ping":62},{"user_id":379,"name":"Frongus","steam_id":76561197979056451,"connected_time":4797000000000,"state":"active","ping":50},{"user_id":399,"name":"self sufficient kitten","steam_id":76561197960592612,"connected_time":2656000000000,"state":"active","ping":46},{"user_id":415,"name":"Dogg wader","steam_id":76561199090314340,"connected_time":1116000000000,"state":"active","ping":217}]},{"server_id":119,"name":"Uncletopia | Seattle | 2 | All Maps","name_short":"sea-2","host":"sea-1.us.uncletopia.com","port":27025,"enabled":true,"region":"us-west","cc":"us","latitude":47.608013,"longitude":-122.33517,"reserved":0,"last_update":"0001-01-01T00:00:00Z","name_a2s":"Uncletopia | Seattle | 2 | All Maps","protocol":17,"map":"pl_borneo","folder":"tf","game":"Team Fortress","app_id":440,"player_count":24,"max_players":24,"Bots":0,"server_type":"Dedicated","server_os":"Linux","password":true,"vac":true,"version":"7695204","steam_id":85568392924469998,"keywords":["nocrits","nodmgspread","payload","uncletopia"],"game_id":440,"stv_port":27026,"stv_name":"Uncletopia | Seattle | 2 | All Maps | STV","players":[{"user_id":648,"name":"PP_PhD","steam_id":76561198168851111,"connected_time":2907000000000,"state":"active","ping":57},{"user_id":551,"name":"[DATS‚û°] Sugar Meowth","steam_id":76561197995251793,"connected_time":8201000000000,"state":"active","ping":38},{"user_id":685,"name":"turn around","steam_id":76561198046526036,"connected_time":210000000000,"state":"active","ping":76},{"user_id":661,"name":"SleepyNovel","steam_id":76561198087898088,"connected_time":1896000000000,"state":"active","ping":65},{"user_id":657,"name":"The Hamburglar","steam_id":76561199094048718,"connected_time":2277000000000,"state":"active","ping":70},{"user_id":662,"name":"Vquill","steam_id":76561199070911342,"connected_time":1865000000000,"state":"active","ping":100},{"user_id":597,"name":"Trogdor","steam_id":76561198121353181,"connected_time":5519000000000,"state":"active","ping":53},{"user_id":669,"name":"squid","steam_id":76561198070236972,"connected_time":1711000000000,"state":"active","ping":89},{"user_id":611,"name":"IgroSome","steam_id":76561198325586557,"connected_time":5131000000000,"state":"active","ping":65},{"user_id":687,"name":"Goob","steam_id":76561198256918638,"connected_time":108000000000,"state":"active","ping":71},{"user_id":678,"name":"Sinn","steam_id":76561199013434543,"connected_time":840000000000,"state":"active","ping":64},{"user_id":660,"name":"Bevan(The Manager)","steam_id":76561198073890273,"connected_time":2007000000000,"state":"active","ping":43},{"user_id":674,"name":"Amateur Glaswegian","steam_id":76561198030851956,"connected_time":1543000000000,"state":"active","ping":51},{"user_id":665,"name":"ryeriggs","steam_id":76561198254666216,"connected_time":1791000000000,"state":"active","ping":56},{"user_id":682,"name":"Plasic74x","steam_id":76561199058981206,"connected_time":633000000000,"state":"active","ping":90},{"user_id":666,"name":"Wafflemuscle","steam_id":76561198868628982,"connected_time":1789000000000,"state":"active","ping":44},{"user_id":677,"name":"Bada Bingus","steam_id":76561198046743307,"connected_time":858000000000,"state":"active","ping":136},{"user_id":668,"name":"Veritox","steam_id":76561198075778026,"connected_time":1732000000000,"state":"active","ping":70},{"user_id":680,"name":"FerroDeus","steam_id":76561198294143707,"connected_time":799000000000,"state":"active","ping":44},{"user_id":679,"name":"SvicidalBug","steam_id":76561198221390504,"connected_time":810000000000,"state":"active","ping":70},{"user_id":686,"name":"John Wick's puppy","steam_id":76561198064662875,"connected_time":201000000000,"state":"active","ping":59},{"user_id":655,"name":"General Fisticuffs","steam_id":76561198255721392,"connected_time":2456000000000,"state":"active","ping":101},{"user_id":650,"name":"taishang","steam_id":76561198065328284,"connected_time":2904000000000,"state":"active","ping":81},{"user_id":684,"name":"chlo√©","steam_id":76561198858926895,"connected_time":297000000000,"state":"active","ping":44}]},{"server_id":17,"name":"Uncletopia | San Francisco | 1 | All Maps","name_short":"sfo-1","host":"sfo-1.us.uncletopia.com","port":27015,"enabled":true,"region":"us-west","cc":"us","latitude":37.77397,"longitude":-122.4313,"reserved":0,"last_update":"0001-01-01T00:00:00Z","name_a2s":"Uncletopia | San Francisco | 1 | All Maps","protocol":17,"map":"koth_cascade","folder":"tf","game":"Team Fortress","app_id":440,"player_count":24,"max_players":24,"Bots":0,"server_type":"Dedicated","server_os":"Linux","password":true,"vac":true,"version":"7695204","steam_id":85568392924469999,"keywords":["cp","nocrits","nodmgspread","uncletopia"],"game_id":440,"stv_port":27016,"stv_name":"Uncletopia | San Francisco | 1 | All Maps | STV","players":[{"user_id":142,"name":"Rix FPV","steam_id":76561198299320893,"connected_time":574000000000,"state":"active","ping":112},{"user_id":153,"name":"mega","steam_id":76561198089520959,"connected_time":46000000000,"state":"active","ping":102},{"user_id":118,"name":"Papi Nacho","steam_id":76561198170128009,"connected_time":3146000000000,"state":"active","ping":59},{"user_id":143,"name":"perc 10","steam_id":76561198116471653,"connected_time":563000000000,"state":"active","ping":45},{"user_id":114,"name":"AOTFB | Eminem Fortnite","steam_id":76561198064631314,"connected_time":3274000000000,"state":"active","ping":95},{"user_id":144,"name":"meatBALL sub lova 39 (meatball)","steam_id":76561199031308269,"connected_time":560000000000,"state":"active","ping":144},{"user_id":145,"name":"b3nny","steam_id":76561198446837615,"connected_time":526000000000,"state":"active","ping":48},{"user_id":119,"name":"rock gaming","steam_id":76561199402868311,"connected_time":3127000000000,"state":"active","ping":63},{"user_id":148,"name":"Funkboi","steam_id":76561198046235038,"connected_time":483000000000,"state":"active","ping":53},{"user_id":146,"name":"SHADOW","steam_id":76561198207768148,"connected_time":514000000000,"state":"active","ping":50},{"user_id":140,"name":"Idontknow","steam_id":76561199207044048,"connected_time":762000000000,"state":"active","ping":64},{"user_id":106,"name":"tayzik","steam_id":76561199391478575,"connected_time":4204000000000,"state":"active","ping":353},{"user_id":138,"name":"SolarusD","steam_id":76561198029279861,"connected_time":1511000000000,"state":"active","ping":49},{"user_id":124,"name":"Phillip Jeffries","steam_id":76561198064052174,"connected_time":2833000000000,"state":"active","ping":116},{"user_id":147,"name":"Sean","steam_id":76561199367470003,"connected_time":511000000000,"state":"active","ping":64},{"user_id":141,"name":"devils nightmare","steam_id":76561198068136765,"connected_time":593000000000,"state":"active","ping":52},{"user_id":130,"name":"DrD","steam_id":76561198067266383,"connected_time":2549000000000,"state":"active","ping":56},{"user_id":125,"name":"dylabgnar","steam_id":76561198829131595,"connected_time":2825000000000,"state":"active","ping":62},{"user_id":149,"name":"Lord Scrubling","steam_id":76561198263744445,"connected_time":479000000000,"state":"active","ping":79},{"user_id":113,"name":"some guy Ness","steam_id":76561198854088903,"connected_time":3547000000000,"state":"active","ping":146},{"user_id":135,"name":"CB1 Cousin Junebug","steam_id":76561198090573639,"connected_time":1788000000000,"state":"active","ping":54},{"user_id":84,"name":"AOTFB | Vox Vulpera","steam_id":76561198796227041,"connected_time":5446000000000,"state":"active","ping":138},{"user_id":150,"name":"TeriyakiDynamite","steam_id":76561198050049346,"connected_time":444000000000,"state":"active","ping":77},{"user_id":154,"name":"sex haver (real) \"professional\"","steam_id":76561198984762462,"connected_time":44000000000,"state":"connecting","ping":0}]},{"server_id":18,"name":"Uncletopia | San Francisco | 2 | All Maps","name_short":"sfo-2","host":"sfo-1.us.uncletopia.com","port":27025,"enabled":true,"region":"us-west","cc":"us","latitude":37.77397,"longitude":-122.4313,"reserved":0,"last_update":"0001-01-01T00:00:00Z","name_a2s":"Uncletopia | San Francisco | 2 | All Maps","protocol":17,"map":"koth_cascade","folder":"tf","game":"Team Fortress","app_id":440,"player_count":0,"max_players":24,"Bots":0,"server_type":"Dedicated","server_os":"Linux","password":true,"vac":true,"version":"7695204","steam_id":85568392924470000,"keywords":["cp","nocrits","nodmgspread","uncletopia"],"game_id":440,"stv_port":27026,"stv_name":"Uncletopia | San Francisco | 2 | All Maps | STV","players":null},{"server_id":19,"name":"Uncletopia | San Francisco | 3 | No Payload","name_short":"sfo-3","host":"sfo-1.us.uncletopia.com","port":27035,"enabled":true,"region":"us-west","cc":"us","latitude":37.77397,"longitude":-122.4313,"reserved":0,"last_update":"0001-01-01T00:00:00Z","name_a2s":"Uncletopia | San Francisco | 3 | No Payload","protocol":17,"map":"cp_junction_final","folder":"tf","game":"Team Fortress","app_id":440,"player_count":0,"max_players":24,"Bots":0,"server_type":"Dedicated","server_os":"Linux","password":true,"vac":true,"version":"7695204","steam_id":85568392924742824,"keywords":["cp","nocrits","nodmgspread","uncletopia"],"game_id":440,"stv_port":27036,"stv_name":"Uncletopia | San Francisco | 3 | No Payload | STV","players":null},{"server_id":20,"name":"Uncletopia | San Francisco | 4 | Community","name_short":"sfo-4","host":"sfo-1.us.uncletopia.com","port":27045,"enabled":true,"region":"us-west","cc":"us","latitude":37.77397,"longitude":-122.4313,"reserved":0,"last_update":"0001-01-01T00:00:00Z","name_a2s":"Uncletopia | San Francisco | 4 | Community","protocol":17,"map":"koth_highpass","folder":"tf","game":"Team Fortress","app_id":440,"player_count":0,"max_players":24,"Bots":0,"server_type":"Dedicated","server_os":"Linux","password":true,"vac":true,"version":"7695204","steam_id":85568392924742826,"keywords":["cp","nocrits","nodmgspread","uncletopia"],"game_id":440,"stv_port":0,"stv_name":"","players":null},{"server_id":141,"name":"Uncletopia | Sydney | 1 | All Maps","name_short":"syd-1","host":"syd-1.au.uncletopia.com","port":27015,"enabled":true,"region":"au","cc":"au","latitude":-33.865143,"longitude":151.2099,"reserved":0,"last_update":"0001-01-01T00:00:00Z","name_a2s":"Uncletopia | Sydney | 1 | All Maps","protocol":17,"map":"pl_thundermountain","folder":"tf","game":"Team Fortress","app_id":440,"player_count":24,"max_players":24,"Bots":0,"server_type":"Dedicated","server_os":"Linux","password":true,"vac":true,"version":"7695204","steam_id":85568392924470001,"keywords":["nocrits","nodmgspread","payload","uncletopia"],"game_id":440,"stv_port":27016,"stv_name":"Uncletopia | Sydney | 1 | All Maps | STV","players":[{"user_id":290,"name":"J''''","steam_id":76561198047565137,"connected_time":978000000000,"state":"active","ping":62},{"user_id":271,"name":"hobo","steam_id":76561199046481213,"connected_time":2892000000000,"state":"active","ping":65},{"user_id":291,"name":"Alsander And Ciaran","steam_id":76561198192632255,"connected_time":903000000000,"state":"active","ping":84},{"user_id":256,"name":"Glockenspe (She/Her)","steam_id":76561199184115241,"connected_time":4276000000000,"state":"active","ping":48},{"user_id":288,"name":"Big M","steam_id":76561199052493829,"connected_time":993000000000,"state":"active","ping":164},{"user_id":309,"name":"Free Happiness","steam_id":76561198308958137,"connected_time":88000000000,"state":"active","ping":52},{"user_id":294,"name":"fanc","steam_id":76561198071106796,"connected_time":811000000000,"state":"active","ping":45},{"user_id":278,"name":"no teles 4 u","steam_id":76561198018478297,"connected_time":1902000000000,"state":"active","ping":66},{"user_id":245,"name":"Yeehaw","steam_id":76561198039684922,"connected_time":4656000000000,"state":"active","ping":40},{"user_id":214,"name":"hawk","steam_id":76561198135164277,"connected_time":7178000000000,"state":"active","ping":46},{"user_id":262,"name":"zen","steam_id":76561198302670452,"connected_time":3525000000000,"state":"active","ping":59},{"user_id":296,"name":"w","steam_id":76561198442198135,"connected_time":783000000000,"state":"active","ping":48},{"user_id":260,"name":"Mr. Blop","steam_id":76561198072273373,"connected_time":3844000000000,"state":"active","ping":57},{"user_id":305,"name":"osborn","steam_id":76561198033663866,"connected_time":459000000000,"state":"active","ping":34},{"user_id":263,"name":"clout","steam_id":76561198073310502,"connected_time":3509000000000,"state":"active","ping":71},{"user_id":277,"name":"Nylk","steam_id":76561198033625169,"connected_time":2755000000000,"state":"active","ping":42},{"user_id":194,"name":"deadmoi27","steam_id":76561198157061007,"connected_time":9081000000000,"state":"active","ping":61},{"user_id":280,"name":"Homebrand Chronic","steam_id":76561198941549137,"connected_time":1709000000000,"state":"active","ping":85},{"user_id":301,"name":"Qwerty","steam_id":76561199157092367,"connected_time":711000000000,"state":"active","ping":71},{"user_id":302,"name":"jules99","steam_id":76561199005815714,"connected_time":695000000000,"state":"active","ping":66},{"user_id":289,"name":"Marzell","steam_id":76561198151276153,"connected_time":989000000000,"state":"active","ping":86},{"user_id":281,"name":"carrot monster","steam_id":76561199056025092,"connected_time":1669000000000,"state":"active","ping":40},{"user_id":308,"name":"Russel Crower","steam_id":76561198018183495,"connected_time":281000000000,"state":"active","ping":60},{"user_id":300,"name":"DBOL OVERLORD","steam_id":76561198071379867,"connected_time":742000000000,"state":"active","ping":59}]},{"server_id":123,"name":"Uncletopia | Sydney | 2 | All Maps","name_short":"syd-2","host":"syd-1.au.uncletopia.com","port":27025,"enabled":true,"region":"au","cc":"au","latitude":-33.865143,"longitude":151.2099,"reserved":0,"last_update":"0001-01-01T00:00:00Z","name_a2s":"Uncletopia | Sydney | 2 | All Maps","protocol":17,"map":"cp_altitude","folder":"tf","game":"Team Fortress","app_id":440,"player_count":0,"max_players":24,"Bots":0,"server_type":"Dedicated","server_os":"Linux","password":true,"vac":true,"version":"7695204","steam_id":85568392924470002,"keywords":["cp","nocrits","nodmgspread","uncletopia"],"game_id":440,"stv_port":27026,"stv_name":"Uncletopia | Sydney | 2 | All Maps | STV","players":null},{"server_id":395,"name":"Uncletopia | Sydney | 3 | All Maps","name_short":"syd-3","host":"syd-1.au.uncletopia.com","port":27035,"enabled":true,"region":"au","cc":"au","latitude":-33.865143,"longitude":151.2099,"reserved":0,"last_update":"0001-01-01T00:00:00Z","name_a2s":"Uncletopia | Sydney | 3 | All Maps","protocol":17,"map":"pl_pier","folder":"tf","game":"Team Fortress","app_id":440,"player_count":12,"max_players":24,"Bots":0,"server_type":"Dedicated","server_os":"Linux","password":true,"vac":true,"version":"7695204","steam_id":85568392925194467,"keywords":["nocrits","nodmgspread","payload","uncletopia"],"game_id":440,"stv_port":27036,"stv_name":"Uncletopia | Sydney | 3 | All Maps | STV","players":[{"user_id":42,"name":"hijik","steam_id":76561198359069277,"connected_time":225000000000,"state":"active","ping":91},{"user_id":31,"name":"WebSpook","steam_id":76561197976931725,"connected_time":1137000000000,"state":"active","ping":49},{"user_id":27,"name":"korn","steam_id":76561198022563294,"connected_time":1449000000000,"state":"active","ping":98},{"user_id":28,"name":"yosh","steam_id":76561198012723224,"connected_time":1424000000000,"state":"active","ping":90},{"user_id":41,"name":"Racecar Richards","steam_id":76561198066440524,"connected_time":259000000000,"state":"active","ping":106},{"user_id":30,"name":"burfdae boi","steam_id":76561199000827969,"connected_time":1300000000000,"state":"active","ping":42},{"user_id":32,"name":"Jetgirljo","steam_id":76561198178284561,"connected_time":1084000000000,"state":"active","ping":45},{"user_id":39,"name":"ToeJam \u0026 Earl Sweatshirt","steam_id":76561198067883394,"connected_time":317000000000,"state":"active","ping":120},{"user_id":40,"name":"Rodman","steam_id":76561198073532116,"connected_time":296000000000,"state":"active","ping":97},{"user_id":44,"name":"Meh.","steam_id":76561198024380159,"connected_time":32000000000,"state":"spawning","ping":59},{"user_id":45,"name":"-=N=-","steam_id":76561198283331043,"connected_time":12000000000,"state":"spawning","ping":45},{"user_id":38,"name":"King Clapass","steam_id":76561199122315157,"connected_time":523000000000,"state":"active","ping":59}]},{"server_id":396,"name":"Uncletopia | Sydney | 4 | All Maps","name_short":"syd-4","host":"syd-1.au.uncletopia.com","port":27045,"enabled":true,"region":"au","cc":"au","latitude":-33.865143,"longitude":151.2099,"reserved":0,"last_update":"0001-01-01T00:00:00Z","name_a2s":"Uncletopia | Sydney | 4 | All Maps","protocol":17,"map":"koth_viaduct","folder":"tf","game":"Team Fortress","app_id":440,"player_count":0,"max_players":24,"Bots":0,"server_type":"Dedicated","server_os":"Linux","password":true,"vac":true,"version":"7695204","steam_id":85568392925397958,"keywords":["cp","nocrits","nodmgspread","uncletopia"],"game_id":440,"stv_port":27046,"stv_name":"Uncletopia | Sydney | 4 | All Maps | STV","players":null},{"server_id":58,"name":"Uncletopia | Sydney | 5 | No Payload","name_short":"syd-5","host":"syd-1.au.uncletopia.com","port":27055,"enabled":true,"region":"au","cc":"au","latitude":-33.865143,"longitude":151.2099,"reserved":0,"last_update":"0001-01-01T00:00:00Z","name_a2s":"Uncletopia | Sydney | 5 | No Payload","protocol":17,"map":"koth_viaduct","folder":"tf","game":"Team Fortress","app_id":440,"player_count":0,"max_players":24,"Bots":0,"server_type":"Dedicated","server_os":"Linux","password":true,"vac":true,"version":"7695204","steam_id":85568392925397959,"keywords":["cp","nocrits","nodmgspread","uncletopia"],"game_id":440,"stv_port":0,"stv_name":"","players":null},{"server_id":59,"name":"Uncletopia | Sydney | 6 | Community","name_short":"syd-6","host":"syd-1.au.uncletopia.com","port":27065,"enabled":true,"region":"au","cc":"au","latitude":-33.865143,"longitude":151.2099,"reserved":0,"last_update":"0001-01-01T00:00:00Z","name_a2s":"Uncletopia | Sydney | 6 | Community","protocol":17,"map":"workshop/rd_asteroid_redux_rc9.ugc2154902912","folder":"tf","game":"Team Fortress","app_id":440,"player_count":2,"max_players":24,"Bots":0,"server_type":"Dedicated","server_os":"Linux","password":true,"vac":true,"version":"7695204","steam_id":85568392925397960,"keywords":["beta","nocrits","nodmgspread","rd","uncletopia"],"game_id":440,"stv_port":27066,"stv_name":"Uncletopia | Sydney | 6 | Community | STV","players":[{"user_id":18,"name":"starfinder","steam_id":76561199071758773,"connected_time":2409000000000,"state":"active","ping":76},{"user_id":19,"name":"Underrocks","steam_id":76561198134725167,"connected_time":2248000000000,"state":"active","ping":80}]},{"server_id":49,"name":"Uncletopia | Warsaw | 1 | All Maps","name_short":"waw-1","host":"waw-1.pl.uncletopia.com","port":27015,"enabled":true,"region":"eu","cc":"pl","latitude":52.2297,"longitude":21.017532,"reserved":0,"last_update":"0001-01-01T00:00:00Z","name_a2s":"Uncletopia | Warsaw | 1 | All Maps","protocol":17,"map":"cp_altitude","folder":"tf","game":"Team Fortress","app_id":440,"player_count":0,"max_players":24,"Bots":0,"server_type":"Dedicated","server_os":"Linux","password":true,"vac":true,"version":"7695204","steam_id":85568392925397850,"keywords":["cp","nocrits","nodmgspread","uncletopia"],"game_id":440,"stv_port":27016,"stv_name":"Uncletopia | Warsaw | 1 | All Maps | STV","players":null},{"server_id":50,"name":"Uncletopia | Warsaw | 2 | All Maps","name_short":"waw-2","host":"waw-1.pl.uncletopia.com","port":27025,"enabled":true,"region":"eu","cc":"pl","latitude":52.2297,"longitude":21.017532,"reserved":0,"last_update":"0001-01-01T00:00:00Z","name_a2s":"Uncletopia | Warsaw | 2 | All Maps","protocol":17,"map":"cp_altitude","folder":"tf","game":"Team Fortress","app_id":440,"player_count":0,"max_players":24,"Bots":0,"server_type":"Dedicated","server_os":"Linux","password":true,"vac":true,"version":"7695204","steam_id":85568392925397851,"keywords":["cp","nocrits","nodmgspread","uncletopia"],"game_id":440,"stv_port":27026,"stv_name":"Uncletopia | Warsaw | 2 | All Maps | STV","players":null},{"server_id":51,"name":"Uncletopia | Warsaw | 3 | All Maps","name_short":"waw-3","host":"waw-1.pl.uncletopia.com","port":27035,"enabled":true,"region":"eu","cc":"pl","latitude":52.2297,"longitude":21.017532,"reserved":0,"last_update":"0001-01-01T00:00:00Z","name_a2s":"Uncletopia | Warsaw | 3 | All Maps","protocol":17,"map":"koth_lakeside_final","folder":"tf","game":"Team Fortress","app_id":440,"player_count":0,"max_players":24,"Bots":0,"server_type":"Dedicated","server_os":"Linux","password":true,"vac":true,"version":"7695204","steam_id":85568392925397852,"keywords":["cp","nocrits","nodmgspread","uncletopia"],"game_id":440,"stv_port":27036,"stv_name":"Uncletopia | Warsaw | 3 | All Maps | STV","players":null},{"server_id":52,"name":"Uncletopia | Warsaw | 4 | All Maps","name_short":"waw-4","host":"waw-1.pl.uncletopia.com","port":27045,"enabled":true,"region":"eu","cc":"pl","latitude":52.2297,"longitude":21.017532,"reserved":0,"last_update":"0001-01-01T00:00:00Z","name_a2s":"Uncletopia | Warsaw | 4 | All Maps","protocol":17,"map":"pl_borneo","folder":"tf","game":"Team Fortress","app_id":440,"player_count":0,"max_players":24,"Bots":0,"server_type":"Dedicated","server_os":"Linux","password":true,"vac":true,"version":"7695204","steam_id":85568392925397853,"keywords":["nocrits","nodmgspread","payload","uncletopia"],"game_id":440,"stv_port":27046,"stv_name":"Uncletopia | Warsaw | 4 | All Maps | STV","players":null},{"server_id":53,"name":"Uncletopia | Warsaw | 5 | No Payload","name_short":"waw-5","host":"waw-1.pl.uncletopia.com","port":27055,"enabled":true,"region":"eu","cc":"pl","latitude":52.2297,"longitude":21.017532,"reserved":0,"last_update":"0001-01-01T00:00:00Z","name_a2s":"Uncletopia | Warsaw | 5 | No Payload","protocol":17,"map":"koth_highpass","folder":"tf","game":"Team Fortress","app_id":440,"player_count":0,"max_players":24,"Bots":0,"server_type":"Dedicated","server_os":"Linux","password":true,"vac":true,"version":"7695204","steam_id":85568392925397854,"keywords":["cp","nocrits","nodmgspread","uncletopia"],"game_id":440,"stv_port":27056,"stv_name":"Uncletopia | Warsaw | 5 | No Payload | STV","players":null},{"server_id":54,"name":"Uncletopia | Warsaw | 6 | Community","name_short":"waw-6","host":"waw-1.pl.uncletopia.com","port":27065,"enabled":true,"region":"eu","cc":"pl","latitude":52.2297,"longitude":21.017532,"reserved":0,"last_update":"0001-01-01T00:00:00Z","name_a2s":"Uncletopia | Warsaw | 6 | Community","protocol":17,"map":"workshop/koth_product_final.ugc454272353","folder":"tf","game":"Team Fortress","app_id":440,"player_count":0,"max_players":24,"Bots":0,"server_type":"Dedicated","server_os":"Linux","password":true,"vac":true,"version":"7695204","steam_id":85568392925397856,"keywords":["cp","nocrits","nodmgspread","uncletopia"],"game_id":440,"stv_port":27066,"stv_name":"Uncletopia | Warsaw | 6 | Community | STV","players":null}]}