{"status":true,"message":"","result":[{"server_id":9,"name":"Uncletopia | Atlanta | 1 | All Maps","name_short":"atl-1","host":"atl-1.us.uncletopia.com","port":27015,"enabled":true,"region":"us-east","cc":"us","latitude":33.753746,"longitude":-84.38633,"reserved":0,"last_update":"0001-01-01T00:00:00Z","name_a2s":"Uncletopia | Atlanta | 1 | All Maps","protocol":17,"map":"pl_borneo","folder":"tf","game":"Team Fortress","app_id":440,"player_count":24,"max_players":24,"Bots":0,"server_type":"Dedicated","server_os":"Linux","password":true,"vac":true,"version":"7882260","steam_id":85568392924469982,"keywords":["nocrits","nodmgspread","payload","uncletopia"],"game_id":440,"stv_port":27016,"stv_name":"Uncletopia | Atlanta | 1 | All Maps | STV","players":[{"user_id":94,"name":"Uncle Dane Wannabe","steam_id":76561199088646500,"connected_time":2678000000000,"state":"active","ping":97},{"user_id":117,"name":"metalfan666","steam_id":76561198386344068,"connected_time":1404000000000,"state":"active","ping":72},{"user_id":135,"name":"The Provolone ranger","steam_id":76561198115423910,"connected_time":477000000000,"state":"active","ping":82},{"user_id":131,"name":"JackSepticEye","steam_id":76561198398918486,"connected_time":588000000000,"state":"active","ping":65},{"user_id":136,"name":"s71nk3y / Stinky / Apestoso","steam_id":76561198060954715,"connected_time":56000000000,"state":"active","ping":90},{"user_id":115,"name":"your new best friend","steam_id":76561199239926014,"connected_time":1439000000000,"state":"active","ping":69},{"user_id":118,"name":"Shock","steam_id":76561199221742390,"connected_time":1319000000000,"state":"active","ping":92},{"user_id":134,"name":"Nox(She/They)","steam_id":76561198141950842,"connected_time":489000000000,"state":"active","ping":45},{"user_id":128,"name":"Free2Play","steam_id":76561199086909660,"connected_time":719000000000,"state":"active","ping":141},{"user_id":110,"name":"Skinny pete","steam_id":76561198801608576,"connected_time":2200000000000,"state":"active","ping":73},{"user_id":60,"name":"troll","steam_id":76561198040890252,"connected_time":7707000000000,"state":"active","ping":53},{"user_id":120,"name":"RuinLucky","steam_id":76561199481172481,"connected_time":1213000000000,"state":"active","ping":82},{"user_id":121,"name":"Don't Fuckle with Shuckle","steam_id":76561199020102367,"connected_time":1179000000000,"state":"active","ping":89},{"user_id":122,"name":"Usagi","steam_id":76561198072900461,"connected_time":1177000000000,"state":"active","ping":90},{"user_id":133,"name":"AdmiralCrunch","steam_id":76561198117444710,"connected_time":521000000000,"state":"active","ping":48},{"user_id":99,"name":"pip","steam_id":76561198193784201,"connected_time":2639000000000,"state":"active","ping":45},{"user_id":126,"name":"AAAAAAAAAAAAAAAAAAAAAAAAAAAAAAA","steam_id":76561198255787237,"connected_time":735000000000,"state":"active","ping":88},{"user_id":123,"name":"momlover949","steam_id":76561198076693017,"connected_time":1163000000000,"state":"active","ping":105},{"user_id":124,"name":"Mury","steam_id":76561198069743049,"connected_time":1145000000000,"state":"active","ping":86},{"user_id":83,"name":"Voodo133","steam_id":76561198042670351,"connected_time":4373000000000,"state":"active","ping":82},{"user_id":90,"name":"Magma","steam_id":76561198108261173,"connected_time":3275000000000,"state":"active","ping":64},{"user_id":98,"name":"DragonFalcon‚Ñ¢","steam_id":76561198044559930,"connected_time":2662000000000,"state":"active","ping":60},{"user_id":129,"name":"Boop","steam_id":76561198376703875,"connected_time":718000000000,"state":"active","ping":71},{"user_id":109,"name":"DiGiorno's Pizza","steam_id":76561198142244035,"connected_time":2270000000000,"state":"active","ping":74}]},{"server_id":104,"name":"Uncletopia | Atlanta | 2 | All Maps","name_short":"atl-2","host":"atl-1.us.uncletopia.com","port":27025,"enabled":true,"region":"us-east","cc":"us","latitude":33.753746,"longitude":-84.38633,"reserved":0,"last_update":"0001-01-01T00:00:00Z","name_a2s":"Uncletopia | Atlanta | 2 | All Maps","protocol":17,"map":"pl_frontier_final","folder":"tf","game":"Team Fortress","app_id":440,"player_count":0,"max_players":24,"Bots":0,"server_type":"Dedicated","server_os":"Linux","password":true,"vac":true,"version":"7882260","steam_id":85568392924469983,"keywords":["nocrits","nodmgspread","payload","uncletopia"],"game_id":440,"stv_port":27026,"stv_name":"Uncletopia | Atlanta | 2 | All Maps | STV","players":null},{"server_id":400,"name":"Uncletopia | Atlanta | 3 | Community","name_short":"atl-3","host":"atl-1.us.uncletopia.com","port":27035,"enabled":true,"region":"us-east","cc":"us","latitude":33.753746,"longitude":-84.38633,"reserved":0,"last_update":"0001-01-01T00:00:00Z","name_a2s":"Uncletopia | Atlanta | 3 | Community","protocol":17,"map":"pl_borneo","folder":"tf","game":"Team Fortress","app_id":440,"player_count":0,"max_players":24,"Bots":0,"server_type":"Dedicated","server_os":"Linux","password":true,"vac":true,"version":"7882260","steam_id":85568392924515187,"keywords":["nocrits","nodmgspread","payload","uncletopia"],"game_id":440,"stv_port":27036,"stv_name":"Uncletopia | Atlanta | 3 | Community | STV","players":null},{"server_id":401,"name":"Uncletopia | Atlanta | 4 | No Payload","name_short":"atl-4","host":"atl-1.us.uncletopia.com","port":27045,"enabled":true,"region":"us-east","cc":"us","latitude":33.753746,"longitude":-84.38633,"reserved":0,"last_update":"0001-01-01T00:00:00Z","name_a2s":"","protocol":0,"map":"","folder":"","game":"","app_id":0,"player_count":0,"max_players":0,"Bots":0,"server_type":"","server_os":"","password":false,"vac":false,"version":"","steam_id":0,"keywords":null,"game_id":0,"stv_port":0,"stv_name":"","players":null},{"server_id":2,"name":"Uncletopia | Chicago | 1 | All Maps","name_short":"chi-1","host":"chi-1.us.uncletopia.com","port":27015,"enabled":true,"region":"us-central","cc":"us","latitude":41.881832,"longitude":-87.62318,"reserved":0,"last_update":"0001-01-01T00:00:00Z","name_a2s":"Uncletopia | Chicago | 1 | All Maps","protocol":17,"map":"pl_goldrush","folder":"tf","game":"Team Fortress","app_id":440,"player_count":24,"max_players":24,"Bots":0,"server_type":"Dedicated","server_os":"Linux","password":true,"vac":true,"version":"7882260","steam_id":85568392924469984,"keywords":["nocrits","nodmgspread","payload","uncletopia"],"game_id":440,"stv_port":27016,"stv_name":"Uncletopia | Chicago | 1 | All Maps | STV","players":[{"user_id":115,"name":"viagra addict","steam_id":76561198017705248,"connected_time":6262000000000,"state":"active","ping":45},{"user_id":140,"name":"Totally not CIA","steam_id":76561198237827742,"connected_time":3639000000000,"state":"active","ping":61},{"user_id":176,"name":"AES","steam_id":76561198035648501,"connected_time":927000000000,"state":"active","ping":86},{"user_id":135,"name":"‚ô• kiss me! ‚ô•","steam_id":76561198014557455,"connected_time":4291000000000,"state":"active","ping":53},{"user_id":172,"name":"‚õßelly bell‚õß","steam_id":76561198117032513,"connected_time":1048000000000,"state":"active","ping":97},{"user_id":187,"name":"the silly","steam_id":76561198850632709,"connected_time":121000000000,"state":"active","ping":81},{"user_id":127,"name":"elyktsorb","steam_id":76561198158964488,"connected_time":5162000000000,"state":"active","ping":58},{"user_id":181,"name":"MrChaosOK","steam_id":76561197976353083,"connected_time":761000000000,"state":"active","ping":108},{"user_id":166,"name":"Nic0","steam_id":76561198305690218,"connected_time":1839000000000,"state":"active","ping":63},{"user_id":170,"name":"Epicmullen","steam_id":76561198259850795,"connected_time":1069000000000,"state":"active","ping":70},{"user_id":182,"name":"nickname","steam_id":76561198170381402,"connected_time":748000000000,"state":"active","ping":57},{"user_id":167,"name":"Maverick","steam_id":76561198322829814,"connected_time":1814000000000,"state":"active","ping":84},{"user_id":162,"name":"capybara(happy womens month)","steam_id":76561198798828328,"connected_time":2131000000000,"state":"active","ping":49},{"user_id":158,"name":"sinisterMayo","steam_id":76561198087244649,"connected_time":2269000000000,"state":"active","ping":73},{"user_id":179,"name":"Wu Wei","steam_id":76561198128249535,"connected_time":832000000000,"state":"active","ping":96},{"user_id":152,"name":"Maple","steam_id":76561198140401872,"connected_time":2904000000000,"state":"active","ping":176},{"user_id":178,"name":"blossom","steam_id":76561198042735130,"connected_time":884000000000,"state":"active","ping":108},{"user_id":175,"name":"Cupidmeh","steam_id":76561198138669654,"connected_time":944000000000,"state":"active","ping":71},{"user_id":186,"name":"Chestnut","steam_id":76561198078198968,"connected_time":173000000000,"state":"active","ping":64},{"user_id":183,"name":"yomommasabitch","steam_id":76561198323217150,"connected_time":694000000000,"state":"active","ping":68},{"user_id":177,"name":"*‚ÄßÀökitsu  ö‚ô•…û","steam_id":76561198091741658,"connected_time":899000000000,"state":"active","ping":75},{"user_id":185,"name":"Whorse","steam_id":76561198114141445,"connected_time":306000000000,"state":"active","ping":69},{"user_id":171,"name":"Draconic Ballad","steam_id":76561198027191515,"connected_time":1069000000000,"state":"active","ping":57}]},{"server_id":106,"name":"Uncletopia | Chicago | 2 | All Maps","name_short":"chi-2","host":"chi-1.us.uncletopia.com","port":27025,"enabled":true,"region":"us-central","cc":"us","latitude":41.881832,"longitude":-87.62318,"reserved":0,"last_update":"0001-01-01T00:00:00Z","name_a2s":"Uncletopia | Chicago | 2 | All Maps","protocol":17,"map":"pl_barnblitz","folder":"tf","game":"Team Fortress","app_id":440,"player_count":24,"max_players":24,"Bots":0,"server_type":"Dedicated","server_os":"Linux","password":true,"vac":true,"version":"7882260","steam_id":85568392924469985,"keywords":["nocrits","nodmgspread","payload","uncletopia"],"game_id":440,"stv_port":27026,"stv_name":"Uncletopia | Chicago | 2 | All Maps | STV","players":[{"user_id":11,"name":"Dante","steam_id":76561198798234838,"connected_time":3038000000000,"state":"active","ping":106},{"user_id":9,"name":"Fablor","steam_id":76561198175644926,"connected_time":3194000000000,"state":"active","ping":109},{"user_id":43,"name":"maxie","steam_id":76561198043145751,"connected_time":1758000000000,"state":"active","ping":63},{"user_id":15,"name":"Dr. Tropen","steam_id":76561198405271669,"connected_time":2751000000000,"state":"active","ping":94},{"user_id":51,"name":"Saschuh","steam_id":76561198202188972,"connected_time":851000000000,"state":"active","ping":69},{"user_id":42,"name":"MidSobbes08","steam_id":76561199013101925,"connected_time":1766000000000,"state":"active","ping":100},{"user_id":55,"name":"ThatOneKnight","steam_id":76561198388583650,"connected_time":717000000000,"state":"active","ping":57},{"user_id":56,"name":"dmdr1969","steam_id":76561198080469611,"connected_time":688000000000,"state":"active","ping":71},{"user_id":47,"name":"Alecto","steam_id":76561198042476864,"connected_time":1530000000000,"state":"active","ping":49},{"user_id":61,"name":"his largeness","steam_id":76561197977182378,"connected_time":222000000000,"state":"active","ping":48},{"user_id":62,"name":"Cruisin'","steam_id":76561199245457119,"connected_time":176000000000,"state":"active","ping":75},{"user_id":23,"name":"brainboggler 2","steam_id":76561198000158531,"connected_time":2467000000000,"state":"active","ping":87},{"user_id":53,"name":"fifteen22","steam_id":76561198138781868,"connected_time":798000000000,"state":"active","ping":72},{"user_id":64,"name":"EmeraldCola","steam_id":76561198066663687,"connected_time":17000000000,"state":"active","ping":442},{"user_id":48,"name":"ScaryTree","steam_id":76561199384362833,"connected_time":1518000000000,"state":"active","ping":136},{"user_id":60,"name":"Batman in one piece","steam_id":76561199129969202,"connected_time":304000000000,"state":"active","ping":83},{"user_id":28,"name":"teybob","steam_id":76561198042620016,"connected_time":2140000000000,"state":"active","ping":73},{"user_id":29,"name":"a narwhal","steam_id":76561198014527353,"connected_time":2132000000000,"state":"active","ping":80},{"user_id":54,"name":"Kangg","steam_id":76561198260554029,"connected_time":751000000000,"state":"active","ping":72},{"user_id":57,"name":"Gingy","steam_id":76561198024301169,"connected_time":667000000000,"state":"active","ping":70},{"user_id":58,"name":"chippy","steam_id":76561198089779022,"connected_time":640000000000,"state":"active","ping":86},{"user_id":35,"name":"adda","steam_id":76561198309013410,"connected_time":2003000000000,"state":"active","ping":85},{"user_id":38,"name":"Still Alive","steam_id":76561198042523000,"connected_time":1926000000000,"state":"active","ping":59},{"user_id":59,"name":"Loser","steam_id":76561198069102514,"connected_time":634000000000,"state":"active","ping":124}]},{"server_id":402,"name":"Uncletopia | Chicago | 3 | All Maps","name_short":"chi-3","host":"chi-1.us.uncletopia.com","port":27035,"enabled":true,"region":"us-central","cc":"us","latitude":41.881832,"longitude":-87.62318,"reserved":0,"last_update":"0001-01-01T00:00:00Z","name_a2s":"Uncletopia | Chicago | 3 | All Maps","protocol":17,"map":"pl_snowycoast","folder":"tf","game":"Team Fortress","app_id":440,"player_count":24,"max_players":24,"Bots":0,"server_type":"Dedicated","server_os":"Linux","password":true,"vac":true,"version":"7882260","steam_id":85568392924515191,"keywords":["nocrits","nodmgspread","payload","uncletopia"],"game_id":440,"stv_port":27036,"stv_name":"Uncletopia | Chicago | 3 | All Maps | STV","players":[{"user_id":92,"name":"Sarah","steam_id":76561199013702818,"connected_time":2069000000000,"state":"active","ping":164},{"user_id":119,"name":"cow","steam_id":76561198117331762,"connected_time":212000000000,"state":"active","ping":46},{"user_id":113,"name":"Fudge_Cake","steam_id":76561198059218167,"connected_time":896000000000,"state":"active","ping":60},{"user_id":118,"name":"nes","steam_id":76561199014734694,"connected_time":240000000000,"state":"active","ping":94},{"user_id":120,"name":"Poppet","steam_id":76561198012301951,"connected_time":203000000000,"state":"active","ping":60},{"user_id":49,"name":"ü§®","steam_id":76561199365672047,"connected_time":5365000000000,"state":"active","ping":84},{"user_id":58,"name":"lucky","steam_id":76561198323426623,"connected_time":4720000000000,"state":"active","ping":97},{"user_id":24,"name":"aisu","steam_id":76561198043768507,"connected_time":6286000000000,"state":"active","ping":66},{"user_id":102,"name":"Ripheart","steam_id":76561198089661561,"connected_time":1488000000000,"state":"active","ping":48},{"user_id":99,"name":"Cassini","steam_id":76561198318526294,"connected_time":1825000000000,"state":"active","ping":60},{"user_id":79,"name":"Triples_","steam_id":76561198094249561,"connected_time":3026000000000,"state":"active","ping":55},{"user_id":121,"name":"super clickteam fusion","steam_id":76561198275101482,"connected_time":116000000000,"state":"active","ping":328},{"user_id":100,"name":"Mecha","steam_id":76561198014927379,"connected_time":1762000000000,"state":"active","ping":77},{"user_id":114,"name":"Begrip","steam_id":76561198091990094,"connected_time":862000000000,"state":"active","ping":69},{"user_id":103,"name":"to sem ideia #savetf2","steam_id":76561199052177486,"connected_time":1485000000000,"state":"active","ping":176},{"user_id":106,"name":"AceDeuce","steam_id":76561198049904924,"connected_time":1373000000000,"state":"active","ping":57},{"user_id":104,"name":"Mr Nep Nep","steam_id":76561198198179821,"connected_time":1464000000000,"state":"active","ping":100},{"user_id":107,"name":"ROGRAR","steam_id":76561198967082529,"connected_time":1350000000000,"state":"active","ping":140},{"user_id":91,"name":"Boo-womp","steam_id":76561198082593038,"connected_time":2082000000000,"state":"active","ping":86},{"user_id":115,"name":"shakoiwa","steam_id":76561199059441773,"connected_time":470000000000,"state":"active","ping":125},{"user_id":112,"name":"skap","steam_id":76561199219790713,"connected_time":1072000000000,"state":"active","ping":65},{"user_id":116,"name":"Welrod Gaming","steam_id":76561198439201906,"connected_time":388000000000,"state":"active","ping":81},{"user_id":89,"name":"Lovedaddy","steam_id":76561198006569710,"connected_time":2163000000000,"state":"active","ping":82},{"user_id":76,"name":"feenman","steam_id":76561199383834799,"connected_time":3290000000000,"state":"active","ping":99}]},{"server_id":403,"name":"Uncletopia | Chicago | 4 | All Maps","name_short":"chi-4","host":"chi-1.us.uncletopia.com","port":27045,"enabled":true,"region":"us-central","cc":"us","latitude":41.881832,"longitude":-87.62318,"reserved":0,"last_update":"0001-01-01T00:00:00Z","name_a2s":"Uncletopia | Chicago | 4 | All Maps","protocol":17,"map":"koth_lakeside_final","folder":"tf","game":"Team Fortress","app_id":440,"player_count":0,"max_players":24,"Bots":0,"server_type":"Dedicated","server_os":"Linux","password":true,"vac":true,"version":"7882260","steam_id":85568392924515193,"keywords":["cp","nocrits","nodmgspread","uncletopia"],"game_id":440,"stv_port":27046,"stv_name":"Uncletopia | Chicago | 4 | All Maps | STV","players":null},{"server_id":36,"name":"Uncletopia | Chicago | 5 | All Maps","name_short":"chi-5","host":"chi-2.us.uncletopia.com","port":27015,"enabled":true,"region":"us-central","cc":"us","latitude":41.881832,"longitude":-87.62318,"reserved":0,"last_update":"0001-01-01T00:00:00Z","name_a2s":"Uncletopia | Chicago | 5 | All Maps","protocol":17,"map":"cp_dustbowl","folder":"tf","game":"Team Fortress","app_id":440,"player_count":0,"max_players":24,"Bots":0,"server_type":"Dedicated","server_os":"Linux","password":true,"vac":true,"version":"7882260","steam_id":85568392924866362,"keywords":["cp","nocrits","nodmgspread","uncletopia"],"game_id":440,"stv_port":27016,"stv_name":"Uncletopia | Chicago | 5 | All Maps | STV","players":null},{"server_id":37,"name":"Uncletopia | Chicago | 6 | All Maps","name_short":"chi-6","host":"chi-2.us.uncletopia.com","port":27025,"enabled":true,"region":"us-central","cc":"us","latitude":41.881832,"longitude":-87.62318,"reserved":0,"last_update":"0001-01-01T00:00:00Z","name_a2s":"Uncletopia | Chicago | 6 | All Maps","protocol":17,"map":"cp_altitude","folder":"tf","game":"Team Fortress","app_id":440,"player_count":0,"max_players":24,"Bots":0,"server_type":"Dedicated","server_os":"Linux","password":true,"vac":true,"version":"7882260","steam_id":85568392924866363,"keywords":["cp","nocrits","nodmgspread","uncletopia"],"game_id":440,"stv_port":27026,"stv_name":"Uncletopia | Chicago | 6 | All Maps | STV","players":null},{"server_id":38,"name":"Uncletopia | Chicago | 7 | Stopwatch Beta","name_short":"chi-7","host":"chi-2.us.uncletopia.com","port":27035,"enabled":true,"region":"us-central","cc":"us","latitude":41.881832,"longitude":-87.62318,"reserved":0,"last_update":"0001-01-01T00:00:00Z","name_a2s":"Uncletopia | Chicago | 7 | Stopwatch Beta","protocol":17,"map":"pl_upward","folder":"tf","game":"Team Fortress","app_id":440,"player_count":0,"max_players":24,"Bots":0,"server_type":"Dedicated","server_os":"Linux","password":true,"vac":true,"version":"7882260","steam_id":85568392924866364,"keywords":["nocrits","nodmgspread","payload","uncletopia"],"game_id":440,"stv_port":27036,"stv_name":"Uncletopia | Chicago | 7 | Stopwatch Beta | STV","players":null},{"server_id":39,"name":"Uncletopia | Chicago | 8 | Community","name_short":"chi-8","host":"chi-2.us.uncletopia.com","port":27045,"enabled":true,"region":"us-central","cc":"us","latitude":41.881832,"longitude":-87.62318,"reserved":0,"last_update":"0001-01-01T00:00:00Z","name_a2s":"Uncletopia | Chicago | 8 | Community","protocol":17,"map":"workshop/cp_glassworks_rc6a.ugc454118349","folder":"tf","game":"Team Fortress","app_id":440,"player_count":0,"max_players":24,"Bots":0,"server_type":"Dedicated","server_os":"Linux","password":true,"vac":true,"version":"7882260","steam_id":85568392924866365,"keywords":["cp","nocrits","nodmgspread","uncletopia"],"game_id":440,"stv_port":27046,"stv_name":"Uncletopia | Chicago | 8 | Community | STV","players":null},{"server_id":8,"name":"Uncletopia | Dallas | 1 | All Maps","name_short":"dal-1","host":"dal-1.us.uncletopia.com","port":27015,"enabled":true,"region":"us-central","cc":"us","latitude":32.779167,"longitude":-96.80889,"reserved":0,"last_update":"0001-01-01T00:00:00Z","name_a2s":"Uncletopia | Dallas | 1 | All Maps","protocol":17,"map":"koth_viaduct","folder":"tf","game":"Team Fortress","app_id":440,"player_count":1,"max_players":24,"Bots":0,"server_type":"Dedicated","server_os":"Linux","password":true,"vac":true,"version":"7882260","steam_id":85568392924469986,"keywords":["cp","nocrits","nodmgspread","uncletopia"],"game_id":440,"stv_port":27016,"stv_name":"Uncletopia | Dallas | 1 | All Maps | STV","players":[{"user_id":15,"name":"jimmy cerlok mge sex master","steam_id":76561197979090955,"connected_time":14000000000,"state":"active","ping":65}]},{"server_id":108,"name":"Uncletopia | Dallas | 2 | All Maps","name_short":"dal-2","host":"dal-1.us.uncletopia.com","port":27025,"enabled":true,"region":"us-central","cc":"us","latitude":32.779167,"longitude":-96.80889,"reserved":0,"last_update":"0001-01-01T00:00:00Z","name_a2s":"Uncletopia | Dallas | 2 | All Maps","protocol":17,"map":"cp_snakewater_final1","folder":"tf","game":"Team Fortress","app_id":440,"player_count":0,"max_players":24,"Bots":0,"server_type":"Dedicated","server_os":"Linux","password":true,"vac":true,"version":"7882260","steam_id":85568392924469988,"keywords":["cp","nocrits","nodmgspread","uncletopia"],"game_id":440,"stv_port":27026,"stv_name":"Uncletopia | Dallas | 2 | All Maps | STV","players":null},{"server_id":5,"name":"Uncletopia | Frankfurt | 1 | All Maps","name_short":"frk-1","host":"frk-1.de.uncletopia.com","port":27015,"enabled":true,"region":"eu","cc":"de","latitude":50.110924,"longitude":8.682127,"reserved":0,"last_update":"0001-01-01T00:00:00Z","name_a2s":"Uncletopia | Frankfurt | 1 | All Maps","protocol":17,"map":"pl_snowycoast","folder":"tf","game":"Team Fortress","app_id":440,"player_count":22,"max_players":24,"Bots":0,"server_type":"Dedicated","server_os":"Linux","password":true,"vac":true,"version":"7882260","steam_id":85568392924469989,"keywords":["nocrits","nodmgspread","payload","uncletopia"],"game_id":440,"stv_port":27016,"stv_name":"Uncletopia | Frankfurt | 1 | All Maps | STV","players":[{"user_id":206,"name":"cosmetical","steam_id":76561198444036574,"connected_time":81000000000,"state":"active","ping":61},{"user_id":209,"name":"OfficalBalloony459","steam_id":76561199105256327,"connected_time":0,"state":"spawning","ping":71},{"user_id":180,"name":"Zeta","steam_id":76561198101917105,"connected_time":1772000000000,"state":"active","ping":161},{"user_id":182,"name":"kam1x.","steam_id":76561199116494921,"connected_time":1729000000000,"state":"active","ping":70},{"user_id":199,"name":"Haha?","steam_id":76561198056882245,"connected_time":416000000000,"state":"active","ping":52},{"user_id":207,"name":"Oriuke","steam_id":76561197992166123,"connected_time":36000000000,"state":"active","ping":58},{"user_id":179,"name":"Salabombo","steam_id":76561198127765356,"connected_time":2016000000000,"state":"active","ping":112},{"user_id":191,"name":"gegit08","steam_id":76561199040010283,"connected_time":1203000000000,"state":"active","ping":77},{"user_id":200,"name":"manKe","steam_id":76561198008564860,"connected_time":373000000000,"state":"active","ping":50},{"user_id":197,"name":"Homeless (Len)","steam_id":76561198111144783,"connected_time":610000000000,"state":"active","ping":77},{"user_id":189,"name":"vdl","steam_id":76561198044583116,"connected_time":1480000000000,"state":"active","ping":92},{"user_id":203,"name":"stepbro","steam_id":76561198119607160,"connected_time":233000000000,"state":"active","ping":67},{"user_id":205,"name":"Wyro","steam_id":76561199176835169,"connected_time":143000000000,"state":"active","ping":68},{"user_id":158,"name":"Mr.Bee","steam_id":76561198986621220,"connected_time":2657000000000,"state":"active","ping":177},{"user_id":208,"name":"Milk","steam_id":76561198125876588,"connected_time":17000000000,"state":"active","ping":56},{"user_id":119,"name":"Cars","steam_id":76561198173329977,"connected_time":5662000000000,"state":"active","ping":62},{"user_id":123,"name":"Philosophos_Alpha","steam_id":76561198951264580,"connected_time":5381000000000,"state":"active","ping":103},{"user_id":192,"name":"Ketich","steam_id":76561198021772703,"connected_time":1057000000000,"state":"active","ping":73},{"user_id":131,"name":"avenje","steam_id":76561198155824845,"connected_time":4609000000000,"state":"active","ping":56},{"user_id":142,"name":"Zmora","steam_id":76561199057422095,"connected_time":3444000000000,"state":"active","ping":70},{"user_id":118,"name":"mook","steam_id":76561198175543442,"connected_time":5709000000000,"state":"active","ping":69},{"user_id":145,"name":"AleXandriX","steam_id":76561198035203950,"connected_time":3402000000000,"state":"active","ping":58}]},{"server_id":110,"name":"Uncletopia | Frankfurt | 2 | All Maps","name_short":"frk-2","host":"frk-1.de.uncletopia.com","port":27025,"enabled":true,"region":"eu","cc":"de","latitude":50.110924,"longitude":8.682127,"reserved":0,"last_update":"0001-01-01T00:00:00Z","name_a2s":"Uncletopia | Frankfurt | 2 | All Maps","protocol":17,"map":"pl_frontier_final","folder":"tf","game":"Team Fortress","app_id":440,"player_count":0,"max_players":24,"Bots":0,"server_type":"Dedicated","server_os":"Linux","password":true,"vac":true,"version":"7882260","steam_id":85568392924469990,"keywords":["nocrits","nodmgspread","payload","uncletopia"],"game_id":440,"stv_port":27026,"stv_name":"Uncletopia | Frankfurt | 2 | All Maps | STV","players":null},{"server_id":308,"name":"Uncletopia | Frankfurt | 3 | All Maps","name_short":"frk-3","host":"frk-1.de.uncletopia.com","port":27035,"enabled":true,"region":"eu","cc":"de","latitude":50.110924,"longitude":8.682127,"reserved":0,"last_update":"0001-01-01T00:00:00Z","name_a2s":"Uncletopia | Frankfurt | 3 | All Maps","protocol":17,"map":"pl_borneo","folder":"tf","game":"Team Fortress","app_id":440,"player_count":23,"max_players":24,"Bots":0,"server_type":"Dedicated","server_os":"Linux","password":true,"vac":true,"version":"7882260","steam_id":85568392924504274,"keywords":["nocrits","nodmgspread","payload","uncletopia"],"game_id":440,"stv_port":27036,"stv_name":"Uncletopia | Frankfurt | 3 | All Maps | STV","players":[{"user_id":29,"name":"Erradicus666","steam_id":76561199123580055,"connected_time":427000000000,"state":"active","ping":151},{"user_id":7,"name":"Niels","steam_id":76561198285033328,"connected_time":1826000000000,"state":"active","ping":59},{"user_id":36,"name":"OlkiSoup","steam_id":76561199209805904,"connected_time":241000000000,"state":"active","ping":77},{"user_id":11,"name":"Von Leining","steam_id":76561198859983504,"connected_time":1144000000000,"state":"active","ping":59},{"user_id":10,"name":"[P-roc] Cmm Bert","steam_id":76561198016658674,"connected_time":1157000000000,"state":"active","ping":68},{"user_id":16,"name":"ƒêesmond","steam_id":76561198097676225,"connected_time":766000000000,"state":"active","ping":62},{"user_id":34,"name":"Komorebi","steam_id":76561198207157679,"connected_time":307000000000,"state":"active","ping":58},{"user_id":14,"name":"Fired","steam_id":76561198054511813,"connected_time":844000000000,"state":"active","ping":69},{"user_id":32,"name":"you are sus","steam_id":76561199291362833,"connected_time":390000000000,"state":"active","ping":98},{"user_id":19,"name":"icy_spicy","steam_id":76561199481524657,"connected_time":598000000000,"state":"active","ping":46},{"user_id":28,"name":"limbicsystem","steam_id":76561198025612680,"connected_time":467000000000,"state":"active","ping":70},{"user_id":21,"name":"mumbler","steam_id":76561197970641239,"connected_time":584000000000,"state":"active","ping":47},{"user_id":22,"name":"That One Chicken","steam_id":76561199037423029,"connected_time":518000000000,"state":"active","ping":148},{"user_id":33,"name":"Sandvich","steam_id":76561199079493666,"connected_time":330000000000,"state":"active","ping":88},{"user_id":24,"name":"h4cked by floyd...","steam_id":76561198382823452,"connected_time":504000000000,"state":"active","ping":111},{"user_id":25,"name":"froglids","steam_id":76561198045466919,"connected_time":503000000000,"state":"active","ping":61},{"user_id":26,"name":"lad","steam_id":76561198180630257,"connected_time":500000000000,"state":"active","ping":90},{"user_id":27,"name":"syph","steam_id":76561198119562182,"connected_time":491000000000,"state":"active","ping":103},{"user_id":37,"name":"Guwop","steam_id":76561197970425737,"connected_time":240000000000,"state":"active","ping":164},{"user_id":38,"name":"Myrmodion","steam_id":76561198054746247,"connected_time":121000000000,"state":"active","ping":66},{"user_id":39,"name":"xiiski","steam_id":76561198152387747,"connected_time":108000000000,"state":"active","ping":99},{"user_id":40,"name":"cloudtown","steam_id":76561198111134021,"connected_time":56000000000,"state":"active","ping":108},{"user_id":41,"name":"Lukas","steam_id":76561198009118452,"connected_time":52000000000,"state":"active","ping":56}]},{"server_id":309,"name":"Uncletopia | Frankfurt | 4 | All Maps","name_short":"frk-4","host":"frk-1.de.uncletopia.com","port":27045,"enabled":true,"region":"eu","cc":"de","latitude":50.110924,"longitude":8.682127,"reserved":0,"last_update":"0001-01-01T00:00:00Z","name_a2s":"Uncletopia | Frankfurt | 4 | All Maps","protocol":17,"map":"pl_swiftwater_final1","folder":"tf","game":"Team Fortress","app_id":440,"player_count":1,"max_players":24,"Bots":0,"server_type":"Dedicated","server_os":"Linux","password":true,"vac":true,"version":"7882260","steam_id":85568392924504275,"keywords":["nocrits","nodmgspread","payload","uncletopia"],"game_id":440,"stv_port":27046,"stv_name":"Uncletopia | Frankfurt | 4 | All Maps | STV","players":[{"user_id":5,"name":"DeterminedXD[HUN]","steam_id":76561199469006453,"connected_time":168000000000,"state":"active","ping":87}]},{"server_id":310,"name":"Uncletopia | Frankfurt | 5 | All Maps","name_short":"frk-5","host":"frk-1.de.uncletopia.com","port":27055,"enabled":true,"region":"eu","cc":"de","latitude":50.110924,"longitude":8.682127,"reserved":0,"last_update":"0001-01-01T00:00:00Z","name_a2s":"Uncletopia | Frankfurt | 5 | All Maps","protocol":17,"map":"cp_snakewater_final1","folder":"tf","game":"Team Fortress","app_id":440,"player_count":0,"max_players":24,"Bots":0,"server_type":"Dedicated","server_os":"Linux","password":true,"vac":true,"version":"7882260","steam_id":85568392924504277,"keywords":["cp","nocrits","nodmgspread","uncletopia"],"game_id":440,"stv_port":27056,"stv_name":"Uncletopia | Frankfurt | 5 | All Maps | STV","players":null},{"server_id":311,"name":"Uncletopia | Frankfurt | 6 | All Maps","name_short":"frk-6","host":"frk-1.de.uncletopia.com","port":27065,"enabled":true,"region":"eu","cc":"de","latitude":50.110924,"longitude":8.682127,"reserved":0,"last_update":"0001-01-01T00:00:00Z","name_a2s":"Uncletopia | Frankfurt | 6 | All Maps","protocol":17,"map":"koth_lakeside_final","folder":"tf","game":"Team Fortress","app_id":440,"player_count":0,"max_players":24,"Bots":0,"server_type":"Dedicated","server_os":"Linux","password":true,"vac":true,"version":"7882260","steam_id":85568392924504278,"keywords":["cp","nocrits","nodmgspread","uncletopia"],"game_id":440,"stv_port":27066,"stv_name":"Uncletopia | Frankfurt | 6 | All Maps | STV","players":null},{"server_id":23,"name":"Uncletopia | Frankfurt | 7 | Stopwatch Beta","name_short":"frk-7","host":"frk-1.de.uncletopia.com","port":27075,"enabled":true,"region":"eu","cc":"de","latitude":50.110924,"longitude":8.682127,"reserved":0,"last_update":"0001-01-01T00:00:00Z","name_a2s":"Uncletopia | Frankfurt | 7 | Stopwatch Beta","protocol":17,"map":"workshop/pl_barnblitz_pro7.ugc582280235","folder":"tf","game":"Team Fortress","app_id":440,"player_count":0,"max_players":24,"Bots":0,"server_type":"Dedicated","server_os":"Linux","password":true,"vac":true,"version":"7882260","steam_id":85568392924742827,"keywords":["nocrits","nodmgspread","payload","uncletopia"],"game_id":440,"stv_port":27076,"stv_name":"Uncletopia | Frankfurt | 7 | Stopwatch Beta | STV","players":null},{"server_id":24,"name":"Uncletopia | Frankfurt | 8 | Community","name_short":"frk-8","host":"frk-1.de.uncletopia.com","port":27085,"enabled":true,"region":"eu","cc":"de","latitude":50.110924,"longitude":8.682127,"reserved":0,"last_update":"0001-01-01T00:00:00Z","name_a2s":"Uncletopia | Frankfurt | 8 | Community","protocol":17,"map":"cp_mountainlab","folder":"tf","game":"Team Fortress","app_id":440,"player_count":0,"max_players":24,"Bots":0,"server_type":"Dedicated","server_os":"Linux","password":true,"vac":true,"version":"7882260","steam_id":85568392924742828,"keywords":["cp","nocrits","nodmgspread","uncletopia"],"game_id":440,"stv_port":27086,"stv_name":"Uncletopia | Frankfurt | 8 | Community | STV","players":null},{"server_id":202,"name":"Uncletopia | Hong Kong | 1 | All Maps","name_short":"hgk-1","host":"hgk-1.hk.uncletopia.com","port":27015,"enabled":true,"region":"asia","cc":"hk","latitude":22.302711,"longitude":114.177216,"reserved":0,"last_update":"0001-01-01T00:00:00Z","name_a2s":"Uncletopia | Hong Kong | 1 | All Maps","protocol":17,"map":"pl_borneo","folder":"tf","game":"Team Fortress","app_id":440,"player_count":24,"max_players":24,"Bots":0,"server_type":"Dedicated","server_os":"Linux","password":true,"vac":true,"version":"7882260","steam_id":85568392924494504,"keywords":["nocrits","nodmgspread","payload","uncletopia"],"game_id":440,"stv_port":27016,"stv_name":"Uncletopia | Hong Kong | 1 | All Maps | STV","players":[{"user_id":508,"name":"Othopeus","steam_id":76561198283534382,"connected_time":2049000000000,"state":"active","ping":63},{"user_id":470,"name":"ÊØç„ÅÆËÇâÂõ£Â≠ê@hao123.com","steam_id":76561198069561896,"connected_time":2697000000000,"state":"active","ping":44},{"user_id":518,"name":"jose2007 (f2p)","steam_id":76561199078232042,"connected_time":298000000000,"state":"active","ping":107},{"user_id":510,"name":"„Åµ„Çè„Åµ„ÇèÊØõÂ∏É","steam_id":76561198088403016,"connected_time":1366000000000,"state":"active","ping":92},{"user_id":460,"name":"GAMA","steam_id":76561198049755630,"connected_time":5089000000000,"state":"active","ping":95},{"user_id":408,"name":"cstr","steam_id":76561198125946388,"connected_time":6724000000000,"state":"active","ping":96},{"user_id":428,"name":"Ïø†ÌÇ§","steam_id":76561197997220367,"connected_time":6300000000000,"state":"active","ping":54},{"user_id":473,"name":"H·∫±ng Ra ƒë∆°","steam_id":76561199373637717,"connected_time":2689000000000,"state":"active","ping":60},{"user_id":429,"name":"tiden2000","steam_id":76561198092969425,"connected_time":6260000000000,"state":"active","ping":120},{"user_id":311,"name":"Milf (The fan O'Milk)","steam_id":76561198213031155,"connected_time":8322000000000,"state":"active","ping":93},{"user_id":483,"name":"NootNoot","steam_id":76561199122109977,"connected_time":2593000000000,"state":"active","ping":75},{"user_id":515,"name":"Momoxhien","steam_id":76561198414997429,"connected_time":572000000000,"state":"active","ping":62},{"user_id":509,"name":"r/sinkpissers","steam_id":76561198413116920,"connected_time":1380000000000,"state":"active","ping":75},{"user_id":517,"name":"P","steam_id":76561198304514505,"connected_time":489000000000,"state":"active","ping":77},{"user_id":512,"name":"domjni","steam_id":76561198287931508,"connected_time":799000000000,"state":"active","ping":63},{"user_id":404,"name":"nyakky","steam_id":76561198927779787,"connected_time":6842000000000,"state":"active","ping":92},{"user_id":437,"name":"silverhouse7","steam_id":76561198349634906,"connected_time":6175000000000,"state":"active","ping":94},{"user_id":477,"name":"709394","steam_id":76561198058389122,"connected_time":2669000000000,"state":"active","ping":67},{"user_id":514,"name":"Samoyed","steam_id":76561198299150410,"connected_time":670000000000,"state":"active","ping":102},{"user_id":481,"name":"\"CBT Enjoyer\"","steam_id":76561199058105528,"connected_time":2638000000000,"state":"active","ping":122},{"user_id":486,"name":"TheChainsaw","steam_id":76561198312001455,"connected_time":2502000000000,"state":"active","ping":116},{"user_id":442,"name":"Cornelius Cuntwad","steam_id":76561199122491157,"connected_time":5633000000000,"state":"active","ping":82},{"user_id":480,"name":"1203231567","steam_id":76561198813103989,"connected_time":2649000000000,"state":"active","ping":82},{"user_id":468,"name":"Drutzhfer","steam_id":76561198299948446,"connected_time":2706000000000,"state":"active","ping":107}]},{"server_id":1,"name":"Uncletopia | Los Angeles | 1 | All Maps","name_short":"lax-1","host":"lax-1.us.uncletopia.com","port":27015,"enabled":true,"region":"us-west","cc":"us","latitude":33.94279,"longitude":-118.41004,"reserved":0,"last_update":"0001-01-01T00:00:00Z","name_a2s":"Uncletopia | Los Angeles | 1 | All Maps","protocol":17,"map":"pl_badwater","folder":"tf","game":"Team Fortress","app_id":440,"player_count":0,"max_players":24,"Bots":0,"server_type":"Dedicated","server_os":"Linux","password":true,"vac":true,"version":"7882260","steam_id":85568392924469991,"keywords":["nocrits","nodmgspread","payload","uncletopia"],"game_id":440,"stv_port":27016,"stv_name":"Uncletopia | Los Angeles | 1 | All Maps | STV","players":null},{"server_id":112,"name":"Uncletopia | Los Angeles | 2 | All Maps","name_short":"lax-2","host":"lax-1.us.uncletopia.com","port":27025,"enabled":true,"region":"us-west","cc":"us","latitude":33.94279,"longitude":-118.41004,"reserved":0,"last_update":"0001-01-01T00:00:00Z","name_a2s":"Uncletopia | Los Angeles | 2 | All Maps","protocol":17,"map":"koth_highpass","folder":"tf","game":"Team Fortress","app_id":440,"player_count":24,"max_players":24,"Bots":0,"server_type":"Dedicated","server_os":"Linux","password":true,"vac":true,"version":"7882260","steam_id":85568392924469992,"keywords":["cp","nocrits","nodmgspread","uncletopia"],"game_id":440,"stv_port":27026,"stv_name":"Uncletopia | Los Angeles | 2 | All Maps | STV","players":[{"user_id":122,"name":"Translucent‡´Æ‚Çç ‚Ä¢ ·¥• ‚Ä¢","steam_id":76561199212057076,"connected_time":714000000000,"state":"active","ping":43},{"user_id":4,"name":"Ant","steam_id":76561198253062337,"connected_time":9257000000000,"state":"active","ping":86},{"user_id":89,"name":"Chorizo","steam_id":76561198208080773,"connected_time":3145000000000,"state":"active","ping":64},{"user_id":86,"name":"chikin.sauce","steam_id":76561198042464635,"connected_time":3524000000000,"state":"active","ping":86},{"user_id":49,"name":"Highground","steam_id":76561199197544789,"connected_time":6791000000000,"state":"active","ping":156},{"user_id":110,"name":"Spanky","steam_id":76561198037780636,"connected_time":1267000000000,"state":"active","ping":116},{"user_id":95,"name":"MellowBoy-2354","steam_id":76561199080630632,"connected_time":2718000000000,"state":"active","ping":122},{"user_id":121,"name":"Daso","steam_id":76561198219209367,"connected_time":776000000000,"state":"active","ping":61},{"user_id":17,"name":"blozet","steam_id":76561199120161035,"connected_time":8057000000000,"state":"active","ping":115},{"user_id":123,"name":"mycoolcucumber","steam_id":76561198177586211,"connected_time":713000000000,"state":"active","ping":110},{"user_id":127,"name":"satttempo","steam_id":76561199439420072,"connected_time":514000000000,"state":"active","ping":233},{"user_id":109,"name":"Dob Bole","steam_id":76561198056367220,"connected_time":1349000000000,"state":"active","ping":44},{"user_id":136,"name":"Cheese Miller","steam_id":76561199451933673,"connected_time":153000000000,"state":"active","ping":46},{"user_id":54,"name":"Sprit ‚ô•","steam_id":76561198268780781,"connected_time":6119000000000,"state":"active","ping":100},{"user_id":116,"name":"mrselfdestruct13","steam_id":76561197992054553,"connected_time":1118000000000,"state":"active","ping":77},{"user_id":119,"name":"Intex","steam_id":76561198231061660,"connected_time":892000000000,"state":"active","ping":102},{"user_id":107,"name":"toodles","steam_id":76561198127639913,"connected_time":1529000000000,"state":"active","ping":46},{"user_id":134,"name":"krd","steam_id":76561198347660282,"connected_time":218000000000,"state":"active","ping":107},{"user_id":137,"name":"lavender","steam_id":76561199069518286,"connected_time":24000000000,"state":"active","ping":46},{"user_id":77,"name":"Goldensliv","steam_id":76561198161673891,"connected_time":4265000000000,"state":"active","ping":34},{"user_id":125,"name":"Tortellini","steam_id":76561198211521176,"connected_time":600000000000,"state":"active","ping":94},{"user_id":130,"name":"pol_","steam_id":76561199200068968,"connected_time":374000000000,"state":"active","ping":111},{"user_id":41,"name":"Carnamate","steam_id":76561198138077990,"connected_time":7178000000000,"state":"active","ping":84},{"user_id":93,"name":"Line","steam_id":76561198086222096,"connected_time":3015000000000,"state":"active","ping":75}]},{"server_id":324,"name":"Uncletopia | Los Angeles | 3 | All Maps","name_short":"lax-3","host":"lax-1.us.uncletopia.com","port":27035,"enabled":true,"region":"us-west","cc":"us","latitude":33.94279,"longitude":-118.41004,"reserved":0,"last_update":"0001-01-01T00:00:00Z","name_a2s":"Uncletopia | Los Angeles | 3 | All Maps","protocol":17,"map":"pl_swiftwater_final1","folder":"tf","game":"Team Fortress","app_id":440,"player_count":0,"max_players":24,"Bots":0,"server_type":"Dedicated","server_os":"Linux","password":true,"vac":true,"version":"7882260","steam_id":85568392924510198,"keywords":["nocrits","nodmgspread","payload","uncletopia"],"game_id":440,"stv_port":27036,"stv_name":"Uncletopia | Los Angeles | 3 | All Maps | STV","players":null},{"server_id":25,"name":"Uncletopia | Los Angeles | 4 | Stopwatch Beta","name_short":"lax-4","host":"lax-1.us.uncletopia.com","port":27045,"enabled":true,"region":"us-west","cc":"us","latitude":33.94279,"longitude":-118.41004,"reserved":0,"last_update":"0001-01-01T00:00:00Z","name_a2s":"Uncletopia | Los Angeles | 4 | Stopwatch Beta","protocol":17,"map":"koth_viaduct","folder":"tf","game":"Team Fortress","app_id":440,"player_count":0,"max_players":24,"Bots":0,"server_type":"Dedicated","server_os":"Linux","password":true,"vac":true,"version":"7882260","steam_id":85568392924510199,"keywords":["cp","nocrits","nodmgspread","uncletopia"],"game_id":440,"stv_port":27046,"stv_name":"Uncletopia | Los Angeles | 4 | Stopwatch Beta | STV","players":null},{"server_id":11,"name":"Uncletopia | London | 1 | All Maps","name_short":"lon-1","host":"lon-1.uk.uncletopia.com","port":27015,"enabled":true,"region":"eu","cc":"gb","latitude":51.509865,"longitude":-0.118092,"reserved":0,"last_update":"0001-01-01T00:00:00Z","name_a2s":"Uncletopia | London | 1 | All Maps","protocol":17,"map":"pl_pier","folder":"tf","game":"Team Fortress","app_id":440,"player_count":24,"max_players":24,"Bots":0,"server_type":"Dedicated","server_os":"Linux","password":true,"vac":true,"version":"7882260","steam_id":85568392924367362,"keywords":["nocrits","nodmgspread","payload","uncletopia"],"game_id":440,"stv_port":27016,"stv_name":"Uncletopia | London | 1 | All Maps | STV","players":[{"user_id":100,"name":"Seri","steam_id":76561198017135441,"connected_time":1156000000000,"state":"active","ping":54},{"user_id":90,"name":"Gubbly Bubbins","steam_id":76561198101451654,"connected_time":2006000000000,"state":"active","ping":47},{"user_id":106,"name":"Croy","steam_id":76561197972552579,"connected_time":636000000000,"state":"active","ping":44},{"user_id":109,"name":"Evix","steam_id":76561198418450671,"connected_time":172000000000,"state":"active","ping":65},{"user_id":18,"name":"Nyhde","steam_id":76561198012771416,"connected_time":6071000000000,"state":"active","ping":108},{"user_id":91,"name":"shr1mple","steam_id":76561198173537027,"connected_time":1979000000000,"state":"active","ping":46},{"user_id":99,"name":"Kahvi","steam_id":76561198723244199,"connected_time":1172000000000,"state":"active","ping":76},{"user_id":77,"name":"Osmo","steam_id":76561199286764992,"connected_time":2837000000000,"state":"active","ping":86},{"user_id":105,"name":"Show me your gun","steam_id":76561198368339225,"connected_time":800000000000,"state":"active","ping":123},{"user_id":96,"name":"Consuelo Shelton","steam_id":76561198152392309,"connected_time":1560000000000,"state":"active","ping":51},{"user_id":101,"name":"beurgeur","steam_id":76561198872426314,"connected_time":1151000000000,"state":"active","ping":40},{"user_id":110,"name":"ppprc","steam_id":76561199100663886,"connected_time":93000000000,"state":"active","ping":86},{"user_id":108,"name":"Ray Lilith","steam_id":76561198133946866,"connected_time":561000000000,"state":"active","ping":60},{"user_id":36,"name":"DelaNo","steam_id":76561199125086655,"connected_time":4718000000000,"state":"active","ping":39},{"user_id":68,"name":"Espa√±aa","steam_id":76561198879587832,"connected_time":3364000000000,"state":"active","ping":82},{"user_id":85,"name":"JareJare","steam_id":76561199040893751,"connected_time":2512000000000,"state":"active","ping":80},{"user_id":103,"name":"john fortress","steam_id":76561198013237629,"connected_time":1138000000000,"state":"active","ping":95},{"user_id":94,"name":"robsan","steam_id":76561198137375391,"connected_time":1821000000000,"state":"active","ping":85},{"user_id":88,"name":"Pootis penser","steam_id":76561198944032480,"connected_time":2274000000000,"state":"active","ping":98},{"user_id":111,"name":"hide on bush","steam_id":76561198149967445,"connected_time":69000000000,"state":"active","ping":42},{"user_id":87,"name":"Envy","steam_id":76561198132723219,"connected_time":2374000000000,"state":"active","ping":118},{"user_id":52,"name":"fume.","steam_id":76561197960476801,"connected_time":4235000000000,"state":"active","ping":51},{"user_id":107,"name":"KnugenIV","steam_id":76561198127091993,"connected_time":633000000000,"state":"active","ping":63},{"user_id":112,"name":"rysieko","steam_id":76561199385228217,"connected_time":46000000000,"state":"active","ping":76}]},{"server_id":114,"name":"Uncletopia | London | 2 | All Maps","name_short":"lon-2","host":"lon-1.uk.uncletopia.com","port":27025,"enabled":true,"region":"eu","cc":"gb","latitude":51.509865,"longitude":-0.118092,"reserved":0,"last_update":"0001-01-01T00:00:00Z","name_a2s":"Uncletopia | London | 2 | All Maps","protocol":17,"map":"pl_frontier_final","folder":"tf","game":"Team Fortress","app_id":440,"player_count":23,"max_players":24,"Bots":0,"server_type":"Dedicated","server_os":"Linux","password":true,"vac":true,"version":"7882260","steam_id":85568392924470941,"keywords":["nocrits","nodmgspread","payload","uncletopia"],"game_id":440,"stv_port":27026,"stv_name":"Uncletopia | London | 2 | All Maps | STV","players":[{"user_id":286,"name":"Kristianma","steam_id":76561198021772843,"connected_time":2830000000000,"state":"active","ping":74},{"user_id":321,"name":"POU cherry","steam_id":76561199006915718,"connected_time":1003000000000,"state":"active","ping":62},{"user_id":309,"name":"MajorKlebstoff","steam_id":76561198035489363,"connected_time":1857000000000,"state":"active","ping":59},{"user_id":336,"name":"Skuld","steam_id":76561198064734905,"connected_time":234000000000,"state":"active","ping":105},{"user_id":337,"name":"bean","steam_id":76561198161013815,"connected_time":223000000000,"state":"active","ping":51},{"user_id":322,"name":"walnuth","steam_id":76561199087006560,"connected_time":982000000000,"state":"active","ping":71},{"user_id":338,"name":"Kakuszita","steam_id":76561199243924475,"connected_time":149000000000,"state":"active","ping":83},{"user_id":234,"name":"Jonathan","steam_id":76561198087988880,"connected_time":6295000000000,"state":"active","ping":52},{"user_id":339,"name":"axalotly-gaming","steam_id":76561199131971501,"connected_time":145000000000,"state":"active","ping":98},{"user_id":320,"name":"Remizer","steam_id":76561198799755616,"connected_time":1079000000000,"state":"active","ping":70},{"user_id":316,"name":"violent monkey porn","steam_id":76561199285074344,"connected_time":1747000000000,"state":"active","ping":140},{"user_id":305,"name":"kalofko","steam_id":76561198102765507,"connected_time":2128000000000,"state":"active","ping":83},{"user_id":324,"name":"pidgeonlord","steam_id":76561198297290160,"connected_time":957000000000,"state":"active","ping":75},{"user_id":331,"name":"Kokos","steam_id":76561198085501501,"connected_time":819000000000,"state":"active","ping":88},{"user_id":261,"name":"The Third Degree collector","steam_id":76561199165355017,"connected_time":4205000000000,"state":"active","ping":110},{"user_id":335,"name":"Karvinen","steam_id":76561198031490602,"connected_time":380000000000,"state":"active","ping":93},{"user_id":340,"name":"¬≤a¬ù√¶√±","steam_id":76561199216015507,"connected_time":102000000000,"state":"active","ping":67},{"user_id":341,"name":"√∏possum","steam_id":76561198056152479,"connected_time":79000000000,"state":"active","ping":43},{"user_id":307,"name":"pano","steam_id":76561198157446722,"connected_time":1899000000000,"state":"active","ping":79},{"user_id":327,"name":"Kerzch","steam_id":76561198022730443,"connected_time":919000000000,"state":"active","ping":108},{"user_id":328,"name":"—É–∑–±–µ–∫–∏—Å—Ç–∞–Ω 69","steam_id":76561198357761434,"connected_time":907000000000,"state":"active","ping":110},{"user_id":319,"name":"Deacon Dracul","steam_id":76561198046880663,"connected_time":1104000000000,"state":"active","ping":88},{"user_id":342,"name":"baggy!","steam_id":76561198152172841,"connected_time":71000000000,"state":"active","ping":46}]},{"server_id":320,"name":"Uncletopia | London | 3 | All Maps","name_short":"lon-3","host":"lon-1.uk.uncletopia.com","port":27035,"enabled":true,"region":"eu","cc":"gb","latitude":51.509865,"longitude":-0.118092,"reserved":0,"last_update":"0001-01-01T00:00:00Z","name_a2s":"Uncletopia | London | 3 | All Maps","protocol":17,"map":"pl_badwater","folder":"tf","game":"Team Fortress","app_id":440,"player_count":20,"max_players":24,"Bots":0,"server_type":"Dedicated","server_os":"Linux","password":true,"vac":true,"version":"7882260","steam_id":85568392924510192,"keywords":["nocrits","nodmgspread","payload","uncletopia"],"game_id":440,"stv_port":27036,"stv_name":"Uncletopia | London | 3 | All Maps | STV","players":[{"user_id":364,"name":"MEDiUM","steam_id":76561198112328561,"connected_time":895000000000,"state":"active","ping":72},{"user_id":370,"name":"Eoghann","steam_id":76561198121938423,"connected_time":400000000000,"state":"active","ping":45},{"user_id":305,"name":"Lyncurion","steam_id":76561199260022725,"connected_time":3930000000000,"state":"active","ping":84},{"user_id":286,"name":"1 kill a day","steam_id":76561198059674196,"connected_time":5174000000000,"state":"active","ping":44},{"user_id":334,"name":"Chicken nugget consumer","steam_id":76561199121061299,"connected_time":2075000000000,"state":"active","ping":156},{"user_id":369,"name":"Hoff","steam_id":76561198138540938,"connected_time":441000000000,"state":"active","ping":73},{"user_id":287,"name":"another day of gaming","steam_id":76561198278967055,"connected_time":5162000000000,"state":"active","ping":60},{"user_id":348,"name":"Enigmus","steam_id":76561197994063627,"connected_time":1773000000000,"state":"active","ping":91},{"user_id":265,"name":"Miss.Sparklez","steam_id":76561198101745576,"connected_time":5949000000000,"state":"active","ping":70},{"user_id":372,"name":"Butt","steam_id":76561198115496457,"connected_time":233000000000,"state":"active","ping":39},{"user_id":350,"name":"red‚ãÜmits","steam_id":76561198015590113,"connected_time":1744000000000,"state":"active","ping":44},{"user_id":362,"name":"NatP","steam_id":76561198012083811,"connected_time":1108000000000,"state":"active","ping":75},{"user_id":351,"name":"Floris Kakadoris","steam_id":76561198258458741,"connected_time":1736000000000,"state":"active","ping":54},{"user_id":316,"name":"Kernel Panic","steam_id":76561198215811047,"connected_time":3536000000000,"state":"active","ping":45},{"user_id":368,"name":"Mr. Caesar","steam_id":76561198166329161,"connected_time":519000000000,"state":"active","ping":58},{"user_id":361,"name":"Rat King","steam_id":76561198256783599,"connected_time":1147000000000,"state":"active","ping":56},{"user_id":354,"name":"wG papi coolines","steam_id":76561198075312767,"connected_time":1676000000000,"state":"active","ping":45},{"user_id":323,"name":"Dolcelatte","steam_id":76561198038501770,"connected_time":2930000000000,"state":"active","ping":67},{"user_id":366,"name":"Medieval Doktor","steam_id":76561198075373362,"connected_time":747000000000,"state":"active","ping":45},{"user_id":360,"name":"Insain Bolt!","steam_id":76561198025687726,"connected_time":1200000000000,"state":"active","ping":74}]},{"server_id":321,"name":"Uncletopia | London | 4 | All Maps","name_short":"lon-4","host":"lon-1.uk.uncletopia.com","port":27045,"enabled":true,"region":"eu","cc":"gb","latitude":51.509865,"longitude":-0.118092,"reserved":0,"last_update":"0001-01-01T00:00:00Z","name_a2s":"Uncletopia | London | 4 | All Maps","protocol":17,"map":"koth_highpass","folder":"tf","game":"Team Fortress","app_id":440,"player_count":23,"max_players":24,"Bots":0,"server_type":"Dedicated","server_os":"Linux","password":true,"vac":true,"version":"7882260","steam_id":85568392924510193,"keywords":["cp","nocrits","nodmgspread","uncletopia"],"game_id":440,"stv_port":27046,"stv_name":"Uncletopia | London | 4 | All Maps | STV","players":[{"user_id":545,"name":"D0kai","steam_id":76561198389271720,"connected_time":1105000000000,"state":"active","ping":47},{"user_id":561,"name":"LemonLeCitron","steam_id":76561198215545267,"connected_time":312000000000,"state":"active","ping":68},{"user_id":533,"name":"png.png","steam_id":76561198444446521,"connected_time":1563000000000,"state":"active","ping":107},{"user_id":543,"name":"SkoomaAddicted","steam_id":76561197975241482,"connected_time":1144000000000,"state":"active","ping":74},{"user_id":544,"name":"Leibeigener","steam_id":76561199275478305,"connected_time":1139000000000,"state":"active","ping":47},{"user_id":546,"name":"mt","steam_id":76561197961319303,"connected_time":1105000000000,"state":"active","ping":55},{"user_id":560,"name":"schmick h_stt 0","steam_id":76561198039537958,"connected_time":382000000000,"state":"active","ping":43},{"user_id":540,"name":"–ë–æ–µ–≤–æ–π –∫–æ–º–∞—Ä","steam_id":76561198796564094,"connected_time":1323000000000,"state":"active","ping":86},{"user_id":548,"name":"Javier dorsaless","steam_id":76561198179324075,"connected_time":1077000000000,"state":"active","ping":60},{"user_id":559,"name":"shankz","steam_id":76561198128803260,"connected_time":621000000000,"state":"active","ping":45},{"user_id":466,"name":"yer_nerd","steam_id":76561199435454093,"connected_time":5611000000000,"state":"active","ping":132},{"user_id":550,"name":"soup","steam_id":76561198386933065,"connected_time":1057000000000,"state":"active","ping":71},{"user_id":551,"name":"C.H.E.R.E.P.","steam_id":76561198026938595,"connected_time":1011000000000,"state":"active","ping":75},{"user_id":556,"name":"Joseph Stalin","steam_id":76561198033199746,"connected_time":799000000000,"state":"active","ping":47},{"user_id":558,"name":"buying gf (real pls add me)","steam_id":76561198321785662,"connected_time":732000000000,"state":"active","ping":96},{"user_id":485,"name":"Some bub","steam_id":76561199077211138,"connected_time":4418000000000,"state":"active","ping":27},{"user_id":562,"name":"Yeets3er","steam_id":76561199137127757,"connected_time":251000000000,"state":"active","ping":44},{"user_id":557,"name":"Ferlo","steam_id":76561198095561504,"connected_time":743000000000,"state":"active","ping":55},{"user_id":541,"name":"the_Qcumber","steam_id":76561199152515819,"connected_time":1310000000000,"state":"active","ping":67},{"user_id":522,"name":"clunk","steam_id":76561198836460767,"connected_time":2197000000000,"state":"active","ping":70},{"user_id":553,"name":"spxcy","steam_id":76561198080296853,"connected_time":980000000000,"state":"active","ping":75},{"user_id":418,"name":"d u k k i","steam_id":76561198071807437,"connected_time":7938000000000,"state":"active","ping":82},{"user_id":554,"name":"YinYang Ivy","steam_id":76561198319862585,"connected_time":903000000000,"state":"active","ping":49}]},{"server_id":21,"name":"Uncletopia | London | 5 | All Maps","name_short":"lon-5","host":"lon-1.uk.uncletopia.com","port":27055,"enabled":true,"region":"eu","cc":"gb","latitude":51.509865,"longitude":-0.118092,"reserved":0,"last_update":"0001-01-01T00:00:00Z","name_a2s":"Uncletopia | London | 5 | All Maps","protocol":17,"map":"koth_viaduct","folder":"tf","game":"Team Fortress","app_id":440,"player_count":0,"max_players":24,"Bots":0,"server_type":"Dedicated","server_os":"Linux","password":true,"vac":true,"version":"7882260","steam_id":85568392924742829,"keywords":["cp","nocrits","nodmgspread","uncletopia"],"game_id":440,"stv_port":27056,"stv_name":"Uncletopia | London | 5 | All Maps | STV","players":null},{"server_id":22,"name":"Uncletopia | London | 6 | All Maps","name_short":"lon-6","host":"lon-1.uk.uncletopia.com","port":27065,"enabled":true,"region":"eu","cc":"gb","latitude":51.509865,"longitude":-0.118092,"reserved":0,"last_update":"0001-01-01T00:00:00Z","name_a2s":"Uncletopia | London | 6 | All Maps","protocol":17,"map":"koth_lakeside_final","folder":"tf","game":"Team Fortress","app_id":440,"player_count":0,"max_players":24,"Bots":0,"server_type":"Dedicated","server_os":"Linux","password":true,"vac":true,"version":"7882260","steam_id":85568392924742830,"keywords":["cp","nocrits","nodmgspread","uncletopia"],"game_id":440,"stv_port":27066,"stv_name":"Uncletopia | London | 6 | All Maps | STV","players":null},{"server_id":40,"name":"Uncletopia | London | 7 | No Payload","name_short":"lon-7","host":"lon-1.uk.uncletopia.com","port":27075,"enabled":true,"region":"eu","cc":"gb","latitude":51.509865,"longitude":-0.118092,"reserved":0,"last_update":"0001-01-01T00:00:00Z","name_a2s":"Uncletopia | London | 7 | No Payload","protocol":17,"map":"koth_viaduct","folder":"tf","game":"Team Fortress","app_id":440,"player_count":5,"max_players":24,"Bots":0,"server_type":"Dedicated","server_os":"Linux","password":true,"vac":true,"version":"7882260","steam_id":85568392924964314,"keywords":["cp","nocrits","nodmgspread","uncletopia"],"game_id":440,"stv_port":27076,"stv_name":"Uncletopia | London | 7 | No Payload | STV","players":[{"user_id":5,"name":"ran is running","steam_id":76561199443185667,"connected_time":2095000000000,"state":"active","ping":151},{"user_id":10,"name":"piss man (real)","steam_id":76561198839843428,"connected_time":1170000000000,"state":"active","ping":136},{"user_id":11,"name":"pl.haker","steam_id":76561198278440186,"connected_time":507000000000,"state":"active","ping":89},{"user_id":12,"name":"JABLAH","steam_id":76561199105464573,"connected_time":489000000000,"state":"active","ping":60},{"user_id":13,"name":"Davey","steam_id":76561198256879107,"connected_time":361000000000,"state":"active","ping":74}]},{"server_id":41,"name":"Uncletopia | London | 8 | Community","name_short":"lon-8","host":"lon-1.uk.uncletopia.com","port":27085,"enabled":true,"region":"eu","cc":"gb","latitude":51.509865,"longitude":-0.118092,"reserved":0,"last_update":"0001-01-01T00:00:00Z","name_a2s":"Uncletopia | London | 8 | Community","protocol":17,"map":"workshop/koth_ramjam_rc1.ugc459778887","folder":"tf","game":"Team Fortress","app_id":440,"player_count":5,"max_players":24,"Bots":0,"server_type":"Dedicated","server_os":"Linux","password":true,"vac":true,"version":"7882260","steam_id":85568392924964315,"keywords":["cp","nocrits","nodmgspread","uncletopia"],"game_id":440,"stv_port":27086,"stv_name":"Uncletopia | London | 8 | Community | STV","players":[{"user_id":33,"name":"Dragon's Fury \u003e You","steam_id":76561198799097492,"connected_time":742000000000,"state":"active","ping":41},{"user_id":17,"name":"Drybooones","steam_id":76561198834232656,"connected_time":2144000000000,"state":"active","ping":72},{"user_id":35,"name":"skille","steam_id":76561198005794325,"connected_time":381000000000,"state":"active","ping":58},{"user_id":23,"name":"SkyNet-","steam_id":76561199048059547,"connected_time":1779000000000,"state":"active","ping":62},{"user_id":32,"name":"Log","steam_id":76561198439616085,"connected_time":780000000000,"state":"active","ping":68}]},{"server_id":300,"name":"Uncletopia | Montr√©al | 1 | All Maps","name_short":"mtl-1","host":"mtl-1.ca.uncletopia.com","port":27015,"enabled":true,"region":"us-east","cc":"ca","latitude":45.50889,"longitude":-73.56167,"reserved":0,"last_update":"0001-01-01T00:00:00Z","name_a2s":"Uncletopia | Montr√©al | 1 | All Maps","protocol":17,"map":"cp_dustbowl","folder":"tf","game":"Team Fortress","app_id":440,"player_count":0,"max_players":24,"Bots":0,"server_type":"Dedicated","server_os":"Linux","password":true,"vac":true,"version":"7882260","steam_id":85568392924500087,"keywords":["cp","nocrits","nodmgspread","uncletopia"],"game_id":440,"stv_port":27016,"stv_name":"Uncletopia | Montr√©al | 1 | All Maps | STV","players":null},{"server_id":301,"name":"Uncletopia | Montr√©al | 2 | All Maps","name_short":"mtl-2","host":"mtl-1.ca.uncletopia.com","port":27025,"enabled":true,"region":"us-east","cc":"ca","latitude":45.50889,"longitude":-73.56167,"reserved":0,"last_update":"0001-01-01T00:00:00Z","name_a2s":"Uncletopia | Montr√©al | 2 | All Maps","protocol":17,"map":"pl_swiftwater_final1","folder":"tf","game":"Team Fortress","app_id":440,"player_count":0,"max_players":24,"Bots":0,"server_type":"Dedicated","server_os":"Linux","password":true,"vac":true,"version":"7882260","steam_id":85568392924500088,"keywords":["nocrits","nodmgspread","payload","uncletopia"],"game_id":440,"stv_port":27026,"stv_name":"Uncletopia | Montr√©al | 2 | All Maps | STV","players":null},{"server_id":302,"name":"Uncletopia | Montr√©al | 3 | All Maps","name_short":"mtl-3","host":"mtl-1.ca.uncletopia.com","port":27035,"enabled":true,"region":"us-east","cc":"ca","latitude":45.50889,"longitude":-73.56167,"reserved":0,"last_update":"0001-01-01T00:00:00Z","name_a2s":"Uncletopia | Montr√©al | 3 | All Maps","protocol":17,"map":"koth_highpass","folder":"tf","game":"Team Fortress","app_id":440,"player_count":0,"max_players":24,"Bots":0,"server_type":"Dedicated","server_os":"Linux","password":true,"vac":true,"version":"7882260","steam_id":85568392924500089,"keywords":["cp","nocrits","nodmgspread","uncletopia"],"game_id":440,"stv_port":27036,"stv_name":"Uncletopia | Montr√©al | 3 | All Maps | STV","players":null},{"server_id":303,"name":"Uncletopia | Montr√©al | 4 | No Payload","name_short":"mtl-4","host":"mtl-1.ca.uncletopia.com","port":27045,"enabled":true,"region":"us-east","cc":"ca","latitude":45.50889,"longitude":-73.56167,"reserved":0,"last_update":"0001-01-01T00:00:00Z","name_a2s":"Uncletopia | Montr√©al | 4 | No Payload","protocol":17,"map":"koth_highpass","folder":"tf","game":"Team Fortress","app_id":440,"player_count":0,"max_players":24,"Bots":0,"server_type":"Dedicated","server_os":"Linux","password":true,"vac":true,"version":"7882260","steam_id":85568392924500090,"keywords":["cp","nocrits","nodmgspread","uncletopia"],"game_id":440,"stv_port":27046,"stv_name":"Uncletopia | Montr√©al | 4 | No Payload | STV","players":null},{"server_id":13,"name":"Uncletopia | New York City | 1 | All Maps","name_short":"nyc-1","host":"nyc-1.us.uncletopia.com","port":27015,"enabled":true,"region":"us-east","cc":"us","latitude":40.73061,"longitude":-73.93524,"reserved":0,"last_update":"0001-01-01T00:00:00Z","name_a2s":"Uncletopia | New York City | 1 | All Maps","protocol":17,"map":"pl_frontier_final","folder":"tf","game":"Team Fortress","app_id":440,"player_count":0,"max_players":24,"Bots":0,"server_type":"Dedicated","server_os":"Linux","password":true,"vac":true,"version":"7882260","steam_id":85568392924469993,"keywords":["nocrits","nodmgspread","payload","uncletopia"],"game_id":440,"stv_port":27016,"stv_name":"Uncletopia | New York City | 1 | All Maps | STV","players":null},{"server_id":14,"name":"Uncletopia | New York City | 2 | All Maps","name_short":"nyc-2","host":"nyc-1.us.uncletopia.com","port":27025,"enabled":true,"region":"us-east","cc":"us","latitude":40.73061,"longitude":-73.93524,"reserved":0,"last_update":"0001-01-01T00:00:00Z","name_a2s":"Uncletopia | New York City | 2 | All Maps","protocol":17,"map":"koth_lakeside_final","folder":"tf","game":"Team Fortress","app_id":440,"player_count":0,"max_players":24,"Bots":0,"server_type":"Dedicated","server_os":"Linux","password":true,"vac":true,"version":"7882260","steam_id":85568392924469994,"keywords":["cp","nocrits","nodmgspread","uncletopia"],"game_id":440,"stv_port":27026,"stv_name":"Uncletopia | New York City | 2 | All Maps | STV","players":null},{"server_id":15,"name":"Uncletopia | New York City | 3 | Stopwatch Beta","name_short":"nyc-3","host":"nyc-1.us.uncletopia.com","port":27035,"enabled":true,"region":"us-east","cc":"us","latitude":40.73061,"longitude":-73.93524,"reserved":0,"last_update":"0001-01-01T00:00:00Z","name_a2s":"Uncletopia | New York City | 3 | Stopwatch Beta","protocol":17,"map":"pl_borneo","folder":"tf","game":"Team Fortress","app_id":440,"player_count":0,"max_players":24,"Bots":0,"server_type":"Dedicated","server_os":"Linux","password":true,"vac":true,"version":"7882260","steam_id":85568392924742820,"keywords":["nocrits","nodmgspread","payload","uncletopia"],"game_id":440,"stv_port":27036,"stv_name":"Uncletopia | New York City | 3 | Stopwatch Beta | STV","players":null},{"server_id":16,"name":"Uncletopia | New York City | 4 | Community","name_short":"nyc-4","host":"nyc-1.us.uncletopia.com","port":27045,"enabled":true,"region":"us-east","cc":"us","latitude":40.73061,"longitude":-73.93524,"reserved":0,"last_update":"0001-01-01T00:00:00Z","name_a2s":"Uncletopia | New York City | 4 | Community","protocol":17,"map":"cp_altitude","folder":"tf","game":"Team Fortress","app_id":440,"player_count":0,"max_players":24,"Bots":0,"server_type":"Dedicated","server_os":"Linux","password":true,"vac":true,"version":"7882260","steam_id":85568392924742821,"keywords":["cp","nocrits","nodmgspread","uncletopia"],"game_id":440,"stv_port":27046,"stv_name":"Uncletopia | New York City | 4 | Community | STV","players":null},{"server_id":142,"name":"Uncletopia | S√£o Paulo | 1 | All Maps","name_short":"sao-1","host":"sao-1.br.uncletopia.com","port":27015,"enabled":true,"region":"sa","cc":"br","latitude":-23.533773,"longitude":-46.62529,"reserved":0,"last_update":"0001-01-01T00:00:00Z","name_a2s":"Uncletopia | S√£o Paulo | 1 | All Maps","protocol":17,"map":"cp_dustbowl","folder":"tf","game":"Team Fortress","app_id":440,"player_count":0,"max_players":24,"Bots":0,"server_type":"Dedicated","server_os":"Linux","password":true,"vac":true,"version":"7882260","steam_id":85568392924469996,"keywords":["cp","nocrits","nodmgspread","uncletopia"],"game_id":440,"stv_port":27016,"stv_name":"Uncletopia | S√£o Paulo | 1 | All Maps | STV","players":null},{"server_id":143,"name":"Uncletopia | S√£o Paulo | 2 | All Maps","name_short":"sao-2","host":"sao-2.br.uncletopia.com","port":27015,"enabled":true,"region":"sa","cc":"br","latitude":-23.533773,"longitude":-46.62529,"reserved":0,"last_update":"0001-01-01T00:00:00Z","name_a2s":"Uncletopia | S√£o Paulo | 2 | All Maps","protocol":17,"map":"koth_cascade","folder":"tf","game":"Team Fortress","app_id":440,"player_count":0,"max_players":24,"Bots":0,"server_type":"Dedicated","server_os":"Linux","password":true,"vac":true,"version":"7882260","steam_id":85568392924485349,"keywords":["cp","nocrits","nodmgspread","uncletopia"],"game_id":440,"stv_port":27016,"stv_name":"Uncletopia | S√£o Paulo | 2 | All Maps | STV","players":null},{"server_id":7,"name":"Uncletopia | Seattle | 1 | All Maps","name_short":"sea-1","host":"sea-1.us.uncletopia.com","port":27015,"enabled":true,"region":"us-west","cc":"us","latitude":47.608013,"longitude":-122.33517,"reserved":0,"last_update":"0001-01-01T00:00:00Z","name_a2s":"Uncletopia | Seattle | 1 | All Maps","protocol":17,"map":"koth_suijin","folder":"tf","game":"Team Fortress","app_id":440,"player_count":8,"max_players":24,"Bots":0,"server_type":"Dedicated","server_os":"Linux","password":true,"vac":true,"version":"7882260","steam_id":85568392924469997,"keywords":["cp","nocrits","nodmgspread","uncletopia"],"game_id":440,"stv_port":27016,"stv_name":"Uncletopia | Seattle | 1 | All Maps | STV","players":[{"user_id":45,"name":"sillymoder2005","steam_id":76561198202235495,"connected_time":1136000000000,"state":"active","ping":30},{"user_id":52,"name":"beans","steam_id":76561199082781884,"connected_time":118000000000,"state":"active","ping":85},{"user_id":13,"name":"Bee_Pirate","steam_id":76561199000599111,"connected_time":5170000000000,"state":"active","ping":111},{"user_id":47,"name":"C U M  J A R","steam_id":76561198440993934,"connected_time":612000000000,"state":"active","ping":129},{"user_id":53,"name":"Rat","steam_id":76561198330059340,"connected_time":113000000000,"state":"active","ping":53},{"user_id":50,"name":"MCwopsi","steam_id":76561198318263376,"connected_time":281000000000,"state":"active","ping":133},{"user_id":35,"name":"SibilantSerpent","steam_id":76561198154488754,"connected_time":2274000000000,"state":"active","ping":55},{"user_id":43,"name":"ggandymann","steam_id":76561198159236060,"connected_time":1539000000000,"state":"active","ping":175}]},{"server_id":119,"name":"Uncletopia | Seattle | 2 | All Maps","name_short":"sea-2","host":"sea-1.us.uncletopia.com","port":27025,"enabled":true,"region":"us-west","cc":"us","latitude":47.608013,"longitude":-122.33517,"reserved":0,"last_update":"0001-01-01T00:00:00Z","name_a2s":"Uncletopia | Seattle | 2 | All Maps","protocol":17,"map":"pl_barnblitz","folder":"tf","game":"Team Fortress","app_id":440,"player_count":0,"max_players":24,"Bots":0,"server_type":"Dedicated","server_os":"Linux","password":true,"vac":true,"version":"7882260","steam_id":85568392924469998,"keywords":["nocrits","nodmgspread","payload","uncletopia"],"game_id":440,"stv_port":27026,"stv_name":"Uncletopia | Seattle | 2 | All Maps | STV","players":null},{"server_id":406,"name":"Uncletopia | Seattle | 3 | Stopwatch Beta","name_short":"sea-3","host":"sea-1.us.uncletopia.com","port":27035,"enabled":true,"region":"us-west","cc":"us","latitude":47.608013,"longitude":-122.33517,"reserved":0,"last_update":"0001-01-01T00:00:00Z","name_a2s":"Uncletopia | Seattle | 3 | Stopwatch Beta","protocol":17,"map":"koth_viaduct","folder":"tf","game":"Team Fortress","app_id":440,"player_count":0,"max_players":24,"Bots":0,"server_type":"Dedicated","server_os":"Linux","password":true,"vac":true,"version":"7882260","steam_id":85568392924515217,"keywords":["cp","nocrits","nodmgspread","uncletopia"],"game_id":440,"stv_port":27036,"stv_name":"Uncletopia | Seattle | 3 | Stopwatch Beta | STV","players":null},{"server_id":17,"name":"Uncletopia | San Francisco | 1 | All Maps","name_short":"sfo-1","host":"sfo-1.us.uncletopia.com","port":27015,"enabled":true,"region":"us-west","cc":"us","latitude":37.77397,"longitude":-122.4313,"reserved":0,"last_update":"0001-01-01T00:00:00Z","name_a2s":"Uncletopia | San Francisco | 1 | All Maps","protocol":17,"map":"pl_pier","folder":"tf","game":"Team Fortress","app_id":440,"player_count":0,"max_players":24,"Bots":0,"server_type":"Dedicated","server_os":"Linux","password":true,"vac":true,"version":"7882260","steam_id":85568392924469999,"keywords":["nocrits","nodmgspread","payload","uncletopia"],"game_id":440,"stv_port":27016,"stv_name":"Uncletopia | San Francisco | 1 | All Maps | STV","players":null},{"server_id":18,"name":"Uncletopia | San Francisco | 2 | All Maps","name_short":"sfo-2","host":"sfo-1.us.uncletopia.com","port":27025,"enabled":true,"region":"us-west","cc":"us","latitude":37.77397,"longitude":-122.4313,"reserved":0,"last_update":"0001-01-01T00:00:00Z","name_a2s":"Uncletopia | San Francisco | 2 | All Maps","protocol":17,"map":"cp_sunshine","folder":"tf","game":"Team Fortress","app_id":440,"player_count":0,"max_players":24,"Bots":0,"server_type":"Dedicated","server_os":"Linux","password":true,"vac":true,"version":"7882260","steam_id":85568392924470000,"keywords":["cp","nocrits","nodmgspread","uncletopia"],"game_id":440,"stv_port":27026,"stv_name":"Uncletopia | San Francisco | 2 | All Maps | STV","players":null},{"server_id":19,"name":"Uncletopia | San Francisco | 3 | Stopwatch Beta","name_short":"sfo-3","host":"sfo-1.us.uncletopia.com","port":27035,"enabled":true,"region":"us-west","cc":"us","latitude":37.77397,"longitude":-122.4313,"reserved":0,"last_update":"0001-01-01T00:00:00Z","name_a2s":"Uncletopia | San Francisco | 3 | Stopwatch Beta","protocol":17,"map":"pl_snowycoast","folder":"tf","game":"Team Fortress","app_id":440,"player_count":0,"max_players":24,"Bots":0,"server_type":"Dedicated","server_os":"Linux","password":true,"vac":true,"version":"7882260","steam_id":85568392924742824,"keywords":["nocrits","nodmgspread","payload","uncletopia"],"game_id":440,"stv_port":27036,"stv_name":"Uncletopia | San Francisco | 3 | Stopwatch Beta | STV","players":null},{"server_id":20,"name":"Uncletopia | San Francisco | 4 | Community","name_short":"sfo-4","host":"sfo-1.us.uncletopia.com","port":27045,"enabled":true,"region":"us-west","cc":"us","latitude":37.77397,"longitude":-122.4313,"reserved":0,"last_update":"0001-01-01T00:00:00Z","name_a2s":"Uncletopia | San Francisco | 4 | Community","protocol":17,"map":"pl_swiftwater_final1","folder":"tf","game":"Team Fortress","app_id":440,"player_count":0,"max_players":24,"Bots":0,"server_type":"Dedicated","server_os":"Linux","password":true,"vac":true,"version":"7882260","steam_id":85568392924742826,"keywords":["nocrits","nodmgspread","payload","uncletopia"],"game_id":440,"stv_port":27046,"stv_name":"Uncletopia | San Francisco | 4 | Community | STV","players":null},{"server_id":141,"name":"Uncletopia | Sydney | 1 | All Maps","name_short":"syd-1","host":"syd-1.au.uncletopia.com","port":27015,"enabled":true,"region":"au","cc":"au","latitude":-33.865143,"longitude":151.2099,"reserved":0,"last_update":"0001-01-01T00:00:00Z","name_a2s":"Uncletopia | Sydney | 1 | All Maps","protocol":17,"map":"koth_viaduct","folder":"tf","game":"Team Fortress","app_id":440,"player_count":2,"max_players":24,"Bots":0,"server_type":"Dedicated","server_os":"Linux","password":true,"vac":true,"version":"7882260","steam_id":85568392924470001,"keywords":["cp","nocrits","nodmgspread","uncletopia"],"game_id":440,"stv_port":27016,"stv_name":"Uncletopia | Sydney | 1 | All Maps | STV","players":[{"user_id":505,"name":"–ß–∞–ô–∫–ê","steam_id":76561198981294609,"connected_time":1623000000000,"state":"active","ping":310},{"user_id":506,"name":"notnewbot01","steam_id":76561199405037828,"connected_time":1437000000000,"state":"active","ping":325}]},{"server_id":123,"name":"Uncletopia | Sydney | 2 | All Maps","name_short":"syd-2","host":"syd-1.au.uncletopia.com","port":27025,"enabled":true,"region":"au","cc":"au","latitude":-33.865143,"longitude":151.2099,"reserved":0,"last_update":"0001-01-01T00:00:00Z","name_a2s":"Uncletopia | Sydney | 2 | All Maps","protocol":17,"map":"cp_sunshine","folder":"tf","game":"Team Fortress","app_id":440,"player_count":0,"max_players":24,"Bots":0,"server_type":"Dedicated","server_os":"Linux","password":true,"vac":true,"version":"7882260","steam_id":85568392924470002,"keywords":["cp","nocrits","nodmgspread","uncletopia"],"game_id":440,"stv_port":27026,"stv_name":"Uncletopia | Sydney | 2 | All Maps | STV","players":null},{"server_id":395,"name":"Uncletopia | Sydney | 3 | All Maps","name_short":"syd-3","host":"syd-1.au.uncletopia.com","port":27035,"enabled":true,"region":"au","cc":"au","latitude":-33.865143,"longitude":151.2099,"reserved":0,"last_update":"0001-01-01T00:00:00Z","name_a2s":"Uncletopia | Sydney | 3 | All Maps","protocol":17,"map":"koth_viaduct","folder":"tf","game":"Team Fortress","app_id":440,"player_count":0,"max_players":24,"Bots":0,"server_type":"Dedicated","server_os":"Linux","password":true,"vac":true,"version":"7882260","steam_id":85568392925194467,"keywords":["cp","nocrits","nodmgspread","uncletopia"],"game_id":440,"stv_port":27036,"stv_name":"Uncletopia | Sydney | 3 | All Maps | STV","players":null},{"server_id":396,"name":"Uncletopia | Sydney | 4 | All Maps","name_short":"syd-4","host":"syd-1.au.uncletopia.com","port":27045,"enabled":true,"region":"au","cc":"au","latitude":-33.865143,"longitude":151.2099,"reserved":0,"last_update":"0001-01-01T00:00:00Z","name_a2s":"Uncletopia | Sydney | 4 | All Maps","protocol":17,"map":"cp_snakewater_final1","folder":"tf","game":"Team Fortress","app_id":440,"player_count":0,"max_players":24,"Bots":0,"server_type":"Dedicated","server_os":"Linux","password":true,"vac":true,"version":"7882260","steam_id":85568392925397958,"keywords":["cp","nocrits","nodmgspread","uncletopia"],"game_id":440,"stv_port":27046,"stv_name":"Uncletopia | Sydney | 4 | All Maps | STV","players":null},{"server_id":58,"name":"Uncletopia | Sydney | 5 | Stopwatch Beta","name_short":"syd-5","host":"syd-1.au.uncletopia.com","port":27055,"enabled":true,"region":"au","cc":"au","latitude":-33.865143,"longitude":151.2099,"reserved":0,"last_update":"0001-01-01T00:00:00Z","name_a2s":"Uncletopia | Sydney | 5 | Stopwatch Beta","protocol":17,"map":"koth_viaduct","folder":"tf","game":"Team Fortress","app_id":440,"player_count":0,"max_players":24,"Bots":0,"server_type":"Dedicated","server_os":"Linux","password":true,"vac":true,"version":"7882260","steam_id":85568392925397959,"keywords":["cp","nocrits","nodmgspread","uncletopia"],"game_id":440,"stv_port":27056,"stv_name":"Uncletopia | Sydney | 5 | Stopwatch Beta | STV","players":null},{"server_id":59,"name":"Uncletopia | Sydney | 6 | Community","name_short":"syd-6","host":"syd-1.au.uncletopia.com","port":27065,"enabled":true,"region":"au","cc":"au","latitude":-33.865143,"longitude":151.2099,"reserved":0,"last_update":"0001-01-01T00:00:00Z","name_a2s":"Uncletopia | Sydney | 6 | Community","protocol":17,"map":"workshop/koth_ashville_final.ugc2130459942","folder":"tf","game":"Team Fortress","app_id":440,"player_count":0,"max_players":24,"Bots":0,"server_type":"Dedicated","server_os":"Linux","password":true,"vac":true,"version":"7882260","steam_id":85568392925397960,"keywords":["cp","nocrits","nodmgspread","uncletopia"],"game_id":440,"stv_port":27066,"stv_name":"Uncletopia | Sydney | 6 | Community | STV","players":null},{"server_id":49,"name":"Uncletopia | Warsaw | 1 | All Maps","name_short":"waw-1","host":"waw-1.pl.uncletopia.com","port":27015,"enabled":true,"region":"eu","cc":"pl","latitude":52.2297,"longitude":21.017532,"reserved":0,"last_update":"0001-01-01T00:00:00Z","name_a2s":"","protocol":0,"map":"","folder":"","game":"","app_id":0,"player_count":0,"max_players":0,"Bots":0,"server_type":"","server_os":"","password":false,"vac":false,"version":"","steam_id":0,"keywords":null,"game_id":0,"stv_port":0,"stv_name":"","players":null},{"server_id":50,"name":"Uncletopia | Warsaw | 2 | All Maps","name_short":"waw-2","host":"waw-1.pl.uncletopia.com","port":27025,"enabled":true,"region":"eu","cc":"pl","latitude":52.2297,"longitude":21.017532,"reserved":0,"last_update":"0001-01-01T00:00:00Z","name_a2s":"Uncletopia | Warsaw | 2 | All Maps","protocol":17,"map":"koth_viaduct","folder":"tf","game":"Team Fortress","app_id":440,"player_count":0,"max_players":24,"Bots":0,"server_type":"Dedicated","server_os":"Linux","password":true,"vac":true,"version":"7882260","steam_id":85568392925397851,"keywords":["cp","nocrits","nodmgspread","uncletopia"],"game_id":440,"stv_port":27026,"stv_name":"Uncletopia | Warsaw | 2 | All Maps | STV","players":null},{"server_id":51,"name":"Uncletopia | Warsaw | 3 | All Maps","name_short":"waw-3","host":"waw-1.pl.uncletopia.com","port":27035,"enabled":true,"region":"eu","cc":"pl","latitude":52.2297,"longitude":21.017532,"reserved":0,"last_update":"0001-01-01T00:00:00Z","name_a2s":"Uncletopia | Warsaw | 3 | All Maps","protocol":17,"map":"pl_badwater","folder":"tf","game":"Team Fortress","app_id":440,"player_count":0,"max_players":24,"Bots":0,"server_type":"Dedicated","server_os":"Linux","password":true,"vac":true,"version":"7882260","steam_id":85568392925397852,"keywords":["nocrits","nodmgspread","payload","uncletopia"],"game_id":440,"stv_port":27036,"stv_name":"Uncletopia | Warsaw | 3 | All Maps | STV","players":null},{"server_id":52,"name":"Uncletopia | Warsaw | 4 | All Maps","name_short":"waw-4","host":"waw-1.pl.uncletopia.com","port":27045,"enabled":true,"region":"eu","cc":"pl","latitude":52.2297,"longitude":21.017532,"reserved":0,"last_update":"0001-01-01T00:00:00Z","name_a2s":"Uncletopia | Warsaw | 4 | All Maps","protocol":17,"map":"koth_cascade","folder":"tf","game":"Team Fortress","app_id":440,"player_count":0,"max_players":24,"Bots":0,"server_type":"Dedicated","server_os":"Linux","password":true,"vac":true,"version":"7882260","steam_id":85568392925397853,"keywords":["cp","nocrits","nodmgspread","uncletopia"],"game_id":440,"stv_port":27046,"stv_name":"Uncletopia | Warsaw | 4 | All Maps | STV","players":null},{"server_id":53,"name":"Uncletopia | Warsaw | 5 | Stopwatch Beta","name_short":"waw-5","host":"waw-1.pl.uncletopia.com","port":27055,"enabled":true,"region":"eu","cc":"pl","latitude":52.2297,"longitude":21.017532,"reserved":0,"last_update":"0001-01-01T00:00:00Z","name_a2s":"Uncletopia | Warsaw | 5 | Stopwatch Beta","protocol":17,"map":"cp_dustbowl","folder":"tf","game":"Team Fortress","app_id":440,"player_count":0,"max_players":24,"Bots":0,"server_type":"Dedicated","server_os":"Linux","password":true,"vac":true,"version":"7882260","steam_id":85568392925397854,"keywords":["cp","nocrits","nodmgspread","uncletopia"],"game_id":440,"stv_port":27056,"stv_name":"Uncletopia | Warsaw | 5 | Stopwatch Beta | STV","players":null},{"server_id":54,"name":"Uncletopia | Warsaw | 6 | Community","name_short":"waw-6","host":"waw-1.pl.uncletopia.com","port":27065,"enabled":true,"region":"eu","cc":"pl","latitude":52.2297,"longitude":21.017532,"reserved":0,"last_update":"0001-01-01T00:00:00Z","name_a2s":"Uncletopia | Warsaw | 6 | Community","protocol":17,"map":"cp_dustbowl","folder":"tf","game":"Team Fortress","app_id":440,"player_count":0,"max_players":24,"Bots":0,"server_type":"Dedicated","server_os":"Linux","password":true,"vac":true,"version":"7882260","steam_id":85568392925397856,"keywords":["cp","nocrits","nodmgspread","uncletopia"],"game_id":440,"stv_port":27066,"stv_name":"Uncletopia | Warsaw | 6 | Community | STV","players":null}]}