{"status":true,"message":"","result":[{"server_id":9,"name":"Uncletopia | Atlanta | 1 | All Maps","name_short":"atl-1","host":"atl-1.us.uncletopia.com","port":27015,"enabled":true,"region":"us-east","cc":"us","latitude":33.753746,"longitude":-84.38633,"reserved":0,"last_update":"0001-01-01T00:00:00Z","name_a2s":"Uncletopia | Atlanta | 1 | All Maps","protocol":17,"map":"koth_lakeside_final","folder":"tf","game":"Team Fortress","app_id":440,"player_count":24,"max_players":24,"Bots":0,"server_type":"Dedicated","server_os":"Linux","password":true,"vac":true,"version":"7695204","steam_id":85568392924469982,"keywords":["cp","nocrits","nodmgspread","uncletopia"],"game_id":440,"stv_port":27016,"stv_name":"Uncletopia | Atlanta | 1 | All Maps | STV","players":[{"user_id":456,"name":"ATL1 | eish","steam_id":76561198089463603,"connected_time":404000000000,"state":"active","ping":106},{"user_id":433,"name":"Avo","steam_id":76561197993340494,"connected_time":4702000000000,"state":"active","ping":59},{"user_id":437,"name":"ATL1 | Vee (very jolly and cool","steam_id":76561198330432889,"connected_time":4514000000000,"state":"active","ping":60},{"user_id":459,"name":"IZISOO","steam_id":76561198970380577,"connected_time":371000000000,"state":"active","ping":61},{"user_id":430,"name":"com lag","steam_id":76561198019019392,"connected_time":4790000000000,"state":"active","ping":60},{"user_id":457,"name":"stink","steam_id":76561198099318923,"connected_time":395000000000,"state":"active","ping":86},{"user_id":446,"name":"Braixen","steam_id":76561198354314389,"connected_time":3616000000000,"state":"active","ping":59},{"user_id":449,"name":"indi","steam_id":76561198045917538,"connected_time":3144000000000,"state":"active","ping":64},{"user_id":453,"name":"♥ Ranman ♥","steam_id":76561198042144492,"connected_time":1094000000000,"state":"active","ping":51},{"user_id":460,"name":"R33se","steam_id":76561198296531992,"connected_time":368000000000,"state":"active","ping":71},{"user_id":450,"name":"Save your wifi","steam_id":76561198286147372,"connected_time":3101000000000,"state":"active","ping":51},{"user_id":461,"name":"Zhong Xina 钟新娜","steam_id":76561198044022060,"connected_time":322000000000,"state":"active","ping":59},{"user_id":438,"name":"Hodeman","steam_id":76561197975982368,"connected_time":4439000000000,"state":"active","ping":65},{"user_id":442,"name":"Intro Bonito","steam_id":76561198119478838,"connected_time":3763000000000,"state":"active","ping":60},{"user_id":439,"name":"basil","steam_id":76561198075758026,"connected_time":4430000000000,"state":"active","ping":79},{"user_id":405,"name":"ATL1 | Psionic Present","steam_id":76561198151019322,"connected_time":6607000000000,"state":"active","ping":60},{"user_id":440,"name":"cola","steam_id":76561198374390458,"connected_time":4371000000000,"state":"active","ping":55},{"user_id":420,"name":"p_picklelol","steam_id":76561198129434533,"connected_time":5841000000000,"state":"active","ping":60},{"user_id":464,"name":"froggy","steam_id":76561198079405234,"connected_time":107000000000,"state":"active","ping":71},{"user_id":416,"name":"☙ Corrupt ❧","steam_id":76561197977631915,"connected_time":6023000000000,"state":"active","ping":48},{"user_id":463,"name":"Mastery of Rectal Prolapse","steam_id":76561198277198222,"connected_time":203000000000,"state":"active","ping":52},{"user_id":441,"name":"merry mommy","steam_id":76561199230929836,"connected_time":4200000000000,"state":"active","ping":78},{"user_id":454,"name":"luxin","steam_id":76561198399383047,"connected_time":693000000000,"state":"active","ping":45},{"user_id":422,"name":"DingDongAnalog","steam_id":76561198850181994,"connected_time":5719000000000,"state":"active","ping":109}]},{"server_id":400,"name":"Uncletopia | Atlanta | 3 | All Maps","name_short":"atl-3","host":"atl-1.us.uncletopia.com","port":27035,"enabled":true,"region":"us-east","cc":"us","latitude":33.753746,"longitude":-84.38633,"reserved":0,"last_update":"0001-01-01T00:00:00Z","name_a2s":"Uncletopia | Atlanta | 3 | All Maps","protocol":17,"map":"pl_frontier_final","folder":"tf","game":"Team Fortress","app_id":440,"player_count":24,"max_players":24,"Bots":0,"server_type":"Dedicated","server_os":"Linux","password":true,"vac":true,"version":"7695204","steam_id":85568392924515187,"keywords":["nocrits","nodmgspread","payload","uncletopia"],"game_id":440,"stv_port":27036,"stv_name":"Uncletopia | Atlanta | 3 | All Maps | STV","players":[{"user_id":223,"name":"krerdly is real","steam_id":76561198377555279,"connected_time":543000000000,"state":"active","ping":61},{"user_id":173,"name":"[UNFAIR] H1gh0nSt34m","steam_id":76561198839068126,"connected_time":2769000000000,"state":"active","ping":64},{"user_id":204,"name":"Glove Man","steam_id":76561198186899790,"connected_time":1622000000000,"state":"active","ping":80},{"user_id":209,"name":"LordOfTheNoobs","steam_id":76561197962697523,"connected_time":1255000000000,"state":"active","ping":44},{"user_id":199,"name":"rumes","steam_id":76561198349219467,"connected_time":1712000000000,"state":"active","ping":89},{"user_id":211,"name":"saraph","steam_id":76561198070698533,"connected_time":1212000000000,"state":"active","ping":87},{"user_id":194,"name":"DiscoTraveler","steam_id":76561199240168088,"connected_time":1882000000000,"state":"active","ping":62},{"user_id":212,"name":"Architect","steam_id":76561198015242016,"connected_time":1207000000000,"state":"active","ping":57},{"user_id":220,"name":"Salt_Inventor","steam_id":76561198090433209,"connected_time":918000000000,"state":"active","ping":76},{"user_id":232,"name":"Robyn Goodfellowe","steam_id":76561198074719241,"connected_time":82000000000,"state":"active","ping":68},{"user_id":227,"name":"spamf1ಠ⌣ಠ","steam_id":76561198884460313,"connected_time":355000000000,"state":"active","ping":92},{"user_id":175,"name":"Pretty Boy's Pocket Pussy","steam_id":76561198050582941,"connected_time":2704000000000,"state":"active","ping":90},{"user_id":176,"name":"fumo","steam_id":76561199089453214,"connected_time":2668000000000,"state":"active","ping":70},{"user_id":229,"name":"Potato PC","steam_id":76561197994217512,"connected_time":250000000000,"state":"active","ping":78},{"user_id":225,"name":"stuporvillian","steam_id":76561198083796225,"connected_time":406000000000,"state":"active","ping":77},{"user_id":190,"name":"Nephs","steam_id":76561198136763403,"connected_time":2337000000000,"state":"active","ping":73},{"user_id":192,"name":"the senate","steam_id":76561198353542913,"connected_time":1955000000000,"state":"active","ping":79},{"user_id":215,"name":"Bad Santa","steam_id":76561198000198205,"connected_time":1134000000000,"state":"active","ping":60},{"user_id":226,"name":"Spiral Mountain","steam_id":76561198058683715,"connected_time":367000000000,"state":"active","ping":80},{"user_id":228,"name":"full of soap","steam_id":76561198183999845,"connected_time":347000000000,"state":"active","ping":139},{"user_id":182,"name":"bonk","steam_id":76561198004823930,"connected_time":2590000000000,"state":"active","ping":53},{"user_id":183,"name":"Sexual Butt","steam_id":76561198102241399,"connected_time":2582000000000,"state":"active","ping":74},{"user_id":230,"name":"Draygin","steam_id":76561198060607137,"connected_time":244000000000,"state":"active","ping":55},{"user_id":165,"name":"Mr. Tickle","steam_id":76561198126684647,"connected_time":3917000000000,"state":"active","ping":79}]},{"server_id":401,"name":"Uncletopia | Atlanta | 4 | No Payload","name_short":"atl-4","host":"atl-1.us.uncletopia.com","port":27045,"enabled":true,"region":"us-east","cc":"us","latitude":33.753746,"longitude":-84.38633,"reserved":0,"last_update":"0001-01-01T00:00:00Z","name_a2s":"Uncletopia | Atlanta | 4 | No Payload","protocol":17,"map":"koth_sawmill","folder":"tf","game":"Team Fortress","app_id":440,"player_count":0,"max_players":24,"Bots":0,"server_type":"Dedicated","server_os":"Linux","password":true,"vac":true,"version":"7695204","steam_id":85568392924515188,"keywords":["cp","nocrits","nodmgspread","uncletopia"],"game_id":440,"stv_port":27046,"stv_name":"Uncletopia | Atlanta | 4 | No Payload | STV","players":null},{"server_id":2,"name":"Uncletopia | Chicago | 1 | All Maps","name_short":"chi-1","host":"chi-1.us.uncletopia.com","port":27015,"enabled":true,"region":"us-central","cc":"us","latitude":41.881832,"longitude":-87.62318,"reserved":0,"last_update":"0001-01-01T00:00:00Z","name_a2s":"Uncletopia | Chicago | 1 | All Maps","protocol":17,"map":"pl_goldrush","folder":"tf","game":"Team Fortress","app_id":440,"player_count":24,"max_players":24,"Bots":0,"server_type":"Dedicated","server_os":"Linux","password":true,"vac":true,"version":"7695204","steam_id":85568392924469984,"keywords":["nocrits","nodmgspread","payload","uncletopia"],"game_id":440,"stv_port":27016,"stv_name":"Uncletopia | Chicago | 1 | All Maps | STV","players":[{"user_id":508,"name":"Mythical Lag","steam_id":76561198347031281,"connected_time":6782000000000,"state":"active","ping":74},{"user_id":584,"name":"Athrium","steam_id":76561199201940614,"connected_time":1384000000000,"state":"active","ping":102},{"user_id":517,"name":"ÒwÓ","steam_id":76561197997304387,"connected_time":5215000000000,"state":"active","ping":67},{"user_id":465,"name":"Ben Shapiro Gaming","steam_id":76561198113651011,"connected_time":8800000000000,"state":"active","ping":61},{"user_id":565,"name":"                             -","steam_id":76561198021308963,"connected_time":2641000000000,"state":"active","ping":68},{"user_id":575,"name":"splatoon 3 enjoyer","steam_id":76561198306945757,"connected_time":1660000000000,"state":"active","ping":71},{"user_id":585,"name":"yitz","steam_id":76561198375575841,"connected_time":1289000000000,"state":"active","ping":57},{"user_id":577,"name":"Kalimar","steam_id":76561198316254429,"connected_time":1649000000000,"state":"active","ping":81},{"user_id":581,"name":"AOTFB | BigTony","steam_id":76561198260516158,"connected_time":1527000000000,"state":"active","ping":54},{"user_id":557,"name":"Probably Aleks","steam_id":76561199106731358,"connected_time":3219000000000,"state":"active","ping":62},{"user_id":536,"name":"Legion","steam_id":76561199036242643,"connected_time":4598000000000,"state":"active","ping":65},{"user_id":569,"name":"tum","steam_id":76561198084712019,"connected_time":2348000000000,"state":"active","ping":107},{"user_id":552,"name":"Pizza Party","steam_id":76561198165730754,"connected_time":3244000000000,"state":"active","ping":68},{"user_id":546,"name":"garf","steam_id":76561198088228311,"connected_time":3322000000000,"state":"active","ping":70},{"user_id":573,"name":"lankyboxbigfan2012","steam_id":76561199139182003,"connected_time":1848000000000,"state":"active","ping":59},{"user_id":578,"name":"im druhnk","steam_id":76561198025723087,"connected_time":1644000000000,"state":"active","ping":77},{"user_id":555,"name":"09robcraft2","steam_id":76561199073189184,"connected_time":3239000000000,"state":"active","ping":92},{"user_id":538,"name":"Noodlebox","steam_id":76561197993846770,"connected_time":4449000000000,"state":"active","ping":91},{"user_id":558,"name":"lyra","steam_id":76561198200002859,"connected_time":3142000000000,"state":"active","ping":60},{"user_id":532,"name":"ThatTechDude","steam_id":76561198342630635,"connected_time":4899000000000,"state":"active","ping":50},{"user_id":540,"name":"Raniel Dicciardo","steam_id":76561198053859538,"connected_time":4290000000000,"state":"active","ping":73},{"user_id":579,"name":"valky","steam_id":76561198046033522,"connected_time":1635000000000,"state":"active","ping":97},{"user_id":580,"name":"AOTFB | Vox Vulpera","steam_id":76561198796227041,"connected_time":1609000000000,"state":"active","ping":80},{"user_id":541,"name":"world's dumbest himbo","steam_id":76561199143725014,"connected_time":4262000000000,"state":"active","ping":74}]},{"server_id":106,"name":"Uncletopia | Chicago | 2 | All Maps","name_short":"chi-2","host":"chi-1.us.uncletopia.com","port":27025,"enabled":true,"region":"us-central","cc":"us","latitude":41.881832,"longitude":-87.62318,"reserved":0,"last_update":"0001-01-01T00:00:00Z","name_a2s":"Uncletopia | Chicago | 2 | All Maps","protocol":17,"map":"cp_snakewater_final1","folder":"tf","game":"Team Fortress","app_id":440,"player_count":24,"max_players":24,"Bots":0,"server_type":"Dedicated","server_os":"Linux","password":true,"vac":true,"version":"7695204","steam_id":85568392924469985,"keywords":["cp","nocrits","nodmgspread","uncletopia"],"game_id":440,"stv_port":27026,"stv_name":"Uncletopia | Chicago | 2 | All Maps | STV","players":[{"user_id":506,"name":"terrapieseven","steam_id":76561198072062415,"connected_time":524000000000,"state":"active","ping":72},{"user_id":490,"name":"Boiling Oil","steam_id":76561199238964574,"connected_time":1720000000000,"state":"active","ping":66},{"user_id":507,"name":"beats_femboy","steam_id":76561199245717718,"connected_time":517000000000,"state":"active","ping":56},{"user_id":508,"name":"C++","steam_id":76561199075294298,"connected_time":515000000000,"state":"active","ping":84},{"user_id":516,"name":"disser","steam_id":76561198344531355,"connected_time":203000000000,"state":"active","ping":78},{"user_id":510,"name":"Shmoopy","steam_id":76561198030459152,"connected_time":472000000000,"state":"active","ping":75},{"user_id":502,"name":"HeroNasty_","steam_id":76561198418231014,"connected_time":760000000000,"state":"active","ping":108},{"user_id":521,"name":"aspartame enjoyer","steam_id":76561198117033273,"connected_time":92000000000,"state":"active","ping":140},{"user_id":415,"name":"Lomba","steam_id":76561198136329102,"connected_time":6417000000000,"state":"active","ping":77},{"user_id":518,"name":"defcon","steam_id":76561198100656328,"connected_time":158000000000,"state":"active","ping":80},{"user_id":501,"name":"a crazy hobo","steam_id":76561198289650060,"connected_time":1369000000000,"state":"active","ping":85},{"user_id":511,"name":"Quansen","steam_id":76561198151594550,"connected_time":406000000000,"state":"active","ping":53},{"user_id":476,"name":"Domino Jones","steam_id":76561198202195792,"connected_time":2336000000000,"state":"active","ping":59},{"user_id":503,"name":"Moctezuma","steam_id":76561198084075989,"connected_time":755000000000,"state":"active","ping":79},{"user_id":509,"name":"diymo","steam_id":76561198017600790,"connected_time":507000000000,"state":"active","ping":82},{"user_id":512,"name":"superbad","steam_id":76561198065913973,"connected_time":336000000000,"state":"active","ping":106},{"user_id":416,"name":"taky0n","steam_id":76561198103759716,"connected_time":6417000000000,"state":"active","ping":76},{"user_id":437,"name":"Grimm","steam_id":76561198355935693,"connected_time":4409000000000,"state":"active","ping":50},{"user_id":500,"name":"Sunmist","steam_id":76561198027784824,"connected_time":1390000000000,"state":"active","ping":81},{"user_id":409,"name":"brae","steam_id":76561198047126327,"connected_time":7233000000000,"state":"active","ping":77},{"user_id":463,"name":"OneTrueCorvid","steam_id":76561199012953221,"connected_time":2450000000000,"state":"active","ping":93},{"user_id":522,"name":"KingTinkerer","steam_id":76561198226856548,"connected_time":72000000000,"state":"active","ping":80},{"user_id":485,"name":"nb","steam_id":76561199384918606,"connected_time":1845000000000,"state":"active","ping":60},{"user_id":514,"name":"bubby chungas","steam_id":76561198151652135,"connected_time":318000000000,"state":"active","ping":82}]},{"server_id":402,"name":"Uncletopia | Chicago | 3 | All Maps","name_short":"chi-3","host":"chi-1.us.uncletopia.com","port":27035,"enabled":true,"region":"us-central","cc":"us","latitude":41.881832,"longitude":-87.62318,"reserved":0,"last_update":"0001-01-01T00:00:00Z","name_a2s":"Uncletopia | Chicago | 3 | All Maps","protocol":17,"map":"cp_dustbowl","folder":"tf","game":"Team Fortress","app_id":440,"player_count":24,"max_players":24,"Bots":0,"server_type":"Dedicated","server_os":"Linux","password":true,"vac":true,"version":"7695204","steam_id":85568392924515191,"keywords":["cp","nocrits","nodmgspread","uncletopia"],"game_id":440,"stv_port":27036,"stv_name":"Uncletopia | Chicago | 3 | All Maps | STV","players":[{"user_id":346,"name":"BEN FRANKLYN KNOWS MY NAME","steam_id":76561199007029763,"connected_time":4545000000000,"state":"active","ping":65},{"user_id":363,"name":"november","steam_id":76561198148357768,"connected_time":2738000000000,"state":"active","ping":60},{"user_id":365,"name":"Plate","steam_id":76561198013720285,"connected_time":2609000000000,"state":"active","ping":66},{"user_id":358,"name":"Bowl","steam_id":76561198133931159,"connected_time":3526000000000,"state":"active","ping":60},{"user_id":304,"name":"Dat Dere Kirby","steam_id":76561198084054568,"connected_time":8097000000000,"state":"active","ping":80},{"user_id":305,"name":"Nuruko","steam_id":76561198066698922,"connected_time":8084000000000,"state":"active","ping":47},{"user_id":306,"name":"Liquid Metal Slime from DQ9","steam_id":76561198061621275,"connected_time":8072000000000,"state":"active","ping":73},{"user_id":378,"name":"Tresthebest360","steam_id":76561198965347175,"connected_time":814000000000,"state":"active","ping":65},{"user_id":312,"name":"Vivi from Final","steam_id":76561198119809263,"connected_time":7170000000000,"state":"active","ping":105},{"user_id":360,"name":"Morphe","steam_id":76561197999279039,"connected_time":2823000000000,"state":"active","ping":60},{"user_id":374,"name":"scooterre","steam_id":76561198055068182,"connected_time":1011000000000,"state":"active","ping":52},{"user_id":372,"name":"TriM","steam_id":76561198048332533,"connected_time":1542000000000,"state":"active","ping":51},{"user_id":375,"name":"neo","steam_id":76561197960772594,"connected_time":987000000000,"state":"active","ping":77},{"user_id":370,"name":"plutonium isotope","steam_id":76561198319442494,"connected_time":1577000000000,"state":"active","ping":96},{"user_id":364,"name":"King Cotton","steam_id":76561198292444376,"connected_time":2732000000000,"state":"active","ping":74},{"user_id":376,"name":"Depresso Amber","steam_id":76561198074209737,"connected_time":982000000000,"state":"active","ping":60},{"user_id":377,"name":"{FITH}™ Halcyon","steam_id":76561198049132808,"connected_time":959000000000,"state":"active","ping":101},{"user_id":369,"name":"Cleric","steam_id":76561198045887994,"connected_time":1762000000000,"state":"active","ping":45},{"user_id":333,"name":"Bidoofus","steam_id":76561198047726667,"connected_time":5741000000000,"state":"active","ping":48},{"user_id":353,"name":"b2brawler","steam_id":76561198037174169,"connected_time":4197000000000,"state":"active","ping":45},{"user_id":361,"name":"The Muffin Man","steam_id":76561199088286427,"connected_time":2814000000000,"state":"active","ping":104},{"user_id":354,"name":"BALL FART BARON","steam_id":76561198410061750,"connected_time":4186000000000,"state":"active","ping":58},{"user_id":380,"name":"p1ss","steam_id":76561198271748906,"connected_time":360000000000,"state":"active","ping":76},{"user_id":379,"name":"México","steam_id":76561198238059280,"connected_time":804000000000,"state":"active","ping":103}]},{"server_id":403,"name":"Uncletopia | Chicago | 4 | All Maps","name_short":"chi-4","host":"chi-1.us.uncletopia.com","port":27045,"enabled":true,"region":"us-central","cc":"us","latitude":41.881832,"longitude":-87.62318,"reserved":0,"last_update":"0001-01-01T00:00:00Z","name_a2s":"Uncletopia | Chicago | 4 | All Maps","protocol":17,"map":"cp_coldfront","folder":"tf","game":"Team Fortress","app_id":440,"player_count":24,"max_players":24,"Bots":0,"server_type":"Dedicated","server_os":"Linux","password":true,"vac":true,"version":"7695204","steam_id":85568392924515193,"keywords":["cp","nocrits","nodmgspread","uncletopia"],"game_id":440,"stv_port":27046,"stv_name":"Uncletopia | Chicago | 4 | All Maps | STV","players":[{"user_id":446,"name":"-Chan","steam_id":76561198231125628,"connected_time":3029000000000,"state":"active","ping":64},{"user_id":387,"name":"Assilio","steam_id":76561198371102414,"connected_time":8976000000000,"state":"active","ping":73},{"user_id":442,"name":"riley","steam_id":76561198133142520,"connected_time":3904000000000,"state":"active","ping":69},{"user_id":451,"name":"mkwiiallpro","steam_id":76561198312645614,"connected_time":2790000000000,"state":"active","ping":53},{"user_id":449,"name":"atserc","steam_id":76561197997570349,"connected_time":2830000000000,"state":"active","ping":93},{"user_id":384,"name":"My controller broke","steam_id":76561198157280577,"connected_time":9036000000000,"state":"active","ping":74},{"user_id":477,"name":"SmileyTrashBoi","steam_id":76561199095976183,"connected_time":33000000000,"state":"spawning","ping":77},{"user_id":460,"name":"Muffin","steam_id":76561198050715053,"connected_time":1669000000000,"state":"active","ping":77},{"user_id":435,"name":"raya","steam_id":76561198051504581,"connected_time":4996000000000,"state":"active","ping":68},{"user_id":374,"name":"Horus","steam_id":76561198166215370,"connected_time":10017000000000,"state":"active","ping":99},{"user_id":457,"name":"_Lusty_","steam_id":76561198876948142,"connected_time":2599000000000,"state":"active","ping":87},{"user_id":437,"name":"Zpan0317","steam_id":76561198243792280,"connected_time":4967000000000,"state":"active","ping":59},{"user_id":464,"name":"bulrushed","steam_id":76561199307715463,"connected_time":1410000000000,"state":"active","ping":92},{"user_id":469,"name":"FireFox_UwU","steam_id":76561199031647734,"connected_time":1236000000000,"state":"active","ping":79},{"user_id":471,"name":"Clovr the Hung One","steam_id":76561198290270411,"connected_time":1088000000000,"state":"active","ping":79},{"user_id":472,"name":"Arrythmia","steam_id":76561198093748123,"connected_time":959000000000,"state":"active","ping":89},{"user_id":423,"name":"badass skeleten","steam_id":76561198198460711,"connected_time":6466000000000,"state":"active","ping":52},{"user_id":465,"name":"COD zombie","steam_id":76561198375679278,"connected_time":1404000000000,"state":"active","ping":75},{"user_id":424,"name":"Pierce","steam_id":76561198043747953,"connected_time":6435000000000,"state":"active","ping":60},{"user_id":470,"name":"Mr. Purple","steam_id":76561198161429571,"connected_time":1220000000000,"state":"active","ping":76},{"user_id":284,"name":"McGangBang","steam_id":76561198862379865,"connected_time":18406000000000,"state":"active","ping":58},{"user_id":475,"name":"Pandanator13","steam_id":76561199203491997,"connected_time":643000000000,"state":"active","ping":56},{"user_id":474,"name":"LEANSIPPERBIGASSMOTHERFUCKER189","steam_id":76561199228980236,"connected_time":944000000000,"state":"active","ping":61},{"user_id":468,"name":"Detective Kimball","steam_id":76561199063130278,"connected_time":1315000000000,"state":"active","ping":113}]},{"server_id":36,"name":"Uncletopia | Chicago | 5 | All Maps","name_short":"chi-5","host":"chi-2.us.uncletopia.com","port":27015,"enabled":true,"region":"us-central","cc":"us","latitude":41.881832,"longitude":-87.62318,"reserved":0,"last_update":"0001-01-01T00:00:00Z","name_a2s":"Uncletopia | Chicago | 5 | All Maps","protocol":17,"map":"pl_barnblitz","folder":"tf","game":"Team Fortress","app_id":440,"player_count":19,"max_players":24,"Bots":0,"server_type":"Dedicated","server_os":"Linux","password":true,"vac":true,"version":"7695204","steam_id":85568392924866362,"keywords":["nocrits","nodmgspread","payload","uncletopia"],"game_id":440,"stv_port":27016,"stv_name":"Uncletopia | Chicago | 5 | All Maps | STV","players":[{"user_id":436,"name":"Newt","steam_id":76561198842909288,"connected_time":1298000000000,"state":"active","ping":116},{"user_id":408,"name":"BillButtLicker69","steam_id":76561198070119268,"connected_time":2871000000000,"state":"active","ping":105},{"user_id":414,"name":"Kevin Y.","steam_id":76561198364331423,"connected_time":2541000000000,"state":"active","ping":70},{"user_id":448,"name":"mayonnaise","steam_id":76561198120753890,"connected_time":67000000000,"state":"active","ping":67},{"user_id":386,"name":"Lore","steam_id":76561198098407538,"connected_time":4931000000000,"state":"active","ping":52},{"user_id":405,"name":"TheTomatoWizard","steam_id":76561199123567989,"connected_time":3030000000000,"state":"active","ping":84},{"user_id":446,"name":"Family Guy Funny Moments","steam_id":76561198847752839,"connected_time":626000000000,"state":"active","ping":105},{"user_id":425,"name":"poobis-130 inbound","steam_id":76561198123287268,"connected_time":1877000000000,"state":"active","ping":47},{"user_id":439,"name":"◯ | IceWaltz","steam_id":76561198146498522,"connected_time":866000000000,"state":"active","ping":126},{"user_id":440,"name":"yuji","steam_id":76561198401572620,"connected_time":845000000000,"state":"active","ping":55},{"user_id":441,"name":"Spark!","steam_id":76561198014640846,"connected_time":807000000000,"state":"active","ping":76},{"user_id":401,"name":"Iman Shitpants","steam_id":76561198063677510,"connected_time":3536000000000,"state":"active","ping":63},{"user_id":434,"name":"faxxy","steam_id":76561198079621240,"connected_time":1483000000000,"state":"active","ping":60},{"user_id":410,"name":"jolt","steam_id":76561198055423711,"connected_time":2859000000000,"state":"active","ping":52},{"user_id":442,"name":"RelativeToZero","steam_id":76561198175875733,"connected_time":794000000000,"state":"active","ping":114},{"user_id":443,"name":"Murk Wahlberg","steam_id":76561198131467867,"connected_time":790000000000,"state":"active","ping":76},{"user_id":382,"name":"Mischief of Rats","steam_id":76561198106307068,"connected_time":5722000000000,"state":"active","ping":51},{"user_id":444,"name":"slayy","steam_id":76561197994492154,"connected_time":742000000000,"state":"active","ping":165},{"user_id":445,"name":"Strange Child","steam_id":76561198082523009,"connected_time":719000000000,"state":"active","ping":61}]},{"server_id":37,"name":"Uncletopia | Chicago | 6 | All Maps","name_short":"chi-6","host":"chi-2.us.uncletopia.com","port":27025,"enabled":true,"region":"us-central","cc":"us","latitude":41.881832,"longitude":-87.62318,"reserved":0,"last_update":"0001-01-01T00:00:00Z","name_a2s":"Uncletopia | Chicago | 6 | All Maps","protocol":17,"map":"pl_swiftwater_final1","folder":"tf","game":"Team Fortress","app_id":440,"player_count":24,"max_players":24,"Bots":0,"server_type":"Dedicated","server_os":"Linux","password":true,"vac":true,"version":"7695204","steam_id":85568392924866363,"keywords":["nocrits","nodmgspread","payload","uncletopia"],"game_id":440,"stv_port":27026,"stv_name":"Uncletopia | Chicago | 6 | All Maps | STV","players":[{"user_id":219,"name":"AlecTheNecrophiliac","steam_id":76561198010019214,"connected_time":4969000000000,"state":"active","ping":48},{"user_id":231,"name":"lanoc","steam_id":76561198055415367,"connected_time":3881000000000,"state":"active","ping":59},{"user_id":206,"name":"gyozaking","steam_id":76561197972312696,"connected_time":5982000000000,"state":"active","ping":42},{"user_id":180,"name":"Pep Seeman","steam_id":76561198038393007,"connected_time":8475000000000,"state":"active","ping":50},{"user_id":264,"name":"Leviathon804","steam_id":76561198979241603,"connected_time":1804000000000,"state":"active","ping":75},{"user_id":283,"name":"Moshi Man","steam_id":76561198038249762,"connected_time":124000000000,"state":"active","ping":53},{"user_id":270,"name":"chilis baby back ribs","steam_id":76561198813516435,"connected_time":840000000000,"state":"active","ping":97},{"user_id":271,"name":"the real big sips","steam_id":76561197999945358,"connected_time":719000000000,"state":"active","ping":73},{"user_id":220,"name":"AlecTheNefarious","steam_id":76561198035291230,"connected_time":4967000000000,"state":"active","ping":67},{"user_id":267,"name":"sithreis","steam_id":76561198000564263,"connected_time":1667000000000,"state":"active","ping":68},{"user_id":266,"name":"Jackdoug","steam_id":76561198309384213,"connected_time":1709000000000,"state":"active","ping":104},{"user_id":272,"name":"Benjy52 | YT","steam_id":76561198055093844,"connected_time":707000000000,"state":"active","ping":86},{"user_id":232,"name":"clio","steam_id":76561198141700569,"connected_time":3878000000000,"state":"active","ping":78},{"user_id":282,"name":"deg vegas","steam_id":76561199195205705,"connected_time":187000000000,"state":"active","ping":82},{"user_id":280,"name":"Wukey","steam_id":76561197969001266,"connected_time":476000000000,"state":"active","ping":67},{"user_id":284,"name":"macaroni zamboni","steam_id":76561198127149121,"connected_time":84000000000,"state":"active","ping":80},{"user_id":244,"name":"BOATS","steam_id":76561198084018402,"connected_time":2972000000000,"state":"active","ping":47},{"user_id":278,"name":"Marc G","steam_id":76561198062650363,"connected_time":494000000000,"state":"active","ping":74},{"user_id":268,"name":"Lemur","steam_id":76561198065300466,"connected_time":1642000000000,"state":"active","ping":79},{"user_id":275,"name":"Adawnby","steam_id":76561198103057295,"connected_time":662000000000,"state":"active","ping":83},{"user_id":218,"name":"java","steam_id":76561198030276792,"connected_time":5499000000000,"state":"active","ping":67},{"user_id":279,"name":"mulch","steam_id":76561198067711979,"connected_time":484000000000,"state":"active","ping":50},{"user_id":240,"name":"Dr3gyn0","steam_id":76561199081910939,"connected_time":3812000000000,"state":"active","ping":65},{"user_id":263,"name":"Preston","steam_id":76561198059794321,"connected_time":2705000000000,"state":"active","ping":80}]},{"server_id":38,"name":"Uncletopia | Chicago | 7 | No Payload","name_short":"chi-7","host":"chi-2.us.uncletopia.com","port":27035,"enabled":true,"region":"us-central","cc":"us","latitude":41.881832,"longitude":-87.62318,"reserved":0,"last_update":"0001-01-01T00:00:00Z","name_a2s":"Uncletopia | Chicago | 7 | No Payload","protocol":17,"map":"cp_vanguard","folder":"tf","game":"Team Fortress","app_id":440,"player_count":23,"max_players":24,"Bots":0,"server_type":"Dedicated","server_os":"Linux","password":true,"vac":true,"version":"7695204","steam_id":85568392924866364,"keywords":["cp","nocrits","nodmgspread","uncletopia"],"game_id":440,"stv_port":27036,"stv_name":"Uncletopia | Chicago | 7 | No Payload | STV","players":[{"user_id":153,"name":"TheBloodMoon","steam_id":76561198443717843,"connected_time":28000000000,"state":"active","ping":64},{"user_id":144,"name":"pocastillo","steam_id":76561198145900131,"connected_time":819000000000,"state":"active","ping":46},{"user_id":154,"name":"Alltrex","steam_id":76561198202254225,"connected_time":9000000000,"state":"spawning","ping":91},{"user_id":71,"name":"TheAilingSword","steam_id":76561198250350844,"connected_time":6621000000000,"state":"active","ping":60},{"user_id":131,"name":"primordialheath","steam_id":76561199386942638,"connected_time":2036000000000,"state":"active","ping":58},{"user_id":24,"name":"The Hamburger Helper","steam_id":76561199043015346,"connected_time":9523000000000,"state":"active","ping":46},{"user_id":25,"name":"pray tell. dost thou fart?","steam_id":76561198149666258,"connected_time":9513000000000,"state":"active","ping":74},{"user_id":145,"name":"A used self heating flesh-light","steam_id":76561198069918221,"connected_time":730000000000,"state":"active","ping":66},{"user_id":119,"name":"totally not a pile of beans","steam_id":76561198119851931,"connected_time":2785000000000,"state":"active","ping":76},{"user_id":139,"name":"Fred","steam_id":76561197983870604,"connected_time":1237000000000,"state":"active","ping":90},{"user_id":72,"name":"DarkForce8","steam_id":76561198853892261,"connected_time":6409000000000,"state":"active","ping":111},{"user_id":140,"name":"Doxy_lsb","steam_id":76561198140441931,"connected_time":1177000000000,"state":"active","ping":64},{"user_id":94,"name":"Alex Narex","steam_id":76561198814364412,"connected_time":4288000000000,"state":"active","ping":112},{"user_id":110,"name":"Splinto","steam_id":76561198111260488,"connected_time":3466000000000,"state":"active","ping":50},{"user_id":151,"name":"mago","steam_id":76561198880309324,"connected_time":510000000000,"state":"active","ping":60},{"user_id":146,"name":"Colin102004","steam_id":76561198202384334,"connected_time":721000000000,"state":"active","ping":56},{"user_id":52,"name":"Azrazel","steam_id":76561198821691005,"connected_time":8390000000000,"state":"active","ping":76},{"user_id":147,"name":"Menachem","steam_id":76561198041226420,"connected_time":706000000000,"state":"active","ping":52},{"user_id":73,"name":"Anarchy","steam_id":76561199062545363,"connected_time":6386000000000,"state":"active","ping":163},{"user_id":152,"name":"[ESS] Cinderace","steam_id":76561198132899671,"connected_time":441000000000,"state":"active","ping":59},{"user_id":74,"name":"Retrowave","steam_id":76561198061921346,"connected_time":6374000000000,"state":"active","ping":62},{"user_id":149,"name":"Elias","steam_id":76561198031295139,"connected_time":620000000000,"state":"active","ping":100},{"user_id":132,"name":"Phos","steam_id":76561198122339506,"connected_time":2019000000000,"state":"active","ping":73}]},{"server_id":39,"name":"Uncletopia | Chicago | 8 | Community","name_short":"chi-8","host":"chi-2.us.uncletopia.com","port":27045,"enabled":true,"region":"us-central","cc":"us","latitude":41.881832,"longitude":-87.62318,"reserved":0,"last_update":"0001-01-01T00:00:00Z","name_a2s":"Uncletopia | Chicago | 8 | Community","protocol":17,"map":"workshop/pl_vigil_rc9.ugc1266210012","folder":"tf","game":"Team Fortress","app_id":440,"player_count":0,"max_players":24,"Bots":0,"server_type":"Dedicated","server_os":"Linux","password":true,"vac":true,"version":"7695204","steam_id":85568392924866365,"keywords":["nocrits","nodmgspread","payload","uncletopia"],"game_id":440,"stv_port":27046,"stv_name":"Uncletopia | Chicago | 8 | Community | STV","players":null},{"server_id":8,"name":"Uncletopia | Dallas | 1 | All Maps","name_short":"dal-1","host":"dal-1.us.uncletopia.com","port":27015,"enabled":true,"region":"us-central","cc":"us","latitude":32.779167,"longitude":-96.80889,"reserved":0,"last_update":"0001-01-01T00:00:00Z","name_a2s":"Uncletopia | Dallas | 1 | All Maps","protocol":17,"map":"cp_sunshine","folder":"tf","game":"Team Fortress","app_id":440,"player_count":22,"max_players":24,"Bots":0,"server_type":"Dedicated","server_os":"Linux","password":true,"vac":true,"version":"7695204","steam_id":85568392924469986,"keywords":["cp","nocrits","nodmgspread","uncletopia"],"game_id":440,"stv_port":27016,"stv_name":"Uncletopia | Dallas | 1 | All Maps | STV","players":[{"user_id":474,"name":"St. Michael","steam_id":76561198037611052,"connected_time":1134000000000,"state":"active","ping":43},{"user_id":442,"name":"poey","steam_id":76561198865346767,"connected_time":3222000000000,"state":"active","ping":74},{"user_id":475,"name":"Emma","steam_id":76561198318093783,"connected_time":1116000000000,"state":"active","ping":60},{"user_id":464,"name":"Glitch51","steam_id":76561198217050353,"connected_time":1904000000000,"state":"active","ping":88},{"user_id":466,"name":"Nyyrikki","steam_id":76561198093411560,"connected_time":1821000000000,"state":"active","ping":90},{"user_id":486,"name":"Luna","steam_id":76561198075944196,"connected_time":380000000000,"state":"active","ping":63},{"user_id":469,"name":"Krow","steam_id":76561198010392099,"connected_time":1529000000000,"state":"active","ping":51},{"user_id":484,"name":"ZM","steam_id":76561198143340983,"connected_time":386000000000,"state":"active","ping":90},{"user_id":423,"name":"+","steam_id":76561198262422184,"connected_time":5113000000000,"state":"active","ping":54},{"user_id":477,"name":"Kerosene","steam_id":76561198978778718,"connected_time":1077000000000,"state":"active","ping":136},{"user_id":478,"name":"Captain Innocuous","steam_id":76561197968982943,"connected_time":1030000000000,"state":"active","ping":76},{"user_id":487,"name":"Quantum Sauce","steam_id":76561198164034337,"connected_time":325000000000,"state":"active","ping":50},{"user_id":479,"name":"GrappleBot","steam_id":76561198038125042,"connected_time":1017000000000,"state":"active","ping":90},{"user_id":431,"name":"plink","steam_id":76561198057829889,"connected_time":4213000000000,"state":"active","ping":58},{"user_id":461,"name":"kermitcreeper(ZAZA)","steam_id":76561199222829972,"connected_time":2070000000000,"state":"active","ping":60},{"user_id":481,"name":"RNG","steam_id":76561198186273971,"connected_time":992000000000,"state":"active","ping":56},{"user_id":473,"name":"saywhat_","steam_id":76561198088191503,"connected_time":1270000000000,"state":"active","ping":79},{"user_id":483,"name":"Rock Kickass","steam_id":76561198450510841,"connected_time":874000000000,"state":"active","ping":85},{"user_id":467,"name":"Imrgrim","steam_id":76561198135866481,"connected_time":1703000000000,"state":"active","ping":63},{"user_id":480,"name":"MegikShep","steam_id":76561198121618003,"connected_time":1008000000000,"state":"active","ping":95},{"user_id":381,"name":"Van Tastic","steam_id":76561198063855523,"connected_time":7952000000000,"state":"active","ping":45},{"user_id":482,"name":"Raydn","steam_id":76561198418414338,"connected_time":933000000000,"state":"active","ping":52}]},{"server_id":108,"name":"Uncletopia | Dallas | 2 | All Maps","name_short":"dal-2","host":"dal-1.us.uncletopia.com","port":27025,"enabled":true,"region":"us-central","cc":"us","latitude":32.779167,"longitude":-96.80889,"reserved":0,"last_update":"0001-01-01T00:00:00Z","name_a2s":"Uncletopia | Dallas | 2 | All Maps","protocol":17,"map":"koth_viaduct","folder":"tf","game":"Team Fortress","app_id":440,"player_count":24,"max_players":24,"Bots":0,"server_type":"Dedicated","server_os":"Linux","password":true,"vac":true,"version":"7695204","steam_id":85568392924469988,"keywords":["cp","nocrits","nodmgspread","uncletopia"],"game_id":440,"stv_port":27026,"stv_name":"Uncletopia | Dallas | 2 | All Maps | STV","players":[{"user_id":385,"name":"CodeRedDev","steam_id":76561198179982494,"connected_time":3398000000000,"state":"active","ping":35},{"user_id":418,"name":"the whale (girthy)","steam_id":76561198027052378,"connected_time":656000000000,"state":"active","ping":77},{"user_id":392,"name":"SPOON MAN","steam_id":76561199028500370,"connected_time":2977000000000,"state":"active","ping":81},{"user_id":419,"name":"just another furry","steam_id":76561198262852705,"connected_time":628000000000,"state":"active","ping":80},{"user_id":406,"name":"Mr.Purple","steam_id":76561198842658377,"connected_time":1104000000000,"state":"active","ping":63},{"user_id":408,"name":"seceretgaming","steam_id":76561199112096028,"connected_time":1037000000000,"state":"active","ping":74},{"user_id":398,"name":"Mani","steam_id":76561198139428711,"connected_time":2186000000000,"state":"active","ping":46},{"user_id":396,"name":"ccat","steam_id":76561198281773224,"connected_time":2276000000000,"state":"active","ping":76},{"user_id":378,"name":"Nightmare","steam_id":76561198094127235,"connected_time":3577000000000,"state":"active","ping":99},{"user_id":407,"name":"auby","steam_id":76561198088024854,"connected_time":1102000000000,"state":"active","ping":59},{"user_id":409,"name":"Starlie","steam_id":76561198102100102,"connected_time":952000000000,"state":"active","ping":150},{"user_id":352,"name":"Dripless The Poor","steam_id":76561198090546454,"connected_time":5725000000000,"state":"active","ping":75},{"user_id":410,"name":"Whatrus","steam_id":76561198340908301,"connected_time":907000000000,"state":"active","ping":93},{"user_id":381,"name":"Seaplane","steam_id":76561198147243498,"connected_time":3486000000000,"state":"active","ping":77},{"user_id":412,"name":"Karma's Kringle Caper","steam_id":76561198059385185,"connected_time":790000000000,"state":"active","ping":95},{"user_id":411,"name":"Luffy (real)","steam_id":76561198056301018,"connected_time":890000000000,"state":"active","ping":79},{"user_id":415,"name":"aZn","steam_id":76561198035629877,"connected_time":727000000000,"state":"active","ping":60},{"user_id":388,"name":"Blippy","steam_id":76561198225904600,"connected_time":3350000000000,"state":"active","ping":94},{"user_id":420,"name":"Kzjytsugn","steam_id":76561198130241974,"connected_time":469000000000,"state":"active","ping":92},{"user_id":421,"name":"Kazmirl | Youtuber","steam_id":76561198116008410,"connected_time":124000000000,"state":"active","ping":110},{"user_id":416,"name":"raphaim #bb","steam_id":76561198089649422,"connected_time":723000000000,"state":"active","ping":77},{"user_id":403,"name":"Sporp","steam_id":76561197987957133,"connected_time":1604000000000,"state":"active","ping":89},{"user_id":374,"name":"snugthebug","steam_id":76561198030964222,"connected_time":3920000000000,"state":"active","ping":89},{"user_id":417,"name":"DORATHEEXPLORER","steam_id":76561198124773931,"connected_time":723000000000,"state":"active","ping":82}]},{"server_id":5,"name":"Uncletopia | Frankfurt | 1 | All Maps","name_short":"frk-1","host":"frk-1.de.uncletopia.com","port":27015,"enabled":true,"region":"eu","cc":"de","latitude":50.110924,"longitude":8.682127,"reserved":0,"last_update":"0001-01-01T00:00:00Z","name_a2s":"Uncletopia | Frankfurt | 1 | All Maps","protocol":17,"map":"koth_viaduct","folder":"tf","game":"Team Fortress","app_id":440,"player_count":0,"max_players":24,"Bots":0,"server_type":"Dedicated","server_os":"Linux","password":true,"vac":true,"version":"7695204","steam_id":85568392924469989,"keywords":["cp","nocrits","nodmgspread","uncletopia"],"game_id":440,"stv_port":0,"stv_name":"","players":null},{"server_id":110,"name":"Uncletopia | Frankfurt | 2 | All Maps","name_short":"frk-2","host":"frk-1.de.uncletopia.com","port":27025,"enabled":true,"region":"eu","cc":"de","latitude":50.110924,"longitude":8.682127,"reserved":0,"last_update":"0001-01-01T00:00:00Z","name_a2s":"Uncletopia | Frankfurt | 2 | All Maps","protocol":17,"map":"cp_altitude","folder":"tf","game":"Team Fortress","app_id":440,"player_count":0,"max_players":24,"Bots":0,"server_type":"Dedicated","server_os":"Linux","password":true,"vac":true,"version":"7695204","steam_id":85568392924469990,"keywords":["cp","nocrits","nodmgspread","uncletopia"],"game_id":440,"stv_port":0,"stv_name":"","players":null},{"server_id":308,"name":"Uncletopia | Frankfurt | 3 | All Maps","name_short":"frk-3","host":"frk-1.de.uncletopia.com","port":27035,"enabled":true,"region":"eu","cc":"de","latitude":50.110924,"longitude":8.682127,"reserved":0,"last_update":"0001-01-01T00:00:00Z","name_a2s":"Uncletopia | Frankfurt | 3 | All Maps","protocol":17,"map":"pl_badwater","folder":"tf","game":"Team Fortress","app_id":440,"player_count":0,"max_players":24,"Bots":0,"server_type":"Dedicated","server_os":"Linux","password":true,"vac":true,"version":"7695204","steam_id":85568392924504274,"keywords":["nocrits","nodmgspread","payload","uncletopia"],"game_id":440,"stv_port":0,"stv_name":"","players":null},{"server_id":309,"name":"Uncletopia | Frankfurt | 4 | All Maps","name_short":"frk-4","host":"frk-1.de.uncletopia.com","port":27045,"enabled":true,"region":"eu","cc":"de","latitude":50.110924,"longitude":8.682127,"reserved":0,"last_update":"0001-01-01T00:00:00Z","name_a2s":"Uncletopia | Frankfurt | 4 | All Maps","protocol":17,"map":"koth_highpass","folder":"tf","game":"Team Fortress","app_id":440,"player_count":0,"max_players":24,"Bots":0,"server_type":"Dedicated","server_os":"Linux","password":true,"vac":true,"version":"7695204","steam_id":85568392924504275,"keywords":["cp","nocrits","nodmgspread","uncletopia"],"game_id":440,"stv_port":0,"stv_name":"","players":null},{"server_id":310,"name":"Uncletopia | Frankfurt | 5 | All Maps","name_short":"frk-5","host":"frk-1.de.uncletopia.com","port":27055,"enabled":true,"region":"eu","cc":"de","latitude":50.110924,"longitude":8.682127,"reserved":0,"last_update":"0001-01-01T00:00:00Z","name_a2s":"Uncletopia | Frankfurt | 5 | All Maps","protocol":17,"map":"koth_highpass","folder":"tf","game":"Team Fortress","app_id":440,"player_count":0,"max_players":24,"Bots":0,"server_type":"Dedicated","server_os":"Linux","password":true,"vac":true,"version":"7695204","steam_id":85568392924504277,"keywords":["cp","nocrits","nodmgspread","uncletopia"],"game_id":440,"stv_port":27056,"stv_name":"Uncletopia | Frankfurt | 5 | All Maps | STV","players":null},{"server_id":311,"name":"Uncletopia | Frankfurt | 6 | All Maps","name_short":"frk-6","host":"frk-1.de.uncletopia.com","port":27065,"enabled":true,"region":"eu","cc":"de","latitude":50.110924,"longitude":8.682127,"reserved":0,"last_update":"0001-01-01T00:00:00Z","name_a2s":"Uncletopia | Frankfurt | 6 | All Maps","protocol":17,"map":"pl_barnblitz","folder":"tf","game":"Team Fortress","app_id":440,"player_count":0,"max_players":24,"Bots":0,"server_type":"Dedicated","server_os":"Linux","password":true,"vac":true,"version":"7695204","steam_id":85568392924504278,"keywords":["nocrits","nodmgspread","payload","uncletopia"],"game_id":440,"stv_port":0,"stv_name":"","players":null},{"server_id":23,"name":"Uncletopia | Frankfurt | 7 | No Payload","name_short":"frk-7","host":"frk-1.de.uncletopia.com","port":27075,"enabled":true,"region":"eu","cc":"de","latitude":50.110924,"longitude":8.682127,"reserved":0,"last_update":"0001-01-01T00:00:00Z","name_a2s":"Uncletopia | Frankfurt | 7 | No Payload","protocol":17,"map":"pl_snowycoast","folder":"tf","game":"Team Fortress","app_id":440,"player_count":0,"max_players":24,"Bots":0,"server_type":"Dedicated","server_os":"Linux","password":true,"vac":true,"version":"7695204","steam_id":85568392924742827,"keywords":["nocrits","nodmgspread","payload","uncletopia"],"game_id":440,"stv_port":0,"stv_name":"","players":null},{"server_id":24,"name":"Uncletopia | Frankfurt | 8 | Community","name_short":"frk-8","host":"frk-1.de.uncletopia.com","port":27085,"enabled":true,"region":"eu","cc":"de","latitude":50.110924,"longitude":8.682127,"reserved":0,"last_update":"0001-01-01T00:00:00Z","name_a2s":"Uncletopia | Frankfurt | 8 | Community","protocol":17,"map":"koth_lakeside_final","folder":"tf","game":"Team Fortress","app_id":440,"player_count":0,"max_players":24,"Bots":0,"server_type":"Dedicated","server_os":"Linux","password":true,"vac":true,"version":"7695204","steam_id":85568392924742828,"keywords":["cp","nocrits","nodmgspread","uncletopia"],"game_id":440,"stv_port":0,"stv_name":"","players":null},{"server_id":202,"name":"Uncletopia | Hong Kong | 1 | All Maps","name_short":"hgk-1","host":"hgk-1.hk.uncletopia.com","port":27015,"enabled":true,"region":"asia","cc":"hk","latitude":22.302711,"longitude":114.177216,"reserved":0,"last_update":"0001-01-01T00:00:00Z","name_a2s":"Uncletopia | Hong Kong | 1 | All Maps","protocol":17,"map":"koth_suijin","folder":"tf","game":"Team Fortress","app_id":440,"player_count":18,"max_players":24,"Bots":0,"server_type":"Dedicated","server_os":"Linux","password":true,"vac":true,"version":"7695204","steam_id":85568392924494504,"keywords":["cp","nocrits","nodmgspread","uncletopia"],"game_id":440,"stv_port":27016,"stv_name":"Uncletopia | Hong Kong | 1 | All Maps | STV","players":[{"user_id":227,"name":"Lym0n","steam_id":76561199192420260,"connected_time":661000000000,"state":"active","ping":103},{"user_id":232,"name":"water tastes good","steam_id":76561199375947670,"connected_time":427000000000,"state":"active","ping":65},{"user_id":233,"name":"R1C0","steam_id":76561199240920973,"connected_time":381000000000,"state":"active","ping":84},{"user_id":190,"name":"Kiyomi","steam_id":76561198240627872,"connected_time":2779000000000,"state":"active","ping":51},{"user_id":142,"name":"Not So Balanced","steam_id":76561199404958139,"connected_time":5495000000000,"state":"active","ping":125},{"user_id":229,"name":"TW Grenade","steam_id":76561198027659491,"connected_time":605000000000,"state":"active","ping":60},{"user_id":191,"name":"2232","steam_id":76561198074339034,"connected_time":2767000000000,"state":"active","ping":71},{"user_id":230,"name":"Creeper-Chan","steam_id":76561198172623219,"connected_time":555000000000,"state":"active","ping":49},{"user_id":242,"name":"촉촉칙칙폭폭","steam_id":76561199353663101,"connected_time":81000000000,"state":"active","ping":76},{"user_id":238,"name":"ProgressorBread24","steam_id":76561199070629046,"connected_time":154000000000,"state":"active","ping":147},{"user_id":236,"name":"wuh oh","steam_id":76561198196703279,"connected_time":210000000000,"state":"active","ping":104},{"user_id":194,"name":"MS PowerPoint","steam_id":76561198369523192,"connected_time":2615000000000,"state":"active","ping":61},{"user_id":199,"name":"timmy.1366","steam_id":76561199065433547,"connected_time":2367000000000,"state":"active","ping":68},{"user_id":237,"name":"LazyGuyEythan (SethEythan)","steam_id":76561198100007906,"connected_time":198000000000,"state":"active","ping":86},{"user_id":207,"name":"solo","steam_id":76561199221433871,"connected_time":1960000000000,"state":"active","ping":110},{"user_id":209,"name":"煙海 | Enkai","steam_id":76561198050460825,"connected_time":1817000000000,"state":"active","ping":84},{"user_id":210,"name":"brizzard","steam_id":76561198048438653,"connected_time":1816000000000,"state":"active","ping":43},{"user_id":219,"name":"ɔuᗡඞ ɟƨuᒐ","steam_id":76561199031283970,"connected_time":1330000000000,"state":"active","ping":75}]},{"server_id":1,"name":"Uncletopia | Los Angeles | 1 | All Maps","name_short":"lax-1","host":"lax-1.us.uncletopia.com","port":27015,"enabled":true,"region":"us-west","cc":"us","latitude":33.94279,"longitude":-118.41004,"reserved":0,"last_update":"0001-01-01T00:00:00Z","name_a2s":"Uncletopia | Los Angeles | 1 | All Maps","protocol":17,"map":"pl_goldrush","folder":"tf","game":"Team Fortress","app_id":440,"player_count":24,"max_players":24,"Bots":0,"server_type":"Dedicated","server_os":"Linux","password":true,"vac":true,"version":"7695204","steam_id":85568392924469991,"keywords":["nocrits","nodmgspread","payload","uncletopia"],"game_id":440,"stv_port":27016,"stv_name":"Uncletopia | Los Angeles | 1 | All Maps | STV","players":[{"user_id":153,"name":"Festive Pybro","steam_id":76561198203013246,"connected_time":2893000000000,"state":"active","ping":74},{"user_id":172,"name":"EatSomeBEES","steam_id":76561198047334307,"connected_time":1278000000000,"state":"active","ping":73},{"user_id":164,"name":"Nugakku","steam_id":76561198082346219,"connected_time":1917000000000,"state":"active","ping":56},{"user_id":171,"name":"ASSCII | kymeira","steam_id":76561198340743816,"connected_time":1317000000000,"state":"active","ping":46},{"user_id":94,"name":"Mao Zedong","steam_id":76561199156131540,"connected_time":6726000000000,"state":"active","ping":121},{"user_id":177,"name":"Super Mighty G","steam_id":76561198020932806,"connected_time":1038000000000,"state":"active","ping":50},{"user_id":152,"name":"Skadoosh","steam_id":76561198144771234,"connected_time":2899000000000,"state":"active","ping":50},{"user_id":165,"name":"Woshingo","steam_id":76561199164819248,"connected_time":1907000000000,"state":"active","ping":46},{"user_id":173,"name":"oil","steam_id":76561198099980149,"connected_time":1257000000000,"state":"active","ping":57},{"user_id":178,"name":"SQbuilder","steam_id":76561198076473375,"connected_time":956000000000,"state":"active","ping":40},{"user_id":154,"name":"TüCold","steam_id":76561198111278197,"connected_time":2891000000000,"state":"active","ping":65},{"user_id":166,"name":"Yorai20XX","steam_id":76561198082235591,"connected_time":1372000000000,"state":"active","ping":58},{"user_id":145,"name":"kronk","steam_id":76561198054623686,"connected_time":3440000000000,"state":"active","ping":57},{"user_id":175,"name":"NoodleGoose01","steam_id":76561199081634658,"connected_time":1165000000000,"state":"active","ping":43},{"user_id":174,"name":"Amadeus","steam_id":76561198160047173,"connected_time":1253000000000,"state":"active","ping":68},{"user_id":176,"name":"Sad Sapling","steam_id":76561198075612150,"connected_time":1102000000000,"state":"active","ping":71},{"user_id":139,"name":"Aspect1","steam_id":76561199006943927,"connected_time":4410000000000,"state":"active","ping":47},{"user_id":180,"name":"Sykes10","steam_id":76561198279623105,"connected_time":609000000000,"state":"active","ping":50},{"user_id":181,"name":"Damo","steam_id":76561197979442728,"connected_time":608000000000,"state":"active","ping":52},{"user_id":179,"name":"Almonicus","steam_id":76561198044401351,"connected_time":780000000000,"state":"active","ping":118},{"user_id":143,"name":"Adlai130s","steam_id":76561198571410221,"connected_time":3873000000000,"state":"active","ping":54},{"user_id":169,"name":"For Whom The Taco Bell Tolls","steam_id":76561198418288939,"connected_time":1339000000000,"state":"active","ping":70},{"user_id":182,"name":"FROYO b4nny","steam_id":76561197970669109,"connected_time":535000000000,"state":"active","ping":52},{"user_id":163,"name":"The Caretaker","steam_id":76561198125241411,"connected_time":2175000000000,"state":"active","ping":72}]},{"server_id":112,"name":"Uncletopia | Los Angeles | 2 | All Maps","name_short":"lax-2","host":"lax-1.us.uncletopia.com","port":27025,"enabled":true,"region":"us-west","cc":"us","latitude":33.94279,"longitude":-118.41004,"reserved":0,"last_update":"0001-01-01T00:00:00Z","name_a2s":"Uncletopia | Los Angeles | 2 | All Maps","protocol":17,"map":"pl_badwater","folder":"tf","game":"Team Fortress","app_id":440,"player_count":0,"max_players":24,"Bots":0,"server_type":"Dedicated","server_os":"Linux","password":true,"vac":true,"version":"7695204","steam_id":85568392924469992,"keywords":["nocrits","nodmgspread","payload","uncletopia"],"game_id":440,"stv_port":27026,"stv_name":"Uncletopia | Los Angeles | 2 | All Maps | STV","players":null},{"server_id":324,"name":"Uncletopia | Los Angeles | 3 | All Maps","name_short":"lax-3","host":"lax-1.us.uncletopia.com","port":27035,"enabled":true,"region":"us-west","cc":"us","latitude":33.94279,"longitude":-118.41004,"reserved":0,"last_update":"0001-01-01T00:00:00Z","name_a2s":"Uncletopia | Los Angeles | 3 | All Maps","protocol":17,"map":"koth_cascade","folder":"tf","game":"Team Fortress","app_id":440,"player_count":0,"max_players":24,"Bots":0,"server_type":"Dedicated","server_os":"Linux","password":true,"vac":true,"version":"7695204","steam_id":85568392924510198,"keywords":["cp","nocrits","nodmgspread","uncletopia"],"game_id":440,"stv_port":27036,"stv_name":"Uncletopia | Los Angeles | 3 | All Maps | STV","players":null},{"server_id":25,"name":"Uncletopia | Los Angeles | 4 | No Payload","name_short":"lax-4","host":"lax-1.us.uncletopia.com","port":27045,"enabled":true,"region":"us-west","cc":"us","latitude":33.94279,"longitude":-118.41004,"reserved":0,"last_update":"0001-01-01T00:00:00Z","name_a2s":"Uncletopia | Los Angeles | 4 | No Payload","protocol":17,"map":"ctf_doublecross","folder":"tf","game":"Team Fortress","app_id":440,"player_count":0,"max_players":24,"Bots":0,"server_type":"Dedicated","server_os":"Linux","password":true,"vac":true,"version":"7695204","steam_id":85568392924510199,"keywords":["ctf","nocrits","nodmgspread","uncletopia"],"game_id":440,"stv_port":27046,"stv_name":"Uncletopia | Los Angeles | 4 | No Payload | STV","players":null},{"server_id":11,"name":"Uncletopia | London | 1 | All Maps","name_short":"lon-1","host":"lon-1.uk.uncletopia.com","port":27015,"enabled":true,"region":"eu","cc":"gb","latitude":51.509865,"longitude":-0.118092,"reserved":0,"last_update":"0001-01-01T00:00:00Z","name_a2s":"Uncletopia | London | 1 | All Maps","protocol":17,"map":"koth_viaduct","folder":"tf","game":"Team Fortress","app_id":440,"player_count":0,"max_players":24,"Bots":0,"server_type":"Dedicated","server_os":"Linux","password":true,"vac":true,"version":"7695204","steam_id":85568392924367362,"keywords":["cp","nocrits","nodmgspread","uncletopia"],"game_id":440,"stv_port":27016,"stv_name":"Uncletopia | London | 1 | All Maps | STV","players":null},{"server_id":114,"name":"Uncletopia | London | 2 | All Maps","name_short":"lon-2","host":"lon-1.uk.uncletopia.com","port":27025,"enabled":true,"region":"eu","cc":"gb","latitude":51.509865,"longitude":-0.118092,"reserved":0,"last_update":"0001-01-01T00:00:00Z","name_a2s":"Uncletopia | London | 2 | All Maps","protocol":17,"map":"koth_viaduct","folder":"tf","game":"Team Fortress","app_id":440,"player_count":0,"max_players":24,"Bots":0,"server_type":"Dedicated","server_os":"Linux","password":true,"vac":true,"version":"7695204","steam_id":85568392924470941,"keywords":["cp","nocrits","nodmgspread","uncletopia"],"game_id":440,"stv_port":27026,"stv_name":"Uncletopia | London | 2 | All Maps | STV","players":null},{"server_id":320,"name":"Uncletopia | London | 3 | All Maps","name_short":"lon-3","host":"lon-1.uk.uncletopia.com","port":27035,"enabled":true,"region":"eu","cc":"gb","latitude":51.509865,"longitude":-0.118092,"reserved":0,"last_update":"0001-01-01T00:00:00Z","name_a2s":"Uncletopia | London | 3 | All Maps","protocol":17,"map":"koth_cascade","folder":"tf","game":"Team Fortress","app_id":440,"player_count":4,"max_players":24,"Bots":0,"server_type":"Dedicated","server_os":"Linux","password":true,"vac":true,"version":"7695204","steam_id":85568392924510192,"keywords":["cp","nocrits","nodmgspread","uncletopia"],"game_id":440,"stv_port":27036,"stv_name":"Uncletopia | London | 3 | All Maps | STV","players":[{"user_id":304,"name":"Spr","steam_id":76561198314316664,"connected_time":290000000000,"state":"active","ping":119},{"user_id":305,"name":"Bird_Brain","steam_id":76561198403927578,"connected_time":233000000000,"state":"active","ping":177},{"user_id":306,"name":"Chesteruger","steam_id":76561198317737013,"connected_time":225000000000,"state":"active","ping":198},{"user_id":307,"name":"spoice","steam_id":76561198992116250,"connected_time":188000000000,"state":"active","ping":122}]},{"server_id":321,"name":"Uncletopia | London | 4 | All Maps","name_short":"lon-4","host":"lon-1.uk.uncletopia.com","port":27045,"enabled":true,"region":"eu","cc":"gb","latitude":51.509865,"longitude":-0.118092,"reserved":0,"last_update":"0001-01-01T00:00:00Z","name_a2s":"Uncletopia | London | 4 | All Maps","protocol":17,"map":"koth_cascade","folder":"tf","game":"Team Fortress","app_id":440,"player_count":0,"max_players":24,"Bots":0,"server_type":"Dedicated","server_os":"Linux","password":true,"vac":true,"version":"7695204","steam_id":85568392924510193,"keywords":["cp","nocrits","nodmgspread","uncletopia"],"game_id":440,"stv_port":27046,"stv_name":"Uncletopia | London | 4 | All Maps | STV","players":null},{"server_id":21,"name":"Uncletopia | London | 5 | All Maps","name_short":"lon-5","host":"lon-1.uk.uncletopia.com","port":27055,"enabled":true,"region":"eu","cc":"gb","latitude":51.509865,"longitude":-0.118092,"reserved":0,"last_update":"0001-01-01T00:00:00Z","name_a2s":"Uncletopia | London | 5 | All Maps","protocol":17,"map":"koth_cascade","folder":"tf","game":"Team Fortress","app_id":440,"player_count":0,"max_players":24,"Bots":0,"server_type":"Dedicated","server_os":"Linux","password":true,"vac":true,"version":"7695204","steam_id":85568392924742829,"keywords":["cp","nocrits","nodmgspread","uncletopia"],"game_id":440,"stv_port":0,"stv_name":"","players":null},{"server_id":22,"name":"Uncletopia | London | 6 | All Maps","name_short":"lon-6","host":"lon-1.uk.uncletopia.com","port":27065,"enabled":true,"region":"eu","cc":"gb","latitude":51.509865,"longitude":-0.118092,"reserved":0,"last_update":"0001-01-01T00:00:00Z","name_a2s":"Uncletopia | London | 6 | All Maps","protocol":17,"map":"plr_bananabay","folder":"tf","game":"Team Fortress","app_id":440,"player_count":0,"max_players":24,"Bots":0,"server_type":"Dedicated","server_os":"Linux","password":true,"vac":true,"version":"7695204","steam_id":85568392924742830,"keywords":["nocrits","nodmgspread","payload","uncletopia"],"game_id":440,"stv_port":27066,"stv_name":"Uncletopia | London | 6 | All Maps | STV","players":null},{"server_id":40,"name":"Uncletopia | London | 7 | No Payload","name_short":"lon-7","host":"lon-1.uk.uncletopia.com","port":27075,"enabled":true,"region":"eu","cc":"gb","latitude":51.509865,"longitude":-0.118092,"reserved":0,"last_update":"0001-01-01T00:00:00Z","name_a2s":"Uncletopia | London | 7 | No Payload","protocol":17,"map":"koth_sawmill","folder":"tf","game":"Team Fortress","app_id":440,"player_count":0,"max_players":24,"Bots":0,"server_type":"Dedicated","server_os":"Linux","password":true,"vac":true,"version":"7695204","steam_id":85568392924964314,"keywords":["cp","nocrits","nodmgspread","uncletopia"],"game_id":440,"stv_port":27076,"stv_name":"Uncletopia | London | 7 | No Payload | STV","players":null},{"server_id":41,"name":"Uncletopia | London | 8 | Community","name_short":"lon-8","host":"lon-1.uk.uncletopia.com","port":27085,"enabled":true,"region":"eu","cc":"gb","latitude":51.509865,"longitude":-0.118092,"reserved":0,"last_update":"0001-01-01T00:00:00Z","name_a2s":"Uncletopia | London | 8 | Community","protocol":17,"map":"cp_dustbowl","folder":"tf","game":"Team Fortress","app_id":440,"player_count":0,"max_players":24,"Bots":0,"server_type":"Dedicated","server_os":"Linux","password":true,"vac":true,"version":"7695204","steam_id":85568392924964315,"keywords":["cp","nocrits","nodmgspread","uncletopia"],"game_id":440,"stv_port":0,"stv_name":"","players":null},{"server_id":300,"name":"Uncletopia | Montréal | 1 | All Maps","name_short":"mtl-1","host":"mtl-1.ca.uncletopia.com","port":27015,"enabled":true,"region":"us-east","cc":"ca","latitude":45.50889,"longitude":-73.56167,"reserved":0,"last_update":"0001-01-01T00:00:00Z","name_a2s":"Uncletopia | Montréal | 1 | All Maps","protocol":17,"map":"koth_highpass","folder":"tf","game":"Team Fortress","app_id":440,"player_count":0,"max_players":24,"Bots":0,"server_type":"Dedicated","server_os":"Linux","password":true,"vac":true,"version":"7695204","steam_id":85568392924500087,"keywords":["cp","nocrits","nodmgspread","uncletopia"],"game_id":440,"stv_port":27016,"stv_name":"Uncletopia | Montréal | 1 | All Maps | STV","players":null},{"server_id":301,"name":"Uncletopia | Montréal | 2 | All Maps","name_short":"mtl-2","host":"mtl-1.ca.uncletopia.com","port":27025,"enabled":true,"region":"us-east","cc":"ca","latitude":45.50889,"longitude":-73.56167,"reserved":0,"last_update":"0001-01-01T00:00:00Z","name_a2s":"Uncletopia | Montréal | 2 | All Maps","protocol":17,"map":"koth_lakeside_final","folder":"tf","game":"Team Fortress","app_id":440,"player_count":0,"max_players":24,"Bots":0,"server_type":"Dedicated","server_os":"Linux","password":true,"vac":true,"version":"7695204","steam_id":85568392924500088,"keywords":["cp","nocrits","nodmgspread","uncletopia"],"game_id":440,"stv_port":27026,"stv_name":"Uncletopia | Montréal | 2 | All Maps | STV","players":null},{"server_id":302,"name":"Uncletopia | Montréal | 3 | All Maps","name_short":"mtl-3","host":"mtl-1.ca.uncletopia.com","port":27035,"enabled":true,"region":"us-east","cc":"ca","latitude":45.50889,"longitude":-73.56167,"reserved":0,"last_update":"0001-01-01T00:00:00Z","name_a2s":"Uncletopia | Montréal | 3 | All Maps","protocol":17,"map":"koth_viaduct","folder":"tf","game":"Team Fortress","app_id":440,"player_count":0,"max_players":24,"Bots":0,"server_type":"Dedicated","server_os":"Linux","password":true,"vac":true,"version":"7695204","steam_id":85568392924500089,"keywords":["cp","nocrits","nodmgspread","uncletopia"],"game_id":440,"stv_port":0,"stv_name":"","players":null},{"server_id":303,"name":"Uncletopia | Montréal | 4 | No Payload","name_short":"mtl-4","host":"mtl-1.ca.uncletopia.com","port":27045,"enabled":true,"region":"us-east","cc":"ca","latitude":45.50889,"longitude":-73.56167,"reserved":0,"last_update":"0001-01-01T00:00:00Z","name_a2s":"Uncletopia | Montréal | 4 | No Payload","protocol":17,"map":"cp_standin_final","folder":"tf","game":"Team Fortress","app_id":440,"player_count":0,"max_players":24,"Bots":0,"server_type":"Dedicated","server_os":"Linux","password":true,"vac":true,"version":"7695204","steam_id":85568392924500090,"keywords":["cp","nocrits","nodmgspread","uncletopia"],"game_id":440,"stv_port":27046,"stv_name":"Uncletopia | Montréal | 4 | No Payload | STV","players":null},{"server_id":13,"name":"Uncletopia | New York City | 1 | All Maps","name_short":"nyc-1","host":"nyc-1.us.uncletopia.com","port":27015,"enabled":true,"region":"us-east","cc":"us","latitude":40.73061,"longitude":-73.93524,"reserved":0,"last_update":"0001-01-01T00:00:00Z","name_a2s":"Uncletopia | New York City | 1 | All Maps","protocol":17,"map":"pl_snowycoast","folder":"tf","game":"Team Fortress","app_id":440,"player_count":24,"max_players":24,"Bots":0,"server_type":"Dedicated","server_os":"Linux","password":true,"vac":true,"version":"7695204","steam_id":85568392924469993,"keywords":["nocrits","nodmgspread","payload","uncletopia"],"game_id":440,"stv_port":27016,"stv_name":"Uncletopia | New York City | 1 | All Maps | STV","players":[{"user_id":382,"name":"slowboygofast","steam_id":76561198004907943,"connected_time":7290000000000,"state":"active","ping":44},{"user_id":469,"name":"Kezner","steam_id":76561198993951071,"connected_time":1913000000000,"state":"active","ping":45},{"user_id":463,"name":"Fish Fisherman","steam_id":76561198018656022,"connected_time":2269000000000,"state":"active","ping":46},{"user_id":361,"name":"crupe","steam_id":76561198032582983,"connected_time":8454000000000,"state":"active","ping":59},{"user_id":442,"name":"KoolSurfDude","steam_id":76561198979809684,"connected_time":3459000000000,"state":"active","ping":60},{"user_id":471,"name":"Gorilla","steam_id":76561198214897880,"connected_time":1619000000000,"state":"active","ping":45},{"user_id":454,"name":"Aldinach","steam_id":76561198079912615,"connected_time":2512000000000,"state":"active","ping":60},{"user_id":479,"name":"Blorpulous","steam_id":76561198271422231,"connected_time":533000000000,"state":"active","ping":89},{"user_id":477,"name":"Santos","steam_id":76561198023104020,"connected_time":552000000000,"state":"active","ping":46},{"user_id":467,"name":"Sudo","steam_id":76561198123714026,"connected_time":2171000000000,"state":"active","ping":122},{"user_id":480,"name":"Kivertsy","steam_id":76561199162661290,"connected_time":515000000000,"state":"active","ping":70},{"user_id":478,"name":"Sour Cream 'N Onion Paint Chips","steam_id":76561198152434348,"connected_time":551000000000,"state":"active","ping":90},{"user_id":481,"name":"Carsen","steam_id":76561198225481404,"connected_time":472000000000,"state":"active","ping":58},{"user_id":459,"name":"Pomegranate88","steam_id":76561198056385456,"connected_time":2337000000000,"state":"active","ping":60},{"user_id":423,"name":"Minion Bob","steam_id":76561198023938170,"connected_time":4321000000000,"state":"active","ping":56},{"user_id":438,"name":"CounterCraft","steam_id":76561197994940522,"connected_time":3774000000000,"state":"active","ping":39},{"user_id":491,"name":"Beef Wellington","steam_id":76561197995635241,"connected_time":30000000000,"state":"active","ping":86},{"user_id":487,"name":"LDM","steam_id":76561198843313898,"connected_time":228000000000,"state":"active","ping":57},{"user_id":484,"name":"Dark Lord","steam_id":76561198044199150,"connected_time":374000000000,"state":"active","ping":64},{"user_id":473,"name":"WitheringLeo","steam_id":76561198046722918,"connected_time":1252000000000,"state":"active","ping":53},{"user_id":485,"name":"flappyflap2","steam_id":76561198285048973,"connected_time":359000000000,"state":"active","ping":40},{"user_id":488,"name":"Scooter O'Boyl","steam_id":76561197971687069,"connected_time":215000000000,"state":"active","ping":53},{"user_id":364,"name":"The Big Slap","steam_id":76561198046225968,"connected_time":8243000000000,"state":"active","ping":64},{"user_id":490,"name":"hop","steam_id":76561198039914843,"connected_time":190000000000,"state":"active","ping":48}]},{"server_id":14,"name":"Uncletopia | New York City | 2 | All Maps","name_short":"nyc-2","host":"nyc-1.us.uncletopia.com","port":27025,"enabled":true,"region":"us-east","cc":"us","latitude":40.73061,"longitude":-73.93524,"reserved":0,"last_update":"0001-01-01T00:00:00Z","name_a2s":"Uncletopia | New York City | 2 | All Maps","protocol":17,"map":"pl_badwater","folder":"tf","game":"Team Fortress","app_id":440,"player_count":24,"max_players":24,"Bots":0,"server_type":"Dedicated","server_os":"Linux","password":true,"vac":true,"version":"7695204","steam_id":85568392924469994,"keywords":["nocrits","nodmgspread","payload","uncletopia"],"game_id":440,"stv_port":27026,"stv_name":"Uncletopia | New York City | 2 | All Maps | STV","players":[{"user_id":503,"name":"Dancing Nuggets","steam_id":76561198307986253,"connected_time":1362000000000,"state":"active","ping":54},{"user_id":470,"name":"jamey431","steam_id":76561198076043961,"connected_time":4130000000000,"state":"active","ping":127},{"user_id":519,"name":"Ignalis","steam_id":76561198025662927,"connected_time":479000000000,"state":"active","ping":53},{"user_id":504,"name":"tame","steam_id":76561198925005855,"connected_time":1346000000000,"state":"active","ping":172},{"user_id":505,"name":"CPU","steam_id":76561198408076634,"connected_time":1156000000000,"state":"active","ping":60},{"user_id":497,"name":"Grahf, the seeker of power","steam_id":76561198132031026,"connected_time":1844000000000,"state":"active","ping":50},{"user_id":515,"name":"A Rope, for big pits","steam_id":76561198068044782,"connected_time":549000000000,"state":"active","ping":54},{"user_id":477,"name":"The Fortress From Team Fortress","steam_id":76561198081422503,"connected_time":2986000000000,"state":"active","ping":89},{"user_id":502,"name":"Epi","steam_id":76561198041175008,"connected_time":1429000000000,"state":"active","ping":149},{"user_id":507,"name":"yellowcat","steam_id":76561198346054736,"connected_time":1121000000000,"state":"active","ping":61},{"user_id":496,"name":"joyboy","steam_id":76561198116908911,"connected_time":1855000000000,"state":"active","ping":56},{"user_id":494,"name":"Wario Smoking Weed (real)","steam_id":76561198056175175,"connected_time":2057000000000,"state":"active","ping":93},{"user_id":508,"name":"Madrox Who?","steam_id":76561197988859134,"connected_time":1111000000000,"state":"active","ping":79},{"user_id":480,"name":"1ncel","steam_id":76561198950243192,"connected_time":2966000000000,"state":"active","ping":71},{"user_id":483,"name":"RyanDCB [Real]","steam_id":76561198040138739,"connected_time":2918000000000,"state":"active","ping":70},{"user_id":516,"name":"a zephyr","steam_id":76561198182506001,"connected_time":539000000000,"state":"active","ping":58},{"user_id":517,"name":"Captain Zyrin","steam_id":76561197983121824,"connected_time":536000000000,"state":"active","ping":79},{"user_id":514,"name":"poopfeast420","steam_id":76561198137740187,"connected_time":570000000000,"state":"active","ping":56},{"user_id":522,"name":"Major Woody","steam_id":76561198835541533,"connected_time":126000000000,"state":"active","ping":57},{"user_id":488,"name":"Rein","steam_id":76561198300340427,"connected_time":2683000000000,"state":"active","ping":81},{"user_id":469,"name":"Sargeant","steam_id":76561198077066612,"connected_time":4170000000000,"state":"active","ping":121},{"user_id":486,"name":"rlty","steam_id":76561198009395055,"connected_time":2847000000000,"state":"active","ping":56},{"user_id":490,"name":"u/unhinged_person","steam_id":76561198085839920,"connected_time":2526000000000,"state":"active","ping":48},{"user_id":518,"name":"Anti-Hero","steam_id":76561198042570322,"connected_time":535000000000,"state":"active","ping":82}]},{"server_id":15,"name":"Uncletopia | New York City | 3 | All Maps","name_short":"nyc-3","host":"nyc-1.us.uncletopia.com","port":27035,"enabled":true,"region":"us-east","cc":"us","latitude":40.73061,"longitude":-73.93524,"reserved":0,"last_update":"0001-01-01T00:00:00Z","name_a2s":"Uncletopia | New York City | 3 | All Maps","protocol":17,"map":"pl_swiftwater_final1","folder":"tf","game":"Team Fortress","app_id":440,"player_count":3,"max_players":24,"Bots":0,"server_type":"Dedicated","server_os":"Linux","password":true,"vac":true,"version":"7695204","steam_id":85568392924742820,"keywords":["nocrits","nodmgspread","payload","uncletopia"],"game_id":440,"stv_port":27036,"stv_name":"Uncletopia | New York City | 3 | All Maps | STV","players":[{"user_id":533,"name":"Remy the rat","steam_id":76561198080519558,"connected_time":2669000000000,"state":"active","ping":77},{"user_id":470,"name":"the real babytron","steam_id":76561197989627918,"connected_time":7650000000000,"state":"active","ping":68},{"user_id":524,"name":"groond","steam_id":76561198309426720,"connected_time":3608000000000,"state":"active","ping":57}]},{"server_id":16,"name":"Uncletopia | New York City | 4 | Community","name_short":"nyc-4","host":"nyc-1.us.uncletopia.com","port":27045,"enabled":true,"region":"us-east","cc":"us","latitude":40.73061,"longitude":-73.93524,"reserved":0,"last_update":"0001-01-01T00:00:00Z","name_a2s":"Uncletopia | New York City | 4 | Community","protocol":17,"map":"workshop/koth_product_final.ugc454272353","folder":"tf","game":"Team Fortress","app_id":440,"player_count":0,"max_players":24,"Bots":0,"server_type":"Dedicated","server_os":"Linux","password":true,"vac":true,"version":"7695204","steam_id":85568392924742821,"keywords":["cp","nocrits","nodmgspread","uncletopia"],"game_id":440,"stv_port":27046,"stv_name":"Uncletopia | New York City | 4 | Community | STV","players":null},{"server_id":142,"name":"Uncletopia | São Paulo | 1 | All Maps","name_short":"sao-1","host":"sao-1.br.uncletopia.com","port":27015,"enabled":true,"region":"sa","cc":"br","latitude":-23.533773,"longitude":-46.62529,"reserved":0,"last_update":"0001-01-01T00:00:00Z","name_a2s":"Uncletopia | São Paulo | 1 | All Maps","protocol":17,"map":"cp_process_final","folder":"tf","game":"Team Fortress","app_id":440,"player_count":0,"max_players":24,"Bots":0,"server_type":"Dedicated","server_os":"Linux","password":true,"vac":true,"version":"7695204","steam_id":85568392924469996,"keywords":["cp","nocrits","nodmgspread","uncletopia"],"game_id":440,"stv_port":27016,"stv_name":"Uncletopia | São Paulo | 1 | All Maps | STV","players":null},{"server_id":143,"name":"Uncletopia | São Paulo | 2 | All Maps","name_short":"sao-2","host":"sao-2.br.uncletopia.com","port":27015,"enabled":true,"region":"sa","cc":"br","latitude":-23.533773,"longitude":-46.62529,"reserved":0,"last_update":"0001-01-01T00:00:00Z","name_a2s":"Uncletopia | São Paulo | 2 | All Maps","protocol":17,"map":"koth_harvest_final","folder":"tf","game":"Team Fortress","app_id":440,"player_count":0,"max_players":24,"Bots":0,"server_type":"Dedicated","server_os":"Linux","password":true,"vac":true,"version":"7695204","steam_id":85568392924485349,"keywords":["cp","nocrits","nodmgspread","uncletopia"],"game_id":440,"stv_port":27016,"stv_name":"Uncletopia | São Paulo | 2 | All Maps | STV","players":null},{"server_id":7,"name":"Uncletopia | Seattle | 1 | All Maps","name_short":"sea-1","host":"sea-1.us.uncletopia.com","port":27015,"enabled":true,"region":"us-west","cc":"us","latitude":47.608013,"longitude":-122.33517,"reserved":0,"last_update":"0001-01-01T00:00:00Z","name_a2s":"Uncletopia | Seattle | 1 | All Maps","protocol":17,"map":"pl_borneo","folder":"tf","game":"Team Fortress","app_id":440,"player_count":22,"max_players":24,"Bots":0,"server_type":"Dedicated","server_os":"Linux","password":true,"vac":true,"version":"7695204","steam_id":85568392924469997,"keywords":["nocrits","nodmgspread","payload","uncletopia"],"game_id":440,"stv_port":27016,"stv_name":"Uncletopia | Seattle | 1 | All Maps | STV","players":[{"user_id":330,"name":"Mason","steam_id":76561198125358775,"connected_time":4505000000000,"state":"active","ping":53},{"user_id":443,"name":"American freedom bird","steam_id":76561198366142388,"connected_time":505000000000,"state":"active","ping":85},{"user_id":451,"name":"Rally","steam_id":76561198280843401,"connected_time":62000000000,"state":"active","ping":60},{"user_id":445,"name":"bad spy player","steam_id":76561198873699671,"connected_time":435000000000,"state":"active","ping":42},{"user_id":436,"name":"yolginmo","steam_id":76561198157985901,"connected_time":874000000000,"state":"active","ping":45},{"user_id":446,"name":"Tavasi","steam_id":76561198085338087,"connected_time":424000000000,"state":"active","ping":59},{"user_id":448,"name":"Lord Hater","steam_id":76561199158148782,"connected_time":109000000000,"state":"active","ping":61},{"user_id":417,"name":"The_Pacific_gamer","steam_id":76561198089491446,"connected_time":2386000000000,"state":"active","ping":45},{"user_id":332,"name":"Wormy Getting Coal","steam_id":76561198054539200,"connected_time":4474000000000,"state":"active","ping":51},{"user_id":432,"name":"Dr. Karl, the AUS Science Guy","steam_id":76561198031278747,"connected_time":1088000000000,"state":"active","ping":45},{"user_id":450,"name":"Sniff","steam_id":76561198010270922,"connected_time":78000000000,"state":"active","ping":43},{"user_id":449,"name":"8core","steam_id":76561198131163454,"connected_time":87000000000,"state":"active","ping":75},{"user_id":452,"name":"30 Curry","steam_id":76561197970747655,"connected_time":40000000000,"state":"active","ping":63},{"user_id":435,"name":"cholo","steam_id":76561198066091050,"connected_time":878000000000,"state":"active","ping":55},{"user_id":437,"name":"lol","steam_id":76561198026491738,"connected_time":866000000000,"state":"active","ping":88},{"user_id":444,"name":"indec","steam_id":76561198978404397,"connected_time":499000000000,"state":"active","ping":53},{"user_id":439,"name":"sero","steam_id":76561198069317611,"connected_time":834000000000,"state":"active","ping":94},{"user_id":424,"name":"Sailor","steam_id":76561199081983517,"connected_time":1863000000000,"state":"active","ping":88},{"user_id":402,"name":"FRANKY!!!","steam_id":76561199211305343,"connected_time":2595000000000,"state":"active","ping":61},{"user_id":427,"name":"Many Bees' Chilling","steam_id":76561198079641282,"connected_time":1829000000000,"state":"active","ping":50},{"user_id":258,"name":"mumbles","steam_id":76561197994528974,"connected_time":5803000000000,"state":"active","ping":79},{"user_id":282,"name":"Syrup","steam_id":76561198004623229,"connected_time":5399000000000,"state":"active","ping":85}]},{"server_id":119,"name":"Uncletopia | Seattle | 2 | All Maps","name_short":"sea-2","host":"sea-1.us.uncletopia.com","port":27025,"enabled":true,"region":"us-west","cc":"us","latitude":47.608013,"longitude":-122.33517,"reserved":0,"last_update":"0001-01-01T00:00:00Z","name_a2s":"Uncletopia | Seattle | 2 | All Maps","protocol":17,"map":"pl_pier","folder":"tf","game":"Team Fortress","app_id":440,"player_count":20,"max_players":24,"Bots":0,"server_type":"Dedicated","server_os":"Linux","password":true,"vac":true,"version":"7695204","steam_id":85568392924469998,"keywords":["nocrits","nodmgspread","payload","uncletopia"],"game_id":440,"stv_port":27026,"stv_name":"Uncletopia | Seattle | 2 | All Maps | STV","players":[{"user_id":503,"name":"gorlab","steam_id":76561198025089694,"connected_time":2763000000000,"state":"active","ping":59},{"user_id":527,"name":"Smiling","steam_id":76561198293407075,"connected_time":1535000000000,"state":"active","ping":70},{"user_id":501,"name":"Lawnmower","steam_id":76561198186680197,"connected_time":3026000000000,"state":"active","ping":57},{"user_id":529,"name":"Furious George","steam_id":76561198405111646,"connected_time":1262000000000,"state":"active","ping":70},{"user_id":465,"name":"tayzik","steam_id":76561199391478575,"connected_time":6372000000000,"state":"active","ping":91},{"user_id":525,"name":"N0_J0K3","steam_id":76561198287102197,"connected_time":1680000000000,"state":"active","ping":114},{"user_id":534,"name":"cvs knockoff","steam_id":76561199006886644,"connected_time":107000000000,"state":"active","ping":99},{"user_id":533,"name":"seuchenvater","steam_id":76561198109077293,"connected_time":329000000000,"state":"active","ping":54},{"user_id":484,"name":"goon","steam_id":76561198146228439,"connected_time":4476000000000,"state":"active","ping":48},{"user_id":515,"name":"ordinaryJoe","steam_id":76561198139822390,"connected_time":2087000000000,"state":"active","ping":66},{"user_id":528,"name":"M4 Sherman","steam_id":76561198011096132,"connected_time":1321000000000,"state":"active","ping":61},{"user_id":532,"name":"NJP","steam_id":76561198090275891,"connected_time":386000000000,"state":"active","ping":65},{"user_id":454,"name":"snorlax_gamer","steam_id":76561199084972996,"connected_time":7761000000000,"state":"active","ping":55},{"user_id":464,"name":"DJHyper777","steam_id":76561198304548526,"connected_time":6389000000000,"state":"active","ping":69},{"user_id":456,"name":"General Fisticuffs","steam_id":76561198255721392,"connected_time":7610000000000,"state":"active","ping":102},{"user_id":492,"name":"Pronounced30","steam_id":76561198070127606,"connected_time":4280000000000,"state":"active","ping":132},{"user_id":489,"name":"Gunslinger Rafa","steam_id":76561198070140106,"connected_time":4390000000000,"state":"active","ping":41},{"user_id":531,"name":"KellyKapoor","steam_id":76561198040828123,"connected_time":441000000000,"state":"active","ping":50},{"user_id":508,"name":"boo_thefeared","steam_id":76561198127967685,"connected_time":2673000000000,"state":"active","ping":168},{"user_id":375,"name":"Soap","steam_id":76561198074619142,"connected_time":13308000000000,"state":"active","ping":96}]},{"server_id":17,"name":"Uncletopia | San Francisco | 1 | All Maps","name_short":"sfo-1","host":"sfo-1.us.uncletopia.com","port":27015,"enabled":true,"region":"us-west","cc":"us","latitude":37.77397,"longitude":-122.4313,"reserved":0,"last_update":"0001-01-01T00:00:00Z","name_a2s":"Uncletopia | San Francisco | 1 | All Maps","protocol":17,"map":"pl_barnblitz","folder":"tf","game":"Team Fortress","app_id":440,"player_count":24,"max_players":24,"Bots":0,"server_type":"Dedicated","server_os":"Linux","password":true,"vac":true,"version":"7695204","steam_id":85568392924469999,"keywords":["nocrits","nodmgspread","payload","uncletopia"],"game_id":440,"stv_port":27016,"stv_name":"Uncletopia | San Francisco | 1 | All Maps | STV","players":[{"user_id":134,"name":"Grilled Cheese Maker Splooge","steam_id":76561198056953903,"connected_time":6000000000,"state":"spawning","ping":314},{"user_id":40,"name":"Spooks ☆","steam_id":76561198118095626,"connected_time":5328000000000,"state":"active","ping":65},{"user_id":117,"name":"Moyshen24","steam_id":76561199210510557,"connected_time":1753000000000,"state":"active","ping":61},{"user_id":107,"name":"real","steam_id":76561198156053300,"connected_time":1960000000000,"state":"active","ping":60},{"user_id":108,"name":"Killerofzombie23","steam_id":76561198799173778,"connected_time":1941000000000,"state":"active","ping":76},{"user_id":80,"name":"socially anxious kid","steam_id":76561198249946198,"connected_time":4055000000000,"state":"active","ping":55},{"user_id":130,"name":"Luffa Rigno","steam_id":76561197998700507,"connected_time":130000000000,"state":"active","ping":66},{"user_id":75,"name":"Wacks","steam_id":76561198079476100,"connected_time":4264000000000,"state":"active","ping":54},{"user_id":118,"name":"devils nightmare","steam_id":76561198068136765,"connected_time":1329000000000,"state":"active","ping":53},{"user_id":109,"name":"Verde","steam_id":76561198035623915,"connected_time":1904000000000,"state":"active","ping":102},{"user_id":86,"name":"pt","steam_id":76561198143023330,"connected_time":3593000000000,"state":"active","ping":51},{"user_id":126,"name":"Charles Lazar","steam_id":76561198343459749,"connected_time":505000000000,"state":"active","ping":58},{"user_id":131,"name":"e doctor","steam_id":76561198081851446,"connected_time":73000000000,"state":"active","ping":90},{"user_id":87,"name":"El Gato Paranoico","steam_id":76561198116567116,"connected_time":3590000000000,"state":"active","ping":87},{"user_id":88,"name":"Idontknow","steam_id":76561199207044048,"connected_time":3545000000000,"state":"active","ping":94},{"user_id":96,"name":"Flyingcat9000","steam_id":76561198179561797,"connected_time":2925000000000,"state":"active","ping":45},{"user_id":115,"name":"Spare(8)Ball","steam_id":76561197982432995,"connected_time":1830000000000,"state":"active","ping":51},{"user_id":114,"name":"LOBER","steam_id":76561198057253404,"connected_time":1843000000000,"state":"active","ping":109},{"user_id":98,"name":"Rich Money McNickelson","steam_id":76561198352427247,"connected_time":2735000000000,"state":"active","ping":62},{"user_id":128,"name":"video games","steam_id":76561198334059206,"connected_time":315000000000,"state":"active","ping":52},{"user_id":125,"name":"JacenHan","steam_id":76561198077796718,"connected_time":824000000000,"state":"active","ping":59},{"user_id":132,"name":"sniper ruins games","steam_id":76561198081681647,"connected_time":25000000000,"state":"active","ping":65},{"user_id":101,"name":"Papi Nacho","steam_id":76561198170128009,"connected_time":2239000000000,"state":"active","ping":54},{"user_id":133,"name":"Taffy","steam_id":76561198276612538,"connected_time":22000000000,"state":"spawning","ping":47}]},{"server_id":18,"name":"Uncletopia | San Francisco | 2 | All Maps","name_short":"sfo-2","host":"sfo-1.us.uncletopia.com","port":27025,"enabled":true,"region":"us-west","cc":"us","latitude":37.77397,"longitude":-122.4313,"reserved":0,"last_update":"0001-01-01T00:00:00Z","name_a2s":"Uncletopia | San Francisco | 2 | All Maps","protocol":17,"map":"pl_swiftwater_final1","folder":"tf","game":"Team Fortress","app_id":440,"player_count":24,"max_players":24,"Bots":0,"server_type":"Dedicated","server_os":"Linux","password":true,"vac":true,"version":"7695204","steam_id":85568392924470000,"keywords":["nocrits","nodmgspread","payload","uncletopia"],"game_id":440,"stv_port":27026,"stv_name":"Uncletopia | San Francisco | 2 | All Maps | STV","players":[{"user_id":552,"name":"Nocturnal","steam_id":76561198278704738,"connected_time":2241000000000,"state":"active","ping":60},{"user_id":540,"name":"Dmon","steam_id":76561198032702087,"connected_time":4097000000000,"state":"active","ping":45},{"user_id":564,"name":"JDizzle","steam_id":76561199122696841,"connected_time":137000000000,"state":"active","ping":71},{"user_id":557,"name":"IzzyHoP","steam_id":76561197995927883,"connected_time":1036000000000,"state":"active","ping":54},{"user_id":558,"name":"SPREAD CHRISTMAS CHEER AND JOY","steam_id":76561198800386026,"connected_time":1018000000000,"state":"active","ping":68},{"user_id":555,"name":"happer","steam_id":76561198018252253,"connected_time":1521000000000,"state":"active","ping":61},{"user_id":559,"name":"sentient soup","steam_id":76561198887503216,"connected_time":1005000000000,"state":"active","ping":128},{"user_id":560,"name":"Kenpachi","steam_id":76561198803824764,"connected_time":984000000000,"state":"active","ping":80},{"user_id":562,"name":"squinzi","steam_id":76561198086520846,"connected_time":752000000000,"state":"active","ping":64},{"user_id":561,"name":"HOG RIDER","steam_id":76561198298589502,"connected_time":931000000000,"state":"active","ping":60},{"user_id":516,"name":"Kitto","steam_id":76561198053851877,"connected_time":6305000000000,"state":"active","ping":62},{"user_id":551,"name":"girl moder","steam_id":76561198075694197,"connected_time":3264000000000,"state":"active","ping":54},{"user_id":541,"name":"Dogg wader","steam_id":76561199090314340,"connected_time":4086000000000,"state":"active","ping":77},{"user_id":514,"name":"Jax O'Gaytor","steam_id":76561198288922168,"connected_time":6475000000000,"state":"active","ping":66},{"user_id":532,"name":"Ricelover","steam_id":76561198064631164,"connected_time":4728000000000,"state":"active","ping":55},{"user_id":521,"name":"xxashketchup712","steam_id":76561198067232540,"connected_time":5811000000000,"state":"active","ping":123},{"user_id":554,"name":"ArnoldGaming","steam_id":76561198040140247,"connected_time":1601000000000,"state":"active","ping":129},{"user_id":437,"name":"jodie.blend","steam_id":76561198140701807,"connected_time":10746000000000,"state":"active","ping":87},{"user_id":460,"name":"MG","steam_id":76561197980131846,"connected_time":9869000000000,"state":"active","ping":40},{"user_id":281,"name":"tweet","steam_id":76561198166515735,"connected_time":21845000000000,"state":"active","ping":50},{"user_id":542,"name":"Dr. FlimFlam","steam_id":76561198049212986,"connected_time":4048000000000,"state":"active","ping":75},{"user_id":553,"name":"R5-D4","steam_id":76561198025196439,"connected_time":1954000000000,"state":"active","ping":76},{"user_id":563,"name":"The Clown","steam_id":76561199085524751,"connected_time":272000000000,"state":"active","ping":54},{"user_id":556,"name":"jimmy outlaw","steam_id":76561198070380402,"connected_time":1349000000000,"state":"active","ping":95}]},{"server_id":19,"name":"Uncletopia | San Francisco | 3 | No Payload","name_short":"sfo-3","host":"sfo-1.us.uncletopia.com","port":27035,"enabled":true,"region":"us-west","cc":"us","latitude":37.77397,"longitude":-122.4313,"reserved":0,"last_update":"0001-01-01T00:00:00Z","name_a2s":"Uncletopia | San Francisco | 3 | No Payload","protocol":17,"map":"plr_hightower","folder":"tf","game":"Team Fortress","app_id":440,"player_count":0,"max_players":24,"Bots":0,"server_type":"Dedicated","server_os":"Linux","password":true,"vac":true,"version":"7695204","steam_id":85568392924742824,"keywords":["nocrits","nodmgspread","payload","uncletopia"],"game_id":440,"stv_port":27036,"stv_name":"Uncletopia | San Francisco | 3 | No Payload | STV","players":null},{"server_id":20,"name":"Uncletopia | San Francisco | 4 | Community","name_short":"sfo-4","host":"sfo-1.us.uncletopia.com","port":27045,"enabled":true,"region":"us-west","cc":"us","latitude":37.77397,"longitude":-122.4313,"reserved":0,"last_update":"0001-01-01T00:00:00Z","name_a2s":"Uncletopia | San Francisco | 4 | Community","protocol":17,"map":"koth_highpass","folder":"tf","game":"Team Fortress","app_id":440,"player_count":0,"max_players":24,"Bots":0,"server_type":"Dedicated","server_os":"Linux","password":true,"vac":true,"version":"7695204","steam_id":85568392924742826,"keywords":["cp","nocrits","nodmgspread","uncletopia"],"game_id":440,"stv_port":0,"stv_name":"","players":null},{"server_id":141,"name":"Uncletopia | Sydney | 1 | All Maps","name_short":"syd-1","host":"syd-1.au.uncletopia.com","port":27015,"enabled":true,"region":"au","cc":"au","latitude":-33.865143,"longitude":151.2099,"reserved":0,"last_update":"0001-01-01T00:00:00Z","name_a2s":"Uncletopia | Sydney | 1 | All Maps","protocol":17,"map":"koth_king","folder":"tf","game":"Team Fortress","app_id":440,"player_count":5,"max_players":24,"Bots":0,"server_type":"Dedicated","server_os":"Linux","password":true,"vac":true,"version":"7695204","steam_id":85568392924470001,"keywords":["cp","nocrits","nodmgspread","uncletopia"],"game_id":440,"stv_port":27016,"stv_name":"Uncletopia | Sydney | 1 | All Maps | STV","players":[{"user_id":396,"name":"Worst Sniper","steam_id":76561198025733081,"connected_time":370000000000,"state":"active","ping":78},{"user_id":393,"name":"Branko","steam_id":76561199262196710,"connected_time":1094000000000,"state":"active","ping":34},{"user_id":397,"name":"burfdae boi","steam_id":76561199000827969,"connected_time":350000000000,"state":"active","ping":38},{"user_id":398,"name":"Servo Guy","steam_id":76561199069287849,"connected_time":346000000000,"state":"active","ping":50},{"user_id":399,"name":"KeeperOfBalance","steam_id":76561198028070089,"connected_time":116000000000,"state":"active","ping":79}]},{"server_id":123,"name":"Uncletopia | Sydney | 2 | All Maps","name_short":"syd-2","host":"syd-1.au.uncletopia.com","port":27025,"enabled":true,"region":"au","cc":"au","latitude":-33.865143,"longitude":151.2099,"reserved":0,"last_update":"0001-01-01T00:00:00Z","name_a2s":"Uncletopia | Sydney | 2 | All Maps","protocol":17,"map":"pl_borneo","folder":"tf","game":"Team Fortress","app_id":440,"player_count":23,"max_players":24,"Bots":0,"server_type":"Dedicated","server_os":"Linux","password":true,"vac":true,"version":"7695204","steam_id":85568392924470002,"keywords":["nocrits","nodmgspread","payload","uncletopia"],"game_id":440,"stv_port":27026,"stv_name":"Uncletopia | Sydney | 2 | All Maps | STV","players":[{"user_id":319,"name":"Charm","steam_id":76561198028891054,"connected_time":1816000000000,"state":"active","ping":62},{"user_id":304,"name":"th0red0n","steam_id":76561198855934264,"connected_time":3438000000000,"state":"active","ping":78},{"user_id":293,"name":"rhanger","steam_id":76561198178150811,"connected_time":4271000000000,"state":"active","ping":58},{"user_id":320,"name":"Macca","steam_id":76561198010207998,"connected_time":1277000000000,"state":"active","ping":57},{"user_id":323,"name":"Pompadouraus","steam_id":76561198327530525,"connected_time":1264000000000,"state":"active","ping":74},{"user_id":336,"name":"RR Kony","steam_id":76561198838132101,"connected_time":120000000000,"state":"active","ping":57},{"user_id":254,"name":"Bread","steam_id":76561198421454803,"connected_time":6673000000000,"state":"active","ping":71},{"user_id":329,"name":"Owlenstein™","steam_id":76561198093983826,"connected_time":1026000000000,"state":"active","ping":105},{"user_id":328,"name":"cool motorcyle wolf","steam_id":76561198801310054,"connected_time":1177000000000,"state":"active","ping":58},{"user_id":307,"name":"callistoAshley","steam_id":76561198178116375,"connected_time":2891000000000,"state":"active","ping":48},{"user_id":330,"name":"Abyss (she/her)","steam_id":76561198049213583,"connected_time":803000000000,"state":"active","ping":61},{"user_id":240,"name":"Mooty","steam_id":76561198301293435,"connected_time":8087000000000,"state":"active","ping":52},{"user_id":331,"name":"hazz_mcpie -BvM-","steam_id":76561198092450084,"connected_time":705000000000,"state":"active","ping":80},{"user_id":267,"name":"TheSaltyKoi","steam_id":76561198816704624,"connected_time":6099000000000,"state":"active","ping":53},{"user_id":334,"name":"It's barbin time","steam_id":76561198060225022,"connected_time":213000000000,"state":"active","ping":91},{"user_id":332,"name":"LilCringe","steam_id":76561198171135461,"connected_time":598000000000,"state":"active","ping":52},{"user_id":335,"name":"Van","steam_id":76561198027324852,"connected_time":179000000000,"state":"active","ping":72},{"user_id":316,"name":"Bayonet Enthusiast","steam_id":76561198088904161,"connected_time":2106000000000,"state":"active","ping":61},{"user_id":322,"name":"Phoish","steam_id":76561198442526296,"connected_time":1271000000000,"state":"active","ping":71},{"user_id":333,"name":"table","steam_id":76561199218095319,"connected_time":367000000000,"state":"active","ping":49},{"user_id":315,"name":"Schizo Joshua Graham","steam_id":76561198136604959,"connected_time":2189000000000,"state":"active","ping":67},{"user_id":337,"name":"☁☁ﮎσggY☁","steam_id":76561198156441727,"connected_time":92000000000,"state":"active","ping":43},{"user_id":327,"name":"Raypest","steam_id":76561197980678745,"connected_time":1232000000000,"state":"active","ping":44}]},{"server_id":395,"name":"Uncletopia | Sydney | 3 | All Maps","name_short":"syd-3","host":"syd-1.au.uncletopia.com","port":27035,"enabled":true,"region":"au","cc":"au","latitude":-33.865143,"longitude":151.2099,"reserved":0,"last_update":"0001-01-01T00:00:00Z","name_a2s":"Uncletopia | Sydney | 3 | All Maps","protocol":17,"map":"pl_barnblitz","folder":"tf","game":"Team Fortress","app_id":440,"player_count":22,"max_players":24,"Bots":0,"server_type":"Dedicated","server_os":"Linux","password":true,"vac":true,"version":"7695204","steam_id":85568392925194467,"keywords":["nocrits","nodmgspread","payload","uncletopia"],"game_id":440,"stv_port":27036,"stv_name":"Uncletopia | Sydney | 3 | All Maps | STV","players":[{"user_id":125,"name":"El Chupacabra","steam_id":76561198070641651,"connected_time":191000000000,"state":"active","ping":45},{"user_id":126,"name":"krandlez` (Any/All)","steam_id":76561198044839726,"connected_time":131000000000,"state":"active","ping":40},{"user_id":123,"name":"bulbul","steam_id":76561198183851230,"connected_time":231000000000,"state":"active","ping":65},{"user_id":99,"name":"ุbifcheg","steam_id":76561198319806610,"connected_time":1946000000000,"state":"active","ping":64},{"user_id":127,"name":"Sillymadleb","steam_id":76561198254712329,"connected_time":99000000000,"state":"active","ping":48},{"user_id":89,"name":"cimpact","steam_id":76561198452258917,"connected_time":2272000000000,"state":"active","ping":152},{"user_id":102,"name":"J''''","steam_id":76561198047565137,"connected_time":1797000000000,"state":"active","ping":58},{"user_id":107,"name":"braindamage","steam_id":76561198110730148,"connected_time":1443000000000,"state":"active","ping":76},{"user_id":103,"name":"♥ Sharpy \u003e v \u003c","steam_id":76561198091613743,"connected_time":1707000000000,"state":"active","ping":92},{"user_id":120,"name":"ItsSnakey","steam_id":76561199187623513,"connected_time":756000000000,"state":"active","ping":59},{"user_id":108,"name":"Warren","steam_id":76561198120350917,"connected_time":1265000000000,"state":"active","ping":39},{"user_id":114,"name":"whiteshaq","steam_id":76561198131988811,"connected_time":1031000000000,"state":"active","ping":67},{"user_id":128,"name":"24 Carat Horse Necklace","steam_id":76561198254802111,"connected_time":65000000000,"state":"active","ping":58},{"user_id":112,"name":"floop flub","steam_id":76561198418968979,"connected_time":1061000000000,"state":"active","ping":92},{"user_id":60,"name":"mycelph","steam_id":76561197993987500,"connected_time":4801000000000,"state":"active","ping":54},{"user_id":113,"name":"Mama Origami","steam_id":76561198330338645,"connected_time":1058000000000,"state":"active","ping":67},{"user_id":95,"name":"huh","steam_id":76561198146659854,"connected_time":2214000000000,"state":"active","ping":47},{"user_id":115,"name":"Eclipse Mints Muncher","steam_id":76561198972095766,"connected_time":999000000000,"state":"active","ping":44},{"user_id":72,"name":"✻Fяostbite","steam_id":76561198035353612,"connected_time":3814000000000,"state":"active","ping":65},{"user_id":116,"name":"hyak","steam_id":76561198175700625,"connected_time":997000000000,"state":"active","ping":87},{"user_id":76,"name":"Glaistig Uaine","steam_id":76561198056798610,"connected_time":3785000000000,"state":"active","ping":86},{"user_id":122,"name":"Mysterious Hooded Figure","steam_id":76561198119416510,"connected_time":637000000000,"state":"active","ping":39}]},{"server_id":396,"name":"Uncletopia | Sydney | 4 | All Maps","name_short":"syd-4","host":"syd-1.au.uncletopia.com","port":27045,"enabled":true,"region":"au","cc":"au","latitude":-33.865143,"longitude":151.2099,"reserved":0,"last_update":"0001-01-01T00:00:00Z","name_a2s":"Uncletopia | Sydney | 4 | All Maps","protocol":17,"map":"koth_lakeside_final","folder":"tf","game":"Team Fortress","app_id":440,"player_count":0,"max_players":24,"Bots":0,"server_type":"Dedicated","server_os":"Linux","password":true,"vac":true,"version":"7695204","steam_id":85568392925397958,"keywords":["cp","nocrits","nodmgspread","uncletopia"],"game_id":440,"stv_port":27046,"stv_name":"Uncletopia | Sydney | 4 | All Maps | STV","players":null},{"server_id":58,"name":"Uncletopia | Sydney | 5 | No Payload","name_short":"syd-5","host":"syd-1.au.uncletopia.com","port":27055,"enabled":true,"region":"au","cc":"au","latitude":-33.865143,"longitude":151.2099,"reserved":0,"last_update":"0001-01-01T00:00:00Z","name_a2s":"Uncletopia | Sydney | 5 | No Payload","protocol":17,"map":"cp_snakewater_final1","folder":"tf","game":"Team Fortress","app_id":440,"player_count":0,"max_players":24,"Bots":0,"server_type":"Dedicated","server_os":"Linux","password":true,"vac":true,"version":"7695204","steam_id":85568392925397959,"keywords":["cp","nocrits","nodmgspread","uncletopia"],"game_id":440,"stv_port":27056,"stv_name":"Uncletopia | Sydney | 5 | No Payload | STV","players":null},{"server_id":59,"name":"Uncletopia | Sydney | 6 | Community","name_short":"syd-6","host":"syd-1.au.uncletopia.com","port":27065,"enabled":true,"region":"au","cc":"au","latitude":-33.865143,"longitude":151.2099,"reserved":0,"last_update":"0001-01-01T00:00:00Z","name_a2s":"Uncletopia | Sydney | 6 | Community","protocol":17,"map":"workshop/koth_product_final.ugc454272353","folder":"tf","game":"Team Fortress","app_id":440,"player_count":0,"max_players":24,"Bots":0,"server_type":"Dedicated","server_os":"Linux","password":true,"vac":true,"version":"7695204","steam_id":85568392925397960,"keywords":["cp","nocrits","nodmgspread","uncletopia"],"game_id":440,"stv_port":27066,"stv_name":"Uncletopia | Sydney | 6 | Community | STV","players":null},{"server_id":49,"name":"Uncletopia | Warsaw | 1 | All Maps","name_short":"waw-1","host":"waw-1.pl.uncletopia.com","port":27015,"enabled":true,"region":"eu","cc":"pl","latitude":52.2297,"longitude":21.017532,"reserved":0,"last_update":"0001-01-01T00:00:00Z","name_a2s":"Uncletopia | Warsaw | 1 | All Maps","protocol":17,"map":"pl_frontier_final","folder":"tf","game":"Team Fortress","app_id":440,"player_count":0,"max_players":24,"Bots":0,"server_type":"Dedicated","server_os":"Linux","password":true,"vac":true,"version":"7695204","steam_id":85568392925397850,"keywords":["nocrits","nodmgspread","payload","uncletopia"],"game_id":440,"stv_port":0,"stv_name":"","players":null},{"server_id":50,"name":"Uncletopia | Warsaw | 2 | All Maps","name_short":"waw-2","host":"waw-1.pl.uncletopia.com","port":27025,"enabled":true,"region":"eu","cc":"pl","latitude":52.2297,"longitude":21.017532,"reserved":0,"last_update":"0001-01-01T00:00:00Z","name_a2s":"Uncletopia | Warsaw | 2 | All Maps","protocol":17,"map":"cp_snakewater_final1","folder":"tf","game":"Team Fortress","app_id":440,"player_count":0,"max_players":24,"Bots":0,"server_type":"Dedicated","server_os":"Linux","password":true,"vac":true,"version":"7695204","steam_id":85568392925397851,"keywords":["cp","nocrits","nodmgspread","uncletopia"],"game_id":440,"stv_port":0,"stv_name":"","players":null},{"server_id":51,"name":"Uncletopia | Warsaw | 3 | All Maps","name_short":"waw-3","host":"waw-1.pl.uncletopia.com","port":27035,"enabled":true,"region":"eu","cc":"pl","latitude":52.2297,"longitude":21.017532,"reserved":0,"last_update":"0001-01-01T00:00:00Z","name_a2s":"Uncletopia | Warsaw | 3 | All Maps","protocol":17,"map":"pl_barnblitz","folder":"tf","game":"Team Fortress","app_id":440,"player_count":0,"max_players":24,"Bots":0,"server_type":"Dedicated","server_os":"Linux","password":true,"vac":true,"version":"7695204","steam_id":85568392925397852,"keywords":["nocrits","nodmgspread","payload","uncletopia"],"game_id":440,"stv_port":0,"stv_name":"","players":null},{"server_id":52,"name":"Uncletopia | Warsaw | 4 | All Maps","name_short":"waw-4","host":"waw-1.pl.uncletopia.com","port":27045,"enabled":true,"region":"eu","cc":"pl","latitude":52.2297,"longitude":21.017532,"reserved":0,"last_update":"0001-01-01T00:00:00Z","name_a2s":"Uncletopia | Warsaw | 4 | All Maps","protocol":17,"map":"cp_altitude","folder":"tf","game":"Team Fortress","app_id":440,"player_count":0,"max_players":24,"Bots":0,"server_type":"Dedicated","server_os":"Linux","password":true,"vac":true,"version":"7695204","steam_id":85568392925397853,"keywords":["cp","nocrits","nodmgspread","uncletopia"],"game_id":440,"stv_port":0,"stv_name":"","players":null},{"server_id":53,"name":"Uncletopia | Warsaw | 5 | No Payload","name_short":"waw-5","host":"waw-1.pl.uncletopia.com","port":27055,"enabled":true,"region":"eu","cc":"pl","latitude":52.2297,"longitude":21.017532,"reserved":0,"last_update":"0001-01-01T00:00:00Z","name_a2s":"Uncletopia | Warsaw | 5 | No Payload","protocol":17,"map":"pl_badwater","folder":"tf","game":"Team Fortress","app_id":440,"player_count":0,"max_players":24,"Bots":0,"server_type":"Dedicated","server_os":"Linux","password":true,"vac":true,"version":"7695204","steam_id":85568392925397854,"keywords":["nocrits","nodmgspread","payload","uncletopia"],"game_id":440,"stv_port":0,"stv_name":"","players":null},{"server_id":54,"name":"Uncletopia | Warsaw | 6 | Community","name_short":"waw-6","host":"waw-1.pl.uncletopia.com","port":27065,"enabled":true,"region":"eu","cc":"pl","latitude":52.2297,"longitude":21.017532,"reserved":0,"last_update":"0001-01-01T00:00:00Z","name_a2s":"Uncletopia | Warsaw | 6 | Community","protocol":17,"map":"pl_barnblitz","folder":"tf","game":"Team Fortress","app_id":440,"player_count":0,"max_players":24,"Bots":0,"server_type":"Dedicated","server_os":"Linux","password":true,"vac":true,"version":"7695204","steam_id":85568392925397856,"keywords":["nocrits","nodmgspread","payload","uncletopia"],"game_id":440,"stv_port":0,"stv_name":"","players":null}]}