{"status":true,"message":"","result":[{"server_id":9,"name":"Uncletopia | Atlanta | 1 | All Maps","name_short":"atl-1","host":"atl-1.us.uncletopia.com","port":27015,"enabled":true,"region":"us-east","cc":"us","latitude":33.753746,"longitude":-84.38633,"reserved":0,"last_update":"0001-01-01T00:00:00Z","name_a2s":"Uncletopia | Atlanta | 1 | All Maps","protocol":17,"map":"koth_cascade","folder":"tf","game":"Team Fortress","app_id":440,"player_count":17,"max_players":24,"Bots":0,"server_type":"Dedicated","server_os":"Linux","password":true,"vac":true,"version":"7757534","steam_id":85568392924469982,"keywords":["cp","nocrits","nodmgspread","uncletopia"],"game_id":440,"stv_port":27016,"stv_name":"Uncletopia | Atlanta | 1 | All Maps | STV","players":[{"user_id":21,"name":"troll","steam_id":76561198040890252,"connected_time":1613000000000,"state":"active","ping":45},{"user_id":26,"name":"jorjor wells","steam_id":76561199073429082,"connected_time":701000000000,"state":"active","ping":68},{"user_id":23,"name":"‡ºò ‚ãÜÀöüéßCaffeine‚òï*Àñ¬∞","steam_id":76561199259309294,"connected_time":1206000000000,"state":"active","ping":88},{"user_id":24,"name":"TerracottaP","steam_id":76561199402983168,"connected_time":1192000000000,"state":"active","ping":66},{"user_id":25,"name":"Belmore","steam_id":76561198009355231,"connected_time":1190000000000,"state":"active","ping":109},{"user_id":27,"name":"ATL1 | Pango","steam_id":76561198069811545,"connected_time":499000000000,"state":"active","ping":45},{"user_id":28,"name":"iru","steam_id":76561198355068405,"connected_time":480000000000,"state":"active","ping":84},{"user_id":29,"name":"Quiver Cakes ._.","steam_id":76561198243155576,"connected_time":342000000000,"state":"active","ping":70},{"user_id":30,"name":"NBA Youngboy","steam_id":76561199118797200,"connected_time":341000000000,"state":"active","ping":63},{"user_id":31,"name":"danilala","steam_id":76561198318754760,"connected_time":331000000000,"state":"active","ping":116},{"user_id":32,"name":"Slickk._.","steam_id":76561198803086086,"connected_time":329000000000,"state":"active","ping":81},{"user_id":40,"name":"root beer enthusiast","steam_id":76561198124791670,"connected_time":111000000000,"state":"active","ping":37},{"user_id":34,"name":"Professional Zoo Tycoon Player","steam_id":76561198013026044,"connected_time":244000000000,"state":"active","ping":85},{"user_id":35,"name":"SuperEvilPasta","steam_id":76561198078258907,"connected_time":224000000000,"state":"active","ping":113},{"user_id":36,"name":"Alucardo","steam_id":76561198320866421,"connected_time":217000000000,"state":"active","ping":47},{"user_id":37,"name":"NVM!!!","steam_id":76561198432721568,"connected_time":213000000000,"state":"active","ping":119},{"user_id":38,"name":"lost in spaaaaace","steam_id":76561199085974120,"connected_time":201000000000,"state":"active","ping":61}]},{"server_id":400,"name":"Uncletopia | Atlanta | 3 | Community","name_short":"atl-3","host":"atl-1.us.uncletopia.com","port":27035,"enabled":true,"region":"us-east","cc":"us","latitude":33.753746,"longitude":-84.38633,"reserved":0,"last_update":"0001-01-01T00:00:00Z","name_a2s":"Uncletopia | Atlanta | 3 | Community","protocol":17,"map":"pl_swiftwater_final1","folder":"tf","game":"Team Fortress","app_id":440,"player_count":0,"max_players":32,"Bots":0,"server_type":"Dedicated","server_os":"Linux","password":true,"vac":true,"version":"7757534","steam_id":85568392924515187,"keywords":["increased_maxplayers","nocrits","nodmgspread","payload","uncletopia"],"game_id":440,"stv_port":27036,"stv_name":"Uncletopia | Atlanta | 3 | Community | STV","players":null},{"server_id":401,"name":"Uncletopia | Atlanta | 4 | No Payload","name_short":"atl-4","host":"atl-1.us.uncletopia.com","port":27045,"enabled":true,"region":"us-east","cc":"us","latitude":33.753746,"longitude":-84.38633,"reserved":0,"last_update":"0001-01-01T00:00:00Z","name_a2s":"","protocol":0,"map":"","folder":"","game":"","app_id":0,"player_count":0,"max_players":0,"Bots":0,"server_type":"","server_os":"","password":false,"vac":false,"version":"","steam_id":0,"keywords":null,"game_id":0,"stv_port":0,"stv_name":"","players":null},{"server_id":2,"name":"Uncletopia | Chicago | 1 | All Maps","name_short":"chi-1","host":"chi-1.us.uncletopia.com","port":27015,"enabled":true,"region":"us-central","cc":"us","latitude":41.881832,"longitude":-87.62318,"reserved":0,"last_update":"0001-01-01T00:00:00Z","name_a2s":"Uncletopia | Chicago | 1 | All Maps","protocol":17,"map":"pl_badwater","folder":"tf","game":"Team Fortress","app_id":440,"player_count":20,"max_players":24,"Bots":0,"server_type":"Dedicated","server_os":"Linux","password":true,"vac":true,"version":"7757534","steam_id":85568392924469984,"keywords":["nocrits","nodmgspread","payload","uncletopia"],"game_id":440,"stv_port":27016,"stv_name":"Uncletopia | Chicago | 1 | All Maps | STV","players":[{"user_id":243,"name":"brett","steam_id":76561198799740059,"connected_time":1372000000000,"state":"active","ping":74},{"user_id":254,"name":"Draconic Ballad","steam_id":76561198027191515,"connected_time":534000000000,"state":"active","ping":45},{"user_id":266,"name":"Sealboy","steam_id":76561199063067842,"connected_time":6000000000,"state":"active","ping":242},{"user_id":168,"name":"SuperFresh","steam_id":76561198200723198,"connected_time":6154000000000,"state":"active","ping":44},{"user_id":258,"name":"Swedish Crowbar","steam_id":76561199105488936,"connected_time":210000000000,"state":"active","ping":146},{"user_id":249,"name":"your colonoscopy results","steam_id":76561198017705248,"connected_time":934000000000,"state":"active","ping":44},{"user_id":220,"name":"mcdoubble","steam_id":76561198089126832,"connected_time":2296000000000,"state":"active","ping":81},{"user_id":236,"name":"A Rhino with Coronavirus","steam_id":76561197999451366,"connected_time":1944000000000,"state":"active","ping":63},{"user_id":253,"name":"Rornir","steam_id":76561198081829615,"connected_time":780000000000,"state":"active","ping":35},{"user_id":237,"name":"LocaKola","steam_id":76561198173435430,"connected_time":1898000000000,"state":"active","ping":78},{"user_id":262,"name":"wibblesprevails","steam_id":76561198450577427,"connected_time":93000000000,"state":"active","ping":77},{"user_id":256,"name":"Some Dumb Werewolf","steam_id":76561198114146739,"connected_time":340000000000,"state":"active","ping":103},{"user_id":238,"name":"hot pockets in your area","steam_id":76561198052988988,"connected_time":1761000000000,"state":"active","ping":64},{"user_id":252,"name":"do you want to try my air fryer","steam_id":76561198004847013,"connected_time":907000000000,"state":"active","ping":89},{"user_id":155,"name":"finger","steam_id":76561198068558572,"connected_time":6690000000000,"state":"active","ping":80},{"user_id":223,"name":"M√°tame","steam_id":76561198060680045,"connected_time":2021000000000,"state":"active","ping":71},{"user_id":244,"name":"Coffee with a Stranger","steam_id":76561198307422313,"connected_time":1343000000000,"state":"active","ping":69},{"user_id":242,"name":"abed","steam_id":76561198072856511,"connected_time":1531000000000,"state":"active","ping":83},{"user_id":245,"name":"Argo","steam_id":76561198353725622,"connected_time":1317000000000,"state":"active","ping":75},{"user_id":263,"name":"N√©oGothiqueüïØ","steam_id":76561198003467269,"connected_time":82000000000,"state":"active","ping":71}]},{"server_id":106,"name":"Uncletopia | Chicago | 2 | All Maps","name_short":"chi-2","host":"chi-1.us.uncletopia.com","port":27025,"enabled":true,"region":"us-central","cc":"us","latitude":41.881832,"longitude":-87.62318,"reserved":0,"last_update":"0001-01-01T00:00:00Z","name_a2s":"Uncletopia | Chicago | 2 | All Maps","protocol":17,"map":"koth_cascade","folder":"tf","game":"Team Fortress","app_id":440,"player_count":0,"max_players":24,"Bots":0,"server_type":"Dedicated","server_os":"Linux","password":true,"vac":true,"version":"7757534","steam_id":85568392924469985,"keywords":["cp","nocrits","nodmgspread","uncletopia"],"game_id":440,"stv_port":27026,"stv_name":"Uncletopia | Chicago | 2 | All Maps | STV","players":null},{"server_id":402,"name":"Uncletopia | Chicago | 3 | All Maps","name_short":"chi-3","host":"chi-1.us.uncletopia.com","port":27035,"enabled":true,"region":"us-central","cc":"us","latitude":41.881832,"longitude":-87.62318,"reserved":0,"last_update":"0001-01-01T00:00:00Z","name_a2s":"Uncletopia | Chicago | 3 | All Maps","protocol":17,"map":"cp_process_final","folder":"tf","game":"Team Fortress","app_id":440,"player_count":0,"max_players":24,"Bots":0,"server_type":"Dedicated","server_os":"Linux","password":true,"vac":true,"version":"7757534","steam_id":85568392924515191,"keywords":["cp","nocrits","nodmgspread","uncletopia"],"game_id":440,"stv_port":27036,"stv_name":"Uncletopia | Chicago | 3 | All Maps | STV","players":null},{"server_id":403,"name":"Uncletopia | Chicago | 4 | All Maps","name_short":"chi-4","host":"chi-1.us.uncletopia.com","port":27045,"enabled":true,"region":"us-central","cc":"us","latitude":41.881832,"longitude":-87.62318,"reserved":0,"last_update":"0001-01-01T00:00:00Z","name_a2s":"Uncletopia | Chicago | 4 | All Maps","protocol":17,"map":"koth_lakeside_final","folder":"tf","game":"Team Fortress","app_id":440,"player_count":0,"max_players":24,"Bots":0,"server_type":"Dedicated","server_os":"Linux","password":true,"vac":true,"version":"7757534","steam_id":85568392924515193,"keywords":["cp","nocrits","nodmgspread","uncletopia"],"game_id":440,"stv_port":27046,"stv_name":"Uncletopia | Chicago | 4 | All Maps | STV","players":null},{"server_id":36,"name":"Uncletopia | Chicago | 5 | All Maps","name_short":"chi-5","host":"chi-2.us.uncletopia.com","port":27015,"enabled":true,"region":"us-central","cc":"us","latitude":41.881832,"longitude":-87.62318,"reserved":0,"last_update":"0001-01-01T00:00:00Z","name_a2s":"Uncletopia | Chicago | 5 | All Maps","protocol":17,"map":"koth_cascade","folder":"tf","game":"Team Fortress","app_id":440,"player_count":0,"max_players":24,"Bots":0,"server_type":"Dedicated","server_os":"Linux","password":true,"vac":true,"version":"7757534","steam_id":85568392924866362,"keywords":["cp","nocrits","nodmgspread","uncletopia"],"game_id":440,"stv_port":27016,"stv_name":"Uncletopia | Chicago | 5 | All Maps | STV","players":null},{"server_id":37,"name":"Uncletopia | Chicago | 6 | All Maps","name_short":"chi-6","host":"chi-2.us.uncletopia.com","port":27025,"enabled":true,"region":"us-central","cc":"us","latitude":41.881832,"longitude":-87.62318,"reserved":0,"last_update":"0001-01-01T00:00:00Z","name_a2s":"Uncletopia | Chicago | 6 | All Maps","protocol":17,"map":"koth_cascade","folder":"tf","game":"Team Fortress","app_id":440,"player_count":0,"max_players":24,"Bots":0,"server_type":"Dedicated","server_os":"Linux","password":true,"vac":true,"version":"7757534","steam_id":85568392924866363,"keywords":["cp","nocrits","nodmgspread","uncletopia"],"game_id":440,"stv_port":27026,"stv_name":"Uncletopia | Chicago | 6 | All Maps | STV","players":null},{"server_id":38,"name":"Uncletopia | Chicago | 7 | Stopwatch Beta","name_short":"chi-7","host":"chi-2.us.uncletopia.com","port":27035,"enabled":true,"region":"us-central","cc":"us","latitude":41.881832,"longitude":-87.62318,"reserved":0,"last_update":"0001-01-01T00:00:00Z","name_a2s":"Uncletopia | Chicago | 7 | Stopwatch Beta","protocol":17,"map":"pl_upward","folder":"tf","game":"Team Fortress","app_id":440,"player_count":0,"max_players":24,"Bots":0,"server_type":"Dedicated","server_os":"Linux","password":true,"vac":true,"version":"7757534","steam_id":85568392924866364,"keywords":["nocrits","nodmgspread","payload","uncletopia"],"game_id":440,"stv_port":27036,"stv_name":"Uncletopia | Chicago | 7 | Stopwatch Beta | STV","players":null},{"server_id":39,"name":"Uncletopia | Chicago | 8 | Community","name_short":"chi-8","host":"chi-2.us.uncletopia.com","port":27045,"enabled":true,"region":"us-central","cc":"us","latitude":41.881832,"longitude":-87.62318,"reserved":0,"last_update":"0001-01-01T00:00:00Z","name_a2s":"Uncletopia | Chicago | 8 | Community","protocol":17,"map":"pl_barnblitz","folder":"tf","game":"Team Fortress","app_id":440,"player_count":0,"max_players":24,"Bots":0,"server_type":"Dedicated","server_os":"Linux","password":true,"vac":true,"version":"7757534","steam_id":85568392924866365,"keywords":["nocrits","nodmgspread","payload","uncletopia"],"game_id":440,"stv_port":27046,"stv_name":"Uncletopia | Chicago | 8 | Community | STV","players":null},{"server_id":8,"name":"Uncletopia | Dallas | 1 | All Maps","name_short":"dal-1","host":"dal-1.us.uncletopia.com","port":27015,"enabled":true,"region":"us-central","cc":"us","latitude":32.779167,"longitude":-96.80889,"reserved":0,"last_update":"0001-01-01T00:00:00Z","name_a2s":"Uncletopia | Dallas | 1 | All Maps","protocol":17,"map":"koth_cascade","folder":"tf","game":"Team Fortress","app_id":440,"player_count":0,"max_players":24,"Bots":0,"server_type":"Dedicated","server_os":"Linux","password":true,"vac":true,"version":"7757534","steam_id":85568392924469986,"keywords":["cp","nocrits","nodmgspread","uncletopia"],"game_id":440,"stv_port":27016,"stv_name":"Uncletopia | Dallas | 1 | All Maps | STV","players":null},{"server_id":108,"name":"Uncletopia | Dallas | 2 | All Maps","name_short":"dal-2","host":"dal-1.us.uncletopia.com","port":27025,"enabled":true,"region":"us-central","cc":"us","latitude":32.779167,"longitude":-96.80889,"reserved":0,"last_update":"0001-01-01T00:00:00Z","name_a2s":"Uncletopia | Dallas | 2 | All Maps","protocol":17,"map":"koth_lakeside_final","folder":"tf","game":"Team Fortress","app_id":440,"player_count":0,"max_players":24,"Bots":0,"server_type":"Dedicated","server_os":"Linux","password":true,"vac":true,"version":"7757534","steam_id":85568392924469988,"keywords":["cp","nocrits","nodmgspread","uncletopia"],"game_id":440,"stv_port":27026,"stv_name":"Uncletopia | Dallas | 2 | All Maps | STV","players":null},{"server_id":5,"name":"Uncletopia | Frankfurt | 1 | All Maps","name_short":"frk-1","host":"frk-1.de.uncletopia.com","port":27015,"enabled":true,"region":"eu","cc":"de","latitude":50.110924,"longitude":8.682127,"reserved":0,"last_update":"0001-01-01T00:00:00Z","name_a2s":"Uncletopia | Frankfurt | 1 | All Maps","protocol":17,"map":"koth_king","folder":"tf","game":"Team Fortress","app_id":440,"player_count":18,"max_players":24,"Bots":0,"server_type":"Dedicated","server_os":"Linux","password":true,"vac":true,"version":"7757534","steam_id":85568392924469989,"keywords":["cp","nocrits","nodmgspread","uncletopia"],"game_id":440,"stv_port":27016,"stv_name":"Uncletopia | Frankfurt | 1 | All Maps | STV","players":[{"user_id":171,"name":"citronous","steam_id":76561198093290934,"connected_time":6488000000000,"state":"active","ping":50},{"user_id":223,"name":"Bobo","steam_id":76561198052308399,"connected_time":2171000000000,"state":"active","ping":59},{"user_id":222,"name":"X45Y","steam_id":76561198112534025,"connected_time":2205000000000,"state":"active","ping":40},{"user_id":251,"name":"Zatusrex","steam_id":76561198104147805,"connected_time":10000000000,"state":"spawning","ping":61},{"user_id":193,"name":"night.s","steam_id":76561198326287823,"connected_time":3403000000000,"state":"active","ping":71},{"user_id":249,"name":"chad batman","steam_id":76561198318426160,"connected_time":113000000000,"state":"active","ping":59},{"user_id":236,"name":"„ÉÜ„Ç§„É´„Çπ","steam_id":76561198022403271,"connected_time":1276000000000,"state":"active","ping":42},{"user_id":242,"name":"Th√§as","steam_id":76561198264708239,"connected_time":997000000000,"state":"active","ping":63},{"user_id":238,"name":"sh","steam_id":76561198126603493,"connected_time":1192000000000,"state":"active","ping":77},{"user_id":243,"name":"FighterX9","steam_id":76561198832500806,"connected_time":994000000000,"state":"active","ping":161},{"user_id":225,"name":"christmas with weezer","steam_id":76561198863788240,"connected_time":1701000000000,"state":"active","ping":78},{"user_id":234,"name":"spillr-.-","steam_id":76561198031330889,"connected_time":1415000000000,"state":"active","ping":57},{"user_id":196,"name":"Crylec","steam_id":76561198092755279,"connected_time":3197000000000,"state":"active","ping":128},{"user_id":214,"name":"MAKENTAKEN","steam_id":76561199127359587,"connected_time":2398000000000,"state":"active","ping":86},{"user_id":241,"name":"SMhjatt","steam_id":76561198856879110,"connected_time":1133000000000,"state":"active","ping":88},{"user_id":244,"name":"New","steam_id":76561198402195911,"connected_time":988000000000,"state":"active","ping":121},{"user_id":221,"name":"Veile","steam_id":76561199007201531,"connected_time":2217000000000,"state":"active","ping":97},{"user_id":217,"name":"Sylbar","steam_id":76561198065379590,"connected_time":2263000000000,"state":"active","ping":54}]},{"server_id":110,"name":"Uncletopia | Frankfurt | 2 | All Maps","name_short":"frk-2","host":"frk-1.de.uncletopia.com","port":27025,"enabled":true,"region":"eu","cc":"de","latitude":50.110924,"longitude":8.682127,"reserved":0,"last_update":"0001-01-01T00:00:00Z","name_a2s":"Uncletopia | Frankfurt | 2 | All Maps","protocol":17,"map":"pl_barnblitz","folder":"tf","game":"Team Fortress","app_id":440,"player_count":24,"max_players":24,"Bots":0,"server_type":"Dedicated","server_os":"Linux","password":true,"vac":true,"version":"7757534","steam_id":85568392924469990,"keywords":["nocrits","nodmgspread","payload","uncletopia"],"game_id":440,"stv_port":27026,"stv_name":"Uncletopia | Frankfurt | 2 | All Maps | STV","players":[{"user_id":348,"name":"I AM THE ONE WHO BUILDS","steam_id":76561199438413886,"connected_time":1328000000000,"state":"active","ping":129},{"user_id":364,"name":"√°rv√≠zt≈±r≈ë t√ºk√∂rf√∫r√≥g√©p","steam_id":76561198296643061,"connected_time":186000000000,"state":"active","ping":61},{"user_id":342,"name":"Aaye","steam_id":76561198032322151,"connected_time":1875000000000,"state":"active","ping":145},{"user_id":283,"name":"Kenpachi","steam_id":76561198365750503,"connected_time":5091000000000,"state":"active","ping":58},{"user_id":359,"name":"Urran","steam_id":76561198371919687,"connected_time":523000000000,"state":"active","ping":64},{"user_id":274,"name":"rz-/Atomic Punch","steam_id":76561199195508541,"connected_time":5351000000000,"state":"active","ping":81},{"user_id":354,"name":"Shynii","steam_id":76561198194682105,"connected_time":561000000000,"state":"active","ping":66},{"user_id":336,"name":"Gheriald","steam_id":76561198262231733,"connected_time":1973000000000,"state":"active","ping":69},{"user_id":235,"name":"goblin","steam_id":76561198151122921,"connected_time":8487000000000,"state":"active","ping":72},{"user_id":355,"name":"triangle","steam_id":76561198046838168,"connected_time":550000000000,"state":"active","ping":46},{"user_id":350,"name":"JIT SLID ON ME","steam_id":76561198048250715,"connected_time":1096000000000,"state":"active","ping":51},{"user_id":363,"name":"reign","steam_id":76561198091656119,"connected_time":485000000000,"state":"active","ping":48},{"user_id":356,"name":"whatever","steam_id":76561198095943461,"connected_time":545000000000,"state":"active","ping":66},{"user_id":360,"name":"Optimist 50","steam_id":76561198039631442,"connected_time":500000000000,"state":"active","ping":76},{"user_id":335,"name":"Mikeshowsha","steam_id":76561199114014127,"connected_time":1982000000000,"state":"active","ping":72},{"user_id":361,"name":"Qwerty","steam_id":76561198023525894,"connected_time":494000000000,"state":"active","ping":91},{"user_id":333,"name":"Klutz","steam_id":76561199466998211,"connected_time":2033000000000,"state":"active","ping":150},{"user_id":337,"name":"tallen","steam_id":76561198061708595,"connected_time":1960000000000,"state":"active","ping":86},{"user_id":353,"name":"cinny","steam_id":76561198832112629,"connected_time":812000000000,"state":"active","ping":82},{"user_id":357,"name":"Dolcelatte","steam_id":76561198038501770,"connected_time":544000000000,"state":"active","ping":54},{"user_id":315,"name":"Fancy","steam_id":76561198350658462,"connected_time":3831000000000,"state":"active","ping":77},{"user_id":358,"name":"swueuws","steam_id":76561198020716743,"connected_time":544000000000,"state":"active","ping":56},{"user_id":352,"name":"Leibeigener","steam_id":76561199275478305,"connected_time":950000000000,"state":"active","ping":44},{"user_id":267,"name":"Dark_Prelate","steam_id":76561199065671442,"connected_time":6769000000000,"state":"active","ping":59}]},{"server_id":308,"name":"Uncletopia | Frankfurt | 3 | All Maps","name_short":"frk-3","host":"frk-1.de.uncletopia.com","port":27035,"enabled":true,"region":"eu","cc":"de","latitude":50.110924,"longitude":8.682127,"reserved":0,"last_update":"0001-01-01T00:00:00Z","name_a2s":"Uncletopia | Frankfurt | 3 | All Maps","protocol":17,"map":"pl_badwater","folder":"tf","game":"Team Fortress","app_id":440,"player_count":24,"max_players":24,"Bots":0,"server_type":"Dedicated","server_os":"Linux","password":true,"vac":true,"version":"7757534","steam_id":85568392924504274,"keywords":["nocrits","nodmgspread","payload","uncletopia"],"game_id":440,"stv_port":27036,"stv_name":"Uncletopia | Frankfurt | 3 | All Maps | STV","players":[{"user_id":378,"name":"KAYDAN","steam_id":76561198817674900,"connected_time":4239000000000,"state":"active","ping":75},{"user_id":428,"name":"FellowCactus","steam_id":76561199015140248,"connected_time":361000000000,"state":"active","ping":88},{"user_id":315,"name":"Mr.Fosty","steam_id":76561198045212783,"connected_time":8054000000000,"state":"active","ping":79},{"user_id":426,"name":"Big They/Them is watching YOU","steam_id":76561198307598168,"connected_time":447000000000,"state":"active","ping":54},{"user_id":410,"name":"dollar foot long","steam_id":76561199250808808,"connected_time":2495000000000,"state":"active","ping":75},{"user_id":429,"name":"Hot Bean","steam_id":76561198803639155,"connected_time":260000000000,"state":"active","ping":86},{"user_id":430,"name":"Pls.do.it!","steam_id":76561198211638119,"connected_time":114000000000,"state":"active","ping":85},{"user_id":425,"name":"Rambi","steam_id":76561199058078505,"connected_time":624000000000,"state":"active","ping":155},{"user_id":419,"name":"yeh","steam_id":76561198061197114,"connected_time":876000000000,"state":"active","ping":66},{"user_id":422,"name":"khey","steam_id":76561198035380064,"connected_time":791000000000,"state":"active","ping":57},{"user_id":418,"name":"Michael","steam_id":76561198003146906,"connected_time":882000000000,"state":"active","ping":57},{"user_id":427,"name":"Aqua188","steam_id":76561198817772963,"connected_time":417000000000,"state":"active","ping":106},{"user_id":407,"name":"bigwish | bmod.tf","steam_id":76561197997859723,"connected_time":3056000000000,"state":"active","ping":77},{"user_id":423,"name":"gagalak","steam_id":76561198089979108,"connected_time":789000000000,"state":"active","ping":89},{"user_id":421,"name":"full extent of the jam","steam_id":76561198033728176,"connected_time":839000000000,"state":"active","ping":98},{"user_id":420,"name":"I was good before.","steam_id":76561198187045217,"connected_time":868000000000,"state":"active","ping":83},{"user_id":415,"name":"The Actual Sun","steam_id":76561198171492971,"connected_time":1244000000000,"state":"active","ping":152},{"user_id":366,"name":"poshto :-)","steam_id":76561198106182078,"connected_time":5308000000000,"state":"active","ping":100},{"user_id":414,"name":"glyph","steam_id":76561197980736364,"connected_time":1655000000000,"state":"active","ping":75},{"user_id":404,"name":"‚ùñ RazzorBee","steam_id":76561198092493838,"connected_time":3213000000000,"state":"active","ping":104},{"user_id":416,"name":"mercenarypit","steam_id":76561198161935108,"connected_time":1073000000000,"state":"active","ping":60},{"user_id":405,"name":"Haghehog","steam_id":76561198075729793,"connected_time":3209000000000,"state":"active","ping":114},{"user_id":376,"name":"PLUTO","steam_id":76561198312436128,"connected_time":4305000000000,"state":"active","ping":120},{"user_id":406,"name":"s a i","steam_id":76561197970379754,"connected_time":3181000000000,"state":"active","ping":54}]},{"server_id":309,"name":"Uncletopia | Frankfurt | 4 | All Maps","name_short":"frk-4","host":"frk-1.de.uncletopia.com","port":27045,"enabled":true,"region":"eu","cc":"de","latitude":50.110924,"longitude":8.682127,"reserved":0,"last_update":"0001-01-01T00:00:00Z","name_a2s":"Uncletopia | Frankfurt | 4 | All Maps","protocol":17,"map":"pl_upward","folder":"tf","game":"Team Fortress","app_id":440,"player_count":24,"max_players":24,"Bots":0,"server_type":"Dedicated","server_os":"Linux","password":true,"vac":true,"version":"7757534","steam_id":85568392924504275,"keywords":["nocrits","nodmgspread","payload","uncletopia"],"game_id":440,"stv_port":27046,"stv_name":"Uncletopia | Frankfurt | 4 | All Maps | STV","players":[{"user_id":210,"name":"VEH-DEH-VEH","steam_id":76561198010978989,"connected_time":464000000000,"state":"active","ping":63},{"user_id":158,"name":"my head + the wall = \u003c3","steam_id":76561198058012525,"connected_time":3559000000000,"state":"active","ping":75},{"user_id":184,"name":"house","steam_id":76561198055283295,"connected_time":2208000000000,"state":"active","ping":44},{"user_id":173,"name":"Fat Pigeon","steam_id":76561198817940142,"connected_time":2673000000000,"state":"active","ping":49},{"user_id":212,"name":"Watt","steam_id":76561198894850616,"connected_time":123000000000,"state":"active","ping":68},{"user_id":201,"name":"mouse","steam_id":76561198349648942,"connected_time":1491000000000,"state":"active","ping":90},{"user_id":178,"name":"nouse","steam_id":76561197994492154,"connected_time":2400000000000,"state":"active","ping":73},{"user_id":193,"name":"neet","steam_id":76561197968115168,"connected_time":1951000000000,"state":"active","ping":135},{"user_id":204,"name":"lore","steam_id":76561198120984188,"connected_time":793000000000,"state":"active","ping":65},{"user_id":213,"name":"Dragon","steam_id":76561198163255365,"connected_time":30000000000,"state":"active","ping":83},{"user_id":206,"name":"Russenluster","steam_id":76561198118016220,"connected_time":679000000000,"state":"active","ping":57},{"user_id":203,"name":"EGirl | Klarra","steam_id":76561198077745407,"connected_time":1043000000000,"state":"active","ping":60},{"user_id":134,"name":"( Õ° Õ°¬∞ Õú  ñ Õ° Õ°¬∞) \\ ‚òû","steam_id":76561198084597975,"connected_time":5232000000000,"state":"active","ping":69},{"user_id":185,"name":"Mike Rizzowski","steam_id":76561198798657045,"connected_time":2186000000000,"state":"active","ping":78},{"user_id":208,"name":"zaleek69","steam_id":76561198058877595,"connected_time":647000000000,"state":"active","ping":64},{"user_id":194,"name":"‚ô´‚òÖXriasp‚òÖ‚ô´","steam_id":76561198104721321,"connected_time":1920000000000,"state":"active","ping":74},{"user_id":195,"name":"Jiant","steam_id":76561198374998274,"connected_time":1917000000000,"state":"active","ping":97},{"user_id":186,"name":"Ablativus","steam_id":76561198025698470,"connected_time":2177000000000,"state":"active","ping":71},{"user_id":196,"name":"Micha≈Ç","steam_id":76561198320346362,"connected_time":1910000000000,"state":"active","ping":59},{"user_id":197,"name":".H.E.L.","steam_id":76561198027228940,"connected_time":1907000000000,"state":"active","ping":102},{"user_id":211,"name":"homeinvasion$","steam_id":76561199111905021,"connected_time":430000000000,"state":"active","ping":124},{"user_id":199,"name":"Noxifoxis","steam_id":76561198838493783,"connected_time":1818000000000,"state":"active","ping":84},{"user_id":190,"name":"mr paladin","steam_id":76561198267612598,"connected_time":2126000000000,"state":"active","ping":79},{"user_id":160,"name":"Konker88","steam_id":76561198078016302,"connected_time":3495000000000,"state":"active","ping":58}]},{"server_id":310,"name":"Uncletopia | Frankfurt | 5 | All Maps","name_short":"frk-5","host":"frk-1.de.uncletopia.com","port":27055,"enabled":true,"region":"eu","cc":"de","latitude":50.110924,"longitude":8.682127,"reserved":0,"last_update":"0001-01-01T00:00:00Z","name_a2s":"Uncletopia | Frankfurt | 5 | All Maps","protocol":17,"map":"cp_coldfront","folder":"tf","game":"Team Fortress","app_id":440,"player_count":0,"max_players":24,"Bots":0,"server_type":"Dedicated","server_os":"Linux","password":true,"vac":true,"version":"7757534","steam_id":85568392924504277,"keywords":["cp","nocrits","nodmgspread","uncletopia"],"game_id":440,"stv_port":27056,"stv_name":"Uncletopia | Frankfurt | 5 | All Maps | STV","players":null},{"server_id":311,"name":"Uncletopia | Frankfurt | 6 | All Maps","name_short":"frk-6","host":"frk-1.de.uncletopia.com","port":27065,"enabled":true,"region":"eu","cc":"de","latitude":50.110924,"longitude":8.682127,"reserved":0,"last_update":"0001-01-01T00:00:00Z","name_a2s":"Uncletopia | Frankfurt | 6 | All Maps","protocol":17,"map":"koth_highpass","folder":"tf","game":"Team Fortress","app_id":440,"player_count":2,"max_players":24,"Bots":0,"server_type":"Dedicated","server_os":"Linux","password":true,"vac":true,"version":"7757534","steam_id":85568392924504278,"keywords":["cp","nocrits","nodmgspread","uncletopia"],"game_id":440,"stv_port":27066,"stv_name":"Uncletopia | Frankfurt | 6 | All Maps | STV","players":[{"user_id":7,"name":"ran is running","steam_id":76561199443185667,"connected_time":350000000000,"state":"active","ping":131},{"user_id":9,"name":"lipaul777","steam_id":76561199090751367,"connected_time":118000000000,"state":"active","ping":83}]},{"server_id":23,"name":"Uncletopia | Frankfurt | 7 | Stopwatch Beta","name_short":"frk-7","host":"frk-1.de.uncletopia.com","port":27075,"enabled":true,"region":"eu","cc":"de","latitude":50.110924,"longitude":8.682127,"reserved":0,"last_update":"0001-01-01T00:00:00Z","name_a2s":"Uncletopia | Frankfurt | 7 | Stopwatch Beta","protocol":17,"map":"pl_frontier_final","folder":"tf","game":"Team Fortress","app_id":440,"player_count":0,"max_players":24,"Bots":0,"server_type":"Dedicated","server_os":"Linux","password":true,"vac":true,"version":"7757534","steam_id":85568392924742827,"keywords":["nocrits","nodmgspread","payload","uncletopia"],"game_id":440,"stv_port":27076,"stv_name":"Uncletopia | Frankfurt | 7 | Stopwatch Beta | STV","players":null},{"server_id":24,"name":"Uncletopia | Frankfurt | 8 | Community","name_short":"frk-8","host":"frk-1.de.uncletopia.com","port":27085,"enabled":true,"region":"eu","cc":"de","latitude":50.110924,"longitude":8.682127,"reserved":0,"last_update":"0001-01-01T00:00:00Z","name_a2s":"Uncletopia | Frankfurt | 8 | Community","protocol":17,"map":"workshop/cp_overgrown_rc7b.ugc503939302","folder":"tf","game":"Team Fortress","app_id":440,"player_count":0,"max_players":24,"Bots":0,"server_type":"Dedicated","server_os":"Linux","password":true,"vac":true,"version":"7757534","steam_id":85568392924742828,"keywords":["cp","nocrits","nodmgspread","uncletopia"],"game_id":440,"stv_port":27086,"stv_name":"Uncletopia | Frankfurt | 8 | Community | STV","players":null},{"server_id":202,"name":"Uncletopia | Hong Kong | 1 | All Maps","name_short":"hgk-1","host":"hgk-1.hk.uncletopia.com","port":27015,"enabled":true,"region":"asia","cc":"hk","latitude":22.302711,"longitude":114.177216,"reserved":0,"last_update":"0001-01-01T00:00:00Z","name_a2s":"Uncletopia | Hong Kong | 1 | All Maps","protocol":17,"map":"cp_dustbowl","folder":"tf","game":"Team Fortress","app_id":440,"player_count":21,"max_players":24,"Bots":0,"server_type":"Dedicated","server_os":"Linux","password":true,"vac":true,"version":"7757534","steam_id":85568392924494504,"keywords":["cp","nocrits","nodmgspread","uncletopia"],"game_id":440,"stv_port":27016,"stv_name":"Uncletopia | Hong Kong | 1 | All Maps | STV","players":[{"user_id":472,"name":"TRG","steam_id":76561198028720510,"connected_time":3963000000000,"state":"active","ping":73},{"user_id":496,"name":"Not Really a Gamer","steam_id":76561199158560796,"connected_time":1171000000000,"state":"active","ping":62},{"user_id":510,"name":"Pizza_Jammies1345","steam_id":76561199228950246,"connected_time":30000000000,"state":"active","ping":163},{"user_id":478,"name":"domjni","steam_id":76561198287931508,"connected_time":3334000000000,"state":"active","ping":60},{"user_id":476,"name":"divine moments of truth","steam_id":76561198413116920,"connected_time":3628000000000,"state":"active","ping":100},{"user_id":480,"name":"17","steam_id":76561198241530712,"connected_time":2861000000000,"state":"active","ping":59},{"user_id":487,"name":"Banana Milk","steam_id":76561198005156257,"connected_time":2042000000000,"state":"active","ping":131},{"user_id":361,"name":"uptriste","steam_id":76561198158666692,"connected_time":12015000000000,"state":"active","ping":32},{"user_id":459,"name":"SlugTheGreat","steam_id":76561199445319461,"connected_time":5396000000000,"state":"active","ping":76},{"user_id":318,"name":"ÊØç„ÅÆËÇâÂõ£Â≠ê@hao123.com","steam_id":76561198069561896,"connected_time":16754000000000,"state":"active","ping":31},{"user_id":402,"name":"AmaiToxic","steam_id":76561199122491157,"connected_time":8895000000000,"state":"active","ping":80},{"user_id":498,"name":"Dobby","steam_id":76561198076823643,"connected_time":1009000000000,"state":"active","ping":88},{"user_id":500,"name":"MsD IV","steam_id":76561198059707655,"connected_time":483000000000,"state":"active","ping":63},{"user_id":473,"name":"Yenshin","steam_id":76561198399017840,"connected_time":3910000000000,"state":"active","ping":85},{"user_id":505,"name":"ConHoshi","steam_id":76561199387718733,"connected_time":359000000000,"state":"active","ping":80},{"user_id":490,"name":"killman47","steam_id":76561198348487408,"connected_time":1850000000000,"state":"active","ping":103},{"user_id":502,"name":"stupidass pony","steam_id":76561198188332969,"connected_time":474000000000,"state":"active","ping":61},{"user_id":508,"name":"Nice","steam_id":76561199180653046,"connected_time":127000000000,"state":"active","ping":128},{"user_id":491,"name":"stormy","steam_id":76561198044944261,"connected_time":1773000000000,"state":"active","ping":84},{"user_id":509,"name":"twitch.tv/vision515","steam_id":76561198065293729,"connected_time":86000000000,"state":"active","ping":150},{"user_id":405,"name":"Bertengkar","steam_id":76561198213031155,"connected_time":8867000000000,"state":"active","ping":92}]},{"server_id":1,"name":"Uncletopia | Los Angeles | 1 | All Maps","name_short":"lax-1","host":"lax-1.us.uncletopia.com","port":27015,"enabled":true,"region":"us-west","cc":"us","latitude":33.94279,"longitude":-118.41004,"reserved":0,"last_update":"0001-01-01T00:00:00Z","name_a2s":"Uncletopia | Los Angeles | 1 | All Maps","protocol":17,"map":"pl_borneo","folder":"tf","game":"Team Fortress","app_id":440,"player_count":0,"max_players":24,"Bots":0,"server_type":"Dedicated","server_os":"Linux","password":true,"vac":true,"version":"7757534","steam_id":85568392924469991,"keywords":["nocrits","nodmgspread","payload","uncletopia"],"game_id":440,"stv_port":27016,"stv_name":"Uncletopia | Los Angeles | 1 | All Maps | STV","players":null},{"server_id":112,"name":"Uncletopia | Los Angeles | 2 | All Maps","name_short":"lax-2","host":"lax-1.us.uncletopia.com","port":27025,"enabled":true,"region":"us-west","cc":"us","latitude":33.94279,"longitude":-118.41004,"reserved":0,"last_update":"0001-01-01T00:00:00Z","name_a2s":"Uncletopia | Los Angeles | 2 | All Maps","protocol":17,"map":"koth_cascade","folder":"tf","game":"Team Fortress","app_id":440,"player_count":0,"max_players":24,"Bots":0,"server_type":"Dedicated","server_os":"Linux","password":true,"vac":true,"version":"7757534","steam_id":85568392924469992,"keywords":["cp","nocrits","nodmgspread","uncletopia"],"game_id":440,"stv_port":27026,"stv_name":"Uncletopia | Los Angeles | 2 | All Maps | STV","players":null},{"server_id":324,"name":"Uncletopia | Los Angeles | 3 | All Maps","name_short":"lax-3","host":"lax-1.us.uncletopia.com","port":27035,"enabled":true,"region":"us-west","cc":"us","latitude":33.94279,"longitude":-118.41004,"reserved":0,"last_update":"0001-01-01T00:00:00Z","name_a2s":"Uncletopia | Los Angeles | 3 | All Maps","protocol":17,"map":"cp_process_final","folder":"tf","game":"Team Fortress","app_id":440,"player_count":0,"max_players":24,"Bots":0,"server_type":"Dedicated","server_os":"Linux","password":true,"vac":true,"version":"7757534","steam_id":85568392924510198,"keywords":["cp","nocrits","nodmgspread","uncletopia"],"game_id":440,"stv_port":27036,"stv_name":"Uncletopia | Los Angeles | 3 | All Maps | STV","players":null},{"server_id":25,"name":"Uncletopia | Los Angeles | 4 | Stopwatch Beta","name_short":"lax-4","host":"lax-1.us.uncletopia.com","port":27045,"enabled":true,"region":"us-west","cc":"us","latitude":33.94279,"longitude":-118.41004,"reserved":0,"last_update":"0001-01-01T00:00:00Z","name_a2s":"Uncletopia | Los Angeles | 4 | Stopwatch Beta","protocol":17,"map":"pl_frontier_final","folder":"tf","game":"Team Fortress","app_id":440,"player_count":0,"max_players":24,"Bots":0,"server_type":"Dedicated","server_os":"Linux","password":true,"vac":true,"version":"7757534","steam_id":85568392924510199,"keywords":["nocrits","nodmgspread","payload","uncletopia"],"game_id":440,"stv_port":27046,"stv_name":"Uncletopia | Los Angeles | 4 | Stopwatch Beta | STV","players":null},{"server_id":11,"name":"Uncletopia | London | 1 | All Maps","name_short":"lon-1","host":"lon-1.uk.uncletopia.com","port":27015,"enabled":true,"region":"eu","cc":"gb","latitude":51.509865,"longitude":-0.118092,"reserved":0,"last_update":"0001-01-01T00:00:00Z","name_a2s":"Uncletopia | London | 1 | All Maps","protocol":17,"map":"pl_borneo","folder":"tf","game":"Team Fortress","app_id":440,"player_count":24,"max_players":24,"Bots":0,"server_type":"Dedicated","server_os":"Linux","password":true,"vac":true,"version":"7757534","steam_id":85568392924367362,"keywords":["nocrits","nodmgspread","payload","uncletopia"],"game_id":440,"stv_port":27016,"stv_name":"Uncletopia | London | 1 | All Maps | STV","players":[{"user_id":122,"name":"Wattseyy","steam_id":76561198248567360,"connected_time":2453000000000,"state":"active","ping":35},{"user_id":153,"name":"JOHN GAMING (based)","steam_id":76561199085822219,"connected_time":303000000000,"state":"active","ping":87},{"user_id":159,"name":"Absolute Evil","steam_id":76561199474081953,"connected_time":43000000000,"state":"active","ping":118},{"user_id":140,"name":"yush","steam_id":76561198121688934,"connected_time":1854000000000,"state":"active","ping":72},{"user_id":158,"name":"Haha?","steam_id":76561198056882245,"connected_time":62000000000,"state":"active","ping":30},{"user_id":160,"name":"Cosmetic brain","steam_id":76561198055936410,"connected_time":23000000000,"state":"active","ping":81},{"user_id":156,"name":"molly","steam_id":76561198029399151,"connected_time":125000000000,"state":"active","ping":68},{"user_id":134,"name":"Sad Rat","steam_id":76561198111462976,"connected_time":2058000000000,"state":"active","ping":54},{"user_id":154,"name":"wicc","steam_id":76561198893915644,"connected_time":274000000000,"state":"active","ping":63},{"user_id":142,"name":"blurst of times","steam_id":76561197972325640,"connected_time":1677000000000,"state":"active","ping":48},{"user_id":100,"name":"Taskyy","steam_id":76561198134901175,"connected_time":3305000000000,"state":"active","ping":86},{"user_id":161,"name":"Claw","steam_id":76561198060985181,"connected_time":18000000000,"state":"active","ping":50},{"user_id":162,"name":"$t@lker_Tim","steam_id":76561198963658042,"connected_time":13000000000,"state":"spawning","ping":121},{"user_id":157,"name":"REDZED","steam_id":76561198419203843,"connected_time":94000000000,"state":"active","ping":104},{"user_id":163,"name":"donk","steam_id":76561198162676648,"connected_time":0,"state":"spawning","ping":172},{"user_id":112,"name":"dafydd","steam_id":76561198052200325,"connected_time":2738000000000,"state":"active","ping":87},{"user_id":124,"name":"Bat in a thousand","steam_id":76561198320506848,"connected_time":2431000000000,"state":"active","ping":43},{"user_id":146,"name":"Marquis de Hoto","steam_id":76561198080687708,"connected_time":1181000000000,"state":"active","ping":71},{"user_id":116,"name":"Femboy Lilli","steam_id":76561198090146457,"connected_time":2652000000000,"state":"active","ping":38},{"user_id":129,"name":"Pintarolas","steam_id":76561198124839451,"connected_time":2283000000000,"state":"active","ping":97},{"user_id":152,"name":"yawnn","steam_id":76561198088624259,"connected_time":419000000000,"state":"active","ping":57},{"user_id":118,"name":"Scout","steam_id":76561198414175953,"connected_time":2620000000000,"state":"active","ping":55},{"user_id":137,"name":"GARbageTrash","steam_id":76561199101269633,"connected_time":1960000000000,"state":"active","ping":79},{"user_id":148,"name":"Tafrum","steam_id":76561198053868147,"connected_time":752000000000,"state":"active","ping":96}]},{"server_id":114,"name":"Uncletopia | London | 2 | All Maps","name_short":"lon-2","host":"lon-1.uk.uncletopia.com","port":27025,"enabled":true,"region":"eu","cc":"gb","latitude":51.509865,"longitude":-0.118092,"reserved":0,"last_update":"0001-01-01T00:00:00Z","name_a2s":"Uncletopia | London | 2 | All Maps","protocol":17,"map":"pl_borneo","folder":"tf","game":"Team Fortress","app_id":440,"player_count":0,"max_players":24,"Bots":0,"server_type":"Dedicated","server_os":"Linux","password":true,"vac":true,"version":"7757534","steam_id":85568392924470941,"keywords":["nocrits","nodmgspread","payload","uncletopia"],"game_id":440,"stv_port":27026,"stv_name":"Uncletopia | London | 2 | All Maps | STV","players":null},{"server_id":320,"name":"Uncletopia | London | 3 | All Maps","name_short":"lon-3","host":"lon-1.uk.uncletopia.com","port":27035,"enabled":true,"region":"eu","cc":"gb","latitude":51.509865,"longitude":-0.118092,"reserved":0,"last_update":"0001-01-01T00:00:00Z","name_a2s":"Uncletopia | London | 3 | All Maps","protocol":17,"map":"cp_dustbowl","folder":"tf","game":"Team Fortress","app_id":440,"player_count":25,"max_players":24,"Bots":0,"server_type":"Dedicated","server_os":"Linux","password":true,"vac":true,"version":"7757534","steam_id":85568392924510192,"keywords":["cp","nocrits","nodmgspread","uncletopia"],"game_id":440,"stv_port":27036,"stv_name":"Uncletopia | London | 3 | All Maps | STV","players":[{"user_id":556,"name":"Sarcastic Option","steam_id":76561198131236413,"connected_time":9000000000,"state":"spawning","ping":55},{"user_id":523,"name":"Comedy = Tragedy + Time","steam_id":76561199095819413,"connected_time":852000000000,"state":"active","ping":58},{"user_id":499,"name":"dopamine enjoyer","steam_id":76561198140591983,"connected_time":1311000000000,"state":"active","ping":82},{"user_id":392,"name":"CODSWOLOP","steam_id":76561199114598660,"connected_time":3411000000000,"state":"active","ping":142},{"user_id":548,"name":"Purps","steam_id":76561198053886680,"connected_time":269000000000,"state":"active","ping":44},{"user_id":504,"name":"murderwow","steam_id":76561198024566944,"connected_time":1256000000000,"state":"active","ping":105},{"user_id":393,"name":"static","steam_id":76561198836825741,"connected_time":3324000000000,"state":"active","ping":43},{"user_id":394,"name":"i...must..kill.all","steam_id":76561198089330547,"connected_time":3255000000000,"state":"active","ping":49},{"user_id":542,"name":"Monsteh","steam_id":76561198325898181,"connected_time":368000000000,"state":"active","ping":75},{"user_id":529,"name":"[F2P] MalCo","steam_id":76561197994930440,"connected_time":657000000000,"state":"active","ping":45},{"user_id":525,"name":"Mr Lemon","steam_id":76561198054685254,"connected_time":725000000000,"state":"active","ping":68},{"user_id":398,"name":"Lm","steam_id":76561198836754631,"connected_time":3157000000000,"state":"active","ping":42},{"user_id":526,"name":"Lucoa Enjoyer","steam_id":76561198842622419,"connected_time":692000000000,"state":"active","ping":100},{"user_id":403,"name":"mr beast","steam_id":76561198118407436,"connected_time":3004000000000,"state":"active","ping":44},{"user_id":500,"name":"Penis Contortionist","steam_id":76561198073663784,"connected_time":1292000000000,"state":"active","ping":36},{"user_id":334,"name":"gibb (official)","steam_id":76561198074097655,"connected_time":7483000000000,"state":"active","ping":42},{"user_id":319,"name":"RockMan","steam_id":76561199228684720,"connected_time":9026000000000,"state":"active","ping":151},{"user_id":487,"name":"Ham Man","steam_id":76561198888755969,"connected_time":1515000000000,"state":"active","ping":88},{"user_id":527,"name":"AleXandriX","steam_id":76561198035203950,"connected_time":674000000000,"state":"active","ping":63},{"user_id":528,"name":"Celeste Enthusiast","steam_id":76561198076147524,"connected_time":668000000000,"state":"active","ping":127},{"user_id":530,"name":"ThatGamingKiwi","steam_id":76561199170522237,"connected_time":652000000000,"state":"active","ping":143},{"user_id":337,"name":"Shadowmix","steam_id":76561197981176383,"connected_time":7303000000000,"state":"active","ping":68},{"user_id":305,"name":"SexyHotChocolate","steam_id":76561198164087698,"connected_time":10083000000000,"state":"active","ping":86},{"user_id":535,"name":"Snipereon","steam_id":76561198436817109,"connected_time":538000000000,"state":"active","ping":56},{"user_id":555,"name":"Fus in Boots","steam_id":76561198053897722,"connected_time":81000000000,"state":"spawning","ping":91}]},{"server_id":321,"name":"Uncletopia | London | 4 | All Maps","name_short":"lon-4","host":"lon-1.uk.uncletopia.com","port":27045,"enabled":true,"region":"eu","cc":"gb","latitude":51.509865,"longitude":-0.118092,"reserved":0,"last_update":"0001-01-01T00:00:00Z","name_a2s":"Uncletopia | London | 4 | All Maps","protocol":17,"map":"koth_viaduct","folder":"tf","game":"Team Fortress","app_id":440,"player_count":23,"max_players":24,"Bots":0,"server_type":"Dedicated","server_os":"Linux","password":true,"vac":true,"version":"7757534","steam_id":85568392924510193,"keywords":["cp","nocrits","nodmgspread","uncletopia"],"game_id":440,"stv_port":27046,"stv_name":"Uncletopia | London | 4 | All Maps | STV","players":[{"user_id":192,"name":"sunkist","steam_id":76561199473449638,"connected_time":566000000000,"state":"active","ping":136},{"user_id":198,"name":"Pingu","steam_id":76561198207966532,"connected_time":436000000000,"state":"active","ping":70},{"user_id":195,"name":"M.L.JEW","steam_id":76561198997375055,"connected_time":479000000000,"state":"active","ping":158},{"user_id":210,"name":"kotamine","steam_id":76561198068907991,"connected_time":149000000000,"state":"active","ping":74},{"user_id":187,"name":"Toaster1337","steam_id":76561198103706881,"connected_time":986000000000,"state":"active","ping":73},{"user_id":208,"name":"Vieenna Academy of Fine Arts","steam_id":76561199023559370,"connected_time":222000000000,"state":"active","ping":107},{"user_id":199,"name":"Captain Saburov","steam_id":76561198135343869,"connected_time":436000000000,"state":"active","ping":117},{"user_id":200,"name":"fl1p","steam_id":76561198148565659,"connected_time":407000000000,"state":"active","ping":65},{"user_id":101,"name":"Zerfesh","steam_id":76561198117534358,"connected_time":6208000000000,"state":"active","ping":91},{"user_id":190,"name":"Creature from the piss drawer","steam_id":76561198055949151,"connected_time":605000000000,"state":"active","ping":45},{"user_id":205,"name":"Owl","steam_id":76561198248266580,"connected_time":308000000000,"state":"active","ping":67},{"user_id":202,"name":"Egor Pomidor","steam_id":76561199175688390,"connected_time":366000000000,"state":"active","ping":83},{"user_id":164,"name":"Booba Eater","steam_id":76561199111068188,"connected_time":2551000000000,"state":"active","ping":76},{"user_id":203,"name":"ALARM","steam_id":76561198120686521,"connected_time":356000000000,"state":"active","ping":67},{"user_id":212,"name":"jker","steam_id":76561198816714058,"connected_time":48000000000,"state":"active","ping":127},{"user_id":204,"name":"GEP Gun","steam_id":76561197981821003,"connected_time":336000000000,"state":"active","ping":56},{"user_id":209,"name":"jankomit","steam_id":76561198043024857,"connected_time":210000000000,"state":"active","ping":84},{"user_id":188,"name":"GardenFungus","steam_id":76561198054894337,"connected_time":955000000000,"state":"active","ping":37},{"user_id":145,"name":"Dr. Sex","steam_id":76561198017693962,"connected_time":3252000000000,"state":"active","ping":79},{"user_id":211,"name":"Not Steven -∆í$-","steam_id":76561198051881261,"connected_time":120000000000,"state":"active","ping":38},{"user_id":206,"name":"Maƒáko Z Bogda≈Ñca","steam_id":76561198114612861,"connected_time":297000000000,"state":"active","ping":76},{"user_id":152,"name":"UNQ Mihai","steam_id":76561199181038346,"connected_time":2973000000000,"state":"active","ping":71},{"user_id":161,"name":"GIA","steam_id":76561199216124328,"connected_time":2681000000000,"state":"active","ping":80}]},{"server_id":21,"name":"Uncletopia | London | 5 | All Maps","name_short":"lon-5","host":"lon-1.uk.uncletopia.com","port":27055,"enabled":true,"region":"eu","cc":"gb","latitude":51.509865,"longitude":-0.118092,"reserved":0,"last_update":"0001-01-01T00:00:00Z","name_a2s":"Uncletopia | London | 5 | All Maps","protocol":17,"map":"koth_viaduct","folder":"tf","game":"Team Fortress","app_id":440,"player_count":0,"max_players":24,"Bots":0,"server_type":"Dedicated","server_os":"Linux","password":true,"vac":true,"version":"7757534","steam_id":85568392924742829,"keywords":["cp","nocrits","nodmgspread","uncletopia"],"game_id":440,"stv_port":27056,"stv_name":"Uncletopia | London | 5 | All Maps | STV","players":null},{"server_id":22,"name":"Uncletopia | London | 6 | All Maps","name_short":"lon-6","host":"lon-1.uk.uncletopia.com","port":27065,"enabled":true,"region":"eu","cc":"gb","latitude":51.509865,"longitude":-0.118092,"reserved":0,"last_update":"0001-01-01T00:00:00Z","name_a2s":"Uncletopia | London | 6 | All Maps","protocol":17,"map":"koth_nucleus","folder":"tf","game":"Team Fortress","app_id":440,"player_count":22,"max_players":24,"Bots":0,"server_type":"Dedicated","server_os":"Linux","password":true,"vac":true,"version":"7757534","steam_id":85568392924742830,"keywords":["cp","nocrits","nodmgspread","uncletopia"],"game_id":440,"stv_port":27066,"stv_name":"Uncletopia | London | 6 | All Maps | STV","players":[{"user_id":71,"name":"Zelumie","steam_id":76561198147335801,"connected_time":2378000000000,"state":"active","ping":140},{"user_id":84,"name":"If I TopScoreMyTeamSucks","steam_id":76561198147668373,"connected_time":1521000000000,"state":"active","ping":62},{"user_id":110,"name":"Nobaddy","steam_id":76561198037871007,"connected_time":307000000000,"state":"active","ping":72},{"user_id":92,"name":"Tea","steam_id":76561198799243030,"connected_time":1270000000000,"state":"active","ping":57},{"user_id":102,"name":"EpicSwag2010","steam_id":76561199025892770,"connected_time":551000000000,"state":"active","ping":88},{"user_id":106,"name":"Sparky","steam_id":76561198036754195,"connected_time":450000000000,"state":"active","ping":49},{"user_id":12,"name":"Mario3ghj","steam_id":76561198069804561,"connected_time":5048000000000,"state":"active","ping":95},{"user_id":15,"name":"Nickbro101","steam_id":76561198044271692,"connected_time":5010000000000,"state":"active","ping":46},{"user_id":40,"name":"KillerQueen (he/they/she)","steam_id":76561199019399725,"connected_time":4071000000000,"state":"active","ping":47},{"user_id":104,"name":"robsan","steam_id":76561198137375391,"connected_time":504000000000,"state":"active","ping":87},{"user_id":111,"name":"PicklesTRT","steam_id":76561198053440288,"connected_time":235000000000,"state":"active","ping":161},{"user_id":105,"name":"akakez","steam_id":76561198095432821,"connected_time":499000000000,"state":"active","ping":131},{"user_id":63,"name":"Syd","steam_id":76561198020515027,"connected_time":2669000000000,"state":"active","ping":88},{"user_id":98,"name":"maika","steam_id":76561198027172275,"connected_time":835000000000,"state":"active","ping":74},{"user_id":114,"name":"The Funny Cat-Heaby","steam_id":76561198439978112,"connected_time":98000000000,"state":"active","ping":145},{"user_id":93,"name":"soopeli","steam_id":76561198003350251,"connected_time":920000000000,"state":"active","ping":74},{"user_id":107,"name":"Niaz","steam_id":76561198442958151,"connected_time":379000000000,"state":"active","ping":88},{"user_id":76,"name":"Keelan","steam_id":76561198013665543,"connected_time":2262000000000,"state":"active","ping":72},{"user_id":115,"name":"Skiper","steam_id":76561198823133680,"connected_time":87000000000,"state":"active","ping":101},{"user_id":35,"name":"C.H.E.R.E.P.","steam_id":76561198026938595,"connected_time":4605000000000,"state":"active","ping":81},{"user_id":116,"name":"mud","steam_id":76561198141497461,"connected_time":64000000000,"state":"active","ping":76},{"user_id":109,"name":"Prinz Eugen","steam_id":76561198129154766,"connected_time":353000000000,"state":"active","ping":65}]},{"server_id":40,"name":"Uncletopia | London | 7 | No Payload","name_short":"lon-7","host":"lon-1.uk.uncletopia.com","port":27075,"enabled":true,"region":"eu","cc":"gb","latitude":51.509865,"longitude":-0.118092,"reserved":0,"last_update":"0001-01-01T00:00:00Z","name_a2s":"Uncletopia | London | 7 | No Payload","protocol":17,"map":"koth_king","folder":"tf","game":"Team Fortress","app_id":440,"player_count":0,"max_players":24,"Bots":0,"server_type":"Dedicated","server_os":"Linux","password":true,"vac":true,"version":"7757534","steam_id":85568392924964314,"keywords":["cp","nocrits","nodmgspread","uncletopia"],"game_id":440,"stv_port":27076,"stv_name":"Uncletopia | London | 7 | No Payload | STV","players":null},{"server_id":41,"name":"Uncletopia | London | 8 | Community","name_short":"lon-8","host":"lon-1.uk.uncletopia.com","port":27085,"enabled":true,"region":"eu","cc":"gb","latitude":51.509865,"longitude":-0.118092,"reserved":0,"last_update":"0001-01-01T00:00:00Z","name_a2s":"Uncletopia | London | 8 | Community","protocol":17,"map":"workshop/koth_kemptown_rc1.ugc767410655","folder":"tf","game":"Team Fortress","app_id":440,"player_count":0,"max_players":24,"Bots":0,"server_type":"Dedicated","server_os":"Linux","password":true,"vac":true,"version":"7757534","steam_id":85568392924964315,"keywords":["cp","nocrits","nodmgspread","uncletopia"],"game_id":440,"stv_port":27086,"stv_name":"Uncletopia | London | 8 | Community | STV","players":null},{"server_id":300,"name":"Uncletopia | Montr√©al | 1 | All Maps","name_short":"mtl-1","host":"mtl-1.ca.uncletopia.com","port":27015,"enabled":true,"region":"us-east","cc":"ca","latitude":45.50889,"longitude":-73.56167,"reserved":0,"last_update":"0001-01-01T00:00:00Z","name_a2s":"Uncletopia | Montr√©al | 1 | All Maps","protocol":17,"map":"pl_snowycoast","folder":"tf","game":"Team Fortress","app_id":440,"player_count":0,"max_players":24,"Bots":0,"server_type":"Dedicated","server_os":"Linux","password":true,"vac":true,"version":"7757534","steam_id":85568392924500087,"keywords":["nocrits","nodmgspread","payload","uncletopia"],"game_id":440,"stv_port":27016,"stv_name":"Uncletopia | Montr√©al | 1 | All Maps | STV","players":null},{"server_id":301,"name":"Uncletopia | Montr√©al | 2 | All Maps","name_short":"mtl-2","host":"mtl-1.ca.uncletopia.com","port":27025,"enabled":true,"region":"us-east","cc":"ca","latitude":45.50889,"longitude":-73.56167,"reserved":0,"last_update":"0001-01-01T00:00:00Z","name_a2s":"Uncletopia | Montr√©al | 2 | All Maps","protocol":17,"map":"pl_snowycoast","folder":"tf","game":"Team Fortress","app_id":440,"player_count":0,"max_players":24,"Bots":0,"server_type":"Dedicated","server_os":"Linux","password":true,"vac":true,"version":"7757534","steam_id":85568392924500088,"keywords":["nocrits","nodmgspread","payload","uncletopia"],"game_id":440,"stv_port":27026,"stv_name":"Uncletopia | Montr√©al | 2 | All Maps | STV","players":null},{"server_id":302,"name":"Uncletopia | Montr√©al | 3 | All Maps","name_short":"mtl-3","host":"mtl-1.ca.uncletopia.com","port":27035,"enabled":true,"region":"us-east","cc":"ca","latitude":45.50889,"longitude":-73.56167,"reserved":0,"last_update":"0001-01-01T00:00:00Z","name_a2s":"Uncletopia | Montr√©al | 3 | All Maps","protocol":17,"map":"cp_dustbowl","folder":"tf","game":"Team Fortress","app_id":440,"player_count":0,"max_players":24,"Bots":0,"server_type":"Dedicated","server_os":"Linux","password":true,"vac":true,"version":"7757534","steam_id":85568392924500089,"keywords":["cp","nocrits","nodmgspread","uncletopia"],"game_id":440,"stv_port":27036,"stv_name":"Uncletopia | Montr√©al | 3 | All Maps | STV","players":null},{"server_id":303,"name":"Uncletopia | Montr√©al | 4 | No Payload","name_short":"mtl-4","host":"mtl-1.ca.uncletopia.com","port":27045,"enabled":true,"region":"us-east","cc":"ca","latitude":45.50889,"longitude":-73.56167,"reserved":0,"last_update":"0001-01-01T00:00:00Z","name_a2s":"Uncletopia | Montr√©al | 4 | No Payload","protocol":17,"map":"pl_borneo","folder":"tf","game":"Team Fortress","app_id":440,"player_count":0,"max_players":24,"Bots":0,"server_type":"Dedicated","server_os":"Linux","password":true,"vac":true,"version":"7757534","steam_id":85568392924500090,"keywords":["nocrits","nodmgspread","payload","uncletopia"],"game_id":440,"stv_port":27046,"stv_name":"Uncletopia | Montr√©al | 4 | No Payload | STV","players":null},{"server_id":13,"name":"Uncletopia | New York City | 1 | All Maps","name_short":"nyc-1","host":"nyc-1.us.uncletopia.com","port":27015,"enabled":true,"region":"us-east","cc":"us","latitude":40.73061,"longitude":-73.93524,"reserved":0,"last_update":"0001-01-01T00:00:00Z","name_a2s":"Uncletopia | New York City | 1 | All Maps","protocol":17,"map":"koth_highpass","folder":"tf","game":"Team Fortress","app_id":440,"player_count":0,"max_players":24,"Bots":0,"server_type":"Dedicated","server_os":"Linux","password":true,"vac":true,"version":"7757534","steam_id":85568392924469993,"keywords":["cp","nocrits","nodmgspread","uncletopia"],"game_id":440,"stv_port":27016,"stv_name":"Uncletopia | New York City | 1 | All Maps | STV","players":null},{"server_id":14,"name":"Uncletopia | New York City | 2 | All Maps","name_short":"nyc-2","host":"nyc-1.us.uncletopia.com","port":27025,"enabled":true,"region":"us-east","cc":"us","latitude":40.73061,"longitude":-73.93524,"reserved":0,"last_update":"0001-01-01T00:00:00Z","name_a2s":"Uncletopia | New York City | 2 | All Maps","protocol":17,"map":"pl_pier","folder":"tf","game":"Team Fortress","app_id":440,"player_count":23,"max_players":24,"Bots":0,"server_type":"Dedicated","server_os":"Linux","password":true,"vac":true,"version":"7757534","steam_id":85568392924469994,"keywords":["nocrits","nodmgspread","payload","uncletopia"],"game_id":440,"stv_port":27026,"stv_name":"Uncletopia | New York City | 2 | All Maps | STV","players":[{"user_id":24,"name":"poop fart 900","steam_id":76561198165299077,"connected_time":1249000000000,"state":"active","ping":50},{"user_id":28,"name":"Wonder","steam_id":76561198326713308,"connected_time":1145000000000,"state":"active","ping":151},{"user_id":45,"name":"1 pirate metal fan","steam_id":76561198202273263,"connected_time":527000000000,"state":"active","ping":60},{"user_id":14,"name":"Goofy Goober","steam_id":76561198065361279,"connected_time":1619000000000,"state":"active","ping":105},{"user_id":23,"name":"6t26j","steam_id":76561198278282836,"connected_time":1273000000000,"state":"active","ping":58},{"user_id":17,"name":"NerdCuddles","steam_id":76561198078915242,"connected_time":1561000000000,"state":"active","ping":73},{"user_id":18,"name":"puffy","steam_id":76561198411347037,"connected_time":1523000000000,"state":"active","ping":57},{"user_id":33,"name":"The Lelda of Zelda","steam_id":76561199120483390,"connected_time":1026000000000,"state":"active","ping":99},{"user_id":46,"name":"PeopleOrderOurPatties","steam_id":76561198323144922,"connected_time":291000000000,"state":"active","ping":76},{"user_id":47,"name":"RileyNiko","steam_id":76561198162093639,"connected_time":264000000000,"state":"active","ping":57},{"user_id":25,"name":"Buswolley","steam_id":76561197995205571,"connected_time":1233000000000,"state":"active","ping":128},{"user_id":27,"name":"Fishstall","steam_id":76561198038126034,"connected_time":1202000000000,"state":"active","ping":100},{"user_id":43,"name":"your–¥—Ä—É–≥","steam_id":76561198317927140,"connected_time":821000000000,"state":"active","ping":77},{"user_id":41,"name":"2212","steam_id":76561198099591549,"connected_time":905000000000,"state":"active","ping":63},{"user_id":31,"name":"Mr.Kevin120","steam_id":76561199186919096,"connected_time":1071000000000,"state":"active","ping":89},{"user_id":32,"name":"Walmart Employee","steam_id":76561198840373909,"connected_time":1048000000000,"state":"active","ping":97},{"user_id":48,"name":"Munki on phone","steam_id":76561198056798791,"connected_time":150000000000,"state":"active","ping":133},{"user_id":35,"name":"what the goose?","steam_id":76561198103496593,"connected_time":1007000000000,"state":"active","ping":70},{"user_id":37,"name":"YelloGoat","steam_id":76561198367174421,"connected_time":961000000000,"state":"active","ping":39},{"user_id":38,"name":"ILOVEHOTMOMS","steam_id":76561198232617936,"connected_time":957000000000,"state":"active","ping":75},{"user_id":39,"name":"Joy #savetf2","steam_id":76561198073690173,"connected_time":947000000000,"state":"active","ping":55},{"user_id":44,"name":"Oddjob","steam_id":76561198976160793,"connected_time":783000000000,"state":"active","ping":68},{"user_id":42,"name":"Humble Leader","steam_id":76561198169966346,"connected_time":902000000000,"state":"active","ping":70}]},{"server_id":15,"name":"Uncletopia | New York City | 3 | Stopwatch Beta","name_short":"nyc-3","host":"nyc-1.us.uncletopia.com","port":27035,"enabled":true,"region":"us-east","cc":"us","latitude":40.73061,"longitude":-73.93524,"reserved":0,"last_update":"0001-01-01T00:00:00Z","name_a2s":"Uncletopia | New York City | 3 | Stopwatch Beta","protocol":17,"map":"cp_mountainlab","folder":"tf","game":"Team Fortress","app_id":440,"player_count":0,"max_players":24,"Bots":0,"server_type":"Dedicated","server_os":"Linux","password":true,"vac":true,"version":"7757534","steam_id":85568392924742820,"keywords":["cp","nocrits","nodmgspread","uncletopia"],"game_id":440,"stv_port":27036,"stv_name":"Uncletopia | New York City | 3 | Stopwatch Beta | STV","players":null},{"server_id":16,"name":"Uncletopia | New York City | 4 | Community","name_short":"nyc-4","host":"nyc-1.us.uncletopia.com","port":27045,"enabled":true,"region":"us-east","cc":"us","latitude":40.73061,"longitude":-73.93524,"reserved":0,"last_update":"0001-01-01T00:00:00Z","name_a2s":"Uncletopia | New York City | 4 | Community","protocol":17,"map":"pl_borneo","folder":"tf","game":"Team Fortress","app_id":440,"player_count":0,"max_players":24,"Bots":0,"server_type":"Dedicated","server_os":"Linux","password":true,"vac":true,"version":"7757534","steam_id":85568392924742821,"keywords":["nocrits","nodmgspread","payload","uncletopia"],"game_id":440,"stv_port":27046,"stv_name":"Uncletopia | New York City | 4 | Community | STV","players":null},{"server_id":142,"name":"Uncletopia | S√£o Paulo | 1 | All Maps","name_short":"sao-1","host":"sao-1.br.uncletopia.com","port":27015,"enabled":true,"region":"sa","cc":"br","latitude":-23.533773,"longitude":-46.62529,"reserved":0,"last_update":"0001-01-01T00:00:00Z","name_a2s":"Uncletopia | S√£o Paulo | 1 | All Maps","protocol":17,"map":"koth_cascade","folder":"tf","game":"Team Fortress","app_id":440,"player_count":0,"max_players":24,"Bots":0,"server_type":"Dedicated","server_os":"Linux","password":true,"vac":true,"version":"7757534","steam_id":85568392924469996,"keywords":["cp","nocrits","nodmgspread","uncletopia"],"game_id":440,"stv_port":27016,"stv_name":"Uncletopia | S√£o Paulo | 1 | All Maps | STV","players":null},{"server_id":143,"name":"Uncletopia | S√£o Paulo | 2 | All Maps","name_short":"sao-2","host":"sao-2.br.uncletopia.com","port":27015,"enabled":true,"region":"sa","cc":"br","latitude":-23.533773,"longitude":-46.62529,"reserved":0,"last_update":"0001-01-01T00:00:00Z","name_a2s":"Uncletopia | S√£o Paulo | 2 | All Maps","protocol":17,"map":"koth_viaduct","folder":"tf","game":"Team Fortress","app_id":440,"player_count":0,"max_players":24,"Bots":0,"server_type":"Dedicated","server_os":"Linux","password":true,"vac":true,"version":"7757534","steam_id":85568392924485349,"keywords":["cp","nocrits","nodmgspread","uncletopia"],"game_id":440,"stv_port":27016,"stv_name":"Uncletopia | S√£o Paulo | 2 | All Maps | STV","players":null},{"server_id":7,"name":"Uncletopia | Seattle | 1 | All Maps","name_short":"sea-1","host":"sea-1.us.uncletopia.com","port":27015,"enabled":true,"region":"us-west","cc":"us","latitude":47.608013,"longitude":-122.33517,"reserved":0,"last_update":"0001-01-01T00:00:00Z","name_a2s":"Uncletopia | Seattle | 1 | All Maps","protocol":17,"map":"koth_viaduct","folder":"tf","game":"Team Fortress","app_id":440,"player_count":24,"max_players":24,"Bots":0,"server_type":"Dedicated","server_os":"Linux","password":true,"vac":true,"version":"7757534","steam_id":85568392924469997,"keywords":["cp","nocrits","nodmgspread","uncletopia"],"game_id":440,"stv_port":27016,"stv_name":"Uncletopia | Seattle | 1 | All Maps | STV","players":[{"user_id":80,"name":"Dawn","steam_id":76561198113246795,"connected_time":1653000000000,"state":"active","ping":97},{"user_id":88,"name":"shy guy","steam_id":76561198151246059,"connected_time":823000000000,"state":"active","ping":50},{"user_id":78,"name":"Chasubi","steam_id":76561197971618983,"connected_time":1739000000000,"state":"active","ping":107},{"user_id":79,"name":"Jorge_dude_2008","steam_id":76561198870649125,"connected_time":1666000000000,"state":"active","ping":84},{"user_id":96,"name":"butcher pete","steam_id":76561197963872739,"connected_time":484000000000,"state":"active","ping":56},{"user_id":84,"name":"brandofpie","steam_id":76561198835825550,"connected_time":1129000000000,"state":"active","ping":89},{"user_id":13,"name":"nnobi","steam_id":76561198878729277,"connected_time":4960000000000,"state":"active","ping":132},{"user_id":98,"name":"Sr. Alex","steam_id":76561198167653318,"connected_time":383000000000,"state":"active","ping":112},{"user_id":100,"name":"***** beheader","steam_id":76561199395351700,"connected_time":256000000000,"state":"active","ping":85},{"user_id":75,"name":"lol","steam_id":76561198026491738,"connected_time":2133000000000,"state":"active","ping":87},{"user_id":92,"name":"god approaches","steam_id":76561198081617990,"connected_time":628000000000,"state":"active","ping":111},{"user_id":58,"name":"isy","steam_id":76561198068017860,"connected_time":3036000000000,"state":"active","ping":85},{"user_id":25,"name":"Artemisbin","steam_id":76561198089895817,"connected_time":4044000000000,"state":"active","ping":66},{"user_id":91,"name":"Crackhead","steam_id":76561198883918047,"connected_time":652000000000,"state":"active","ping":117},{"user_id":48,"name":"„Ä£dust„Ä£ -she/it-","steam_id":76561198045218909,"connected_time":3225000000000,"state":"active","ping":41},{"user_id":69,"name":"We‚Äôre eating the ocean","steam_id":76561198121633820,"connected_time":2320000000000,"state":"active","ping":73},{"user_id":87,"name":"SlurpyTheDog","steam_id":76561198799733154,"connected_time":934000000000,"state":"active","ping":116},{"user_id":93,"name":"mane","steam_id":76561198147059742,"connected_time":564000000000,"state":"active","ping":131},{"user_id":101,"name":"ORANGE","steam_id":76561198000401769,"connected_time":103000000000,"state":"active","ping":51},{"user_id":95,"name":"Tom","steam_id":76561198070630154,"connected_time":503000000000,"state":"active","ping":85},{"user_id":35,"name":"Florist","steam_id":76561198009121060,"connected_time":3669000000000,"state":"active","ping":46},{"user_id":40,"name":"rkp!","steam_id":76561199053070819,"connected_time":3568000000000,"state":"active","ping":81},{"user_id":41,"name":"Superbearhero","steam_id":76561198252350708,"connected_time":3564000000000,"state":"active","ping":78},{"user_id":97,"name":"pt","steam_id":76561198143023330,"connected_time":469000000000,"state":"active","ping":76}]},{"server_id":119,"name":"Uncletopia | Seattle | 2 | All Maps","name_short":"sea-2","host":"sea-1.us.uncletopia.com","port":27025,"enabled":true,"region":"us-west","cc":"us","latitude":47.608013,"longitude":-122.33517,"reserved":0,"last_update":"0001-01-01T00:00:00Z","name_a2s":"Uncletopia | Seattle | 2 | All Maps","protocol":17,"map":"pl_snowycoast","folder":"tf","game":"Team Fortress","app_id":440,"player_count":17,"max_players":24,"Bots":0,"server_type":"Dedicated","server_os":"Linux","password":true,"vac":true,"version":"7757534","steam_id":85568392924469998,"keywords":["nocrits","nodmgspread","payload","uncletopia"],"game_id":440,"stv_port":27026,"stv_name":"Uncletopia | Seattle | 2 | All Maps | STV","players":[{"user_id":162,"name":"Little Linguine","steam_id":76561198816986370,"connected_time":1187000000000,"state":"active","ping":58},{"user_id":180,"name":"Bugs","steam_id":76561198049967903,"connected_time":95000000000,"state":"active","ping":133},{"user_id":115,"name":"Len","steam_id":76561199141913673,"connected_time":3747000000000,"state":"active","ping":66},{"user_id":181,"name":"muravv.2010","steam_id":76561199232775703,"connected_time":10000000000,"state":"spawning","ping":225},{"user_id":160,"name":"Lolxdloldx","steam_id":76561198136887125,"connected_time":1192000000000,"state":"active","ping":96},{"user_id":176,"name":"Void","steam_id":76561198308290211,"connected_time":371000000000,"state":"active","ping":92},{"user_id":179,"name":"NW","steam_id":76561199092907535,"connected_time":115000000000,"state":"active","ping":66},{"user_id":177,"name":"AnotherEnby","steam_id":76561198837804866,"connected_time":310000000000,"state":"active","ping":89},{"user_id":170,"name":"floppy muppet","steam_id":76561198003076261,"connected_time":1021000000000,"state":"active","ping":144},{"user_id":164,"name":"Flea103","steam_id":76561198085863864,"connected_time":1158000000000,"state":"active","ping":90},{"user_id":150,"name":"Banzai Blitz","steam_id":76561198196503877,"connected_time":1991000000000,"state":"active","ping":43},{"user_id":175,"name":"PinguEnjoyer6","steam_id":76561199186723516,"connected_time":435000000000,"state":"active","ping":73},{"user_id":133,"name":"Treehouse","steam_id":76561198918927598,"connected_time":2883000000000,"state":"active","ping":107},{"user_id":174,"name":"Moopz","steam_id":76561198424507300,"connected_time":821000000000,"state":"active","ping":113},{"user_id":167,"name":"MitCharlotte","steam_id":76561198402788643,"connected_time":1128000000000,"state":"active","ping":124},{"user_id":152,"name":"Salt Syndrome","steam_id":76561198046584592,"connected_time":1948000000000,"state":"active","ping":117},{"user_id":159,"name":"Tyth","steam_id":76561198062543298,"connected_time":1204000000000,"state":"active","ping":36}]},{"server_id":406,"name":"Uncletopia | Seattle | 3 | Stopwatch Beta","name_short":"sea-3","host":"sea-1.us.uncletopia.com","port":27035,"enabled":true,"region":"us-west","cc":"us","latitude":47.608013,"longitude":-122.33517,"reserved":0,"last_update":"0001-01-01T00:00:00Z","name_a2s":"Uncletopia | Seattle | 3 | Stopwatch Beta","protocol":17,"map":"pl_barnblitz","folder":"tf","game":"Team Fortress","app_id":440,"player_count":0,"max_players":24,"Bots":0,"server_type":"Dedicated","server_os":"Linux","password":true,"vac":true,"version":"7757534","steam_id":85568392924515217,"keywords":["nocrits","nodmgspread","payload","uncletopia"],"game_id":440,"stv_port":27036,"stv_name":"Uncletopia | Seattle | 3 | Stopwatch Beta | STV","players":null},{"server_id":17,"name":"Uncletopia | San Francisco | 1 | All Maps","name_short":"sfo-1","host":"sfo-1.us.uncletopia.com","port":27015,"enabled":true,"region":"us-west","cc":"us","latitude":37.77397,"longitude":-122.4313,"reserved":0,"last_update":"0001-01-01T00:00:00Z","name_a2s":"Uncletopia | San Francisco | 1 | All Maps","protocol":17,"map":"cp_process_final","folder":"tf","game":"Team Fortress","app_id":440,"player_count":0,"max_players":24,"Bots":0,"server_type":"Dedicated","server_os":"Linux","password":true,"vac":true,"version":"7757534","steam_id":85568392924469999,"keywords":["cp","nocrits","nodmgspread","uncletopia"],"game_id":440,"stv_port":27016,"stv_name":"Uncletopia | San Francisco | 1 | All Maps | STV","players":null},{"server_id":18,"name":"Uncletopia | San Francisco | 2 | All Maps","name_short":"sfo-2","host":"sfo-1.us.uncletopia.com","port":27025,"enabled":true,"region":"us-west","cc":"us","latitude":37.77397,"longitude":-122.4313,"reserved":0,"last_update":"0001-01-01T00:00:00Z","name_a2s":"Uncletopia | San Francisco | 2 | All Maps","protocol":17,"map":"cp_sunshine","folder":"tf","game":"Team Fortress","app_id":440,"player_count":0,"max_players":24,"Bots":0,"server_type":"Dedicated","server_os":"Linux","password":true,"vac":true,"version":"7757534","steam_id":85568392924470000,"keywords":["cp","nocrits","nodmgspread","uncletopia"],"game_id":440,"stv_port":27026,"stv_name":"Uncletopia | San Francisco | 2 | All Maps | STV","players":null},{"server_id":19,"name":"Uncletopia | San Francisco | 3 | Stopwatch Beta","name_short":"sfo-3","host":"sfo-1.us.uncletopia.com","port":27035,"enabled":true,"region":"us-west","cc":"us","latitude":37.77397,"longitude":-122.4313,"reserved":0,"last_update":"0001-01-01T00:00:00Z","name_a2s":"Uncletopia | San Francisco | 3 | Stopwatch Beta","protocol":17,"map":"pl_borneo","folder":"tf","game":"Team Fortress","app_id":440,"player_count":0,"max_players":24,"Bots":0,"server_type":"Dedicated","server_os":"Linux","password":true,"vac":true,"version":"7757534","steam_id":85568392924742824,"keywords":["nocrits","nodmgspread","payload","uncletopia"],"game_id":440,"stv_port":27036,"stv_name":"Uncletopia | San Francisco | 3 | Stopwatch Beta | STV","players":null},{"server_id":20,"name":"Uncletopia | San Francisco | 4 | Community","name_short":"sfo-4","host":"sfo-1.us.uncletopia.com","port":27045,"enabled":true,"region":"us-west","cc":"us","latitude":37.77397,"longitude":-122.4313,"reserved":0,"last_update":"0001-01-01T00:00:00Z","name_a2s":"Uncletopia | San Francisco | 4 | Community","protocol":17,"map":"koth_highpass","folder":"tf","game":"Team Fortress","app_id":440,"player_count":0,"max_players":24,"Bots":0,"server_type":"Dedicated","server_os":"Linux","password":true,"vac":true,"version":"7757534","steam_id":85568392924742826,"keywords":["cp","nocrits","nodmgspread","uncletopia"],"game_id":440,"stv_port":27046,"stv_name":"Uncletopia | San Francisco | 4 | Community | STV","players":null},{"server_id":141,"name":"Uncletopia | Sydney | 1 | All Maps","name_short":"syd-1","host":"syd-1.au.uncletopia.com","port":27015,"enabled":true,"region":"au","cc":"au","latitude":-33.865143,"longitude":151.2099,"reserved":0,"last_update":"0001-01-01T00:00:00Z","name_a2s":"Uncletopia | Sydney | 1 | All Maps","protocol":17,"map":"cp_mountainlab","folder":"tf","game":"Team Fortress","app_id":440,"player_count":0,"max_players":24,"Bots":0,"server_type":"Dedicated","server_os":"Linux","password":true,"vac":true,"version":"7757534","steam_id":85568392924470001,"keywords":["cp","nocrits","nodmgspread","uncletopia"],"game_id":440,"stv_port":27016,"stv_name":"Uncletopia | Sydney | 1 | All Maps | STV","players":null},{"server_id":123,"name":"Uncletopia | Sydney | 2 | All Maps","name_short":"syd-2","host":"syd-1.au.uncletopia.com","port":27025,"enabled":true,"region":"au","cc":"au","latitude":-33.865143,"longitude":151.2099,"reserved":0,"last_update":"0001-01-01T00:00:00Z","name_a2s":"Uncletopia | Sydney | 2 | All Maps","protocol":17,"map":"pl_borneo","folder":"tf","game":"Team Fortress","app_id":440,"player_count":2,"max_players":24,"Bots":0,"server_type":"Dedicated","server_os":"Linux","password":true,"vac":true,"version":"7757534","steam_id":85568392924470002,"keywords":["nocrits","nodmgspread","payload","uncletopia"],"game_id":440,"stv_port":27026,"stv_name":"Uncletopia | Sydney | 2 | All Maps | STV","players":[{"user_id":582,"name":"hush","steam_id":76561198348492407,"connected_time":4807000000000,"state":"active","ping":45},{"user_id":569,"name":"slow foot","steam_id":76561199223275073,"connected_time":6232000000000,"state":"active","ping":165}]},{"server_id":395,"name":"Uncletopia | Sydney | 3 | All Maps","name_short":"syd-3","host":"syd-1.au.uncletopia.com","port":27035,"enabled":true,"region":"au","cc":"au","latitude":-33.865143,"longitude":151.2099,"reserved":0,"last_update":"0001-01-01T00:00:00Z","name_a2s":"Uncletopia | Sydney | 3 | All Maps","protocol":17,"map":"pl_pier","folder":"tf","game":"Team Fortress","app_id":440,"player_count":0,"max_players":24,"Bots":0,"server_type":"Dedicated","server_os":"Linux","password":true,"vac":true,"version":"7757534","steam_id":85568392925194467,"keywords":["nocrits","nodmgspread","payload","uncletopia"],"game_id":440,"stv_port":27036,"stv_name":"Uncletopia | Sydney | 3 | All Maps | STV","players":null},{"server_id":396,"name":"Uncletopia | Sydney | 4 | All Maps","name_short":"syd-4","host":"syd-1.au.uncletopia.com","port":27045,"enabled":true,"region":"au","cc":"au","latitude":-33.865143,"longitude":151.2099,"reserved":0,"last_update":"0001-01-01T00:00:00Z","name_a2s":"Uncletopia | Sydney | 4 | All Maps","protocol":17,"map":"koth_cascade","folder":"tf","game":"Team Fortress","app_id":440,"player_count":0,"max_players":24,"Bots":0,"server_type":"Dedicated","server_os":"Linux","password":true,"vac":true,"version":"7757534","steam_id":85568392925397958,"keywords":["cp","nocrits","nodmgspread","uncletopia"],"game_id":440,"stv_port":27046,"stv_name":"Uncletopia | Sydney | 4 | All Maps | STV","players":null},{"server_id":58,"name":"Uncletopia | Sydney | 5 | Stopwatch Beta","name_short":"syd-5","host":"syd-1.au.uncletopia.com","port":27055,"enabled":true,"region":"au","cc":"au","latitude":-33.865143,"longitude":151.2099,"reserved":0,"last_update":"0001-01-01T00:00:00Z","name_a2s":"Uncletopia | Sydney | 5 | Stopwatch Beta","protocol":17,"map":"koth_highpass","folder":"tf","game":"Team Fortress","app_id":440,"player_count":0,"max_players":24,"Bots":0,"server_type":"Dedicated","server_os":"Linux","password":true,"vac":true,"version":"7757534","steam_id":85568392925397959,"keywords":["cp","nocrits","nodmgspread","uncletopia"],"game_id":440,"stv_port":27056,"stv_name":"Uncletopia | Sydney | 5 | Stopwatch Beta | STV","players":null},{"server_id":59,"name":"Uncletopia | Sydney | 6 | Community","name_short":"syd-6","host":"syd-1.au.uncletopia.com","port":27065,"enabled":true,"region":"au","cc":"au","latitude":-33.865143,"longitude":151.2099,"reserved":0,"last_update":"0001-01-01T00:00:00Z","name_a2s":"Uncletopia | Sydney | 6 | Community","protocol":17,"map":"workshop/koth_trenchfoot_b1a.ugc731436616","folder":"tf","game":"Team Fortress","app_id":440,"player_count":0,"max_players":24,"Bots":0,"server_type":"Dedicated","server_os":"Linux","password":true,"vac":true,"version":"7757534","steam_id":85568392925397960,"keywords":["cp","nocrits","nodmgspread","uncletopia"],"game_id":440,"stv_port":27066,"stv_name":"Uncletopia | Sydney | 6 | Community | STV","players":null},{"server_id":49,"name":"Uncletopia | Warsaw | 1 | All Maps","name_short":"waw-1","host":"waw-1.pl.uncletopia.com","port":27015,"enabled":true,"region":"eu","cc":"pl","latitude":52.2297,"longitude":21.017532,"reserved":0,"last_update":"0001-01-01T00:00:00Z","name_a2s":"","protocol":0,"map":"","folder":"","game":"","app_id":0,"player_count":0,"max_players":0,"Bots":0,"server_type":"","server_os":"","password":false,"vac":false,"version":"","steam_id":0,"keywords":null,"game_id":0,"stv_port":0,"stv_name":"","players":null},{"server_id":50,"name":"Uncletopia | Warsaw | 2 | All Maps","name_short":"waw-2","host":"waw-1.pl.uncletopia.com","port":27025,"enabled":true,"region":"eu","cc":"pl","latitude":52.2297,"longitude":21.017532,"reserved":0,"last_update":"0001-01-01T00:00:00Z","name_a2s":"Uncletopia | Warsaw | 2 | All Maps","protocol":17,"map":"cp_mountainlab","folder":"tf","game":"Team Fortress","app_id":440,"player_count":0,"max_players":24,"Bots":0,"server_type":"Dedicated","server_os":"Linux","password":true,"vac":true,"version":"7757534","steam_id":85568392925397851,"keywords":["cp","nocrits","nodmgspread","uncletopia"],"game_id":440,"stv_port":27026,"stv_name":"Uncletopia | Warsaw | 2 | All Maps | STV","players":null},{"server_id":51,"name":"Uncletopia | Warsaw | 3 | All Maps","name_short":"waw-3","host":"waw-1.pl.uncletopia.com","port":27035,"enabled":true,"region":"eu","cc":"pl","latitude":52.2297,"longitude":21.017532,"reserved":0,"last_update":"0001-01-01T00:00:00Z","name_a2s":"Uncletopia | Warsaw | 3 | All Maps","protocol":17,"map":"cp_snakewater_final1","folder":"tf","game":"Team Fortress","app_id":440,"player_count":0,"max_players":24,"Bots":0,"server_type":"Dedicated","server_os":"Linux","password":true,"vac":true,"version":"7757534","steam_id":85568392925397852,"keywords":["cp","nocrits","nodmgspread","uncletopia"],"game_id":440,"stv_port":27036,"stv_name":"Uncletopia | Warsaw | 3 | All Maps | STV","players":null},{"server_id":52,"name":"Uncletopia | Warsaw | 4 | All Maps","name_short":"waw-4","host":"waw-1.pl.uncletopia.com","port":27045,"enabled":true,"region":"eu","cc":"pl","latitude":52.2297,"longitude":21.017532,"reserved":0,"last_update":"0001-01-01T00:00:00Z","name_a2s":"Uncletopia | Warsaw | 4 | All Maps","protocol":17,"map":"pl_snowycoast","folder":"tf","game":"Team Fortress","app_id":440,"player_count":4,"max_players":24,"Bots":0,"server_type":"Dedicated","server_os":"Linux","password":true,"vac":true,"version":"7757534","steam_id":85568392925397853,"keywords":["nocrits","nodmgspread","payload","uncletopia"],"game_id":440,"stv_port":27046,"stv_name":"Uncletopia | Warsaw | 4 | All Maps | STV","players":[{"user_id":4,"name":"iatedirtANDsand","steam_id":76561199350177866,"connected_time":1409000000000,"state":"active","ping":145},{"user_id":5,"name":"lorin fortuna","steam_id":76561199202836089,"connected_time":1383000000000,"state":"active","ping":100},{"user_id":6,"name":"Rodia","steam_id":76561197968293161,"connected_time":245000000000,"state":"active","ping":45},{"user_id":8,"name":"ihatetf2","steam_id":76561199185807178,"connected_time":109000000000,"state":"active","ping":136}]},{"server_id":53,"name":"Uncletopia | Warsaw | 5 | Stopwatch Beta","name_short":"waw-5","host":"waw-1.pl.uncletopia.com","port":27055,"enabled":true,"region":"eu","cc":"pl","latitude":52.2297,"longitude":21.017532,"reserved":0,"last_update":"0001-01-01T00:00:00Z","name_a2s":"Uncletopia | Warsaw | 5 | Stopwatch Beta","protocol":17,"map":"pl_barnblitz","folder":"tf","game":"Team Fortress","app_id":440,"player_count":0,"max_players":24,"Bots":0,"server_type":"Dedicated","server_os":"Linux","password":true,"vac":true,"version":"7757534","steam_id":85568392925397854,"keywords":["nocrits","nodmgspread","payload","uncletopia"],"game_id":440,"stv_port":27056,"stv_name":"Uncletopia | Warsaw | 5 | Stopwatch Beta | STV","players":null},{"server_id":54,"name":"Uncletopia | Warsaw | 6 | Community","name_short":"waw-6","host":"waw-1.pl.uncletopia.com","port":27065,"enabled":true,"region":"eu","cc":"pl","latitude":52.2297,"longitude":21.017532,"reserved":0,"last_update":"0001-01-01T00:00:00Z","name_a2s":"Uncletopia | Warsaw | 6 | Community","protocol":17,"map":"workshop/koth_trenchfoot_b1a.ugc731436616","folder":"tf","game":"Team Fortress","app_id":440,"player_count":0,"max_players":24,"Bots":0,"server_type":"Dedicated","server_os":"Linux","password":true,"vac":true,"version":"7757534","steam_id":85568392925397856,"keywords":["cp","nocrits","nodmgspread","uncletopia"],"game_id":440,"stv_port":27066,"stv_name":"Uncletopia | Warsaw | 6 | Community | STV","players":null}]}