{"status":true,"message":"","result":[{"server_id":9,"name":"Uncletopia | Atlanta | 1 | All Maps","name_short":"atl-1","host":"atl-1.us.uncletopia.com","port":27015,"enabled":true,"region":"us-east","cc":"us","latitude":33.753746,"longitude":-84.38633,"reserved":0,"last_update":"0001-01-01T00:00:00Z","name_a2s":"Uncletopia | Atlanta | 1 | All Maps","protocol":17,"map":"pl_pier","folder":"tf","game":"Team Fortress","app_id":440,"player_count":2,"max_players":24,"Bots":0,"server_type":"Dedicated","server_os":"Linux","password":true,"vac":true,"version":"7961495","steam_id":85568392924469982,"keywords":["nocrits","nodmgspread","payload","uncletopia"],"game_id":440,"stv_port":27016,"stv_name":"Uncletopia | Atlanta | 1 | All Maps | STV","players":null},{"server_id":104,"name":"Uncletopia | Atlanta | 2 | All Maps","name_short":"atl-2","host":"atl-1.us.uncletopia.com","port":27025,"enabled":true,"region":"us-east","cc":"us","latitude":33.753746,"longitude":-84.38633,"reserved":0,"last_update":"0001-01-01T00:00:00Z","name_a2s":"Uncletopia | Atlanta | 2 | All Maps","protocol":17,"map":"koth_cascade","folder":"tf","game":"Team Fortress","app_id":440,"player_count":0,"max_players":24,"Bots":0,"server_type":"Dedicated","server_os":"Linux","password":true,"vac":true,"version":"7961495","steam_id":85568392924469983,"keywords":["cp","nocrits","nodmgspread","uncletopia"],"game_id":440,"stv_port":27026,"stv_name":"Uncletopia | Atlanta | 2 | All Maps | STV","players":null},{"server_id":400,"name":"Uncletopia | Atlanta | 3 | Stopwatch","name_short":"atl-3","host":"atl-1.us.uncletopia.com","port":27035,"enabled":true,"region":"us-east","cc":"us","latitude":33.753746,"longitude":-84.38633,"reserved":0,"last_update":"0001-01-01T00:00:00Z","name_a2s":"Uncletopia | Atlanta | 3 | Stopwatch","protocol":17,"map":"cp_granary","folder":"tf","game":"Team Fortress","app_id":440,"player_count":0,"max_players":24,"Bots":0,"server_type":"Dedicated","server_os":"Linux","password":true,"vac":true,"version":"7961495","steam_id":85568392924515187,"keywords":["cp","nocrits","nodmgspread","uncletopia"],"game_id":440,"stv_port":27036,"stv_name":"Uncletopia | Atlanta | 3 | Stopwatch | STV","players":null},{"server_id":401,"name":"Uncletopia | Atlanta | 4 | Community","name_short":"atl-4","host":"atl-1.us.uncletopia.com","port":27045,"enabled":true,"region":"us-east","cc":"us","latitude":33.753746,"longitude":-84.38633,"reserved":0,"last_update":"0001-01-01T00:00:00Z","name_a2s":"Uncletopia | Atlanta | 4 | Community","protocol":17,"map":"koth_kemptown_rc1","folder":"tf","game":"Team Fortress","app_id":440,"player_count":0,"max_players":24,"Bots":0,"server_type":"Dedicated","server_os":"Linux","password":true,"vac":true,"version":"7961495","steam_id":85568392924515188,"keywords":["cp","nocrits","nodmgspread","uncletopia"],"game_id":440,"stv_port":27046,"stv_name":"Uncletopia | Atlanta | 4 | Community | STV","players":null},{"server_id":2,"name":"Uncletopia | Chicago | 1 | All Maps","name_short":"chi-1","host":"chi-1.us.uncletopia.com","port":27015,"enabled":true,"region":"us-central","cc":"us","latitude":41.881832,"longitude":-87.62318,"reserved":0,"last_update":"0001-01-01T00:00:00Z","name_a2s":"Uncletopia | Chicago | 1 | All Maps","protocol":17,"map":"cp_dustbowl","folder":"tf","game":"Team Fortress","app_id":440,"player_count":24,"max_players":24,"Bots":0,"server_type":"Dedicated","server_os":"Linux","password":true,"vac":true,"version":"7961495","steam_id":85568392924469984,"keywords":["cp","nocrits","nodmgspread","uncletopia"],"game_id":440,"stv_port":27016,"stv_name":"Uncletopia | Chicago | 1 | All Maps | STV","players":[{"user_id":183,"name":"fish (2:3)","steam_id":76561198134331073,"connected_time":4583000000000,"state":"active","ping":105},{"user_id":216,"name":"Jonah Hill from 21 Jump Street","steam_id":76561198811130843,"connected_time":1463000000000,"state":"active","ping":73},{"user_id":217,"name":"Lil' Diabeetus","steam_id":76561198330119627,"connected_time":1344000000000,"state":"active","ping":75},{"user_id":230,"name":"FF XIV Free Trial","steam_id":76561198010710132,"connected_time":709000000000,"state":"active","ping":82},{"user_id":215,"name":"IZISOO","steam_id":76561198970380577,"connected_time":1726000000000,"state":"active","ping":66},{"user_id":228,"name":"winner","steam_id":76561198241948526,"connected_time":822000000000,"state":"active","ping":59},{"user_id":214,"name":"Gobl1n","steam_id":76561198808610991,"connected_time":1932000000000,"state":"active","ping":75},{"user_id":220,"name":"Ayylmao","steam_id":76561198104780147,"connected_time":978000000000,"state":"active","ping":49},{"user_id":210,"name":"Hyperactivedimwit","steam_id":76561198134221704,"connected_time":2209000000000,"state":"active","ping":50},{"user_id":221,"name":"dunker","steam_id":76561198066114874,"connected_time":976000000000,"state":"active","ping":105},{"user_id":63,"name":"Shaunt","steam_id":76561198171551057,"connected_time":12233000000000,"state":"active","ping":50},{"user_id":218,"name":"dudeguypersonmanhombre","steam_id":76561198052016845,"connected_time":991000000000,"state":"active","ping":89},{"user_id":227,"name":"Mihalys","steam_id":76561198076645019,"connected_time":924000000000,"state":"active","ping":62},{"user_id":213,"name":"Oopsie Daisy ❋","steam_id":76561198042144492,"connected_time":2016000000000,"state":"active","ping":79},{"user_id":225,"name":"sloth (be nice im cringe)","steam_id":76561198047098172,"connected_time":947000000000,"state":"active","ping":69},{"user_id":222,"name":"Moss","steam_id":76561199122200727,"connected_time":975000000000,"state":"active","ping":69},{"user_id":223,"name":"BlinkEcho","steam_id":76561198134004689,"connected_time":969000000000,"state":"active","ping":51},{"user_id":232,"name":"himbo destroyer","steam_id":76561198268006443,"connected_time":283000000000,"state":"active","ping":87},{"user_id":211,"name":"Discourse","steam_id":76561198984286678,"connected_time":2115000000000,"state":"active","ping":60},{"user_id":64,"name":"BatMatt","steam_id":76561198045910433,"connected_time":12216000000000,"state":"active","ping":73},{"user_id":178,"name":"Bork Bork","steam_id":76561198145554472,"connected_time":4884000000000,"state":"active","ping":65},{"user_id":226,"name":"Mango","steam_id":76561198156746320,"connected_time":945000000000,"state":"active","ping":46},{"user_id":198,"name":"GreySweaterCat","steam_id":76561198351860293,"connected_time":3083000000000,"state":"active","ping":81},{"user_id":182,"name":"Necrophage#SaveTF2","steam_id":76561198861595622,"connected_time":4770000000000,"state":"active","ping":100}]},{"server_id":106,"name":"Uncletopia | Chicago | 2 | All Maps","name_short":"chi-2","host":"chi-1.us.uncletopia.com","port":27025,"enabled":true,"region":"us-central","cc":"us","latitude":41.881832,"longitude":-87.62318,"reserved":0,"last_update":"0001-01-01T00:00:00Z","name_a2s":"Uncletopia | Chicago | 2 | All Maps","protocol":17,"map":"cp_dustbowl","folder":"tf","game":"Team Fortress","app_id":440,"player_count":24,"max_players":24,"Bots":0,"server_type":"Dedicated","server_os":"Linux","password":true,"vac":true,"version":"7961495","steam_id":85568392924469985,"keywords":["cp","nocrits","nodmgspread","uncletopia"],"game_id":440,"stv_port":27026,"stv_name":"Uncletopia | Chicago | 2 | All Maps | STV","players":[{"user_id":162,"name":"DamienB","steam_id":76561198014923455,"connected_time":290000000000,"state":"active","ping":67},{"user_id":89,"name":"Voracious Puma","steam_id":76561197963621649,"connected_time":4663000000000,"state":"active","ping":87},{"user_id":159,"name":"Tommy Pickles (Very Cool)","steam_id":76561198391261463,"connected_time":324000000000,"state":"active","ping":75},{"user_id":163,"name":"PaD_Ding","steam_id":76561198831202965,"connected_time":278000000000,"state":"active","ping":170},{"user_id":160,"name":"Spinkterr4","steam_id":76561199465859174,"connected_time":314000000000,"state":"active","ping":101},{"user_id":117,"name":"SteeredAxe","steam_id":76561198081309492,"connected_time":2560000000000,"state":"active","ping":60},{"user_id":113,"name":"kombucha king","steam_id":76561198057076267,"connected_time":2696000000000,"state":"active","ping":69},{"user_id":73,"name":"Brown_Dream","steam_id":76561198975766145,"connected_time":5740000000000,"state":"active","ping":85},{"user_id":148,"name":"Raynesko.Yung.Vitamix.Baklava.G","steam_id":76561198044113229,"connected_time":1170000000000,"state":"active","ping":64},{"user_id":147,"name":"Critscare","steam_id":76561198087712508,"connected_time":1352000000000,"state":"active","ping":45},{"user_id":161,"name":"rock raiders enjoyer","steam_id":76561198139718219,"connected_time":312000000000,"state":"active","ping":72},{"user_id":167,"name":"slowdance","steam_id":76561198097427947,"connected_time":236000000000,"state":"active","ping":142},{"user_id":145,"name":"bouncypear","steam_id":76561198199800094,"connected_time":1532000000000,"state":"active","ping":45},{"user_id":126,"name":"D","steam_id":76561198292908619,"connected_time":2032000000000,"state":"active","ping":72},{"user_id":165,"name":"Gay Floppa","steam_id":76561198043320311,"connected_time":257000000000,"state":"active","ping":59},{"user_id":166,"name":"Epifiny","steam_id":76561198027958086,"connected_time":254000000000,"state":"active","ping":74},{"user_id":141,"name":"ṽ⧉ cookie","steam_id":76561197998884823,"connected_time":1785000000000,"state":"active","ping":77},{"user_id":149,"name":"Catsontrains","steam_id":76561198066686704,"connected_time":1100000000000,"state":"active","ping":55},{"user_id":169,"name":"Pithecanthropus","steam_id":76561197997072732,"connected_time":100000000000,"state":"active","ping":77},{"user_id":92,"name":"DoomSpiral","steam_id":76561199099015519,"connected_time":4443000000000,"state":"active","ping":71},{"user_id":139,"name":"Gibs Degrossi","steam_id":76561198066152609,"connected_time":1816000000000,"state":"active","ping":45},{"user_id":140,"name":"High School Nudical","steam_id":76561198172120615,"connected_time":1806000000000,"state":"active","ping":54},{"user_id":143,"name":"Jasper™","steam_id":76561198260018463,"connected_time":1777000000000,"state":"active","ping":68},{"user_id":151,"name":"cowboy","steam_id":76561199079124758,"connected_time":675000000000,"state":"active","ping":67}]},{"server_id":402,"name":"Uncletopia | Chicago | 3 | All Maps","name_short":"chi-3","host":"chi-1.us.uncletopia.com","port":27035,"enabled":true,"region":"us-central","cc":"us","latitude":41.881832,"longitude":-87.62318,"reserved":0,"last_update":"0001-01-01T00:00:00Z","name_a2s":"Uncletopia | Chicago | 3 | All Maps","protocol":17,"map":"pl_frontier_final","folder":"tf","game":"Team Fortress","app_id":440,"player_count":0,"max_players":24,"Bots":0,"server_type":"Dedicated","server_os":"Linux","password":true,"vac":true,"version":"7961495","steam_id":85568392924515191,"keywords":["nocrits","nodmgspread","payload","uncletopia"],"game_id":440,"stv_port":27036,"stv_name":"Uncletopia | Chicago | 3 | All Maps | STV","players":null},{"server_id":403,"name":"Uncletopia | Chicago | 4 | All Maps","name_short":"chi-4","host":"chi-1.us.uncletopia.com","port":27045,"enabled":true,"region":"us-central","cc":"us","latitude":41.881832,"longitude":-87.62318,"reserved":0,"last_update":"0001-01-01T00:00:00Z","name_a2s":"Uncletopia | Chicago | 4 | All Maps","protocol":17,"map":"cp_altitude","folder":"tf","game":"Team Fortress","app_id":440,"player_count":24,"max_players":24,"Bots":0,"server_type":"Dedicated","server_os":"Linux","password":true,"vac":true,"version":"7961495","steam_id":85568392924515193,"keywords":["cp","nocrits","nodmgspread","uncletopia"],"game_id":440,"stv_port":27046,"stv_name":"Uncletopia | Chicago | 4 | All Maps | STV","players":[{"user_id":55,"name":"lego star wars on the psp","steam_id":76561198148014773,"connected_time":336000000000,"state":"active","ping":69},{"user_id":58,"name":"Snoot Boi 69","steam_id":76561198087698630,"connected_time":198000000000,"state":"active","ping":69},{"user_id":57,"name":"gideon nav my beloved","steam_id":76561198259092181,"connected_time":236000000000,"state":"active","ping":61},{"user_id":63,"name":"sansa musa","steam_id":76561198163723555,"connected_time":36000000000,"state":"active","ping":71},{"user_id":59,"name":"xiPoison","steam_id":76561198064961659,"connected_time":191000000000,"state":"active","ping":65},{"user_id":39,"name":"THORNFIELDGAMER","steam_id":76561199087167473,"connected_time":834000000000,"state":"active","ping":85},{"user_id":11,"name":"BIGMunchFan","steam_id":76561198972816770,"connected_time":2110000000000,"state":"active","ping":69},{"user_id":40,"name":"Dr. Maybe","steam_id":76561198268304564,"connected_time":818000000000,"state":"active","ping":74},{"user_id":16,"name":"Grimbo","steam_id":76561198826767537,"connected_time":1539000000000,"state":"active","ping":52},{"user_id":50,"name":"GatorAIDS","steam_id":76561198043220092,"connected_time":599000000000,"state":"active","ping":83},{"user_id":35,"name":"a dubious little creeeeature","steam_id":76561198162041422,"connected_time":971000000000,"state":"active","ping":73},{"user_id":41,"name":"Makhnovian","steam_id":76561199090548721,"connected_time":812000000000,"state":"active","ping":62},{"user_id":60,"name":"Shinoda","steam_id":76561198096899995,"connected_time":170000000000,"state":"active","ping":70},{"user_id":64,"name":"Lawn Mower","steam_id":76561199029189825,"connected_time":5000000000,"state":"spawning","ping":119},{"user_id":43,"name":"Nightman","steam_id":76561198089513762,"connected_time":767000000000,"state":"active","ping":85},{"user_id":44,"name":"LightBulbGlue #SaveTF2","steam_id":76561198329573529,"connected_time":744000000000,"state":"active","ping":70},{"user_id":54,"name":"Lo-Pan","steam_id":76561198085670133,"connected_time":395000000000,"state":"active","ping":85},{"user_id":45,"name":"StudioMania (#SAVETF2)","steam_id":76561198211315795,"connected_time":734000000000,"state":"active","ping":66},{"user_id":51,"name":"carrion goat","steam_id":76561198262064871,"connected_time":517000000000,"state":"active","ping":61},{"user_id":62,"name":"Retro Phoenix","steam_id":76561198077176271,"connected_time":78000000000,"state":"active","ping":60},{"user_id":30,"name":"Anstorner","steam_id":76561198274026015,"connected_time":1205000000000,"state":"active","ping":99},{"user_id":53,"name":"floppy muppet","steam_id":76561198003076261,"connected_time":425000000000,"state":"active","ping":87},{"user_id":32,"name":"Disco","steam_id":76561198081177415,"connected_time":1202000000000,"state":"active","ping":104},{"user_id":37,"name":"krueger","steam_id":76561198268654031,"connected_time":898000000000,"state":"active","ping":49}]},{"server_id":36,"name":"Uncletopia | Chicago | 5 | All Maps","name_short":"chi-5","host":"chi-2.us.uncletopia.com","port":27015,"enabled":true,"region":"us-central","cc":"us","latitude":41.881832,"longitude":-87.62318,"reserved":0,"last_update":"0001-01-01T00:00:00Z","name_a2s":"Uncletopia | Chicago | 5 | All Maps","protocol":17,"map":"cp_altitude","folder":"tf","game":"Team Fortress","app_id":440,"player_count":0,"max_players":24,"Bots":0,"server_type":"Dedicated","server_os":"Linux","password":true,"vac":true,"version":"7961495","steam_id":85568392924866362,"keywords":["cp","nocrits","nodmgspread","uncletopia"],"game_id":440,"stv_port":27016,"stv_name":"Uncletopia | Chicago | 5 | All Maps | STV","players":null},{"server_id":37,"name":"Uncletopia | Chicago | 6 | All Maps","name_short":"chi-6","host":"chi-2.us.uncletopia.com","port":27025,"enabled":true,"region":"us-central","cc":"us","latitude":41.881832,"longitude":-87.62318,"reserved":0,"last_update":"0001-01-01T00:00:00Z","name_a2s":"Uncletopia | Chicago | 6 | All Maps","protocol":17,"map":"pl_frontier_final","folder":"tf","game":"Team Fortress","app_id":440,"player_count":0,"max_players":24,"Bots":0,"server_type":"Dedicated","server_os":"Linux","password":true,"vac":true,"version":"7961495","steam_id":85568392924866363,"keywords":["nocrits","nodmgspread","payload","uncletopia"],"game_id":440,"stv_port":27026,"stv_name":"Uncletopia | Chicago | 6 | All Maps | STV","players":null},{"server_id":38,"name":"Uncletopia | Chicago | 7 | Stopwatch","name_short":"chi-7","host":"chi-2.us.uncletopia.com","port":27035,"enabled":true,"region":"us-central","cc":"us","latitude":41.881832,"longitude":-87.62318,"reserved":0,"last_update":"0001-01-01T00:00:00Z","name_a2s":"Uncletopia | Chicago | 7 | Stopwatch","protocol":17,"map":"workshop/koth_clearcut_b15.ugc2107050255","folder":"tf","game":"Team Fortress","app_id":440,"player_count":24,"max_players":24,"Bots":0,"server_type":"Dedicated","server_os":"Linux","password":true,"vac":true,"version":"7961495","steam_id":85568392924866364,"keywords":["cp","nocrits","nodmgspread","uncletopia"],"game_id":440,"stv_port":27036,"stv_name":"Uncletopia | Chicago | 7 | Stopwatch | STV","players":[{"user_id":120,"name":"[DATS➡] Sugar Meowth","steam_id":76561197995251793,"connected_time":398000000000,"state":"active","ping":89},{"user_id":79,"name":"Herb","steam_id":76561198330311949,"connected_time":2984000000000,"state":"active","ping":63},{"user_id":121,"name":"Brad Bones","steam_id":76561198068129320,"connected_time":358000000000,"state":"active","ping":73},{"user_id":113,"name":"OrangeShoes","steam_id":76561197971249940,"connected_time":1137000000000,"state":"active","ping":83},{"user_id":119,"name":"vegicide","steam_id":76561198239286750,"connected_time":456000000000,"state":"active","ping":63},{"user_id":110,"name":"Dog Goggles","steam_id":76561197995233692,"connected_time":1531000000000,"state":"active","ping":84},{"user_id":76,"name":"The Helpful Mute","steam_id":76561198078359985,"connected_time":3288000000000,"state":"active","ping":54},{"user_id":114,"name":"enhanced with disney's FastPlay","steam_id":76561198164134387,"connected_time":1125000000000,"state":"active","ping":103},{"user_id":84,"name":"drdonutman","steam_id":76561197998488821,"connected_time":2929000000000,"state":"active","ping":75},{"user_id":116,"name":"Bubbles","steam_id":76561199009540283,"connected_time":975000000000,"state":"active","ping":84},{"user_id":64,"name":"Larry Fisherman","steam_id":76561198068654532,"connected_time":4232000000000,"state":"active","ping":75},{"user_id":115,"name":"Weyrin","steam_id":76561198431446386,"connected_time":1055000000000,"state":"active","ping":66},{"user_id":105,"name":"stall","steam_id":76561199152861652,"connected_time":1838000000000,"state":"active","ping":58},{"user_id":94,"name":"is it really canid","steam_id":76561198103496593,"connected_time":2436000000000,"state":"active","ping":61},{"user_id":106,"name":"Lobster cackles","steam_id":76561198978665598,"connected_time":1831000000000,"state":"active","ping":91},{"user_id":107,"name":"cree","steam_id":76561198392539722,"connected_time":1820000000000,"state":"active","ping":78},{"user_id":103,"name":"Scuff1e","steam_id":76561198272995728,"connected_time":2040000000000,"state":"active","ping":74},{"user_id":111,"name":"Dwarfo","steam_id":76561198119220289,"connected_time":1297000000000,"state":"active","ping":84},{"user_id":109,"name":"BussyChewer123","steam_id":76561198018675835,"connected_time":1797000000000,"state":"active","ping":73},{"user_id":112,"name":"PrimedTime","steam_id":76561198142348648,"connected_time":1235000000000,"state":"active","ping":84},{"user_id":117,"name":"npc energy","steam_id":76561198035342207,"connected_time":825000000000,"state":"active","ping":44},{"user_id":87,"name":"Moron","steam_id":76561198290041736,"connected_time":2838000000000,"state":"active","ping":89},{"user_id":91,"name":"BLANK3T [They/He femboy on THC]","steam_id":76561198028875624,"connected_time":2610000000000,"state":"active","ping":103},{"user_id":62,"name":"w33d5m0k3r5 1NC.","steam_id":76561198249206656,"connected_time":4292000000000,"state":"active","ping":77}]},{"server_id":39,"name":"Uncletopia | Chicago | 8 | Community","name_short":"chi-8","host":"chi-2.us.uncletopia.com","port":27045,"enabled":true,"region":"us-central","cc":"us","latitude":41.881832,"longitude":-87.62318,"reserved":0,"last_update":"0001-01-01T00:00:00Z","name_a2s":"Uncletopia | Chicago | 8 | Community","protocol":17,"map":"workshop/pl_vigil_rc10.ugc1266210012","folder":"tf","game":"Team Fortress","app_id":440,"player_count":0,"max_players":24,"Bots":0,"server_type":"Dedicated","server_os":"Linux","password":true,"vac":true,"version":"7961495","steam_id":85568392924866365,"keywords":["nocrits","nodmgspread","payload","uncletopia"],"game_id":440,"stv_port":27046,"stv_name":"Uncletopia | Chicago | 8 | Community | STV","players":null},{"server_id":8,"name":"Uncletopia | Dallas | 1 | All Maps","name_short":"dal-1","host":"dal-1.us.uncletopia.com","port":27015,"enabled":true,"region":"us-central","cc":"us","latitude":32.779167,"longitude":-96.80889,"reserved":0,"last_update":"0001-01-01T00:00:00Z","name_a2s":"Uncletopia | Dallas | 1 | All Maps","protocol":17,"map":"cp_dustbowl","folder":"tf","game":"Team Fortress","app_id":440,"player_count":24,"max_players":24,"Bots":0,"server_type":"Dedicated","server_os":"Linux","password":true,"vac":true,"version":"7961495","steam_id":85568392924469986,"keywords":["cp","nocrits","nodmgspread","uncletopia"],"game_id":440,"stv_port":27016,"stv_name":"Uncletopia | Dallas | 1 | All Maps | STV","players":[{"user_id":359,"name":"Heathcliff","steam_id":76561198044288534,"connected_time":3132000000000,"state":"active","ping":97},{"user_id":387,"name":"BurnN8or101","steam_id":76561198132668224,"connected_time":617000000000,"state":"active","ping":69},{"user_id":345,"name":"Ockulus","steam_id":76561199069638460,"connected_time":3846000000000,"state":"active","ping":81},{"user_id":339,"name":"Genius Meme","steam_id":76561198162911254,"connected_time":4060000000000,"state":"active","ping":82},{"user_id":380,"name":"Blithen","steam_id":76561197989955619,"connected_time":1237000000000,"state":"active","ping":121},{"user_id":381,"name":"Rockhead","steam_id":76561197995196535,"connected_time":1132000000000,"state":"active","ping":108},{"user_id":391,"name":"tsz","steam_id":76561199246231090,"connected_time":198000000000,"state":"active","ping":84},{"user_id":336,"name":"Prof. Eggnog","steam_id":76561198193389166,"connected_time":4319000000000,"state":"active","ping":92},{"user_id":392,"name":"tsbro40","steam_id":76561199455605580,"connected_time":165000000000,"state":"active","ping":116},{"user_id":363,"name":"rando","steam_id":76561198093506296,"connected_time":2916000000000,"state":"active","ping":86},{"user_id":374,"name":"Klip","steam_id":76561198316254429,"connected_time":1893000000000,"state":"active","ping":58},{"user_id":393,"name":"LunchTray ©","steam_id":76561197993337109,"connected_time":155000000000,"state":"active","ping":100},{"user_id":389,"name":"Bogey","steam_id":76561198096227944,"connected_time":306000000000,"state":"active","ping":53},{"user_id":390,"name":";w;","steam_id":76561199058284787,"connected_time":258000000000,"state":"active","ping":101},{"user_id":395,"name":"JayRawgTV","steam_id":76561198044402840,"connected_time":86000000000,"state":"active","ping":45},{"user_id":383,"name":"Lactose ๑ﭥ","steam_id":76561198208256987,"connected_time":1062000000000,"state":"active","ping":105},{"user_id":362,"name":"Speejoink","steam_id":76561198076863045,"connected_time":2952000000000,"state":"active","ping":60},{"user_id":346,"name":"Magician Wen-li","steam_id":76561198189688217,"connected_time":3834000000000,"state":"active","ping":89},{"user_id":347,"name":"NGsterson","steam_id":76561198162108154,"connected_time":3832000000000,"state":"active","ping":108},{"user_id":313,"name":"ThePriceIsRice","steam_id":76561198079069543,"connected_time":6315000000000,"state":"active","ping":109},{"user_id":377,"name":"Sigo Chambeando","steam_id":76561198025668771,"connected_time":1685000000000,"state":"active","ping":107},{"user_id":369,"name":"MouxeWare","steam_id":76561199339512223,"connected_time":2603000000000,"state":"active","ping":125},{"user_id":386,"name":"Stupid Rat","steam_id":76561198149202596,"connected_time":644000000000,"state":"active","ping":80},{"user_id":364,"name":"Space Lizard","steam_id":76561198056798193,"connected_time":2881000000000,"state":"active","ping":91}]},{"server_id":108,"name":"Uncletopia | Dallas | 2 | All Maps","name_short":"dal-2","host":"dal-1.us.uncletopia.com","port":27025,"enabled":true,"region":"us-central","cc":"us","latitude":32.779167,"longitude":-96.80889,"reserved":0,"last_update":"0001-01-01T00:00:00Z","name_a2s":"Uncletopia | Dallas | 2 | All Maps","protocol":17,"map":"koth_highpass","folder":"tf","game":"Team Fortress","app_id":440,"player_count":0,"max_players":24,"Bots":0,"server_type":"Dedicated","server_os":"Linux","password":true,"vac":true,"version":"7961495","steam_id":85568392924469988,"keywords":["cp","nocrits","nodmgspread","uncletopia"],"game_id":440,"stv_port":27026,"stv_name":"Uncletopia | Dallas | 2 | All Maps | STV","players":null},{"server_id":404,"name":"Uncletopia | Dallas | 3 | All Maps","name_short":"dal-3","host":"dal-1.us.uncletopia.com","port":27035,"enabled":true,"region":"us-central","cc":"us","latitude":32.779167,"longitude":-96.80889,"reserved":0,"last_update":"0001-01-01T00:00:00Z","name_a2s":"Uncletopia | Dallas | 3 | All Maps","protocol":17,"map":"koth_lakeside_final","folder":"tf","game":"Team Fortress","app_id":440,"player_count":10,"max_players":24,"Bots":0,"server_type":"Dedicated","server_os":"Linux","password":true,"vac":true,"version":"7961495","steam_id":85568392924515219,"keywords":["cp","nocrits","nodmgspread","uncletopia"],"game_id":440,"stv_port":27036,"stv_name":"Uncletopia | Dallas | 3 | All Maps | STV","players":[{"user_id":4,"name":"Goblin","steam_id":76561199384665653,"connected_time":1998000000000,"state":"active","ping":67},{"user_id":8,"name":"[cf] Captain Terror","steam_id":76561198028034742,"connected_time":725000000000,"state":"active","ping":86},{"user_id":9,"name":"Gul'dan","steam_id":76561198240466940,"connected_time":536000000000,"state":"active","ping":184},{"user_id":7,"name":"Texas guy","steam_id":76561198082315370,"connected_time":1701000000000,"state":"active","ping":95},{"user_id":10,"name":"Trace","steam_id":76561198184414075,"connected_time":469000000000,"state":"active","ping":58},{"user_id":11,"name":"keffers","steam_id":76561198202338796,"connected_time":448000000000,"state":"active","ping":71},{"user_id":14,"name":"black_Neko","steam_id":76561198090810084,"connected_time":381000000000,"state":"active","ping":188},{"user_id":13,"name":"Fishstall","steam_id":76561198038126034,"connected_time":423000000000,"state":"active","ping":67},{"user_id":15,"name":"Gossamer","steam_id":76561198046948498,"connected_time":335000000000,"state":"active","ping":65},{"user_id":18,"name":"Uplego13","steam_id":76561198135415659,"connected_time":52000000000,"state":"active","ping":78}]},{"server_id":405,"name":"Uncletopia | Dallas | 4 | Community","name_short":"dal-4","host":"dal-1.us.uncletopia.com","port":27045,"enabled":true,"region":"us-central","cc":"us","latitude":32.779167,"longitude":-96.80889,"reserved":0,"last_update":"0001-01-01T00:00:00Z","name_a2s":"Uncletopia | Dallas | 4 | Community","protocol":17,"map":"pl_pier","folder":"tf","game":"Team Fortress","app_id":440,"player_count":0,"max_players":24,"Bots":0,"server_type":"Dedicated","server_os":"Linux","password":true,"vac":true,"version":"7961495","steam_id":85568392924515220,"keywords":["nocrits","nodmgspread","payload","uncletopia"],"game_id":440,"stv_port":27046,"stv_name":"Uncletopia | Dallas | 4 | Community | STV","players":null},{"server_id":5,"name":"Uncletopia | Frankfurt | 1 | All Maps","name_short":"frk-1","host":"frk-1.de.uncletopia.com","port":27015,"enabled":true,"region":"eu","cc":"de","latitude":50.110924,"longitude":8.682127,"reserved":0,"last_update":"0001-01-01T00:00:00Z","name_a2s":"Uncletopia | Frankfurt | 1 | All Maps","protocol":17,"map":"pl_badwater","folder":"tf","game":"Team Fortress","app_id":440,"player_count":24,"max_players":24,"Bots":0,"server_type":"Dedicated","server_os":"Linux","password":true,"vac":true,"version":"7961495","steam_id":85568392924469989,"keywords":["nocrits","nodmgspread","payload","uncletopia"],"game_id":440,"stv_port":27016,"stv_name":"Uncletopia | Frankfurt | 1 | All Maps | STV","players":[{"user_id":193,"name":"WomenBeardLike","steam_id":76561198390184314,"connected_time":3698000000000,"state":"active","ping":61},{"user_id":199,"name":"Ixsus\u003c3","steam_id":76561198094756869,"connected_time":3249000000000,"state":"active","ping":60},{"user_id":239,"name":"ducks","steam_id":76561198166148685,"connected_time":553000000000,"state":"active","ping":45},{"user_id":213,"name":"TAFI03","steam_id":76561198213082089,"connected_time":2484000000000,"state":"active","ping":57},{"user_id":232,"name":"Tweek.","steam_id":76561198030958701,"connected_time":789000000000,"state":"active","ping":70},{"user_id":221,"name":"Hexagon","steam_id":76561198151205758,"connected_time":2030000000000,"state":"active","ping":48},{"user_id":205,"name":"LOBZIK","steam_id":76561198114830120,"connected_time":3025000000000,"state":"active","ping":75},{"user_id":246,"name":"shoras","steam_id":76561198019680159,"connected_time":245000000000,"state":"active","ping":83},{"user_id":152,"name":"DeCypher \u003c3","steam_id":76561198171992619,"connected_time":6543000000000,"state":"active","ping":70},{"user_id":211,"name":"Fish 'n' Chips","steam_id":76561198033476886,"connected_time":2814000000000,"state":"active","ping":62},{"user_id":226,"name":"blurst of times","steam_id":76561197972325640,"connected_time":1350000000000,"state":"active","ping":49},{"user_id":240,"name":"Kristall_54","steam_id":76561199405759756,"connected_time":543000000000,"state":"active","ping":96},{"user_id":242,"name":"TrashBoat","steam_id":76561199089671432,"connected_time":480000000000,"state":"active","ping":179},{"user_id":149,"name":"Vilmukas","steam_id":76561199106648396,"connected_time":6810000000000,"state":"active","ping":59},{"user_id":248,"name":"riven","steam_id":76561198057158050,"connected_time":239000000000,"state":"active","ping":145},{"user_id":202,"name":"Homosapien","steam_id":76561197972035953,"connected_time":3194000000000,"state":"active","ping":58},{"user_id":166,"name":"respect the sightline","steam_id":76561198111134021,"connected_time":5235000000000,"state":"active","ping":75},{"user_id":237,"name":"hbivnm","steam_id":76561197996468677,"connected_time":720000000000,"state":"active","ping":52},{"user_id":247,"name":"Ruffel :)","steam_id":76561198136828470,"connected_time":245000000000,"state":"active","ping":82},{"user_id":245,"name":"ratot","steam_id":76561198063132645,"connected_time":418000000000,"state":"active","ping":56},{"user_id":249,"name":"Karl Marxman","steam_id":76561197988226117,"connected_time":28000000000,"state":"active","ping":77},{"user_id":224,"name":"Dolphin","steam_id":76561198026312555,"connected_time":1588000000000,"state":"active","ping":115},{"user_id":169,"name":"rets_","steam_id":76561198061551392,"connected_time":5117000000000,"state":"active","ping":58},{"user_id":228,"name":"Crotchless Sweater","steam_id":76561197960429394,"connected_time":1324000000000,"state":"active","ping":62}]},{"server_id":110,"name":"Uncletopia | Frankfurt | 2 | All Maps","name_short":"frk-2","host":"frk-1.de.uncletopia.com","port":27025,"enabled":true,"region":"eu","cc":"de","latitude":50.110924,"longitude":8.682127,"reserved":0,"last_update":"0001-01-01T00:00:00Z","name_a2s":"Uncletopia | Frankfurt | 2 | All Maps","protocol":17,"map":"pl_barnblitz","folder":"tf","game":"Team Fortress","app_id":440,"player_count":24,"max_players":24,"Bots":0,"server_type":"Dedicated","server_os":"Linux","password":true,"vac":true,"version":"7961495","steam_id":85568392924469990,"keywords":["nocrits","nodmgspread","payload","uncletopia"],"game_id":440,"stv_port":27026,"stv_name":"Uncletopia | Frankfurt | 2 | All Maps | STV","players":[{"user_id":189,"name":"cuddle","steam_id":76561198805181599,"connected_time":280000000000,"state":"active","ping":64},{"user_id":197,"name":"kryhu","steam_id":76561198293327713,"connected_time":173000000000,"state":"active","ping":73},{"user_id":192,"name":"executive producer larry david","steam_id":76561198057868438,"connected_time":209000000000,"state":"active","ping":60},{"user_id":45,"name":"Wata","steam_id":76561198098418814,"connected_time":9646000000000,"state":"active","ping":46},{"user_id":149,"name":"Syd","steam_id":76561198020515027,"connected_time":2884000000000,"state":"active","ping":99},{"user_id":158,"name":"Adolf Potter","steam_id":76561198120554557,"connected_time":2399000000000,"state":"active","ping":54},{"user_id":182,"name":"Caliban","steam_id":76561197999696839,"connected_time":1008000000000,"state":"active","ping":105},{"user_id":196,"name":"Arcweld","steam_id":76561198816060720,"connected_time":193000000000,"state":"active","ping":77},{"user_id":198,"name":"Paułó","steam_id":76561198286747891,"connected_time":171000000000,"state":"active","ping":80},{"user_id":194,"name":"Flamy?","steam_id":76561198024332838,"connected_time":207000000000,"state":"active","ping":80},{"user_id":91,"name":"Hercules","steam_id":76561198041164170,"connected_time":6503000000000,"state":"active","ping":59},{"user_id":159,"name":"Mase","steam_id":76561199005591075,"connected_time":2369000000000,"state":"active","ping":62},{"user_id":167,"name":"Killbasa","steam_id":76561198064868400,"connected_time":1828000000000,"state":"active","ping":143},{"user_id":173,"name":"lyudmilakh","steam_id":76561198362779878,"connected_time":1628000000000,"state":"active","ping":86},{"user_id":187,"name":"Dr. Jabbinton","steam_id":76561198180007387,"connected_time":506000000000,"state":"active","ping":53},{"user_id":199,"name":"Burpman","steam_id":76561198022897937,"connected_time":150000000000,"state":"active","ping":60},{"user_id":165,"name":"etc","steam_id":76561197998394797,"connected_time":2084000000000,"state":"active","ping":59},{"user_id":126,"name":"lunchback of notre dame","steam_id":76561199136755064,"connected_time":4523000000000,"state":"active","ping":63},{"user_id":162,"name":"YeeterSkeeter","steam_id":76561198015380933,"connected_time":2300000000000,"state":"active","ping":65},{"user_id":179,"name":"Egtu","steam_id":76561198013757235,"connected_time":1339000000000,"state":"active","ping":63},{"user_id":178,"name":"UruseBanka","steam_id":76561198319044490,"connected_time":1584000000000,"state":"active","ping":102},{"user_id":170,"name":"Aku+","steam_id":76561198813782795,"connected_time":1725000000000,"state":"active","ping":80},{"user_id":43,"name":"TheMasterOfTheZaZa","steam_id":76561197994310420,"connected_time":9669000000000,"state":"active","ping":75},{"user_id":191,"name":"ImNotSimon","steam_id":76561197997921083,"connected_time":267000000000,"state":"active","ping":88}]},{"server_id":308,"name":"Uncletopia | Frankfurt | 3 | All Maps","name_short":"frk-3","host":"frk-1.de.uncletopia.com","port":27035,"enabled":true,"region":"eu","cc":"de","latitude":50.110924,"longitude":8.682127,"reserved":0,"last_update":"0001-01-01T00:00:00Z","name_a2s":"Uncletopia | Frankfurt | 3 | All Maps","protocol":17,"map":"cp_dustbowl","folder":"tf","game":"Team Fortress","app_id":440,"player_count":22,"max_players":24,"Bots":0,"server_type":"Dedicated","server_os":"Linux","password":true,"vac":true,"version":"7961495","steam_id":85568392924504274,"keywords":["cp","nocrits","nodmgspread","uncletopia"],"game_id":440,"stv_port":27036,"stv_name":"Uncletopia | Frankfurt | 3 | All Maps | STV","players":[{"user_id":607,"name":"ScottishWolf141","steam_id":76561199122304112,"connected_time":106000000000,"state":"active","ping":70},{"user_id":584,"name":"sloppy transgirl toppy","steam_id":76561198057092208,"connected_time":1328000000000,"state":"active","ping":60},{"user_id":583,"name":"Test_Subject _9730","steam_id":76561198065594171,"connected_time":1436000000000,"state":"active","ping":110},{"user_id":589,"name":"jerry","steam_id":76561199180176442,"connected_time":880000000000,"state":"active","ping":64},{"user_id":602,"name":"Mléčný Cecek","steam_id":76561198138939377,"connected_time":235000000000,"state":"active","ping":56},{"user_id":576,"name":"cursedbygod♡","steam_id":76561198318291047,"connected_time":2044000000000,"state":"active","ping":106},{"user_id":595,"name":"EagleDeath","steam_id":76561198282441198,"connected_time":577000000000,"state":"active","ping":64},{"user_id":609,"name":"erikfeige237","steam_id":76561199243008929,"connected_time":59000000000,"state":"active","ping":96},{"user_id":610,"name":"Eyelander","steam_id":76561199137392321,"connected_time":50000000000,"state":"active","ping":44},{"user_id":603,"name":"bryophyta","steam_id":76561197968945306,"connected_time":234000000000,"state":"active","ping":75},{"user_id":578,"name":"PashaVerti","steam_id":76561199013963024,"connected_time":1830000000000,"state":"active","ping":73},{"user_id":568,"name":"PWizard","steam_id":76561198026458489,"connected_time":2791000000000,"state":"active","ping":71},{"user_id":550,"name":"KajaStorm","steam_id":76561199215842872,"connected_time":3718000000000,"state":"active","ping":148},{"user_id":604,"name":"Atlas","steam_id":76561197991491283,"connected_time":231000000000,"state":"active","ping":74},{"user_id":605,"name":"AsuX","steam_id":76561197990333289,"connected_time":229000000000,"state":"active","ping":69},{"user_id":611,"name":"tobs","steam_id":76561197987616937,"connected_time":43000000000,"state":"active","ping":60},{"user_id":505,"name":"_Alonso","steam_id":76561198041893314,"connected_time":7741000000000,"state":"active","ping":50},{"user_id":588,"name":"Artemis","steam_id":76561198199091801,"connected_time":1165000000000,"state":"active","ping":45},{"user_id":525,"name":"Majima Goro","steam_id":76561198064734905,"connected_time":6272000000000,"state":"active","ping":90},{"user_id":580,"name":"AnanasGerste","steam_id":76561198133825211,"connected_time":1814000000000,"state":"active","ping":46},{"user_id":598,"name":"Tri-","steam_id":76561198133524794,"connected_time":410000000000,"state":"active","ping":54},{"user_id":563,"name":"Dzieciol","steam_id":76561198160237556,"connected_time":3052000000000,"state":"active","ping":69}]},{"server_id":309,"name":"Uncletopia | Frankfurt | 4 | All Maps","name_short":"frk-4","host":"frk-1.de.uncletopia.com","port":27045,"enabled":true,"region":"eu","cc":"de","latitude":50.110924,"longitude":8.682127,"reserved":0,"last_update":"0001-01-01T00:00:00Z","name_a2s":"Uncletopia | Frankfurt | 4 | All Maps","protocol":17,"map":"cp_sunshine","folder":"tf","game":"Team Fortress","app_id":440,"player_count":24,"max_players":24,"Bots":0,"server_type":"Dedicated","server_os":"Linux","password":true,"vac":true,"version":"7961495","steam_id":85568392924504275,"keywords":["cp","nocrits","nodmgspread","uncletopia"],"game_id":440,"stv_port":27046,"stv_name":"Uncletopia | Frankfurt | 4 | All Maps | STV","players":[{"user_id":334,"name":"roblan11","steam_id":76561198066839258,"connected_time":4345000000000,"state":"active","ping":44},{"user_id":387,"name":"BonkScout","steam_id":76561198851913276,"connected_time":570000000000,"state":"active","ping":70},{"user_id":390,"name":"RemRem","steam_id":76561199005155029,"connected_time":506000000000,"state":"active","ping":78},{"user_id":396,"name":"yaldabaoth","steam_id":76561198084606869,"connected_time":225000000000,"state":"active","ping":149},{"user_id":372,"name":"Flal","steam_id":76561198453819816,"connected_time":2143000000000,"state":"active","ping":62},{"user_id":357,"name":"outlaw","steam_id":76561198323805289,"connected_time":3023000000000,"state":"active","ping":45},{"user_id":325,"name":"Mza28","steam_id":76561198873993324,"connected_time":4566000000000,"state":"active","ping":70},{"user_id":346,"name":"Puse_4ka (p_ng)","steam_id":76561198192857093,"connected_time":3161000000000,"state":"active","ping":90},{"user_id":391,"name":"mt","steam_id":76561197961319303,"connected_time":466000000000,"state":"active","ping":46},{"user_id":398,"name":"3600 dpi gamer","steam_id":76561198977420882,"connected_time":92000000000,"state":"active","ping":57},{"user_id":394,"name":"ALARM","steam_id":76561198120686521,"connected_time":269000000000,"state":"active","ping":48},{"user_id":367,"name":"A Table","steam_id":76561198130963095,"connected_time":2593000000000,"state":"active","ping":69},{"user_id":373,"name":"Hugee  くコ:彡","steam_id":76561198245495152,"connected_time":2139000000000,"state":"active","ping":59},{"user_id":322,"name":"Predrag218","steam_id":76561199242439630,"connected_time":4652000000000,"state":"active","ping":133},{"user_id":393,"name":"His Femboy","steam_id":76561198071111501,"connected_time":392000000000,"state":"active","ping":59},{"user_id":368,"name":"Seb, Comrade","steam_id":76561198040279587,"connected_time":2584000000000,"state":"active","ping":97},{"user_id":395,"name":"IS3BITEL","steam_id":76561199178060325,"connected_time":243000000000,"state":"active","ping":74},{"user_id":397,"name":"baballe","steam_id":76561198302448192,"connected_time":215000000000,"state":"active","ping":43},{"user_id":382,"name":"James","steam_id":76561198138558005,"connected_time":1376000000000,"state":"active","ping":67},{"user_id":386,"name":"Cheese","steam_id":76561198146419076,"connected_time":1104000000000,"state":"active","ping":76},{"user_id":298,"name":"Arentrir","steam_id":76561198334126785,"connected_time":5800000000000,"state":"active","ping":75},{"user_id":354,"name":"HilldogGaming♛","steam_id":76561198082209322,"connected_time":3037000000000,"state":"active","ping":83},{"user_id":260,"name":"marvi444","steam_id":76561198431534139,"connected_time":9196000000000,"state":"active","ping":43},{"user_id":358,"name":"Takyonan","steam_id":76561198820784240,"connected_time":3007000000000,"state":"active","ping":116}]},{"server_id":310,"name":"Uncletopia | Frankfurt | 5 | All Maps","name_short":"frk-5","host":"frk-1.de.uncletopia.com","port":27055,"enabled":true,"region":"eu","cc":"de","latitude":50.110924,"longitude":8.682127,"reserved":0,"last_update":"0001-01-01T00:00:00Z","name_a2s":"Uncletopia | Frankfurt | 5 | All Maps","protocol":17,"map":"koth_suijin","folder":"tf","game":"Team Fortress","app_id":440,"player_count":20,"max_players":24,"Bots":0,"server_type":"Dedicated","server_os":"Linux","password":true,"vac":true,"version":"7961495","steam_id":85568392924504277,"keywords":["cp","nocrits","nodmgspread","uncletopia"],"game_id":440,"stv_port":27056,"stv_name":"Uncletopia | Frankfurt | 5 | All Maps | STV","players":[{"user_id":167,"name":"ZHMIL-17","steam_id":76561198065220818,"connected_time":221000000000,"state":"active","ping":93},{"user_id":156,"name":"BoltSive","steam_id":76561199084631869,"connected_time":1018000000000,"state":"active","ping":66},{"user_id":177,"name":"NotBadGuy101","steam_id":76561198846773415,"connected_time":52000000000,"state":"active","ping":70},{"user_id":169,"name":"Seail_M","steam_id":76561198002405605,"connected_time":203000000000,"state":"active","ping":57},{"user_id":163,"name":"Khrinde","steam_id":76561198036744526,"connected_time":601000000000,"state":"active","ping":99},{"user_id":132,"name":"Piox","steam_id":76561198125689157,"connected_time":2196000000000,"state":"active","ping":76},{"user_id":140,"name":"♂ MGE ♂ PUPSIK ♂","steam_id":76561198308302932,"connected_time":1751000000000,"state":"active","ping":88},{"user_id":170,"name":"capetanunito","steam_id":76561199364524852,"connected_time":167000000000,"state":"active","ping":112},{"user_id":172,"name":"thomas3003","steam_id":76561198209860039,"connected_time":97000000000,"state":"active","ping":59},{"user_id":142,"name":"I.C. Wiener","steam_id":76561197999912254,"connected_time":1708000000000,"state":"active","ping":87},{"user_id":130,"name":"TheEventGuy","steam_id":76561197972797744,"connected_time":2436000000000,"state":"active","ping":60},{"user_id":173,"name":"Polesn","steam_id":76561198209583116,"connected_time":97000000000,"state":"active","ping":74},{"user_id":136,"name":"sex havin'","steam_id":76561198169857427,"connected_time":2002000000000,"state":"active","ping":70},{"user_id":150,"name":"M2rtRa","steam_id":76561198111036466,"connected_time":1258000000000,"state":"active","ping":68},{"user_id":175,"name":"Krabs","steam_id":76561198161679477,"connected_time":88000000000,"state":"active","ping":57},{"user_id":164,"name":"WendelBandel","steam_id":76561198008768890,"connected_time":373000000000,"state":"active","ping":58},{"user_id":123,"name":"Xeno","steam_id":76561198975556646,"connected_time":3167000000000,"state":"active","ping":46},{"user_id":120,"name":"Confused1221","steam_id":76561199061802741,"connected_time":3313000000000,"state":"active","ping":66},{"user_id":157,"name":"froglids","steam_id":76561198045466919,"connected_time":1016000000000,"state":"active","ping":61},{"user_id":160,"name":"Pvt. Prinny","steam_id":76561198030278562,"connected_time":777000000000,"state":"active","ping":56}]},{"server_id":311,"name":"Uncletopia | Frankfurt | 6 | All Maps","name_short":"frk-6","host":"frk-1.de.uncletopia.com","port":27065,"enabled":true,"region":"eu","cc":"de","latitude":50.110924,"longitude":8.682127,"reserved":0,"last_update":"0001-01-01T00:00:00Z","name_a2s":"Uncletopia | Frankfurt | 6 | All Maps","protocol":17,"map":"koth_viaduct","folder":"tf","game":"Team Fortress","app_id":440,"player_count":0,"max_players":24,"Bots":0,"server_type":"Dedicated","server_os":"Linux","password":true,"vac":true,"version":"7961495","steam_id":85568392924504278,"keywords":["cp","nocrits","nodmgspread","uncletopia"],"game_id":440,"stv_port":27066,"stv_name":"Uncletopia | Frankfurt | 6 | All Maps | STV","players":null},{"server_id":23,"name":"Uncletopia | Frankfurt | 7 | Stopwatch","name_short":"frk-7","host":"frk-1.de.uncletopia.com","port":27075,"enabled":true,"region":"eu","cc":"de","latitude":50.110924,"longitude":8.682127,"reserved":0,"last_update":"0001-01-01T00:00:00Z","name_a2s":"Uncletopia | Frankfurt | 7 | Stopwatch","protocol":17,"map":"pl_frontier_final","folder":"tf","game":"Team Fortress","app_id":440,"player_count":0,"max_players":24,"Bots":0,"server_type":"Dedicated","server_os":"Linux","password":true,"vac":true,"version":"7961495","steam_id":85568392924742827,"keywords":["nocrits","nodmgspread","payload","uncletopia"],"game_id":440,"stv_port":27076,"stv_name":"Uncletopia | Frankfurt | 7 | Stopwatch | STV","players":null},{"server_id":24,"name":"Uncletopia | Frankfurt | 8 | Community","name_short":"frk-8","host":"frk-1.de.uncletopia.com","port":27085,"enabled":true,"region":"eu","cc":"de","latitude":50.110924,"longitude":8.682127,"reserved":0,"last_update":"0001-01-01T00:00:00Z","name_a2s":"Uncletopia | Frankfurt | 8 | Community","protocol":17,"map":"workshop/koth_bagel_rc6.ugc2514036946","folder":"tf","game":"Team Fortress","app_id":440,"player_count":0,"max_players":24,"Bots":0,"server_type":"Dedicated","server_os":"Linux","password":true,"vac":true,"version":"7961495","steam_id":85568392924742828,"keywords":["cp","nocrits","nodmgspread","uncletopia"],"game_id":440,"stv_port":27086,"stv_name":"Uncletopia | Frankfurt | 8 | Community | STV","players":null},{"server_id":202,"name":"Uncletopia | Hong Kong | 1 | All Maps","name_short":"hgk-1","host":"hgk-1.hk.uncletopia.com","port":27015,"enabled":true,"region":"asia","cc":"hk","latitude":22.302711,"longitude":114.177216,"reserved":0,"last_update":"0001-01-01T00:00:00Z","name_a2s":"Uncletopia | Hong Kong | 1 | All Maps","protocol":17,"map":"cp_mountainlab","folder":"tf","game":"Team Fortress","app_id":440,"player_count":0,"max_players":24,"Bots":0,"server_type":"Dedicated","server_os":"Linux","password":true,"vac":true,"version":"7961495","steam_id":85568392924494504,"keywords":["cp","nocrits","nodmgspread","uncletopia"],"game_id":440,"stv_port":27016,"stv_name":"Uncletopia | Hong Kong | 1 | All Maps | STV","players":null},{"server_id":1,"name":"Uncletopia | Los Angeles | 1 | All Maps","name_short":"lax-1","host":"lax-1.us.uncletopia.com","port":27015,"enabled":true,"region":"us-west","cc":"us","latitude":33.94279,"longitude":-118.41004,"reserved":0,"last_update":"0001-01-01T00:00:00Z","name_a2s":"Uncletopia | Los Angeles | 1 | All Maps","protocol":17,"map":"cp_sunshine","folder":"tf","game":"Team Fortress","app_id":440,"player_count":0,"max_players":24,"Bots":0,"server_type":"Dedicated","server_os":"Linux","password":true,"vac":true,"version":"7961495","steam_id":85568392924469991,"keywords":["cp","nocrits","nodmgspread","uncletopia"],"game_id":440,"stv_port":27016,"stv_name":"Uncletopia | Los Angeles | 1 | All Maps | STV","players":null},{"server_id":112,"name":"Uncletopia | Los Angeles | 2 | All Maps","name_short":"lax-2","host":"lax-1.us.uncletopia.com","port":27025,"enabled":true,"region":"us-west","cc":"us","latitude":33.94279,"longitude":-118.41004,"reserved":0,"last_update":"0001-01-01T00:00:00Z","name_a2s":"Uncletopia | Los Angeles | 2 | All Maps","protocol":17,"map":"cp_mountainlab","folder":"tf","game":"Team Fortress","app_id":440,"player_count":0,"max_players":24,"Bots":0,"server_type":"Dedicated","server_os":"Linux","password":true,"vac":true,"version":"7961495","steam_id":85568392924469992,"keywords":["cp","nocrits","nodmgspread","uncletopia"],"game_id":440,"stv_port":27026,"stv_name":"Uncletopia | Los Angeles | 2 | All Maps | STV","players":null},{"server_id":324,"name":"Uncletopia | Los Angeles | 3 | All Maps","name_short":"lax-3","host":"lax-1.us.uncletopia.com","port":27035,"enabled":true,"region":"us-west","cc":"us","latitude":33.94279,"longitude":-118.41004,"reserved":0,"last_update":"0001-01-01T00:00:00Z","name_a2s":"Uncletopia | Los Angeles | 3 | All Maps","protocol":17,"map":"pl_frontier_final","folder":"tf","game":"Team Fortress","app_id":440,"player_count":0,"max_players":24,"Bots":0,"server_type":"Dedicated","server_os":"Linux","password":true,"vac":true,"version":"7961495","steam_id":85568392924510198,"keywords":["nocrits","nodmgspread","payload","uncletopia"],"game_id":440,"stv_port":27036,"stv_name":"Uncletopia | Los Angeles | 3 | All Maps | STV","players":null},{"server_id":25,"name":"Uncletopia | Los Angeles | 4 | Stopwatch","name_short":"lax-4","host":"lax-1.us.uncletopia.com","port":27045,"enabled":true,"region":"us-west","cc":"us","latitude":33.94279,"longitude":-118.41004,"reserved":0,"last_update":"0001-01-01T00:00:00Z","name_a2s":"Uncletopia | Los Angeles | 4 | Stopwatch","protocol":17,"map":"pl_barnblitz","folder":"tf","game":"Team Fortress","app_id":440,"player_count":0,"max_players":24,"Bots":0,"server_type":"Dedicated","server_os":"Linux","password":true,"vac":true,"version":"7961495","steam_id":85568392924510199,"keywords":["nocrits","nodmgspread","payload","uncletopia"],"game_id":440,"stv_port":27046,"stv_name":"Uncletopia | Los Angeles | 4 | Stopwatch | STV","players":null},{"server_id":11,"name":"Uncletopia | London | 1 | All Maps","name_short":"lon-1","host":"lon-1.uk.uncletopia.com","port":27015,"enabled":true,"region":"eu","cc":"gb","latitude":51.509865,"longitude":-0.118092,"reserved":0,"last_update":"0001-01-01T00:00:00Z","name_a2s":"Uncletopia | London | 1 | All Maps","protocol":17,"map":"pl_barnblitz","folder":"tf","game":"Team Fortress","app_id":440,"player_count":24,"max_players":24,"Bots":0,"server_type":"Dedicated","server_os":"Linux","password":true,"vac":true,"version":"7961495","steam_id":85568392924367362,"keywords":["nocrits","nodmgspread","payload","uncletopia"],"game_id":440,"stv_port":27016,"stv_name":"Uncletopia | London | 1 | All Maps | STV","players":[{"user_id":600,"name":"Archer","steam_id":76561197994239444,"connected_time":55000000000,"state":"active","ping":115},{"user_id":597,"name":"ｄｅｓｋｒａｙ","steam_id":76561198805536170,"connected_time":1013000000000,"state":"active","ping":81},{"user_id":476,"name":"shooer!","steam_id":76561198110531281,"connected_time":12158000000000,"state":"active","ping":76},{"user_id":592,"name":"RLCrazyCat3","steam_id":76561197983757878,"connected_time":1202000000000,"state":"active","ping":70},{"user_id":546,"name":"Rai_to","steam_id":76561199013720618,"connected_time":4106000000000,"state":"active","ping":85},{"user_id":598,"name":"flappi","steam_id":76561198072892783,"connected_time":659000000000,"state":"active","ping":60},{"user_id":573,"name":"Fuck it (unhandicaps)","steam_id":76561197983095579,"connected_time":2448000000000,"state":"active","ping":88},{"user_id":581,"name":"Roman","steam_id":76561197967683724,"connected_time":2089000000000,"state":"active","ping":48},{"user_id":537,"name":"Vince","steam_id":76561198128953279,"connected_time":4608000000000,"state":"active","ping":78},{"user_id":509,"name":"gibb (official)","steam_id":76561198074097655,"connected_time":7761000000000,"state":"active","ping":40},{"user_id":584,"name":"Losre","steam_id":76561198071393125,"connected_time":1608000000000,"state":"active","ping":55},{"user_id":586,"name":"axl","steam_id":76561198991661832,"connected_time":1516000000000,"state":"active","ping":98},{"user_id":580,"name":"Naeso","steam_id":76561198068602498,"connected_time":2272000000000,"state":"active","ping":45},{"user_id":588,"name":"Milk","steam_id":76561198125876588,"connected_time":1500000000000,"state":"active","ping":43},{"user_id":557,"name":"powej","steam_id":76561198056381418,"connected_time":3483000000000,"state":"active","ping":34},{"user_id":589,"name":"◢◤ Joker ◢◤","steam_id":76561198038325384,"connected_time":1429000000000,"state":"active","ping":55},{"user_id":528,"name":"transgender e-girl","steam_id":76561198168589809,"connected_time":5276000000000,"state":"active","ping":80},{"user_id":594,"name":"Schiever","steam_id":76561198052136026,"connected_time":1173000000000,"state":"active","ping":58},{"user_id":595,"name":"bse","steam_id":76561198115627631,"connected_time":1145000000000,"state":"active","ping":75},{"user_id":599,"name":"ゴMr.B🖤ゴ","steam_id":76561198987456770,"connected_time":480000000000,"state":"active","ping":66},{"user_id":562,"name":"perry the platypus","steam_id":76561199379159771,"connected_time":3439000000000,"state":"active","ping":163},{"user_id":570,"name":"Makłowicz","steam_id":76561198281831506,"connected_time":2884000000000,"state":"active","ping":92},{"user_id":579,"name":"trite","steam_id":76561197983765323,"connected_time":2326000000000,"state":"active","ping":53},{"user_id":591,"name":"Dellroy","steam_id":76561198161222252,"connected_time":1288000000000,"state":"active","ping":46}]},{"server_id":114,"name":"Uncletopia | London | 2 | All Maps","name_short":"lon-2","host":"lon-1.uk.uncletopia.com","port":27025,"enabled":true,"region":"eu","cc":"gb","latitude":51.509865,"longitude":-0.118092,"reserved":0,"last_update":"0001-01-01T00:00:00Z","name_a2s":"Uncletopia | London | 2 | All Maps","protocol":17,"map":"koth_cascade","folder":"tf","game":"Team Fortress","app_id":440,"player_count":24,"max_players":24,"Bots":0,"server_type":"Dedicated","server_os":"Linux","password":true,"vac":true,"version":"7961495","steam_id":85568392924470941,"keywords":["cp","nocrits","nodmgspread","uncletopia"],"game_id":440,"stv_port":27026,"stv_name":"Uncletopia | London | 2 | All Maps | STV","players":[{"user_id":38,"name":"Pao_is_good","steam_id":76561199071206846,"connected_time":2566000000000,"state":"active","ping":94},{"user_id":68,"name":"Weegad Wobus","steam_id":76561199429562693,"connected_time":613000000000,"state":"active","ping":70},{"user_id":26,"name":"Warpzel65","steam_id":76561198799303596,"connected_time":4422000000000,"state":"active","ping":109},{"user_id":45,"name":"Generic","steam_id":76561198171073018,"connected_time":1391000000000,"state":"active","ping":56},{"user_id":74,"name":"Morkus","steam_id":76561199134560302,"connected_time":523000000000,"state":"active","ping":70},{"user_id":46,"name":"scarfweather","steam_id":76561198121331836,"connected_time":1384000000000,"state":"active","ping":57},{"user_id":50,"name":"Medics' Crossbow Training","steam_id":76561199114598660,"connected_time":991000000000,"state":"active","ping":144},{"user_id":78,"name":"panakid","steam_id":76561198364121077,"connected_time":182000000000,"state":"active","ping":98},{"user_id":52,"name":"BurningJoke","steam_id":76561199014358707,"connected_time":953000000000,"state":"active","ping":57},{"user_id":61,"name":"ThunderCluckz","steam_id":76561198055066162,"connected_time":797000000000,"state":"active","ping":65},{"user_id":71,"name":"snert","steam_id":76561198451550309,"connected_time":563000000000,"state":"active","ping":58},{"user_id":77,"name":"xelph","steam_id":76561198443008847,"connected_time":244000000000,"state":"active","ping":176},{"user_id":55,"name":"Spoingus","steam_id":76561198161402859,"connected_time":882000000000,"state":"active","ping":80},{"user_id":56,"name":"Favi","steam_id":76561198013236935,"connected_time":865000000000,"state":"active","ping":210},{"user_id":79,"name":"Sicmendor ...","steam_id":76561197962107049,"connected_time":68000000000,"state":"active","ping":71},{"user_id":58,"name":"Zazou","steam_id":76561198028076362,"connected_time":857000000000,"state":"active","ping":45},{"user_id":59,"name":"Linked","steam_id":76561198119217687,"connected_time":823000000000,"state":"active","ping":75},{"user_id":60,"name":"Irbynx","steam_id":76561197980421195,"connected_time":820000000000,"state":"active","ping":89},{"user_id":72,"name":"Meh Good Enough","steam_id":76561199012646173,"connected_time":557000000000,"state":"active","ping":78},{"user_id":63,"name":"..-.|..|.-..|..|.--.|","steam_id":76561198829879386,"connected_time":756000000000,"state":"active","ping":70},{"user_id":73,"name":"Penguinmark","steam_id":76561199057089501,"connected_time":552000000000,"state":"active","ping":126},{"user_id":65,"name":"Mr Sex","steam_id":76561198284096862,"connected_time":714000000000,"state":"active","ping":78},{"user_id":76,"name":"so sillay","steam_id":76561198852826447,"connected_time":387000000000,"state":"active","ping":74},{"user_id":67,"name":"シャドウ","steam_id":76561198323622980,"connected_time":673000000000,"state":"active","ping":90}]},{"server_id":320,"name":"Uncletopia | London | 3 | All Maps","name_short":"lon-3","host":"lon-1.uk.uncletopia.com","port":27035,"enabled":true,"region":"eu","cc":"gb","latitude":51.509865,"longitude":-0.118092,"reserved":0,"last_update":"0001-01-01T00:00:00Z","name_a2s":"Uncletopia | London | 3 | All Maps","protocol":17,"map":"pl_badwater","folder":"tf","game":"Team Fortress","app_id":440,"player_count":24,"max_players":24,"Bots":0,"server_type":"Dedicated","server_os":"Linux","password":true,"vac":true,"version":"7961495","steam_id":85568392924510192,"keywords":["nocrits","nodmgspread","payload","uncletopia"],"game_id":440,"stv_port":27036,"stv_name":"Uncletopia | London | 3 | All Maps | STV","players":[{"user_id":244,"name":"Litauszki Zoltan","steam_id":76561198103182374,"connected_time":373000000000,"state":"active","ping":76},{"user_id":242,"name":"Egor Pomidor","steam_id":76561199175688390,"connected_time":504000000000,"state":"active","ping":83},{"user_id":210,"name":"Jon ･ᴗ･","steam_id":76561199380849468,"connected_time":2451000000000,"state":"active","ping":63},{"user_id":245,"name":"Pyep","steam_id":76561199273799263,"connected_time":358000000000,"state":"active","ping":60},{"user_id":246,"name":"☞LaZe☜","steam_id":76561198202191400,"connected_time":353000000000,"state":"active","ping":50},{"user_id":197,"name":"Sir Mega Pint","steam_id":76561198093177578,"connected_time":3404000000000,"state":"active","ping":57},{"user_id":247,"name":"WonderVaflya","steam_id":76561198077281374,"connected_time":351000000000,"state":"active","ping":75},{"user_id":253,"name":"KODE","steam_id":76561198053212394,"connected_time":75000000000,"state":"active","ping":75},{"user_id":236,"name":"Spoof059","steam_id":76561198356116829,"connected_time":908000000000,"state":"active","ping":60},{"user_id":248,"name":"schmick h_stt 0","steam_id":76561198039537958,"connected_time":350000000000,"state":"active","ping":45},{"user_id":234,"name":"coella","steam_id":76561198442803577,"connected_time":1045000000000,"state":"active","ping":64},{"user_id":249,"name":"Son Heung-Min","steam_id":76561198314364201,"connected_time":327000000000,"state":"active","ping":61},{"user_id":250,"name":"a second plane","steam_id":76561199401283123,"connected_time":312000000000,"state":"active","ping":54},{"user_id":241,"name":"MaypulSoyrup","steam_id":76561199213966821,"connected_time":584000000000,"state":"active","ping":70},{"user_id":213,"name":"Fat Pigeon","steam_id":76561198817940142,"connected_time":2412000000000,"state":"active","ping":58},{"user_id":228,"name":"Umme","steam_id":76561198053809566,"connected_time":1442000000000,"state":"active","ping":88},{"user_id":251,"name":"High Fructose Porn Syrup","steam_id":76561197998825323,"connected_time":292000000000,"state":"active","ping":41},{"user_id":173,"name":"Cowspace","steam_id":76561198072733227,"connected_time":5451000000000,"state":"active","ping":72},{"user_id":174,"name":"Daniel","steam_id":76561198072565213,"connected_time":5432000000000,"state":"active","ping":70},{"user_id":252,"name":"i have no ass but i must shit","steam_id":76561198326382938,"connected_time":287000000000,"state":"active","ping":71},{"user_id":233,"name":"zek","steam_id":76561198862763731,"connected_time":1089000000000,"state":"active","ping":70},{"user_id":188,"name":"Ricey","steam_id":76561198832961307,"connected_time":4369000000000,"state":"active","ping":47},{"user_id":144,"name":"ULTRAGIBUS","steam_id":76561198880402882,"connected_time":7344000000000,"state":"active","ping":172},{"user_id":224,"name":"Crunchy","steam_id":76561198184973203,"connected_time":1808000000000,"state":"active","ping":56}]},{"server_id":321,"name":"Uncletopia | London | 4 | All Maps","name_short":"lon-4","host":"lon-1.uk.uncletopia.com","port":27045,"enabled":true,"region":"eu","cc":"gb","latitude":51.509865,"longitude":-0.118092,"reserved":0,"last_update":"0001-01-01T00:00:00Z","name_a2s":"Uncletopia | London | 4 | All Maps","protocol":17,"map":"cp_dustbowl","folder":"tf","game":"Team Fortress","app_id":440,"player_count":24,"max_players":24,"Bots":0,"server_type":"Dedicated","server_os":"Linux","password":true,"vac":true,"version":"7961495","steam_id":85568392924510193,"keywords":["cp","nocrits","nodmgspread","uncletopia"],"game_id":440,"stv_port":27046,"stv_name":"Uncletopia | London | 4 | All Maps | STV","players":[{"user_id":154,"name":"hyvakii705","steam_id":76561198086630552,"connected_time":3387000000000,"state":"active","ping":91},{"user_id":107,"name":"Marabosha","steam_id":76561198137599173,"connected_time":6099000000000,"state":"active","ping":116},{"user_id":177,"name":"Andale","steam_id":76561198326236983,"connected_time":953000000000,"state":"active","ping":56},{"user_id":170,"name":"Sandvich","steam_id":76561199079493666,"connected_time":2055000000000,"state":"active","ping":117},{"user_id":161,"name":"Paper","steam_id":76561199037749675,"connected_time":2844000000000,"state":"active","ping":26},{"user_id":158,"name":"Jouppi","steam_id":76561198063725468,"connected_time":3149000000000,"state":"active","ping":93},{"user_id":160,"name":"You Don't Nomi.","steam_id":76561197969137836,"connected_time":2855000000000,"state":"active","ping":127},{"user_id":162,"name":"one nation under gock","steam_id":76561198170026338,"connected_time":2744000000000,"state":"active","ping":73},{"user_id":152,"name":"Tá prátaí go maith","steam_id":76561198372536459,"connected_time":3481000000000,"state":"active","ping":54},{"user_id":178,"name":"Volt","steam_id":76561198237074532,"connected_time":925000000000,"state":"active","ping":114},{"user_id":94,"name":"JaneDoe","steam_id":76561198067081506,"connected_time":7518000000000,"state":"active","ping":87},{"user_id":180,"name":"- rick.","steam_id":76561198026699226,"connected_time":607000000000,"state":"active","ping":73},{"user_id":174,"name":"Zamorocian","steam_id":76561198076604017,"connected_time":1554000000000,"state":"active","ping":45},{"user_id":179,"name":"TEMZ","steam_id":76561198799288322,"connected_time":922000000000,"state":"active","ping":49},{"user_id":78,"name":"Henry Fonda","steam_id":76561199378865926,"connected_time":8880000000000,"state":"active","ping":81},{"user_id":176,"name":"Mayor Wank from Wanker Town","steam_id":76561197998253588,"connected_time":1121000000000,"state":"active","ping":55},{"user_id":79,"name":"That Bussy Can Squirt","steam_id":76561199185615752,"connected_time":8742000000000,"state":"active","ping":54},{"user_id":182,"name":"Tummy","steam_id":76561198045654910,"connected_time":255000000000,"state":"active","ping":45},{"user_id":147,"name":"gronk","steam_id":76561199031539961,"connected_time":3886000000000,"state":"active","ping":61},{"user_id":168,"name":"Plep","steam_id":76561198840259819,"connected_time":2355000000000,"state":"active","ping":59},{"user_id":171,"name":"Patatata","steam_id":76561198152188319,"connected_time":2000000000000,"state":"active","ping":70},{"user_id":155,"name":"HaylingZar","steam_id":76561198053559897,"connected_time":3378000000000,"state":"active","ping":58},{"user_id":169,"name":"Dr. Livesey","steam_id":76561198071049943,"connected_time":2174000000000,"state":"active","ping":74},{"user_id":119,"name":"TwinProfanity","steam_id":76561198159512387,"connected_time":5949000000000,"state":"active","ping":57}]},{"server_id":21,"name":"Uncletopia | London | 5 | All Maps","name_short":"lon-5","host":"lon-1.uk.uncletopia.com","port":27055,"enabled":true,"region":"eu","cc":"gb","latitude":51.509865,"longitude":-0.118092,"reserved":0,"last_update":"0001-01-01T00:00:00Z","name_a2s":"Uncletopia | London | 5 | All Maps","protocol":17,"map":"pl_borneo","folder":"tf","game":"Team Fortress","app_id":440,"player_count":24,"max_players":24,"Bots":0,"server_type":"Dedicated","server_os":"Linux","password":true,"vac":true,"version":"7961495","steam_id":85568392924742829,"keywords":["nocrits","nodmgspread","payload","uncletopia"],"game_id":440,"stv_port":27056,"stv_name":"Uncletopia | London | 5 | All Maps | STV","players":[{"user_id":128,"name":"☸Koala99☸","steam_id":76561198375591154,"connected_time":2454000000000,"state":"active","ping":56},{"user_id":132,"name":"Gabe Howard","steam_id":76561198331677788,"connected_time":2281000000000,"state":"active","ping":79},{"user_id":139,"name":"Snd","steam_id":76561198010816408,"connected_time":2144000000000,"state":"active","ping":105},{"user_id":158,"name":"Stroz","steam_id":76561198146444213,"connected_time":429000000000,"state":"active","ping":75},{"user_id":150,"name":"[T]aKer","steam_id":76561198001778013,"connected_time":1668000000000,"state":"active","ping":45},{"user_id":156,"name":"Pablo Johnson","steam_id":76561199009805208,"connected_time":1218000000000,"state":"active","ping":112},{"user_id":163,"name":"shankz","steam_id":76561198128803260,"connected_time":345000000000,"state":"active","ping":45},{"user_id":151,"name":"[503. ]captain swiftfingers","steam_id":76561198043684517,"connected_time":1664000000000,"state":"active","ping":54},{"user_id":168,"name":"R!not","steam_id":76561197986328786,"connected_time":185000000000,"state":"active","ping":41},{"user_id":95,"name":"DrFast","steam_id":76561198138637093,"connected_time":4307000000000,"state":"active","ping":50},{"user_id":165,"name":"glass of drink","steam_id":76561198881074696,"connected_time":306000000000,"state":"active","ping":93},{"user_id":161,"name":"Ferrariracer5f1","steam_id":76561199229815098,"connected_time":371000000000,"state":"active","ping":57},{"user_id":117,"name":"iniT","steam_id":76561198019883794,"connected_time":3021000000000,"state":"active","ping":47},{"user_id":149,"name":"sAmasam","steam_id":76561198114953928,"connected_time":1706000000000,"state":"active","ping":74},{"user_id":157,"name":"ack","steam_id":76561198139796077,"connected_time":590000000000,"state":"active","ping":54},{"user_id":155,"name":"Doggo225","steam_id":76561198166707002,"connected_time":1274000000000,"state":"active","ping":39},{"user_id":30,"name":"bitkomet","steam_id":76561198058232147,"connected_time":7727000000000,"state":"active","ping":78},{"user_id":141,"name":"Twik","steam_id":76561198023835056,"connected_time":2112000000000,"state":"active","ping":60},{"user_id":142,"name":"obi","steam_id":76561198040154461,"connected_time":2110000000000,"state":"active","ping":73},{"user_id":162,"name":"Pip","steam_id":76561198049587565,"connected_time":354000000000,"state":"active","ping":56},{"user_id":122,"name":"Ω","steam_id":76561199088570961,"connected_time":2954000000000,"state":"active","ping":113},{"user_id":164,"name":"貞子ちゃんがすきです!","steam_id":76561198248239796,"connected_time":331000000000,"state":"active","ping":54},{"user_id":144,"name":"FoOzTV","steam_id":76561197998636728,"connected_time":2097000000000,"state":"active","ping":70},{"user_id":167,"name":"Bobby Swanington","steam_id":76561198194118983,"connected_time":242000000000,"state":"active","ping":56}]},{"server_id":22,"name":"Uncletopia | London | 6 | All Maps","name_short":"lon-6","host":"lon-1.uk.uncletopia.com","port":27065,"enabled":true,"region":"eu","cc":"gb","latitude":51.509865,"longitude":-0.118092,"reserved":0,"last_update":"0001-01-01T00:00:00Z","name_a2s":"Uncletopia | London | 6 | All Maps","protocol":17,"map":"pl_pier","folder":"tf","game":"Team Fortress","app_id":440,"player_count":24,"max_players":24,"Bots":0,"server_type":"Dedicated","server_os":"Linux","password":true,"vac":true,"version":"7961495","steam_id":85568392924742830,"keywords":["nocrits","nodmgspread","payload","uncletopia"],"game_id":440,"stv_port":27066,"stv_name":"Uncletopia | London | 6 | All Maps | STV","players":[{"user_id":280,"name":"Pinkchup","steam_id":76561198106802803,"connected_time":11877000000000,"state":"active","ping":76},{"user_id":402,"name":"ArtuDitu303","steam_id":76561199093639498,"connected_time":1575000000000,"state":"active","ping":73},{"user_id":383,"name":"mossfan1","steam_id":76561198087525446,"connected_time":2688000000000,"state":"active","ping":82},{"user_id":412,"name":"David \"Crash\" Murphy","steam_id":76561198292845505,"connected_time":494000000000,"state":"active","ping":95},{"user_id":375,"name":"d","steam_id":76561198165550964,"connected_time":3331000000000,"state":"active","ping":49},{"user_id":304,"name":"Fissure","steam_id":76561198272595481,"connected_time":9608000000000,"state":"active","ping":76},{"user_id":419,"name":"Thromsty","steam_id":76561198814891324,"connected_time":263000000000,"state":"active","ping":72},{"user_id":403,"name":"Thors","steam_id":76561197968739075,"connected_time":1553000000000,"state":"active","ping":44},{"user_id":418,"name":"Citrsun","steam_id":76561198138812353,"connected_time":321000000000,"state":"active","ping":109},{"user_id":420,"name":"Geoff the Oracle","steam_id":76561198053759965,"connected_time":227000000000,"state":"active","ping":60},{"user_id":173,"name":"After8","steam_id":76561198090750865,"connected_time":19521000000000,"state":"active","ping":76},{"user_id":410,"name":"Miiukade","steam_id":76561198089157860,"connected_time":550000000000,"state":"active","ping":124},{"user_id":415,"name":"Goblin","steam_id":76561198153545458,"connected_time":383000000000,"state":"active","ping":68},{"user_id":395,"name":"YOUR MOTHER","steam_id":76561199122009463,"connected_time":2354000000000,"state":"active","ping":76},{"user_id":396,"name":"Ritzy","steam_id":76561198381955342,"connected_time":2341000000000,"state":"active","ping":51},{"user_id":416,"name":"Mozzaza","steam_id":76561198156316111,"connected_time":378000000000,"state":"active","ping":129},{"user_id":409,"name":"magicBoIrose","steam_id":76561198007481914,"connected_time":591000000000,"state":"active","ping":86},{"user_id":407,"name":"ra","steam_id":76561198239927434,"connected_time":977000000000,"state":"active","ping":77},{"user_id":408,"name":"fence_","steam_id":76561198150386379,"connected_time":878000000000,"state":"active","ping":46},{"user_id":388,"name":"Bob.","steam_id":76561198330093822,"connected_time":2619000000000,"state":"active","ping":92},{"user_id":329,"name":"Katealyst","steam_id":76561198331215039,"connected_time":6048000000000,"state":"active","ping":61},{"user_id":399,"name":"Dr. Funkenstein","steam_id":76561197977816210,"connected_time":2322000000000,"state":"active","ping":70},{"user_id":417,"name":"Cornmac","steam_id":76561198104780569,"connected_time":346000000000,"state":"active","ping":72},{"user_id":339,"name":"Sergeant_cross","steam_id":76561198148270425,"connected_time":5565000000000,"state":"active","ping":67}]},{"server_id":40,"name":"Uncletopia | London | 7 | Stopwatch","name_short":"lon-7","host":"lon-1.uk.uncletopia.com","port":27075,"enabled":true,"region":"eu","cc":"gb","latitude":51.509865,"longitude":-0.118092,"reserved":0,"last_update":"0001-01-01T00:00:00Z","name_a2s":"Uncletopia | London | 7 | Stopwatch","protocol":17,"map":"koth_lakeside_final","folder":"tf","game":"Team Fortress","app_id":440,"player_count":0,"max_players":24,"Bots":0,"server_type":"Dedicated","server_os":"Linux","password":true,"vac":true,"version":"7961495","steam_id":85568392924964314,"keywords":["cp","nocrits","nodmgspread","uncletopia"],"game_id":440,"stv_port":27076,"stv_name":"Uncletopia | London | 7 | Stopwatch | STV","players":null},{"server_id":41,"name":"Uncletopia | London | 8 | Community","name_short":"lon-8","host":"lon-1.uk.uncletopia.com","port":27085,"enabled":true,"region":"eu","cc":"gb","latitude":51.509865,"longitude":-0.118092,"reserved":0,"last_update":"0001-01-01T00:00:00Z","name_a2s":"Uncletopia | London | 8 | Community","protocol":17,"map":"workshop/koth_bagel_rc6.ugc2514036946","folder":"tf","game":"Team Fortress","app_id":440,"player_count":0,"max_players":24,"Bots":0,"server_type":"Dedicated","server_os":"Linux","password":true,"vac":true,"version":"7961495","steam_id":85568392924964315,"keywords":["cp","nocrits","nodmgspread","uncletopia"],"game_id":440,"stv_port":27086,"stv_name":"Uncletopia | London | 8 | Community | STV","players":null},{"server_id":300,"name":"Uncletopia | Montréal | 1 | All Maps","name_short":"mtl-1","host":"mtl-1.ca.uncletopia.com","port":27015,"enabled":true,"region":"us-east","cc":"ca","latitude":45.50889,"longitude":-73.56167,"reserved":0,"last_update":"0001-01-01T00:00:00Z","name_a2s":"","protocol":0,"map":"","folder":"","game":"","app_id":0,"player_count":0,"max_players":0,"Bots":0,"server_type":"","server_os":"","password":false,"vac":false,"version":"","steam_id":0,"keywords":null,"game_id":0,"stv_port":0,"stv_name":"","players":null},{"server_id":301,"name":"Uncletopia | Montréal | 2 | ???","name_short":"mtl-2","host":"mtl-1.ca.uncletopia.com","port":27025,"enabled":true,"region":"us-east","cc":"ca","latitude":45.50889,"longitude":-73.56167,"reserved":0,"last_update":"0001-01-01T00:00:00Z","name_a2s":"","protocol":0,"map":"","folder":"","game":"","app_id":0,"player_count":0,"max_players":0,"Bots":0,"server_type":"","server_os":"","password":false,"vac":false,"version":"","steam_id":0,"keywords":null,"game_id":0,"stv_port":0,"stv_name":"","players":null},{"server_id":13,"name":"Uncletopia | New York City | 1 | All Maps","name_short":"nyc-1","host":"nyc-1.us.uncletopia.com","port":27015,"enabled":true,"region":"us-east","cc":"us","latitude":40.73061,"longitude":-73.93524,"reserved":0,"last_update":"0001-01-01T00:00:00Z","name_a2s":"Uncletopia | New York City | 1 | All Maps","protocol":17,"map":"pl_frontier_final","folder":"tf","game":"Team Fortress","app_id":440,"player_count":24,"max_players":24,"Bots":0,"server_type":"Dedicated","server_os":"Linux","password":true,"vac":true,"version":"7961495","steam_id":85568392924469993,"keywords":["nocrits","nodmgspread","payload","uncletopia"],"game_id":440,"stv_port":27016,"stv_name":"Uncletopia | New York City | 1 | All Maps | STV","players":[{"user_id":248,"name":"Literally a Trans Woman","steam_id":76561198054639925,"connected_time":1758000000000,"state":"active","ping":44},{"user_id":250,"name":"[TSG] Turner's Chocolate Milk","steam_id":76561198058963288,"connected_time":1602000000000,"state":"active","ping":54},{"user_id":271,"name":"Trusty","steam_id":76561198035444237,"connected_time":52000000000,"state":"active","ping":59},{"user_id":244,"name":"Punchy","steam_id":76561198200000641,"connected_time":2165000000000,"state":"active","ping":35},{"user_id":260,"name":"Artgrendadier","steam_id":76561198063305359,"connected_time":1009000000000,"state":"active","ping":62},{"user_id":254,"name":"Jimbo Slice","steam_id":76561198064830847,"connected_time":1208000000000,"state":"active","ping":54},{"user_id":255,"name":"Pancakes","steam_id":76561198129482145,"connected_time":1204000000000,"state":"active","ping":84},{"user_id":241,"name":"-W3E- grim10465","steam_id":76561198045698581,"connected_time":2617000000000,"state":"active","ping":30},{"user_id":227,"name":"Yoyo_Dodo","steam_id":76561198136879596,"connected_time":3868000000000,"state":"active","ping":178},{"user_id":270,"name":"Kylul_","steam_id":76561198042981061,"connected_time":234000000000,"state":"active","ping":105},{"user_id":228,"name":"Lorents","steam_id":76561198796919618,"connected_time":3737000000000,"state":"active","ping":139},{"user_id":242,"name":"Chris","steam_id":76561198044278802,"connected_time":2506000000000,"state":"active","ping":53},{"user_id":269,"name":"brenden","steam_id":76561198120346280,"connected_time":295000000000,"state":"active","ping":60},{"user_id":208,"name":"Nephi","steam_id":76561198031525122,"connected_time":4624000000000,"state":"active","ping":83},{"user_id":256,"name":"the keebler","steam_id":76561199486326945,"connected_time":1193000000000,"state":"active","ping":69},{"user_id":252,"name":"the archmage","steam_id":76561198380018244,"connected_time":1497000000000,"state":"active","ping":90},{"user_id":265,"name":"ndvr","steam_id":76561199379200102,"connected_time":415000000000,"state":"active","ping":54},{"user_id":237,"name":"milk","steam_id":76561198813251405,"connected_time":2979000000000,"state":"active","ping":54},{"user_id":264,"name":"NamelessBear™","steam_id":76561198014564006,"connected_time":505000000000,"state":"active","ping":58},{"user_id":221,"name":"Winter the Witchie","steam_id":76561198151971178,"connected_time":4057000000000,"state":"active","ping":76},{"user_id":191,"name":"Rigby","steam_id":76561198258121396,"connected_time":5759000000000,"state":"active","ping":82},{"user_id":236,"name":"leboeufbn","steam_id":76561199228923100,"connected_time":3121000000000,"state":"active","ping":68},{"user_id":225,"name":"cheesebro","steam_id":76561198002072852,"connected_time":3905000000000,"state":"active","ping":106},{"user_id":266,"name":"Kristen","steam_id":76561198025479618,"connected_time":365000000000,"state":"active","ping":65}]},{"server_id":14,"name":"Uncletopia | New York City | 2 | All Maps","name_short":"nyc-2","host":"nyc-1.us.uncletopia.com","port":27025,"enabled":true,"region":"us-east","cc":"us","latitude":40.73061,"longitude":-73.93524,"reserved":0,"last_update":"0001-01-01T00:00:00Z","name_a2s":"Uncletopia | New York City | 2 | All Maps","protocol":17,"map":"koth_lakeside_final","folder":"tf","game":"Team Fortress","app_id":440,"player_count":0,"max_players":24,"Bots":0,"server_type":"Dedicated","server_os":"Linux","password":true,"vac":true,"version":"7961495","steam_id":85568392924469994,"keywords":["cp","nocrits","nodmgspread","uncletopia"],"game_id":440,"stv_port":27026,"stv_name":"Uncletopia | New York City | 2 | All Maps | STV","players":null},{"server_id":15,"name":"Uncletopia | New York City | 3 | Stopwatch","name_short":"nyc-3","host":"nyc-1.us.uncletopia.com","port":27035,"enabled":true,"region":"us-east","cc":"us","latitude":40.73061,"longitude":-73.93524,"reserved":0,"last_update":"0001-01-01T00:00:00Z","name_a2s":"Uncletopia | New York City | 3 | Stopwatch","protocol":17,"map":"cp_gullywash_final1","folder":"tf","game":"Team Fortress","app_id":440,"player_count":0,"max_players":24,"Bots":0,"server_type":"Dedicated","server_os":"Linux","password":true,"vac":true,"version":"7961495","steam_id":85568392924742820,"keywords":["cp","nocrits","nodmgspread","uncletopia"],"game_id":440,"stv_port":27036,"stv_name":"Uncletopia | New York City | 3 | Stopwatch | STV","players":null},{"server_id":16,"name":"Uncletopia | New York City | 4 | Community","name_short":"nyc-4","host":"nyc-1.us.uncletopia.com","port":27045,"enabled":true,"region":"us-east","cc":"us","latitude":40.73061,"longitude":-73.93524,"reserved":0,"last_update":"0001-01-01T00:00:00Z","name_a2s":"Uncletopia | New York City | 4 | Community","protocol":17,"map":"cp_altitude","folder":"tf","game":"Team Fortress","app_id":440,"player_count":0,"max_players":24,"Bots":0,"server_type":"Dedicated","server_os":"Linux","password":true,"vac":true,"version":"7961495","steam_id":85568392924742821,"keywords":["cp","nocrits","nodmgspread","uncletopia"],"game_id":440,"stv_port":27046,"stv_name":"Uncletopia | New York City | 4 | Community | STV","players":null},{"server_id":142,"name":"Uncletopia | São Paulo | 1 | All Maps","name_short":"sao-1","host":"sao-1.br.uncletopia.com","port":27015,"enabled":true,"region":"sa","cc":"br","latitude":-23.533773,"longitude":-46.62529,"reserved":0,"last_update":"0001-01-01T00:00:00Z","name_a2s":"Uncletopia | São Paulo | 1 | All Maps","protocol":17,"map":"koth_viaduct","folder":"tf","game":"Team Fortress","app_id":440,"player_count":0,"max_players":24,"Bots":0,"server_type":"Dedicated","server_os":"Linux","password":true,"vac":true,"version":"7961495","steam_id":85568392924469996,"keywords":["cp","nocrits","nodmgspread","uncletopia"],"game_id":440,"stv_port":27016,"stv_name":"Uncletopia | São Paulo | 1 | All Maps | STV","players":null},{"server_id":143,"name":"Uncletopia | São Paulo | 2 | Community","name_short":"sao-2","host":"sao-2.br.uncletopia.com","port":27015,"enabled":true,"region":"sa","cc":"br","latitude":-23.533773,"longitude":-46.62529,"reserved":0,"last_update":"0001-01-01T00:00:00Z","name_a2s":"Uncletopia | São Paulo | 2 | Community","protocol":17,"map":"workshop/pl_fifthcurve_rc1.ugc648227046","folder":"tf","game":"Team Fortress","app_id":440,"player_count":0,"max_players":24,"Bots":0,"server_type":"Dedicated","server_os":"Linux","password":true,"vac":true,"version":"7961495","steam_id":85568392924485349,"keywords":["nocrits","nodmgspread","payload","uncletopia"],"game_id":440,"stv_port":27016,"stv_name":"Uncletopia | São Paulo | 2 | Community | STV","players":null},{"server_id":7,"name":"Uncletopia | Seattle | 1 | All Maps","name_short":"sea-1","host":"sea-1.us.uncletopia.com","port":27015,"enabled":true,"region":"us-west","cc":"us","latitude":47.608013,"longitude":-122.33517,"reserved":0,"last_update":"0001-01-01T00:00:00Z","name_a2s":"Uncletopia | Seattle | 1 | All Maps","protocol":17,"map":"pl_upward","folder":"tf","game":"Team Fortress","app_id":440,"player_count":24,"max_players":24,"Bots":0,"server_type":"Dedicated","server_os":"Linux","password":true,"vac":true,"version":"7961495","steam_id":85568392924469997,"keywords":["nocrits","nodmgspread","payload","uncletopia"],"game_id":440,"stv_port":27016,"stv_name":"Uncletopia | Seattle | 1 | All Maps | STV","players":[{"user_id":242,"name":"Shark Sandwich","steam_id":76561198025007938,"connected_time":3572000000000,"state":"active","ping":45},{"user_id":264,"name":"Bloodgoat","steam_id":76561198047407295,"connected_time":1562000000000,"state":"active","ping":48},{"user_id":246,"name":"allahsdroptop","steam_id":76561198133195238,"connected_time":3058000000000,"state":"active","ping":59},{"user_id":188,"name":"louise sneeze","steam_id":76561198062451648,"connected_time":7625000000000,"state":"active","ping":90},{"user_id":238,"name":"BlazedBunny","steam_id":76561198243610560,"connected_time":4036000000000,"state":"active","ping":65},{"user_id":276,"name":"Droozlex","steam_id":76561198157221366,"connected_time":628000000000,"state":"active","ping":42},{"user_id":277,"name":"Strikerbolt","steam_id":76561199095622897,"connected_time":588000000000,"state":"active","ping":75},{"user_id":240,"name":"Samni Chippu","steam_id":76561198088054190,"connected_time":3653000000000,"state":"active","ping":67},{"user_id":132,"name":"Xynnan","steam_id":76561198122232186,"connected_time":11713000000000,"state":"active","ping":103},{"user_id":245,"name":"Mcaraway2","steam_id":76561198049916886,"connected_time":3074000000000,"state":"active","ping":96},{"user_id":272,"name":"Oktayey","steam_id":76561198143213426,"connected_time":873000000000,"state":"active","ping":63},{"user_id":280,"name":"Yengozi","steam_id":76561198448764748,"connected_time":435000000000,"state":"active","ping":117},{"user_id":278,"name":"HappilyDisturbed","steam_id":76561198156158743,"connected_time":568000000000,"state":"active","ping":84},{"user_id":265,"name":"Maid 'n' China","steam_id":76561198423392976,"connected_time":1309000000000,"state":"active","ping":60},{"user_id":281,"name":"Any Soul Knighters","steam_id":76561198198137847,"connected_time":418000000000,"state":"active","ping":101},{"user_id":268,"name":"💀King Diamond💀","steam_id":76561198012101598,"connected_time":1160000000000,"state":"active","ping":75},{"user_id":250,"name":"zinnk","steam_id":76561198092081825,"connected_time":2624000000000,"state":"active","ping":59},{"user_id":282,"name":"Pegway","steam_id":76561198044303814,"connected_time":417000000000,"state":"active","ping":119},{"user_id":259,"name":"COOL master_9","steam_id":76561198073041151,"connected_time":1885000000000,"state":"active","ping":81},{"user_id":227,"name":"Sir Loincloth","steam_id":76561198033073991,"connected_time":5486000000000,"state":"active","ping":61},{"user_id":209,"name":"Buswolley","steam_id":76561197995205571,"connected_time":6411000000000,"state":"active","ping":54},{"user_id":257,"name":"SeeNik","steam_id":76561198149499817,"connected_time":2183000000000,"state":"active","ping":121},{"user_id":252,"name":"Mr defrost","steam_id":76561198322125657,"connected_time":2609000000000,"state":"active","ping":52},{"user_id":275,"name":"chocolateduck | F2P","steam_id":76561199084026785,"connected_time":684000000000,"state":"active","ping":52}]},{"server_id":119,"name":"Uncletopia | Seattle | 2 | All Maps","name_short":"sea-2","host":"sea-1.us.uncletopia.com","port":27025,"enabled":true,"region":"us-west","cc":"us","latitude":47.608013,"longitude":-122.33517,"reserved":0,"last_update":"0001-01-01T00:00:00Z","name_a2s":"Uncletopia | Seattle | 2 | All Maps","protocol":17,"map":"koth_highpass","folder":"tf","game":"Team Fortress","app_id":440,"player_count":1,"max_players":24,"Bots":0,"server_type":"Dedicated","server_os":"Linux","password":true,"vac":true,"version":"7961495","steam_id":85568392924469998,"keywords":["cp","nocrits","nodmgspread","uncletopia"],"game_id":440,"stv_port":27026,"stv_name":"Uncletopia | Seattle | 2 | All Maps | STV","players":[{"user_id":7,"name":"cool beans","steam_id":76561198045758072,"connected_time":272000000000,"state":"active","ping":53}]},{"server_id":406,"name":"Uncletopia | Seattle | 3 | Stopwatch","name_short":"sea-3","host":"sea-1.us.uncletopia.com","port":27035,"enabled":true,"region":"us-west","cc":"us","latitude":47.608013,"longitude":-122.33517,"reserved":0,"last_update":"0001-01-01T00:00:00Z","name_a2s":"Uncletopia | Seattle | 3 | Stopwatch","protocol":17,"map":"cp_gullywash_final1","folder":"tf","game":"Team Fortress","app_id":440,"player_count":0,"max_players":24,"Bots":0,"server_type":"Dedicated","server_os":"Linux","password":true,"vac":true,"version":"7961495","steam_id":85568392924515217,"keywords":["cp","nocrits","nodmgspread","uncletopia"],"game_id":440,"stv_port":27036,"stv_name":"Uncletopia | Seattle | 3 | Stopwatch | STV","players":null},{"server_id":17,"name":"Uncletopia | San Francisco | 1 | All Maps","name_short":"sfo-1","host":"sfo-1.us.uncletopia.com","port":27015,"enabled":true,"region":"us-west","cc":"us","latitude":37.77397,"longitude":-122.4313,"reserved":0,"last_update":"0001-01-01T00:00:00Z","name_a2s":"Uncletopia | San Francisco | 1 | All Maps","protocol":17,"map":"koth_cascade","folder":"tf","game":"Team Fortress","app_id":440,"player_count":0,"max_players":24,"Bots":0,"server_type":"Dedicated","server_os":"Linux","password":true,"vac":true,"version":"7961495","steam_id":85568392924469999,"keywords":["cp","nocrits","nodmgspread","uncletopia"],"game_id":440,"stv_port":27016,"stv_name":"Uncletopia | San Francisco | 1 | All Maps | STV","players":null},{"server_id":18,"name":"Uncletopia | San Francisco | 2 | All Maps","name_short":"sfo-2","host":"sfo-1.us.uncletopia.com","port":27025,"enabled":true,"region":"us-west","cc":"us","latitude":37.77397,"longitude":-122.4313,"reserved":0,"last_update":"0001-01-01T00:00:00Z","name_a2s":"Uncletopia | San Francisco | 2 | All Maps","protocol":17,"map":"pl_frontier_final","folder":"tf","game":"Team Fortress","app_id":440,"player_count":0,"max_players":24,"Bots":0,"server_type":"Dedicated","server_os":"Linux","password":true,"vac":true,"version":"7961495","steam_id":85568392924470000,"keywords":["nocrits","nodmgspread","payload","uncletopia"],"game_id":440,"stv_port":27026,"stv_name":"Uncletopia | San Francisco | 2 | All Maps | STV","players":null},{"server_id":19,"name":"Uncletopia | San Francisco | 3 | Stopwatch","name_short":"sfo-3","host":"sfo-1.us.uncletopia.com","port":27035,"enabled":true,"region":"us-west","cc":"us","latitude":37.77397,"longitude":-122.4313,"reserved":0,"last_update":"0001-01-01T00:00:00Z","name_a2s":"Uncletopia | San Francisco | 3 | Stopwatch","protocol":17,"map":"pl_pier","folder":"tf","game":"Team Fortress","app_id":440,"player_count":0,"max_players":24,"Bots":0,"server_type":"Dedicated","server_os":"Linux","password":true,"vac":true,"version":"7961495","steam_id":85568392924742824,"keywords":["nocrits","nodmgspread","payload","uncletopia"],"game_id":440,"stv_port":27036,"stv_name":"Uncletopia | San Francisco | 3 | Stopwatch | STV","players":null},{"server_id":20,"name":"Uncletopia | San Francisco | 4 | Community","name_short":"sfo-4","host":"sfo-1.us.uncletopia.com","port":27045,"enabled":true,"region":"us-west","cc":"us","latitude":37.77397,"longitude":-122.4313,"reserved":0,"last_update":"0001-01-01T00:00:00Z","name_a2s":"Uncletopia | San Francisco | 4 | Community","protocol":17,"map":"pl_pier","folder":"tf","game":"Team Fortress","app_id":440,"player_count":0,"max_players":24,"Bots":0,"server_type":"Dedicated","server_os":"Linux","password":true,"vac":true,"version":"7961495","steam_id":85568392924742826,"keywords":["nocrits","nodmgspread","payload","uncletopia"],"game_id":440,"stv_port":27046,"stv_name":"Uncletopia | San Francisco | 4 | Community | STV","players":null},{"server_id":141,"name":"Uncletopia | Sydney | 1 | All Maps","name_short":"syd-1","host":"syd-1.au.uncletopia.com","port":27015,"enabled":true,"region":"au","cc":"au","latitude":-33.865143,"longitude":151.2099,"reserved":0,"last_update":"0001-01-01T00:00:00Z","name_a2s":"Uncletopia | Sydney | 1 | All Maps","protocol":17,"map":"koth_lakeside_final","folder":"tf","game":"Team Fortress","app_id":440,"player_count":0,"max_players":24,"Bots":0,"server_type":"Dedicated","server_os":"Linux","password":true,"vac":true,"version":"7961495","steam_id":85568392924470001,"keywords":["cp","nocrits","nodmgspread","uncletopia"],"game_id":440,"stv_port":27016,"stv_name":"Uncletopia | Sydney | 1 | All Maps | STV","players":null},{"server_id":123,"name":"Uncletopia | Sydney | 2 | All Maps","name_short":"syd-2","host":"syd-1.au.uncletopia.com","port":27025,"enabled":true,"region":"au","cc":"au","latitude":-33.865143,"longitude":151.2099,"reserved":0,"last_update":"0001-01-01T00:00:00Z","name_a2s":"Uncletopia | Sydney | 2 | All Maps","protocol":17,"map":"koth_lakeside_final","folder":"tf","game":"Team Fortress","app_id":440,"player_count":0,"max_players":24,"Bots":0,"server_type":"Dedicated","server_os":"Linux","password":true,"vac":true,"version":"7961495","steam_id":85568392924470002,"keywords":["cp","nocrits","nodmgspread","uncletopia"],"game_id":440,"stv_port":27026,"stv_name":"Uncletopia | Sydney | 2 | All Maps | STV","players":null},{"server_id":395,"name":"Uncletopia | Sydney | 3 | All Maps","name_short":"syd-3","host":"syd-1.au.uncletopia.com","port":27035,"enabled":true,"region":"au","cc":"au","latitude":-33.865143,"longitude":151.2099,"reserved":0,"last_update":"0001-01-01T00:00:00Z","name_a2s":"Uncletopia | Sydney | 3 | All Maps","protocol":17,"map":"cp_dustbowl","folder":"tf","game":"Team Fortress","app_id":440,"player_count":0,"max_players":24,"Bots":0,"server_type":"Dedicated","server_os":"Linux","password":true,"vac":true,"version":"7961495","steam_id":85568392925194467,"keywords":["cp","nocrits","nodmgspread","uncletopia"],"game_id":440,"stv_port":27036,"stv_name":"Uncletopia | Sydney | 3 | All Maps | STV","players":null},{"server_id":396,"name":"Uncletopia | Sydney | 4 | All Maps","name_short":"syd-4","host":"syd-1.au.uncletopia.com","port":27045,"enabled":true,"region":"au","cc":"au","latitude":-33.865143,"longitude":151.2099,"reserved":0,"last_update":"0001-01-01T00:00:00Z","name_a2s":"Uncletopia | Sydney | 4 | All Maps","protocol":17,"map":"cp_sunshine","folder":"tf","game":"Team Fortress","app_id":440,"player_count":0,"max_players":24,"Bots":0,"server_type":"Dedicated","server_os":"Linux","password":true,"vac":true,"version":"7961495","steam_id":85568392925397958,"keywords":["cp","nocrits","nodmgspread","uncletopia"],"game_id":440,"stv_port":27046,"stv_name":"Uncletopia | Sydney | 4 | All Maps | STV","players":null},{"server_id":58,"name":"Uncletopia | Sydney | 5 | Stopwatch","name_short":"syd-5","host":"syd-1.au.uncletopia.com","port":27055,"enabled":true,"region":"au","cc":"au","latitude":-33.865143,"longitude":151.2099,"reserved":0,"last_update":"0001-01-01T00:00:00Z","name_a2s":"Uncletopia | Sydney | 5 | Stopwatch","protocol":17,"map":"workshop/koth_ashville_final.ugc2130459942","folder":"tf","game":"Team Fortress","app_id":440,"player_count":0,"max_players":24,"Bots":0,"server_type":"Dedicated","server_os":"Linux","password":true,"vac":true,"version":"7961495","steam_id":85568392925397959,"keywords":["cp","nocrits","nodmgspread","uncletopia"],"game_id":440,"stv_port":27056,"stv_name":"Uncletopia | Sydney | 5 | Stopwatch | STV","players":null},{"server_id":59,"name":"Uncletopia | Sydney | 6 | Community","name_short":"syd-6","host":"syd-1.au.uncletopia.com","port":27065,"enabled":true,"region":"au","cc":"au","latitude":-33.865143,"longitude":151.2099,"reserved":0,"last_update":"0001-01-01T00:00:00Z","name_a2s":"Uncletopia | Sydney | 6 | Community","protocol":17,"map":"workshop/koth_kemptown_rc1.ugc767410655","folder":"tf","game":"Team Fortress","app_id":440,"player_count":0,"max_players":24,"Bots":0,"server_type":"Dedicated","server_os":"Linux","password":true,"vac":true,"version":"7961495","steam_id":85568392925397960,"keywords":["cp","nocrits","nodmgspread","uncletopia"],"game_id":440,"stv_port":27066,"stv_name":"Uncletopia | Sydney | 6 | Community | STV","players":null},{"server_id":49,"name":"Uncletopia | Warsaw | 1 | All Maps","name_short":"waw-1","host":"waw-1.pl.uncletopia.com","port":27015,"enabled":true,"region":"eu","cc":"pl","latitude":52.2297,"longitude":21.017532,"reserved":0,"last_update":"0001-01-01T00:00:00Z","name_a2s":"Uncletopia | Warsaw | 1 | All Maps","protocol":17,"map":"koth_lakeside_final","folder":"tf","game":"Team Fortress","app_id":440,"player_count":2,"max_players":24,"Bots":0,"server_type":"Dedicated","server_os":"Linux","password":true,"vac":true,"version":"7961495","steam_id":85568392925397850,"keywords":["cp","nocrits","nodmgspread","uncletopia"],"game_id":440,"stv_port":27016,"stv_name":"Uncletopia | Warsaw | 1 | All Maps | STV","players":[{"user_id":11,"name":"CaptainGamer705","steam_id":76561199309598103,"connected_time":894000000000,"state":"active","ping":75},{"user_id":12,"name":"CaptainEcarlate","steam_id":76561198108031636,"connected_time":860000000000,"state":"active","ping":62}]},{"server_id":50,"name":"Uncletopia | Warsaw | 2 | All Maps","name_short":"waw-2","host":"waw-1.pl.uncletopia.com","port":27025,"enabled":true,"region":"eu","cc":"pl","latitude":52.2297,"longitude":21.017532,"reserved":0,"last_update":"0001-01-01T00:00:00Z","name_a2s":"Uncletopia | Warsaw | 2 | All Maps","protocol":17,"map":"cp_altitude","folder":"tf","game":"Team Fortress","app_id":440,"player_count":0,"max_players":24,"Bots":0,"server_type":"Dedicated","server_os":"Linux","password":true,"vac":true,"version":"7961495","steam_id":85568392925397851,"keywords":["cp","nocrits","nodmgspread","uncletopia"],"game_id":440,"stv_port":27026,"stv_name":"Uncletopia | Warsaw | 2 | All Maps | STV","players":null},{"server_id":51,"name":"Uncletopia | Warsaw | 3 | All Maps","name_short":"waw-3","host":"waw-1.pl.uncletopia.com","port":27035,"enabled":true,"region":"eu","cc":"pl","latitude":52.2297,"longitude":21.017532,"reserved":0,"last_update":"0001-01-01T00:00:00Z","name_a2s":"Uncletopia | Warsaw | 3 | All Maps","protocol":17,"map":"pl_frontier_final","folder":"tf","game":"Team Fortress","app_id":440,"player_count":24,"max_players":24,"Bots":0,"server_type":"Dedicated","server_os":"Linux","password":true,"vac":true,"version":"7961495","steam_id":85568392925397852,"keywords":["nocrits","nodmgspread","payload","uncletopia"],"game_id":440,"stv_port":27036,"stv_name":"Uncletopia | Warsaw | 3 | All Maps | STV","players":[{"user_id":222,"name":"rhean\u002621","steam_id":76561198389400021,"connected_time":3060000000000,"state":"active","ping":39},{"user_id":247,"name":"Diablo","steam_id":76561198054024627,"connected_time":974000000000,"state":"active","ping":77},{"user_id":244,"name":"meatsoupcube","steam_id":76561198276802249,"connected_time":1012000000000,"state":"active","ping":118},{"user_id":209,"name":"Baklava Enjoyer","steam_id":76561198990679631,"connected_time":3804000000000,"state":"active","ping":89},{"user_id":229,"name":"Pitsa","steam_id":76561198337250544,"connected_time":2379000000000,"state":"active","ping":108},{"user_id":245,"name":"Verggy","steam_id":76561198068565268,"connected_time":1005000000000,"state":"active","ping":66},{"user_id":246,"name":"Furno","steam_id":76561197999723047,"connected_time":1004000000000,"state":"active","ping":39},{"user_id":238,"name":"The Butterman#SaveTF2","steam_id":76561198065057086,"connected_time":1480000000000,"state":"active","ping":101},{"user_id":231,"name":"Asfalto","steam_id":76561199149972879,"connected_time":2261000000000,"state":"active","ping":76},{"user_id":232,"name":"stefanbejenari","steam_id":76561199466718294,"connected_time":2126000000000,"state":"active","ping":86},{"user_id":233,"name":"Agrume","steam_id":76561198066972234,"connected_time":1940000000000,"state":"active","ping":73},{"user_id":259,"name":"Keke","steam_id":76561198042032908,"connected_time":618000000000,"state":"active","ping":136},{"user_id":252,"name":"anabol1c steroids","steam_id":76561199470147761,"connected_time":817000000000,"state":"active","ping":149},{"user_id":248,"name":"Topool45","steam_id":76561199161389847,"connected_time":947000000000,"state":"active","ping":96},{"user_id":240,"name":"Bleh :P","steam_id":76561199277190318,"connected_time":1398000000000,"state":"active","ping":126},{"user_id":249,"name":"W.","steam_id":76561198097420050,"connected_time":915000000000,"state":"active","ping":73},{"user_id":250,"name":"chtibilouttes","steam_id":76561199084788915,"connected_time":887000000000,"state":"active","ping":71},{"user_id":251,"name":"ProZed_","steam_id":76561199099349636,"connected_time":851000000000,"state":"active","ping":79},{"user_id":253,"name":"Gruset","steam_id":76561198327512432,"connected_time":805000000000,"state":"active","ping":101},{"user_id":254,"name":"yep, gamer","steam_id":76561199069996202,"connected_time":779000000000,"state":"active","ping":59},{"user_id":255,"name":"go play rimworld","steam_id":76561199397932924,"connected_time":750000000000,"state":"active","ping":53},{"user_id":256,"name":"Yuzu","steam_id":76561198121694613,"connected_time":742000000000,"state":"active","ping":72},{"user_id":260,"name":"RoM6yK","steam_id":76561199129130375,"connected_time":198000000000,"state":"active","ping":82},{"user_id":258,"name":"niandits","steam_id":76561198419798900,"connected_time":684000000000,"state":"active","ping":143}]},{"server_id":52,"name":"Uncletopia | Warsaw | 4 | All Maps","name_short":"waw-4","host":"waw-1.pl.uncletopia.com","port":27045,"enabled":true,"region":"eu","cc":"pl","latitude":52.2297,"longitude":21.017532,"reserved":0,"last_update":"0001-01-01T00:00:00Z","name_a2s":"Uncletopia | Warsaw | 4 | All Maps","protocol":17,"map":"pl_upward","folder":"tf","game":"Team Fortress","app_id":440,"player_count":0,"max_players":24,"Bots":0,"server_type":"Dedicated","server_os":"Linux","password":true,"vac":true,"version":"7961495","steam_id":85568392925397853,"keywords":["nocrits","nodmgspread","payload","uncletopia"],"game_id":440,"stv_port":27046,"stv_name":"Uncletopia | Warsaw | 4 | All Maps | STV","players":null},{"server_id":53,"name":"Uncletopia | Warsaw | 5 | Stopwatch","name_short":"waw-5","host":"waw-1.pl.uncletopia.com","port":27055,"enabled":true,"region":"eu","cc":"pl","latitude":52.2297,"longitude":21.017532,"reserved":0,"last_update":"0001-01-01T00:00:00Z","name_a2s":"Uncletopia | Warsaw | 5 | Stopwatch","protocol":17,"map":"workshop/pl_vigil_rc10.ugc1266210012","folder":"tf","game":"Team Fortress","app_id":440,"player_count":0,"max_players":24,"Bots":0,"server_type":"Dedicated","server_os":"Linux","password":true,"vac":true,"version":"7961495","steam_id":85568392925397854,"keywords":["nocrits","nodmgspread","payload","uncletopia"],"game_id":440,"stv_port":27056,"stv_name":"Uncletopia | Warsaw | 5 | Stopwatch | STV","players":null},{"server_id":54,"name":"Uncletopia | Warsaw | 6 | Community","name_short":"waw-6","host":"waw-1.pl.uncletopia.com","port":27065,"enabled":true,"region":"eu","cc":"pl","latitude":52.2297,"longitude":21.017532,"reserved":0,"last_update":"0001-01-01T00:00:00Z","name_a2s":"Uncletopia | Warsaw | 6 | Community","protocol":17,"map":"workshop/cp_mannbase_rc2a.ugc1900737467","folder":"tf","game":"Team Fortress","app_id":440,"player_count":0,"max_players":24,"Bots":0,"server_type":"Dedicated","server_os":"Linux","password":true,"vac":true,"version":"7961495","steam_id":85568392925397856,"keywords":["cp","nocrits","nodmgspread","uncletopia"],"game_id":440,"stv_port":27066,"stv_name":"Uncletopia | Warsaw | 6 | Community | STV","players":null}]}