{"status":true,"message":"","result":[{"server_id":9,"name":"Uncletopia | Atlanta | 1 | All Maps","name_short":"atl-1","host":"atl-1.us.uncletopia.com","port":27015,"enabled":true,"region":"us-east","cc":"us","latitude":33.753746,"longitude":-84.38633,"reserved":0,"last_update":"0001-01-01T00:00:00Z","name_a2s":"Uncletopia | Atlanta | 1 | All Maps","protocol":17,"map":"pl_upward","folder":"tf","game":"Team Fortress","app_id":440,"player_count":19,"max_players":24,"Bots":0,"server_type":"Dedicated","server_os":"Linux","password":true,"vac":true,"version":"7882260","steam_id":85568392924469982,"keywords":["nocrits","nodmgspread","payload","uncletopia"],"game_id":440,"stv_port":27016,"stv_name":"Uncletopia | Atlanta | 1 | All Maps | STV","players":[{"user_id":397,"name":"Tator Tot","steam_id":76561198265472361,"connected_time":32000000000,"state":"spawning","ping":187},{"user_id":383,"name":"El Portel","steam_id":76561198076108055,"connected_time":948000000000,"state":"active","ping":175},{"user_id":387,"name":"\u003cTFF\u003e Gurn","steam_id":76561198011393367,"connected_time":837000000000,"state":"active","ping":69},{"user_id":396,"name":"i dig in the trash","steam_id":76561198277163301,"connected_time":236000000000,"state":"active","ping":157},{"user_id":398,"name":"zik","steam_id":76561198122186802,"connected_time":17000000000,"state":"active","ping":127},{"user_id":377,"name":"TheRealMud","steam_id":76561198138312993,"connected_time":1518000000000,"state":"spawning","ping":393},{"user_id":385,"name":"DEQUAVIS","steam_id":76561198843060075,"connected_time":931000000000,"state":"active","ping":154},{"user_id":391,"name":"Minion Fartly","steam_id":76561197987805095,"connected_time":525000000000,"state":"active","ping":215},{"user_id":393,"name":"GardenOfStone","steam_id":76561199069870534,"connected_time":455000000000,"state":"active","ping":111},{"user_id":370,"name":"Bubu!","steam_id":76561198188722751,"connected_time":2295000000000,"state":"active","ping":137},{"user_id":336,"name":"Big Mon","steam_id":76561198409907417,"connected_time":4813000000000,"state":"active","ping":124},{"user_id":395,"name":"footoftheday","steam_id":76561198052712449,"connected_time":314000000000,"state":"active","ping":90},{"user_id":376,"name":"how do i girl???","steam_id":76561198050290565,"connected_time":1727000000000,"state":"spawning","ping":303},{"user_id":394,"name":"FHC | Nyle","steam_id":76561198045652639,"connected_time":403000000000,"state":"spawning","ping":116},{"user_id":348,"name":"Crystron","steam_id":76561198880437428,"connected_time":4086000000000,"state":"active","ping":77},{"user_id":365,"name":"Raptortastic","steam_id":76561198105613110,"connected_time":2997000000000,"state":"active","ping":78},{"user_id":378,"name":"hippiejoe","steam_id":76561198861502756,"connected_time":1506000000000,"state":"spawning","ping":195},{"user_id":288,"name":"lukiepills","steam_id":76561199020587077,"connected_time":6389000000000,"state":"spawning","ping":67},{"user_id":380,"name":"Skinny Pete","steam_id":76561198801608576,"connected_time":1305000000000,"state":"spawning","ping":78}]},{"server_id":104,"name":"Uncletopia | Atlanta | 2 | All Maps","name_short":"atl-2","host":"atl-1.us.uncletopia.com","port":27025,"enabled":true,"region":"us-east","cc":"us","latitude":33.753746,"longitude":-84.38633,"reserved":0,"last_update":"0001-01-01T00:00:00Z","name_a2s":"Uncletopia | Atlanta | 2 | All Maps","protocol":17,"map":"pl_goldrush","folder":"tf","game":"Team Fortress","app_id":440,"player_count":23,"max_players":24,"Bots":0,"server_type":"Dedicated","server_os":"Linux","password":true,"vac":true,"version":"7882260","steam_id":85568392924469983,"keywords":["nocrits","nodmgspread","payload","uncletopia"],"game_id":440,"stv_port":27026,"stv_name":"Uncletopia | Atlanta | 2 | All Maps | STV","players":[{"user_id":276,"name":"Kairos Fateweaver","steam_id":76561198798483478,"connected_time":506000000000,"state":"active","ping":99},{"user_id":222,"name":"Ozi Tea","steam_id":76561199278187678,"connected_time":4384000000000,"state":"active","ping":78},{"user_id":137,"name":"[Reece]","steam_id":76561198076404892,"connected_time":11583000000000,"state":"active","ping":59},{"user_id":278,"name":"Triforce141","steam_id":76561198063896776,"connected_time":356000000000,"state":"active","ping":60},{"user_id":260,"name":"Depths","steam_id":76561198343435310,"connected_time":1698000000000,"state":"active","ping":124},{"user_id":169,"name":"FancyBones","steam_id":76561198180198885,"connected_time":8775000000000,"state":"active","ping":74},{"user_id":280,"name":"TF2C | fac","steam_id":76561198009818412,"connected_time":105000000000,"state":"active","ping":45},{"user_id":265,"name":"tulpa","steam_id":76561198013253513,"connected_time":1277000000000,"state":"active","ping":57},{"user_id":233,"name":"slowcore propaganda","steam_id":76561198354473513,"connected_time":4105000000000,"state":"active","ping":76},{"user_id":277,"name":"the guard","steam_id":76561198140030446,"connected_time":392000000000,"state":"active","ping":65},{"user_id":282,"name":"C^a^L","steam_id":76561198241124222,"connected_time":99000000000,"state":"active","ping":103},{"user_id":208,"name":"scarymanfunnynipples","steam_id":76561198057149957,"connected_time":6396000000000,"state":"active","ping":70},{"user_id":270,"name":"evanlittlejohn967","steam_id":76561198219770784,"connected_time":1028000000000,"state":"active","ping":97},{"user_id":220,"name":"ThreatLvl 9 (she/her)","steam_id":76561198079410533,"connected_time":4405000000000,"state":"active","ping":70},{"user_id":261,"name":"tux","steam_id":76561198167746330,"connected_time":1506000000000,"state":"active","ping":58},{"user_id":245,"name":"Wumbologist","steam_id":76561198188729514,"connected_time":3136000000000,"state":"active","ping":52},{"user_id":279,"name":"Snow‚òÜ","steam_id":76561198031290573,"connected_time":356000000000,"state":"active","ping":59},{"user_id":255,"name":"cass","steam_id":76561198074502046,"connected_time":2468000000000,"state":"active","ping":57},{"user_id":274,"name":"boppetson","steam_id":76561198073529045,"connected_time":967000000000,"state":"active","ping":57},{"user_id":231,"name":"‚ù§Niko_‚ù§","steam_id":76561198136323319,"connected_time":4329000000000,"state":"active","ping":70},{"user_id":281,"name":"Gustavo Fring","steam_id":76561198132807405,"connected_time":104000000000,"state":"active","ping":87},{"user_id":232,"name":"Atlas_Lifestyle","steam_id":76561199144528454,"connected_time":4198000000000,"state":"active","ping":73},{"user_id":256,"name":"LITCH","steam_id":76561198033075871,"connected_time":2465000000000,"state":"active","ping":110}]},{"server_id":400,"name":"Uncletopia | Atlanta | 3 | Community","name_short":"atl-3","host":"atl-1.us.uncletopia.com","port":27035,"enabled":true,"region":"us-east","cc":"us","latitude":33.753746,"longitude":-84.38633,"reserved":0,"last_update":"0001-01-01T00:00:00Z","name_a2s":"Uncletopia | Atlanta | 3 | Community","protocol":17,"map":"workshop/cp_croissant_final.ugc458840209","folder":"tf","game":"Team Fortress","app_id":440,"player_count":21,"max_players":24,"Bots":0,"server_type":"Dedicated","server_os":"Linux","password":true,"vac":true,"version":"7882260","steam_id":85568392924515187,"keywords":["cp","nocrits","nodmgspread","uncletopia"],"game_id":440,"stv_port":27036,"stv_name":"Uncletopia | Atlanta | 3 | Community | STV","players":[{"user_id":115,"name":"Toaster Strudel Enjoyer","steam_id":76561199048699541,"connected_time":388000000000,"state":"active","ping":57},{"user_id":116,"name":"Oopsie Daisy ‚ùã","steam_id":76561198042144492,"connected_time":318000000000,"state":"active","ping":57},{"user_id":97,"name":"Sergeant_Umbreon","steam_id":76561198084188758,"connected_time":1736000000000,"state":"active","ping":107},{"user_id":112,"name":"‚ô• memegamer23123 ‚ô•","steam_id":76561198048478450,"connected_time":902000000000,"state":"active","ping":65},{"user_id":28,"name":"sassy loli","steam_id":76561198402316065,"connected_time":4605000000000,"state":"active","ping":88},{"user_id":101,"name":"Verily","steam_id":76561198200558318,"connected_time":1533000000000,"state":"active","ping":63},{"user_id":74,"name":"raiden, squeeze my hog","steam_id":76561198138221795,"connected_time":2910000000000,"state":"active","ping":91},{"user_id":113,"name":"BeeseChurger","steam_id":76561198437900239,"connected_time":753000000000,"state":"active","ping":76},{"user_id":117,"name":"Mediocre Gaming","steam_id":76561199230467980,"connected_time":297000000000,"state":"active","ping":98},{"user_id":84,"name":"mu","steam_id":76561197997530228,"connected_time":2364000000000,"state":"active","ping":113},{"user_id":118,"name":"thanksgiving turkey","steam_id":76561198976876859,"connected_time":284000000000,"state":"active","ping":70},{"user_id":110,"name":"The Incredible Fem Boy","steam_id":76561198355754259,"connected_time":1049000000000,"state":"active","ping":83},{"user_id":121,"name":"melee fight me please","steam_id":76561198962808454,"connected_time":47000000000,"state":"active","ping":140},{"user_id":77,"name":"Rin \"Hindwing\" Redtail","steam_id":76561199074865638,"connected_time":2760000000000,"state":"active","ping":62},{"user_id":120,"name":"Musica Universalis","steam_id":76561198184794174,"connected_time":215000000000,"state":"active","ping":88},{"user_id":104,"name":"MINILEGOLAS","steam_id":76561198859362058,"connected_time":1449000000000,"state":"active","ping":98},{"user_id":114,"name":"swift","steam_id":76561198190461447,"connected_time":577000000000,"state":"active","ping":60},{"user_id":46,"name":"Dipdoof","steam_id":76561198077634776,"connected_time":4149000000000,"state":"active","ping":85},{"user_id":48,"name":"Syfun","steam_id":76561198042734428,"connected_time":4134000000000,"state":"active","ping":71},{"user_id":95,"name":"Idk","steam_id":76561198971629959,"connected_time":1986000000000,"state":"active","ping":118},{"user_id":90,"name":"schteewpid rat","steam_id":76561199262600666,"connected_time":2212000000000,"state":"active","ping":83}]},{"server_id":401,"name":"Uncletopia | Atlanta | 4 | No Payload","name_short":"atl-4","host":"atl-1.us.uncletopia.com","port":27045,"enabled":true,"region":"us-east","cc":"us","latitude":33.753746,"longitude":-84.38633,"reserved":0,"last_update":"0001-01-01T00:00:00Z","name_a2s":"","protocol":0,"map":"","folder":"","game":"","app_id":0,"player_count":0,"max_players":0,"Bots":0,"server_type":"","server_os":"","password":false,"vac":false,"version":"","steam_id":0,"keywords":null,"game_id":0,"stv_port":0,"stv_name":"","players":null},{"server_id":2,"name":"Uncletopia | Chicago | 1 | All Maps","name_short":"chi-1","host":"chi-1.us.uncletopia.com","port":27015,"enabled":true,"region":"us-central","cc":"us","latitude":41.881832,"longitude":-87.62318,"reserved":0,"last_update":"0001-01-01T00:00:00Z","name_a2s":"Uncletopia | Chicago | 1 | All Maps","protocol":17,"map":"pl_barnblitz","folder":"tf","game":"Team Fortress","app_id":440,"player_count":24,"max_players":24,"Bots":0,"server_type":"Dedicated","server_os":"Linux","password":true,"vac":true,"version":"7882260","steam_id":85568392924469984,"keywords":["nocrits","nodmgspread","payload","uncletopia"],"game_id":440,"stv_port":27016,"stv_name":"Uncletopia | Chicago | 1 | All Maps | STV","players":[{"user_id":490,"name":"|WS| Don't_Taze_Me_Bro","steam_id":76561198043289495,"connected_time":661000000000,"state":"active","ping":75},{"user_id":397,"name":"0","steam_id":76561198046055673,"connected_time":8938000000000,"state":"active","ping":77},{"user_id":479,"name":"Ras","steam_id":76561198123546775,"connected_time":1743000000000,"state":"active","ping":61},{"user_id":467,"name":"BNTF","steam_id":76561198062740087,"connected_time":3182000000000,"state":"active","ping":80},{"user_id":481,"name":"Floating Peasant","steam_id":76561198000183671,"connected_time":1718000000000,"state":"active","ping":60},{"user_id":494,"name":"hermit wizard","steam_id":76561198015156743,"connected_time":393000000000,"state":"active","ping":78},{"user_id":485,"name":"darkjustin54","steam_id":76561198060056280,"connected_time":1672000000000,"state":"active","ping":57},{"user_id":487,"name":"Ursus Ludius","steam_id":76561198025470722,"connected_time":1491000000000,"state":"active","ping":85},{"user_id":489,"name":"Noodle","steam_id":76561198040872617,"connected_time":776000000000,"state":"active","ping":100},{"user_id":495,"name":"TGD","steam_id":76561198197582594,"connected_time":360000000000,"state":"active","ping":45},{"user_id":331,"name":"Pocket Snipers","steam_id":76561198207987376,"connected_time":14802000000000,"state":"active","ping":65},{"user_id":477,"name":"AquaPhoenix","steam_id":76561198157474924,"connected_time":1846000000000,"state":"active","ping":55},{"user_id":480,"name":"Glue Gulper","steam_id":76561198158014525,"connected_time":1730000000000,"state":"active","ping":56},{"user_id":447,"name":"indi","steam_id":76561198045917538,"connected_time":4699000000000,"state":"active","ping":45},{"user_id":493,"name":"Minus273C","steam_id":76561197967510404,"connected_time":571000000000,"state":"active","ping":56},{"user_id":456,"name":"vv","steam_id":76561198134813102,"connected_time":3652000000000,"state":"active","ping":64},{"user_id":457,"name":"kyle","steam_id":76561198099970097,"connected_time":3576000000000,"state":"active","ping":82},{"user_id":459,"name":"[DATS‚û°] Sugar Meowth","steam_id":76561197995251793,"connected_time":3529000000000,"state":"active","ping":90},{"user_id":472,"name":"kermitcreeper(ZAZA)","steam_id":76561199222829972,"connected_time":2639000000000,"state":"active","ping":55},{"user_id":491,"name":"Hoop","steam_id":76561199124865843,"connected_time":633000000000,"state":"active","ping":65},{"user_id":492,"name":"Tyco","steam_id":76561197978414167,"connected_time":630000000000,"state":"active","ping":75},{"user_id":483,"name":"Person","steam_id":76561198093244204,"connected_time":1704000000000,"state":"active","ping":77},{"user_id":488,"name":"CuteWinFail","steam_id":76561198018801418,"connected_time":1447000000000,"state":"active","ping":90},{"user_id":484,"name":"Monster","steam_id":76561198189429665,"connected_time":1690000000000,"state":"active","ping":74}]},{"server_id":106,"name":"Uncletopia | Chicago | 2 | All Maps","name_short":"chi-2","host":"chi-1.us.uncletopia.com","port":27025,"enabled":true,"region":"us-central","cc":"us","latitude":41.881832,"longitude":-87.62318,"reserved":0,"last_update":"0001-01-01T00:00:00Z","name_a2s":"Uncletopia | Chicago | 2 | All Maps","protocol":17,"map":"pl_swiftwater_final1","folder":"tf","game":"Team Fortress","app_id":440,"player_count":24,"max_players":24,"Bots":0,"server_type":"Dedicated","server_os":"Linux","password":true,"vac":true,"version":"7882260","steam_id":85568392924469985,"keywords":["nocrits","nodmgspread","payload","uncletopia"],"game_id":440,"stv_port":27026,"stv_name":"Uncletopia | Chicago | 2 | All Maps | STV","players":[{"user_id":331,"name":"The Sheriff","steam_id":76561198930201233,"connected_time":703000000000,"state":"active","ping":92},{"user_id":324,"name":"Critscare","steam_id":76561198087712508,"connected_time":1345000000000,"state":"active","ping":45},{"user_id":322,"name":"Ping","steam_id":76561199206514106,"connected_time":1459000000000,"state":"active","ping":46},{"user_id":320,"name":"joemoe84g","steam_id":76561199141651280,"connected_time":1539000000000,"state":"active","ping":85},{"user_id":266,"name":"I Have A Name","steam_id":76561198011699246,"connected_time":4465000000000,"state":"active","ping":90},{"user_id":350,"name":"Doctobob","steam_id":76561198095283669,"connected_time":184000000000,"state":"active","ping":78},{"user_id":308,"name":"RyInc","steam_id":76561198874261643,"connected_time":2172000000000,"state":"active","ping":45},{"user_id":247,"name":"The Poop Dealer","steam_id":76561198141198352,"connected_time":5821000000000,"state":"active","ping":45},{"user_id":330,"name":"ÊàëÊùØÂ≠êÈáåÁöÑÊ≥•","steam_id":76561198081243580,"connected_time":819000000000,"state":"active","ping":61},{"user_id":355,"name":"Down.B","steam_id":76561198354849553,"connected_time":54000000000,"state":"active","ping":63},{"user_id":351,"name":"Blitzy","steam_id":76561198149472890,"connected_time":162000000000,"state":"active","ping":69},{"user_id":327,"name":"LerN","steam_id":76561198083463877,"connected_time":1145000000000,"state":"active","ping":46},{"user_id":317,"name":"xJEMAx","steam_id":76561198370956616,"connected_time":1702000000000,"state":"active","ping":85},{"user_id":352,"name":"bladees saddest, realest verse","steam_id":76561198098099826,"connected_time":152000000000,"state":"active","ping":90},{"user_id":313,"name":"viha4n","steam_id":76561199208867417,"connected_time":2080000000000,"state":"active","ping":106},{"user_id":278,"name":"Rukks","steam_id":76561197993918954,"connected_time":3466000000000,"state":"active","ping":90},{"user_id":353,"name":"badbadnotgood","steam_id":76561199132802395,"connected_time":131000000000,"state":"active","ping":121},{"user_id":318,"name":"xiii","steam_id":76561198079416036,"connected_time":1697000000000,"state":"active","ping":45},{"user_id":326,"name":"‚ñ≥","steam_id":76561198060642242,"connected_time":1241000000000,"state":"active","ping":80},{"user_id":354,"name":"Alice in Rubberland","steam_id":76561198087328346,"connected_time":126000000000,"state":"active","ping":45},{"user_id":328,"name":"Skellacat","steam_id":76561199090786845,"connected_time":1046000000000,"state":"active","ping":58},{"user_id":279,"name":"Xx_PR3TTY_R4VE_G!R1_xX","steam_id":76561199059016425,"connected_time":3411000000000,"state":"active","ping":58},{"user_id":348,"name":"freyja","steam_id":76561198249206656,"connected_time":347000000000,"state":"active","ping":75},{"user_id":252,"name":"Meh","steam_id":76561198078187920,"connected_time":5753000000000,"state":"active","ping":87}]},{"server_id":402,"name":"Uncletopia | Chicago | 3 | All Maps","name_short":"chi-3","host":"chi-1.us.uncletopia.com","port":27035,"enabled":true,"region":"us-central","cc":"us","latitude":41.881832,"longitude":-87.62318,"reserved":0,"last_update":"0001-01-01T00:00:00Z","name_a2s":"Uncletopia | Chicago | 3 | All Maps","protocol":17,"map":"pl_snowycoast","folder":"tf","game":"Team Fortress","app_id":440,"player_count":24,"max_players":24,"Bots":0,"server_type":"Dedicated","server_os":"Linux","password":true,"vac":true,"version":"7882260","steam_id":85568392924515191,"keywords":["nocrits","nodmgspread","payload","uncletopia"],"game_id":440,"stv_port":27036,"stv_name":"Uncletopia | Chicago | 3 | All Maps | STV","players":[{"user_id":591,"name":"RiverEgg","steam_id":76561198888913405,"connected_time":1066000000000,"state":"active","ping":55},{"user_id":558,"name":"Lord TriM","steam_id":76561198048332533,"connected_time":3546000000000,"state":"active","ping":60},{"user_id":594,"name":"demoknight tf2","steam_id":76561198070393998,"connected_time":97000000000,"state":"active","ping":62},{"user_id":553,"name":"gamingGengar602","steam_id":76561199453140907,"connected_time":3823000000000,"state":"active","ping":57},{"user_id":595,"name":"BigDeac","steam_id":76561198091237274,"connected_time":90000000000,"state":"active","ping":56},{"user_id":488,"name":"tacofever","steam_id":76561198010966507,"connected_time":8580000000000,"state":"active","ping":103},{"user_id":590,"name":"CyberZayne","steam_id":76561198002351356,"connected_time":1117000000000,"state":"active","ping":84},{"user_id":593,"name":"wisin y yandel","steam_id":76561198860460013,"connected_time":116000000000,"state":"active","ping":100},{"user_id":573,"name":"2JZ_","steam_id":76561198064027289,"connected_time":2301000000000,"state":"active","ping":81},{"user_id":588,"name":"Crimson_Red_626","steam_id":76561198083923361,"connected_time":1458000000000,"state":"active","ping":57},{"user_id":579,"name":"kab789","steam_id":76561198069842202,"connected_time":2242000000000,"state":"active","ping":65},{"user_id":596,"name":"The Eyeball Man","steam_id":76561198013534207,"connected_time":58000000000,"state":"active","ping":62},{"user_id":575,"name":"B·µ¢g B‚Çí‚Çõ‚Çõ","steam_id":76561198090271815,"connected_time":2279000000000,"state":"active","ping":144},{"user_id":592,"name":"ki","steam_id":76561198277979851,"connected_time":121000000000,"state":"active","ping":79},{"user_id":585,"name":"TF2 need a sex update","steam_id":76561199103964705,"connected_time":1930000000000,"state":"active","ping":116},{"user_id":583,"name":"Turkeybark","steam_id":76561198054408413,"connected_time":2020000000000,"state":"active","ping":90},{"user_id":555,"name":"aleph LFT","steam_id":76561197978531382,"connected_time":3753000000000,"state":"active","ping":68},{"user_id":597,"name":"X-800","steam_id":76561199077437718,"connected_time":55000000000,"state":"active","ping":116},{"user_id":598,"name":"Bread Zoo","steam_id":76561198013732450,"connected_time":50000000000,"state":"active","ping":53},{"user_id":507,"name":"ArnoldGamingÔæ†Ÿ¥","steam_id":76561198040140247,"connected_time":7292000000000,"state":"active","ping":116},{"user_id":589,"name":"Mori","steam_id":76561198071100757,"connected_time":1122000000000,"state":"active","ping":86},{"user_id":599,"name":"YoursTruly","steam_id":76561199102839784,"connected_time":29000000000,"state":"spawning","ping":126},{"user_id":559,"name":"looloopaa","steam_id":76561198048179242,"connected_time":3417000000000,"state":"active","ping":57},{"user_id":540,"name":"Wert","steam_id":76561198368345693,"connected_time":4257000000000,"state":"active","ping":69}]},{"server_id":403,"name":"Uncletopia | Chicago | 4 | All Maps","name_short":"chi-4","host":"chi-1.us.uncletopia.com","port":27045,"enabled":true,"region":"us-central","cc":"us","latitude":41.881832,"longitude":-87.62318,"reserved":0,"last_update":"0001-01-01T00:00:00Z","name_a2s":"Uncletopia | Chicago | 4 | All Maps","protocol":17,"map":"pl_upward","folder":"tf","game":"Team Fortress","app_id":440,"player_count":23,"max_players":24,"Bots":0,"server_type":"Dedicated","server_os":"Linux","password":true,"vac":true,"version":"7882260","steam_id":85568392924515193,"keywords":["nocrits","nodmgspread","payload","uncletopia"],"game_id":440,"stv_port":27046,"stv_name":"Uncletopia | Chicago | 4 | All Maps | STV","players":[{"user_id":445,"name":"BielFM","steam_id":76561198311095889,"connected_time":1054000000000,"state":"active","ping":173},{"user_id":457,"name":"go touch keyboard","steam_id":76561198197388678,"connected_time":517000000000,"state":"active","ping":90},{"user_id":444,"name":"STONKS (she/they)","steam_id":76561198965475199,"connected_time":1069000000000,"state":"active","ping":67},{"user_id":424,"name":"reallyfriendly","steam_id":76561197996819313,"connected_time":2798000000000,"state":"active","ping":73},{"user_id":464,"name":"cornealvase9152","steam_id":76561198851958868,"connected_time":50000000000,"state":"active","ping":97},{"user_id":384,"name":"crashymicsplody","steam_id":76561198213916765,"connected_time":6401000000000,"state":"active","ping":70},{"user_id":376,"name":"[El Fail] MR.BadassMCLee","steam_id":76561198043787818,"connected_time":6689000000000,"state":"active","ping":121},{"user_id":448,"name":"Asian_Pickle","steam_id":76561198983999803,"connected_time":950000000000,"state":"active","ping":102},{"user_id":462,"name":"Smalls","steam_id":76561198046081504,"connected_time":224000000000,"state":"active","ping":67},{"user_id":451,"name":"gingledoof","steam_id":76561198186463646,"connected_time":762000000000,"state":"active","ping":121},{"user_id":459,"name":"Phone","steam_id":76561198334357092,"connected_time":331000000000,"state":"active","ping":69},{"user_id":461,"name":"Mkwhackertracker","steam_id":76561198128343704,"connected_time":261000000000,"state":"active","ping":66},{"user_id":465,"name":"Doubting Dave","steam_id":76561198066410749,"connected_time":48000000000,"state":"active","ping":74},{"user_id":428,"name":"Take the L","steam_id":76561198379223875,"connected_time":2405000000000,"state":"active","ping":70},{"user_id":456,"name":"Ibrahim","steam_id":76561198028320625,"connected_time":663000000000,"state":"active","ping":68},{"user_id":425,"name":"frank","steam_id":76561198137777483,"connected_time":2711000000000,"state":"active","ping":61},{"user_id":455,"name":"MoldyCoffee936","steam_id":76561198099061153,"connected_time":680000000000,"state":"active","ping":100},{"user_id":466,"name":"CHIKN","steam_id":76561198277792665,"connected_time":4000000000,"state":"spawning","ping":104},{"user_id":453,"name":"SUPREME CHAMPION","steam_id":76561198072112905,"connected_time":744000000000,"state":"active","ping":56},{"user_id":458,"name":"steven","steam_id":76561198173047169,"connected_time":371000000000,"state":"active","ping":62},{"user_id":454,"name":"FWWM","steam_id":76561198387852168,"connected_time":736000000000,"state":"active","ping":61},{"user_id":449,"name":"Jobius","steam_id":76561198145561348,"connected_time":949000000000,"state":"active","ping":71},{"user_id":460,"name":"Captain Baxter","steam_id":76561198100587328,"connected_time":330000000000,"state":"active","ping":87}]},{"server_id":36,"name":"Uncletopia | Chicago | 5 | All Maps","name_short":"chi-5","host":"chi-2.us.uncletopia.com","port":27015,"enabled":true,"region":"us-central","cc":"us","latitude":41.881832,"longitude":-87.62318,"reserved":0,"last_update":"0001-01-01T00:00:00Z","name_a2s":"Uncletopia | Chicago | 5 | All Maps","protocol":17,"map":"pl_pier","folder":"tf","game":"Team Fortress","app_id":440,"player_count":24,"max_players":24,"Bots":0,"server_type":"Dedicated","server_os":"Linux","password":true,"vac":true,"version":"7882260","steam_id":85568392924866362,"keywords":["nocrits","nodmgspread","payload","uncletopia"],"game_id":440,"stv_port":27016,"stv_name":"Uncletopia | Chicago | 5 | All Maps | STV","players":[{"user_id":502,"name":"yogrrt","steam_id":76561198012510968,"connected_time":443000000000,"state":"active","ping":56},{"user_id":490,"name":"CryshireWithAK","steam_id":76561198857908089,"connected_time":1844000000000,"state":"active","ping":82},{"user_id":492,"name":"nhbiker","steam_id":76561198081277675,"connected_time":1249000000000,"state":"active","ping":59},{"user_id":354,"name":"Kurt Biscuitmaker","steam_id":76561198331701823,"connected_time":7412000000000,"state":"active","ping":85},{"user_id":467,"name":"Kedata","steam_id":76561198047750050,"connected_time":2640000000000,"state":"active","ping":45},{"user_id":455,"name":"Trox","steam_id":76561198263581464,"connected_time":3131000000000,"state":"active","ping":78},{"user_id":504,"name":"thedoud1201","steam_id":76561199007734851,"connected_time":269000000000,"state":"active","ping":88},{"user_id":305,"name":"PerliousFalcon","steam_id":76561198124801907,"connected_time":10313000000000,"state":"active","ping":103},{"user_id":487,"name":"Squid","steam_id":76561199200296010,"connected_time":1938000000000,"state":"active","ping":87},{"user_id":441,"name":"Deltaco","steam_id":76561198094572694,"connected_time":4056000000000,"state":"active","ping":109},{"user_id":449,"name":"CinnamonBoy","steam_id":76561198882330338,"connected_time":3218000000000,"state":"active","ping":70},{"user_id":507,"name":"gabaghoulio","steam_id":76561198013650292,"connected_time":28000000000,"state":"spawning","ping":113},{"user_id":499,"name":"Flashtasm","steam_id":76561198026635660,"connected_time":640000000000,"state":"active","ping":61},{"user_id":450,"name":"trashbro","steam_id":76561199417993197,"connected_time":3217000000000,"state":"active","ping":105},{"user_id":500,"name":"AnArrow2TheKnee","steam_id":76561199025003642,"connected_time":633000000000,"state":"active","ping":89},{"user_id":501,"name":"First Aid","steam_id":76561198098190660,"connected_time":630000000000,"state":"active","ping":76},{"user_id":465,"name":"J1407B","steam_id":76561199003447981,"connected_time":2766000000000,"state":"active","ping":130},{"user_id":508,"name":"Stormz64(But weezer)","steam_id":76561198239036482,"connected_time":11000000000,"state":"spawning","ping":34},{"user_id":479,"name":"wildpiercy","steam_id":76561198067760414,"connected_time":2230000000000,"state":"active","ping":108},{"user_id":483,"name":"Dylanardo","steam_id":76561198294726950,"connected_time":2123000000000,"state":"active","ping":82},{"user_id":481,"name":"B.","steam_id":76561198040445907,"connected_time":2198000000000,"state":"active","ping":74},{"user_id":484,"name":"Peepster","steam_id":76561198297854733,"connected_time":2109000000000,"state":"active","ping":73},{"user_id":491,"name":"Tick","steam_id":76561198184161214,"connected_time":1414000000000,"state":"active","ping":44},{"user_id":506,"name":"JohnnyGitGud","steam_id":76561198401455467,"connected_time":244000000000,"state":"active","ping":119}]},{"server_id":37,"name":"Uncletopia | Chicago | 6 | All Maps","name_short":"chi-6","host":"chi-2.us.uncletopia.com","port":27025,"enabled":true,"region":"us-central","cc":"us","latitude":41.881832,"longitude":-87.62318,"reserved":0,"last_update":"0001-01-01T00:00:00Z","name_a2s":"Uncletopia | Chicago | 6 | All Maps","protocol":17,"map":"pl_badwater","folder":"tf","game":"Team Fortress","app_id":440,"player_count":18,"max_players":24,"Bots":0,"server_type":"Dedicated","server_os":"Linux","password":true,"vac":true,"version":"7882260","steam_id":85568392924866363,"keywords":["nocrits","nodmgspread","payload","uncletopia"],"game_id":440,"stv_port":27026,"stv_name":"Uncletopia | Chicago | 6 | All Maps | STV","players":[{"user_id":196,"name":"Rukh","steam_id":76561197999361315,"connected_time":1955000000000,"state":"active","ping":97},{"user_id":213,"name":"hoboways","steam_id":76561198168035195,"connected_time":685000000000,"state":"active","ping":78},{"user_id":218,"name":"Poof","steam_id":76561199025247812,"connected_time":429000000000,"state":"active","ping":89},{"user_id":191,"name":"silly little scallywag","steam_id":76561198433291893,"connected_time":2024000000000,"state":"active","ping":64},{"user_id":215,"name":"V!CT!M","steam_id":76561198962721502,"connected_time":538000000000,"state":"active","ping":82},{"user_id":224,"name":"Raggy_Gnome","steam_id":76561198040020343,"connected_time":82000000000,"state":"active","ping":59},{"user_id":216,"name":"Kdash","steam_id":76561198043829155,"connected_time":521000000000,"state":"active","ping":80},{"user_id":223,"name":"Blud done walked 0 miles","steam_id":76561199285074344,"connected_time":138000000000,"state":"active","ping":107},{"user_id":221,"name":"communist waluigi","steam_id":76561199215138613,"connected_time":293000000000,"state":"active","ping":284},{"user_id":225,"name":"bob","steam_id":76561198878005062,"connected_time":48000000000,"state":"active","ping":462},{"user_id":170,"name":"-|Kappin'|- ExplosiveDiahrea","steam_id":76561198017045020,"connected_time":3823000000000,"state":"active","ping":73},{"user_id":145,"name":"jstn","steam_id":76561198845283665,"connected_time":5426000000000,"state":"active","ping":69},{"user_id":171,"name":"-|Kappin'|- Kilbo Fraggins‚Ñ¢","steam_id":76561197994725498,"connected_time":3816000000000,"state":"active","ping":55},{"user_id":217,"name":"Spicy Mcgee","steam_id":76561198072237373,"connected_time":512000000000,"state":"active","ping":99},{"user_id":105,"name":"seldom","steam_id":76561198166193756,"connected_time":8575000000000,"state":"active","ping":50},{"user_id":212,"name":"Fatcat.win(false) ;","steam_id":76561198069007806,"connected_time":800000000000,"state":"active","ping":64},{"user_id":209,"name":"Osrio","steam_id":76561198083428069,"connected_time":1099000000000,"state":"active","ping":88},{"user_id":214,"name":"off a (laced) perc","steam_id":76561198414948037,"connected_time":665000000000,"state":"active","ping":73}]},{"server_id":38,"name":"Uncletopia | Chicago | 7 | Stopwatch Beta","name_short":"chi-7","host":"chi-2.us.uncletopia.com","port":27035,"enabled":true,"region":"us-central","cc":"us","latitude":41.881832,"longitude":-87.62318,"reserved":0,"last_update":"0001-01-01T00:00:00Z","name_a2s":"Uncletopia | Chicago | 7 | Stopwatch Beta","protocol":17,"map":"workshop/koth_ashville_final.ugc2130459942","folder":"tf","game":"Team Fortress","app_id":440,"player_count":0,"max_players":24,"Bots":0,"server_type":"Dedicated","server_os":"Linux","password":true,"vac":true,"version":"7882260","steam_id":85568392924866364,"keywords":["cp","nocrits","nodmgspread","uncletopia"],"game_id":440,"stv_port":27036,"stv_name":"Uncletopia | Chicago | 7 | Stopwatch Beta | STV","players":null},{"server_id":39,"name":"Uncletopia | Chicago | 8 | Community","name_short":"chi-8","host":"chi-2.us.uncletopia.com","port":27045,"enabled":true,"region":"us-central","cc":"us","latitude":41.881832,"longitude":-87.62318,"reserved":0,"last_update":"0001-01-01T00:00:00Z","name_a2s":"Uncletopia | Chicago | 8 | Community","protocol":17,"map":"workshop/cp_propaganda_b18.ugc1603743849","folder":"tf","game":"Team Fortress","app_id":440,"player_count":24,"max_players":24,"Bots":0,"server_type":"Dedicated","server_os":"Linux","password":true,"vac":true,"version":"7882260","steam_id":85568392924866365,"keywords":["cp","nocrits","nodmgspread","uncletopia"],"game_id":440,"stv_port":27046,"stv_name":"Uncletopia | Chicago | 8 | Community | STV","players":[{"user_id":393,"name":"Shadow WIZARD MoneyGang","steam_id":76561197986051713,"connected_time":2405000000000,"state":"active","ping":84},{"user_id":394,"name":"I bet he couldn't beat Goku","steam_id":76561198030291655,"connected_time":2384000000000,"state":"active","ping":62},{"user_id":435,"name":"Yosh","steam_id":76561198027078899,"connected_time":263000000000,"state":"active","ping":75},{"user_id":395,"name":"[hammer]DMX","steam_id":76561198033476718,"connected_time":2283000000000,"state":"active","ping":178},{"user_id":415,"name":"St. Michael","steam_id":76561198037611052,"connected_time":1183000000000,"state":"active","ping":63},{"user_id":396,"name":"babashi boolbaba","steam_id":76561197972601902,"connected_time":2277000000000,"state":"active","ping":90},{"user_id":434,"name":"Rhino Beetle","steam_id":76561198830083719,"connected_time":412000000000,"state":"active","ping":79},{"user_id":388,"name":"CrescendoFuri","steam_id":76561198115904902,"connected_time":3075000000000,"state":"active","ping":71},{"user_id":419,"name":"bojack from the show bojack hor","steam_id":76561198053006712,"connected_time":972000000000,"state":"active","ping":60},{"user_id":430,"name":"Alien_Skull","steam_id":76561199218920647,"connected_time":606000000000,"state":"active","ping":91},{"user_id":364,"name":"Aeonspassed","steam_id":76561198014016451,"connected_time":4669000000000,"state":"active","ping":54},{"user_id":414,"name":"smash2tec","steam_id":76561199171564052,"connected_time":1256000000000,"state":"active","ping":101},{"user_id":404,"name":"GoldtoothFour","steam_id":76561198055529332,"connected_time":1739000000000,"state":"active","ping":55},{"user_id":432,"name":"[TF2Apples] Intense Green Apple","steam_id":76561198803561622,"connected_time":538000000000,"state":"active","ping":87},{"user_id":417,"name":"WhenImMadYOU!","steam_id":76561198072432944,"connected_time":1157000000000,"state":"active","ping":56},{"user_id":418,"name":"Manic Lunatic","steam_id":76561199022053857,"connected_time":1066000000000,"state":"active","ping":72},{"user_id":399,"name":"Armer_Doggo73","steam_id":76561198872424903,"connected_time":2124000000000,"state":"active","ping":72},{"user_id":433,"name":"Luck","steam_id":76561199122232082,"connected_time":511000000000,"state":"active","ping":83},{"user_id":405,"name":"SortOfABigDeal","steam_id":76561198323397375,"connected_time":1728000000000,"state":"active","ping":84},{"user_id":410,"name":"Pan The Sheep","steam_id":76561198817515534,"connected_time":1475000000000,"state":"active","ping":93},{"user_id":436,"name":"Temujin","steam_id":76561198030936583,"connected_time":111000000000,"state":"active","ping":60},{"user_id":386,"name":"‚ù§[CandySwirl]‚ù§","steam_id":76561198817361963,"connected_time":3572000000000,"state":"active","ping":105},{"user_id":426,"name":"Speedy","steam_id":76561198080761661,"connected_time":679000000000,"state":"active","ping":78},{"user_id":390,"name":"Gangrene","steam_id":76561198093362668,"connected_time":2979000000000,"state":"active","ping":82}]},{"server_id":8,"name":"Uncletopia | Dallas | 1 | All Maps","name_short":"dal-1","host":"dal-1.us.uncletopia.com","port":27015,"enabled":true,"region":"us-central","cc":"us","latitude":32.779167,"longitude":-96.80889,"reserved":0,"last_update":"0001-01-01T00:00:00Z","name_a2s":"Uncletopia | Dallas | 1 | All Maps","protocol":17,"map":"koth_king","folder":"tf","game":"Team Fortress","app_id":440,"player_count":23,"max_players":24,"Bots":0,"server_type":"Dedicated","server_os":"Linux","password":true,"vac":true,"version":"7882260","steam_id":85568392924469986,"keywords":["cp","nocrits","nodmgspread","uncletopia"],"game_id":440,"stv_port":27016,"stv_name":"Uncletopia | Dallas | 1 | All Maps | STV","players":[{"user_id":479,"name":"Certified Hood Classic","steam_id":76561199086159354,"connected_time":34000000000,"state":"connecting","ping":70},{"user_id":480,"name":"Miro","steam_id":76561198936412406,"connected_time":4000000000,"state":"connecting","ping":167},{"user_id":338,"name":"J.G. Klaus","steam_id":76561198001111196,"connected_time":9987000000000,"state":"connecting","ping":65},{"user_id":462,"name":"Leafpool Enjoyer (Warrior Cats)","steam_id":76561198123549027,"connected_time":1149000000000,"state":"connecting","ping":60},{"user_id":476,"name":"Wolverine Fingerblaster","steam_id":76561198095394582,"connected_time":266000000000,"state":"connecting","ping":63},{"user_id":376,"name":"Optimore","steam_id":76561198047662990,"connected_time":8165000000000,"state":"connecting","ping":90},{"user_id":429,"name":"Bogey","steam_id":76561198096227944,"connected_time":3454000000000,"state":"connecting","ping":60},{"user_id":470,"name":"DOMCLASS","steam_id":76561199013705323,"connected_time":710000000000,"state":"connecting","ping":71},{"user_id":478,"name":"SomeFuckingGuy #SAVETF2","steam_id":76561199239165015,"connected_time":242000000000,"state":"connecting","ping":133},{"user_id":463,"name":"blunderly","steam_id":76561198131915334,"connected_time":1148000000000,"state":"connecting","ping":62},{"user_id":393,"name":"Apollo","steam_id":76561198162364702,"connected_time":7731000000000,"state":"connecting","ping":117},{"user_id":455,"name":"Your Local Pocket medic","steam_id":76561199160807914,"connected_time":1326000000000,"state":"connecting","ping":85},{"user_id":474,"name":"redrider1456","steam_id":76561198135104053,"connected_time":611000000000,"state":"connecting","ping":112},{"user_id":448,"name":"donkey kong master","steam_id":76561198142732734,"connected_time":2167000000000,"state":"connecting","ping":79},{"user_id":466,"name":"Oceandusk","steam_id":76561198263047409,"connected_time":1107000000000,"state":"connecting","ping":81},{"user_id":475,"name":"NOT Susie Deltarune (not real)","steam_id":76561199007365488,"connected_time":601000000000,"state":"connecting","ping":70},{"user_id":467,"name":"tum","steam_id":76561198084712019,"connected_time":909000000000,"state":"connecting","ping":95},{"user_id":399,"name":"TechnoBear2099","steam_id":76561198238863596,"connected_time":7475000000000,"state":"connecting","ping":67},{"user_id":436,"name":"A Straw","steam_id":76561199367935846,"connected_time":3083000000000,"state":"connecting","ping":74},{"user_id":394,"name":"iaPK","steam_id":76561198056618642,"connected_time":7731000000000,"state":"connecting","ping":66},{"user_id":459,"name":"CampinCarl","steam_id":76561197997373624,"connected_time":1239000000000,"state":"connecting","ping":101}]},{"server_id":108,"name":"Uncletopia | Dallas | 2 | All Maps","name_short":"dal-2","host":"dal-1.us.uncletopia.com","port":27025,"enabled":true,"region":"us-central","cc":"us","latitude":32.779167,"longitude":-96.80889,"reserved":0,"last_update":"0001-01-01T00:00:00Z","name_a2s":"Uncletopia | Dallas | 2 | All Maps","protocol":17,"map":"pl_hoodoo_final","folder":"tf","game":"Team Fortress","app_id":440,"player_count":22,"max_players":24,"Bots":0,"server_type":"Dedicated","server_os":"Linux","password":true,"vac":true,"version":"7882260","steam_id":85568392924469988,"keywords":["nocrits","nodmgspread","payload","uncletopia"],"game_id":440,"stv_port":27026,"stv_name":"Uncletopia | Dallas | 2 | All Maps | STV","players":[{"user_id":311,"name":"cactus eater","steam_id":76561199107499844,"connected_time":3128000000000,"state":"active","ping":87},{"user_id":345,"name":"BigPimpin","steam_id":76561198119549348,"connected_time":45000000000,"state":"active","ping":45},{"user_id":252,"name":"Elena Manetta","steam_id":76561197998344054,"connected_time":8398000000000,"state":"active","ping":75},{"user_id":324,"name":"Beelthazus","steam_id":76561198127783432,"connected_time":2461000000000,"state":"active","ping":81},{"user_id":227,"name":"bolainassr0","steam_id":76561199079078845,"connected_time":10427000000000,"state":"active","ping":84},{"user_id":314,"name":"mushroom taco","steam_id":76561198097554694,"connected_time":3071000000000,"state":"active","ping":44},{"user_id":306,"name":"Superman123389","steam_id":76561198267472539,"connected_time":3575000000000,"state":"active","ping":88},{"user_id":331,"name":"wokky bin laddn","steam_id":76561198265200834,"connected_time":2165000000000,"state":"active","ping":75},{"user_id":290,"name":"pel","steam_id":76561198021224745,"connected_time":6405000000000,"state":"active","ping":74},{"user_id":309,"name":"Angel_Bonnie","steam_id":76561199229447760,"connected_time":3357000000000,"state":"active","ping":94},{"user_id":294,"name":"Cofi","steam_id":76561199026721822,"connected_time":5339000000000,"state":"active","ping":91},{"user_id":346,"name":"BIg HOT sweaty","steam_id":76561198308602486,"connected_time":30000000000,"state":"active","ping":44},{"user_id":255,"name":"minty","steam_id":76561198096347625,"connected_time":8345000000000,"state":"active","ping":75},{"user_id":321,"name":"Mem","steam_id":76561198170391715,"connected_time":2549000000000,"state":"active","ping":88},{"user_id":347,"name":"Legit_Jaxer","steam_id":76561198172234053,"connected_time":26000000000,"state":"active","ping":84},{"user_id":342,"name":"The Green Team Pyro","steam_id":76561198883590919,"connected_time":634000000000,"state":"active","ping":60},{"user_id":315,"name":"HAT-WEARING‚Ñ¢ Maggot Gamer Cat","steam_id":76561197973992705,"connected_time":3049000000000,"state":"active","ping":92},{"user_id":295,"name":"ilady","steam_id":76561198139802458,"connected_time":5184000000000,"state":"active","ping":80},{"user_id":317,"name":"Jrock","steam_id":76561198045715996,"connected_time":2829000000000,"state":"active","ping":101},{"user_id":338,"name":"Fish","steam_id":76561199016308078,"connected_time":725000000000,"state":"active","ping":90},{"user_id":343,"name":"Shylo","steam_id":76561199276858045,"connected_time":442000000000,"state":"active","ping":58},{"user_id":264,"name":"Cat","steam_id":76561198191887141,"connected_time":8063000000000,"state":"active","ping":94}]},{"server_id":5,"name":"Uncletopia | Frankfurt | 1 | All Maps","name_short":"frk-1","host":"frk-1.de.uncletopia.com","port":27015,"enabled":true,"region":"eu","cc":"de","latitude":50.110924,"longitude":8.682127,"reserved":0,"last_update":"0001-01-01T00:00:00Z","name_a2s":"Uncletopia | Frankfurt | 1 | All Maps","protocol":17,"map":"pl_swiftwater_final1","folder":"tf","game":"Team Fortress","app_id":440,"player_count":6,"max_players":24,"Bots":0,"server_type":"Dedicated","server_os":"Linux","password":true,"vac":true,"version":"7882260","steam_id":85568392924469989,"keywords":["nocrits","nodmgspread","payload","uncletopia"],"game_id":440,"stv_port":27016,"stv_name":"Uncletopia | Frankfurt | 1 | All Maps | STV","players":[{"user_id":783,"name":"Chucky.","steam_id":76561197969361063,"connected_time":221000000000,"state":"active","ping":79},{"user_id":773,"name":"Well-seasoned mokI","steam_id":76561198964028825,"connected_time":2159000000000,"state":"active","ping":61},{"user_id":779,"name":"Rez","steam_id":76561198410598772,"connected_time":821000000000,"state":"active","ping":54},{"user_id":765,"name":"iDUARD","steam_id":76561198853362966,"connected_time":4660000000000,"state":"active","ping":73},{"user_id":766,"name":"Kjat","steam_id":76561198839433592,"connected_time":4559000000000,"state":"active","ping":45},{"user_id":782,"name":"James Bong","steam_id":76561198297199093,"connected_time":605000000000,"state":"active","ping":89}]},{"server_id":110,"name":"Uncletopia | Frankfurt | 2 | All Maps","name_short":"frk-2","host":"frk-1.de.uncletopia.com","port":27025,"enabled":true,"region":"eu","cc":"de","latitude":50.110924,"longitude":8.682127,"reserved":0,"last_update":"0001-01-01T00:00:00Z","name_a2s":"Uncletopia | Frankfurt | 2 | All Maps","protocol":17,"map":"koth_highpass","folder":"tf","game":"Team Fortress","app_id":440,"player_count":0,"max_players":24,"Bots":0,"server_type":"Dedicated","server_os":"Linux","password":true,"vac":true,"version":"7882260","steam_id":85568392924469990,"keywords":["cp","nocrits","nodmgspread","uncletopia"],"game_id":440,"stv_port":27026,"stv_name":"Uncletopia | Frankfurt | 2 | All Maps | STV","players":null},{"server_id":308,"name":"Uncletopia | Frankfurt | 3 | All Maps","name_short":"frk-3","host":"frk-1.de.uncletopia.com","port":27035,"enabled":true,"region":"eu","cc":"de","latitude":50.110924,"longitude":8.682127,"reserved":0,"last_update":"0001-01-01T00:00:00Z","name_a2s":"Uncletopia | Frankfurt | 3 | All Maps","protocol":17,"map":"pl_barnblitz","folder":"tf","game":"Team Fortress","app_id":440,"player_count":0,"max_players":24,"Bots":0,"server_type":"Dedicated","server_os":"Linux","password":true,"vac":true,"version":"7882260","steam_id":85568392924504274,"keywords":["nocrits","nodmgspread","payload","uncletopia"],"game_id":440,"stv_port":27036,"stv_name":"Uncletopia | Frankfurt | 3 | All Maps | STV","players":null},{"server_id":309,"name":"Uncletopia | Frankfurt | 4 | All Maps","name_short":"frk-4","host":"frk-1.de.uncletopia.com","port":27045,"enabled":true,"region":"eu","cc":"de","latitude":50.110924,"longitude":8.682127,"reserved":0,"last_update":"0001-01-01T00:00:00Z","name_a2s":"Uncletopia | Frankfurt | 4 | All Maps","protocol":17,"map":"pl_pier","folder":"tf","game":"Team Fortress","app_id":440,"player_count":24,"max_players":24,"Bots":0,"server_type":"Dedicated","server_os":"Linux","password":true,"vac":true,"version":"7882260","steam_id":85568392924504275,"keywords":["nocrits","nodmgspread","payload","uncletopia"],"game_id":440,"stv_port":27046,"stv_name":"Uncletopia | Frankfurt | 4 | All Maps | STV","players":[{"user_id":208,"name":"WLRvekk","steam_id":76561198214848887,"connected_time":1455000000000,"state":"active","ping":68},{"user_id":209,"name":"_NeonDead_","steam_id":76561198236984392,"connected_time":1397000000000,"state":"active","ping":58},{"user_id":185,"name":"LarsInABox","steam_id":76561198028329262,"connected_time":3777000000000,"state":"active","ping":74},{"user_id":186,"name":"üå≠ 0mger #YNWA","steam_id":76561198053615827,"connected_time":3741000000000,"state":"active","ping":72},{"user_id":210,"name":"RIFT","steam_id":76561198991622379,"connected_time":1389000000000,"state":"active","ping":54},{"user_id":159,"name":"üå≠ HugeE #YNWA","steam_id":76561198245495152,"connected_time":5387000000000,"state":"active","ping":62},{"user_id":216,"name":"Mooodyboi.‚ô•","steam_id":76561198132577404,"connected_time":525000000000,"state":"active","ping":68},{"user_id":211,"name":"KrevTiz","steam_id":76561199043366861,"connected_time":1375000000000,"state":"active","ping":89},{"user_id":97,"name":"Anri Okita's Massive Milkers","steam_id":76561199186352720,"connected_time":9310000000000,"state":"active","ping":71},{"user_id":212,"name":"lemon pasta","steam_id":76561198233429440,"connected_time":1361000000000,"state":"active","ping":56},{"user_id":181,"name":"JunkJen","steam_id":76561198017223402,"connected_time":4021000000000,"state":"active","ping":69},{"user_id":167,"name":"üå≠ Arentrir #YNWA","steam_id":76561198334126785,"connected_time":5322000000000,"state":"active","ping":71},{"user_id":180,"name":"skatie","steam_id":76561198169487380,"connected_time":4101000000000,"state":"active","ping":74},{"user_id":184,"name":"Pestdoktor","steam_id":76561198058159271,"connected_time":3821000000000,"state":"active","ping":66},{"user_id":205,"name":"Ramzus","steam_id":76561198012385070,"connected_time":2215000000000,"state":"active","ping":83},{"user_id":177,"name":"footass","steam_id":76561198321785662,"connected_time":4443000000000,"state":"active","ping":84},{"user_id":197,"name":"zak","steam_id":76561197998895428,"connected_time":2810000000000,"state":"active","ping":56},{"user_id":198,"name":"goon boy","steam_id":76561198927527338,"connected_time":2798000000000,"state":"active","ping":67},{"user_id":215,"name":"asami","steam_id":76561197995593787,"connected_time":544000000000,"state":"active","ping":67},{"user_id":207,"name":"hbi*venomcrosshairs","steam_id":76561197996468677,"connected_time":1512000000000,"state":"active","ping":59},{"user_id":206,"name":"CheapMeds","steam_id":76561197990309210,"connected_time":2206000000000,"state":"active","ping":92},{"user_id":134,"name":"Garold","steam_id":76561198429658370,"connected_time":7203000000000,"state":"active","ping":120},{"user_id":203,"name":"JPSylvy","steam_id":76561198361094069,"connected_time":2315000000000,"state":"active","ping":53},{"user_id":182,"name":"üÉî Nugg1t(she/they)","steam_id":76561198065652251,"connected_time":3933000000000,"state":"active","ping":45}]},{"server_id":310,"name":"Uncletopia | Frankfurt | 5 | All Maps","name_short":"frk-5","host":"frk-1.de.uncletopia.com","port":27055,"enabled":true,"region":"eu","cc":"de","latitude":50.110924,"longitude":8.682127,"reserved":0,"last_update":"0001-01-01T00:00:00Z","name_a2s":"Uncletopia | Frankfurt | 5 | All Maps","protocol":17,"map":"cp_mountainlab","folder":"tf","game":"Team Fortress","app_id":440,"player_count":0,"max_players":24,"Bots":0,"server_type":"Dedicated","server_os":"Linux","password":true,"vac":true,"version":"7882260","steam_id":85568392924504277,"keywords":["cp","nocrits","nodmgspread","uncletopia"],"game_id":440,"stv_port":27056,"stv_name":"Uncletopia | Frankfurt | 5 | All Maps | STV","players":null},{"server_id":311,"name":"Uncletopia | Frankfurt | 6 | All Maps","name_short":"frk-6","host":"frk-1.de.uncletopia.com","port":27065,"enabled":true,"region":"eu","cc":"de","latitude":50.110924,"longitude":8.682127,"reserved":0,"last_update":"0001-01-01T00:00:00Z","name_a2s":"Uncletopia | Frankfurt | 6 | All Maps","protocol":17,"map":"koth_lakeside_final","folder":"tf","game":"Team Fortress","app_id":440,"player_count":2,"max_players":24,"Bots":0,"server_type":"Dedicated","server_os":"Linux","password":true,"vac":true,"version":"7882260","steam_id":85568392924504278,"keywords":["cp","nocrits","nodmgspread","uncletopia"],"game_id":440,"stv_port":27066,"stv_name":"Uncletopia | Frankfurt | 6 | All Maps | STV","players":[{"user_id":126,"name":"Tox","steam_id":76561199204054991,"connected_time":4475000000000,"state":"active","ping":91},{"user_id":127,"name":"ADLAR","steam_id":76561199120919784,"connected_time":4454000000000,"state":"active","ping":83}]},{"server_id":23,"name":"Uncletopia | Frankfurt | 7 | Stopwatch Beta","name_short":"frk-7","host":"frk-1.de.uncletopia.com","port":27075,"enabled":true,"region":"eu","cc":"de","latitude":50.110924,"longitude":8.682127,"reserved":0,"last_update":"0001-01-01T00:00:00Z","name_a2s":"Uncletopia | Frankfurt | 7 | Stopwatch Beta","protocol":17,"map":"workshop/pl_summercoast_rc8e.ugc1761528829","folder":"tf","game":"Team Fortress","app_id":440,"player_count":0,"max_players":24,"Bots":0,"server_type":"Dedicated","server_os":"Linux","password":true,"vac":true,"version":"7882260","steam_id":85568392924742827,"keywords":["nocrits","nodmgspread","payload","uncletopia"],"game_id":440,"stv_port":27076,"stv_name":"Uncletopia | Frankfurt | 7 | Stopwatch Beta | STV","players":null},{"server_id":24,"name":"Uncletopia | Frankfurt | 8 | Community","name_short":"frk-8","host":"frk-1.de.uncletopia.com","port":27085,"enabled":true,"region":"eu","cc":"de","latitude":50.110924,"longitude":8.682127,"reserved":0,"last_update":"0001-01-01T00:00:00Z","name_a2s":"Uncletopia | Frankfurt | 8 | Community","protocol":17,"map":"workshop/pl_cactuscanyon_redux_final2.ugc2579644293","folder":"tf","game":"Team Fortress","app_id":440,"player_count":0,"max_players":24,"Bots":0,"server_type":"Dedicated","server_os":"Linux","password":true,"vac":true,"version":"7882260","steam_id":85568392924742828,"keywords":["nocrits","nodmgspread","payload","uncletopia"],"game_id":440,"stv_port":27086,"stv_name":"Uncletopia | Frankfurt | 8 | Community | STV","players":null},{"server_id":202,"name":"Uncletopia | Hong Kong | 1 | All Maps","name_short":"hgk-1","host":"hgk-1.hk.uncletopia.com","port":27015,"enabled":true,"region":"asia","cc":"hk","latitude":22.302711,"longitude":114.177216,"reserved":0,"last_update":"0001-01-01T00:00:00Z","name_a2s":"Uncletopia | Hong Kong | 1 | All Maps","protocol":17,"map":"koth_nucleus","folder":"tf","game":"Team Fortress","app_id":440,"player_count":0,"max_players":24,"Bots":0,"server_type":"Dedicated","server_os":"Linux","password":true,"vac":true,"version":"7882260","steam_id":85568392924494504,"keywords":["cp","nocrits","nodmgspread","uncletopia"],"game_id":440,"stv_port":27016,"stv_name":"Uncletopia | Hong Kong | 1 | All Maps | STV","players":null},{"server_id":1,"name":"Uncletopia | Los Angeles | 1 | All Maps","name_short":"lax-1","host":"lax-1.us.uncletopia.com","port":27015,"enabled":true,"region":"us-west","cc":"us","latitude":33.94279,"longitude":-118.41004,"reserved":0,"last_update":"0001-01-01T00:00:00Z","name_a2s":"Uncletopia | Los Angeles | 1 | All Maps","protocol":17,"map":"pl_pier","folder":"tf","game":"Team Fortress","app_id":440,"player_count":24,"max_players":24,"Bots":0,"server_type":"Dedicated","server_os":"Linux","password":true,"vac":true,"version":"7882260","steam_id":85568392924469991,"keywords":["nocrits","nodmgspread","payload","uncletopia"],"game_id":440,"stv_port":27016,"stv_name":"Uncletopia | Los Angeles | 1 | All Maps | STV","players":[{"user_id":382,"name":"rimble","steam_id":76561198150137369,"connected_time":312000000000,"state":"active","ping":51},{"user_id":300,"name":"danielarmvt","steam_id":76561198799723201,"connected_time":6696000000000,"state":"active","ping":101},{"user_id":347,"name":"flamingdorit0s","steam_id":76561198869206247,"connected_time":2582000000000,"state":"active","ping":116},{"user_id":361,"name":"Timewaves","steam_id":76561198000186054,"connected_time":2085000000000,"state":"active","ping":51},{"user_id":351,"name":"[chef] iron","steam_id":76561197970888616,"connected_time":2534000000000,"state":"active","ping":82},{"user_id":330,"name":"EleventhGoose","steam_id":76561198912390211,"connected_time":4099000000000,"state":"active","ping":64},{"user_id":369,"name":"ramm","steam_id":76561199192289015,"connected_time":1320000000000,"state":"active","ping":102},{"user_id":376,"name":"mr_angry_guy","steam_id":76561199365643094,"connected_time":446000000000,"state":"active","ping":88},{"user_id":337,"name":"SuperLuigi747","steam_id":76561198277398464,"connected_time":3968000000000,"state":"active","ping":64},{"user_id":374,"name":"Sticky","steam_id":76561198031581547,"connected_time":499000000000,"state":"active","ping":42},{"user_id":375,"name":"SunNc","steam_id":76561198097711843,"connected_time":499000000000,"state":"active","ping":63},{"user_id":373,"name":"Mr. Yoshida","steam_id":76561198263829831,"connected_time":512000000000,"state":"active","ping":74},{"user_id":377,"name":"Fred","steam_id":76561197983870604,"connected_time":399000000000,"state":"active","ping":58},{"user_id":307,"name":"radino","steam_id":76561198003182237,"connected_time":6251000000000,"state":"active","ping":65},{"user_id":367,"name":"SilverMango","steam_id":76561198091243252,"connected_time":1417000000000,"state":"active","ping":55},{"user_id":379,"name":"Maid 'n' China","steam_id":76561198423392976,"connected_time":365000000000,"state":"active","ping":61},{"user_id":383,"name":"Polfloe10","steam_id":76561198013702833,"connected_time":198000000000,"state":"active","ping":112},{"user_id":354,"name":"Landlord","steam_id":76561198987913057,"connected_time":2520000000000,"state":"active","ping":67},{"user_id":356,"name":"jacix3 [gay wolfgirl]{she/it}","steam_id":76561198205004165,"connected_time":2496000000000,"state":"active","ping":90},{"user_id":326,"name":"spherewithahat","steam_id":76561199122192660,"connected_time":4175000000000,"state":"active","ping":119},{"user_id":384,"name":"comet","steam_id":76561197988366012,"connected_time":24000000000,"state":"active","ping":60},{"user_id":364,"name":"ben","steam_id":76561198355118155,"connected_time":1753000000000,"state":"active","ping":87},{"user_id":381,"name":"Genius Meme","steam_id":76561198162911254,"connected_time":355000000000,"state":"active","ping":72},{"user_id":341,"name":"i love bachira","steam_id":76561198260613699,"connected_time":3338000000000,"state":"active","ping":57}]},{"server_id":112,"name":"Uncletopia | Los Angeles | 2 | All Maps","name_short":"lax-2","host":"lax-1.us.uncletopia.com","port":27025,"enabled":true,"region":"us-west","cc":"us","latitude":33.94279,"longitude":-118.41004,"reserved":0,"last_update":"0001-01-01T00:00:00Z","name_a2s":"Uncletopia | Los Angeles | 2 | All Maps","protocol":17,"map":"ctf_doublecross","folder":"tf","game":"Team Fortress","app_id":440,"player_count":23,"max_players":24,"Bots":0,"server_type":"Dedicated","server_os":"Linux","password":true,"vac":true,"version":"7882260","steam_id":85568392924469992,"keywords":["ctf","nocrits","nodmgspread","uncletopia"],"game_id":440,"stv_port":27026,"stv_name":"Uncletopia | Los Angeles | 2 | All Maps | STV","players":[{"user_id":300,"name":"get a load of this guy","steam_id":76561199247095754,"connected_time":846000000000,"state":"active","ping":103},{"user_id":317,"name":"elephant thumb","steam_id":76561198118859752,"connected_time":144000000000,"state":"active","ping":44},{"user_id":292,"name":"luigineer tf2 (real)","steam_id":76561198864531992,"connected_time":1358000000000,"state":"active","ping":67},{"user_id":301,"name":"proud_asian","steam_id":76561198977973083,"connected_time":810000000000,"state":"active","ping":111},{"user_id":302,"name":"Mustachacre","steam_id":76561198056309992,"connected_time":808000000000,"state":"active","ping":70},{"user_id":261,"name":"DoubleX2000","steam_id":76561198164134387,"connected_time":3304000000000,"state":"active","ping":82},{"user_id":290,"name":"reymundo","steam_id":76561197989412830,"connected_time":1747000000000,"state":"active","ping":60},{"user_id":315,"name":"PTSleepyHead","steam_id":76561198037748705,"connected_time":295000000000,"state":"active","ping":44},{"user_id":303,"name":"Bot Maxwell","steam_id":76561198040781615,"connected_time":804000000000,"state":"active","ping":61},{"user_id":289,"name":"KRUSHER","steam_id":76561198072157019,"connected_time":1800000000000,"state":"active","ping":97},{"user_id":236,"name":"james may","steam_id":76561198043857339,"connected_time":5150000000000,"state":"active","ping":40},{"user_id":287,"name":"BasedGod","steam_id":76561198061177973,"connected_time":1981000000000,"state":"active","ping":46},{"user_id":304,"name":"CEOlifestyle","steam_id":76561198025747866,"connected_time":787000000000,"state":"active","ping":74},{"user_id":314,"name":"chives","steam_id":76561199228894768,"connected_time":320000000000,"state":"active","ping":127},{"user_id":318,"name":"Deryn Sharp","steam_id":76561198047017346,"connected_time":115000000000,"state":"active","ping":67},{"user_id":305,"name":"MarcyGengar","steam_id":76561198315829482,"connected_time":780000000000,"state":"active","ping":55},{"user_id":319,"name":"DemoLiberTF2","steam_id":76561198095378689,"connected_time":2000000000,"state":"spawning","ping":91},{"user_id":233,"name":"Acto","steam_id":76561198043025164,"connected_time":5245000000000,"state":"active","ping":87},{"user_id":311,"name":"bobtheninjaman","steam_id":76561198066424544,"connected_time":442000000000,"state":"active","ping":71},{"user_id":270,"name":"wlfgng","steam_id":76561198316639499,"connected_time":3187000000000,"state":"active","ping":45},{"user_id":312,"name":"LACTOSE","steam_id":76561198282604344,"connected_time":377000000000,"state":"active","ping":56},{"user_id":308,"name":"Ok then","steam_id":76561198891914787,"connected_time":697000000000,"state":"active","ping":55},{"user_id":235,"name":"Floaty","steam_id":76561198100029503,"connected_time":5230000000000,"state":"active","ping":82}]},{"server_id":324,"name":"Uncletopia | Los Angeles | 3 | All Maps","name_short":"lax-3","host":"lax-1.us.uncletopia.com","port":27035,"enabled":true,"region":"us-west","cc":"us","latitude":33.94279,"longitude":-118.41004,"reserved":0,"last_update":"0001-01-01T00:00:00Z","name_a2s":"Uncletopia | Los Angeles | 3 | All Maps","protocol":17,"map":"pl_goldrush","folder":"tf","game":"Team Fortress","app_id":440,"player_count":24,"max_players":24,"Bots":0,"server_type":"Dedicated","server_os":"Linux","password":true,"vac":true,"version":"7882260","steam_id":85568392924510198,"keywords":["nocrits","nodmgspread","payload","uncletopia"],"game_id":440,"stv_port":27036,"stv_name":"Uncletopia | Los Angeles | 3 | All Maps | STV","players":[{"user_id":234,"name":"Rhutebeer","steam_id":76561198018302761,"connected_time":3674000000000,"state":"active","ping":115},{"user_id":285,"name":"Mally","steam_id":76561198038471420,"connected_time":446000000000,"state":"active","ping":90},{"user_id":291,"name":"FatGOLDENGUY","steam_id":76561198413086051,"connected_time":105000000000,"state":"active","ping":76},{"user_id":237,"name":"Bounce","steam_id":76561198252177154,"connected_time":3372000000000,"state":"active","ping":91},{"user_id":255,"name":"merkury731","steam_id":76561198110565430,"connected_time":2673000000000,"state":"active","ping":110},{"user_id":246,"name":"Orbinki","steam_id":76561198978589618,"connected_time":3017000000000,"state":"active","ping":57},{"user_id":284,"name":"SanitysEdge","steam_id":76561198130732813,"connected_time":523000000000,"state":"active","ping":47},{"user_id":292,"name":"rxqueen","steam_id":76561198049258493,"connected_time":89000000000,"state":"active","ping":87},{"user_id":286,"name":"grassyboulder","steam_id":76561199083593292,"connected_time":433000000000,"state":"active","ping":124},{"user_id":288,"name":"CyMeryy","steam_id":76561197984986540,"connected_time":319000000000,"state":"active","ping":104},{"user_id":258,"name":"TON 618","steam_id":76561198799230499,"connected_time":2580000000000,"state":"active","ping":97},{"user_id":228,"name":"Grizzakk","steam_id":76561198115821923,"connected_time":3843000000000,"state":"active","ping":83},{"user_id":259,"name":"Buswolley","steam_id":76561197995205571,"connected_time":2569000000000,"state":"active","ping":59},{"user_id":264,"name":"Hybrid X","steam_id":76561199015425937,"connected_time":1779000000000,"state":"active","ping":57},{"user_id":268,"name":"DOPEam1ne","steam_id":76561198112204774,"connected_time":1657000000000,"state":"active","ping":61},{"user_id":229,"name":"jooce","steam_id":76561198325093063,"connected_time":3835000000000,"state":"active","ping":82},{"user_id":221,"name":"DistantJragon","steam_id":76561198117563641,"connected_time":4629000000000,"state":"active","ping":105},{"user_id":274,"name":"big car","steam_id":76561198067082350,"connected_time":1142000000000,"state":"active","ping":59},{"user_id":250,"name":"Starfruit66","steam_id":76561198069917277,"connected_time":2930000000000,"state":"active","ping":47},{"user_id":267,"name":"MonkeyNobody","steam_id":76561199451266605,"connected_time":1698000000000,"state":"active","ping":57},{"user_id":289,"name":"A Little Guy","steam_id":76561198142464684,"connected_time":236000000000,"state":"active","ping":78},{"user_id":280,"name":"Void","steam_id":76561198308290211,"connected_time":816000000000,"state":"active","ping":64},{"user_id":261,"name":"FrozenFireBr","steam_id":76561198357945412,"connected_time":2295000000000,"state":"active","ping":97},{"user_id":191,"name":"Dooku","steam_id":76561198216958508,"connected_time":6118000000000,"state":"active","ping":46}]},{"server_id":25,"name":"Uncletopia | Los Angeles | 4 | Stopwatch Beta","name_short":"lax-4","host":"lax-1.us.uncletopia.com","port":27045,"enabled":true,"region":"us-west","cc":"us","latitude":33.94279,"longitude":-118.41004,"reserved":0,"last_update":"0001-01-01T00:00:00Z","name_a2s":"Uncletopia | Los Angeles | 4 | Stopwatch Beta","protocol":17,"map":"koth_lakeside_final","folder":"tf","game":"Team Fortress","app_id":440,"player_count":6,"max_players":24,"Bots":0,"server_type":"Dedicated","server_os":"Linux","password":true,"vac":true,"version":"7882260","steam_id":85568392924510199,"keywords":["cp","nocrits","nodmgspread","uncletopia"],"game_id":440,"stv_port":27046,"stv_name":"Uncletopia | Los Angeles | 4 | Stopwatch Beta | STV","players":[{"user_id":12,"name":"asm_ghost","steam_id":76561199205363547,"connected_time":938000000000,"state":"active","ping":70},{"user_id":13,"name":"The Gremlin","steam_id":76561198419066993,"connected_time":915000000000,"state":"active","ping":83},{"user_id":15,"name":"Mom","steam_id":76561198207936000,"connected_time":648000000000,"state":"active","ping":39},{"user_id":16,"name":"Joh Bags","steam_id":76561198097004438,"connected_time":144000000000,"state":"active","ping":69},{"user_id":17,"name":"Wacks","steam_id":76561198079476100,"connected_time":138000000000,"state":"active","ping":50},{"user_id":18,"name":"goon","steam_id":76561198838807174,"connected_time":110000000000,"state":"active","ping":114}]},{"server_id":11,"name":"Uncletopia | London | 1 | All Maps","name_short":"lon-1","host":"lon-1.uk.uncletopia.com","port":27015,"enabled":true,"region":"eu","cc":"gb","latitude":51.509865,"longitude":-0.118092,"reserved":0,"last_update":"0001-01-01T00:00:00Z","name_a2s":"Uncletopia | London | 1 | All Maps","protocol":17,"map":"pl_pier","folder":"tf","game":"Team Fortress","app_id":440,"player_count":24,"max_players":24,"Bots":0,"server_type":"Dedicated","server_os":"Linux","password":true,"vac":true,"version":"7882260","steam_id":85568392924367362,"keywords":["nocrits","nodmgspread","payload","uncletopia"],"game_id":440,"stv_port":27016,"stv_name":"Uncletopia | London | 1 | All Maps | STV","players":[{"user_id":494,"name":"Hive","steam_id":76561199480966681,"connected_time":3793000000000,"state":"active","ping":75},{"user_id":555,"name":"skorsch detf2pickup","steam_id":76561198044391172,"connected_time":183000000000,"state":"active","ping":69},{"user_id":503,"name":"team sucks no engies 4u","steam_id":76561198025916703,"connected_time":3093000000000,"state":"active","ping":77},{"user_id":521,"name":"buried","steam_id":76561198969003413,"connected_time":2257000000000,"state":"active","ping":63},{"user_id":551,"name":"jimmy bob","steam_id":76561198319583692,"connected_time":419000000000,"state":"active","ping":60},{"user_id":554,"name":"tekas.","steam_id":76561198363841749,"connected_time":228000000000,"state":"active","ping":85},{"user_id":501,"name":"hoovy gaming","steam_id":76561199230153761,"connected_time":3188000000000,"state":"active","ping":63},{"user_id":455,"name":"teddy","steam_id":76561198007436837,"connected_time":6693000000000,"state":"active","ping":31},{"user_id":553,"name":"tuna","steam_id":76561198121590248,"connected_time":276000000000,"state":"active","ping":49},{"user_id":557,"name":"? Y-not ?","steam_id":76561198004077449,"connected_time":67000000000,"state":"active","ping":62},{"user_id":545,"name":"Hyppy ja liipasin pohjaan :D","steam_id":76561198080669698,"connected_time":1232000000000,"state":"active","ping":105},{"user_id":493,"name":"Cirox","steam_id":76561198383142404,"connected_time":3927000000000,"state":"active","ping":88},{"user_id":528,"name":"Cosmetic brain","steam_id":76561198055936410,"connected_time":2070000000000,"state":"active","ping":89},{"user_id":531,"name":"Raine","steam_id":76561198098860903,"connected_time":1834000000000,"state":"active","ping":60},{"user_id":526,"name":"That Guy","steam_id":76561199005056090,"connected_time":2224000000000,"state":"active","ping":53},{"user_id":485,"name":"Purps","steam_id":76561198053886680,"connected_time":4735000000000,"state":"active","ping":46},{"user_id":523,"name":"Alfred","steam_id":76561198348799252,"connected_time":2234000000000,"state":"active","ping":52},{"user_id":527,"name":"Skinny101","steam_id":76561197985599360,"connected_time":2111000000000,"state":"active","ping":55},{"user_id":412,"name":"Stigurna","steam_id":76561198063906822,"connected_time":9419000000000,"state":"active","ping":98},{"user_id":556,"name":"Professor Page","steam_id":76561198011949134,"connected_time":179000000000,"state":"active","ping":46},{"user_id":484,"name":"Aaron","steam_id":76561197990046953,"connected_time":4762000000000,"state":"active","ping":50},{"user_id":549,"name":"ToTenLis","steam_id":76561198168581334,"connected_time":1062000000000,"state":"active","ping":94},{"user_id":482,"name":"Themoonisacheese","steam_id":76561198025594173,"connected_time":4982000000000,"state":"active","ping":50},{"user_id":536,"name":"AftiksPL","steam_id":76561198875182686,"connected_time":1554000000000,"state":"active","ping":103}]},{"server_id":114,"name":"Uncletopia | London | 2 | All Maps","name_short":"lon-2","host":"lon-1.uk.uncletopia.com","port":27025,"enabled":true,"region":"eu","cc":"gb","latitude":51.509865,"longitude":-0.118092,"reserved":0,"last_update":"0001-01-01T00:00:00Z","name_a2s":"Uncletopia | London | 2 | All Maps","protocol":17,"map":"pl_snowycoast","folder":"tf","game":"Team Fortress","app_id":440,"player_count":24,"max_players":24,"Bots":0,"server_type":"Dedicated","server_os":"Linux","password":true,"vac":true,"version":"7882260","steam_id":85568392924470941,"keywords":["nocrits","nodmgspread","payload","uncletopia"],"game_id":440,"stv_port":27026,"stv_name":"Uncletopia | London | 2 | All Maps | STV","players":[{"user_id":941,"name":"puck","steam_id":76561198121260981,"connected_time":1412000000000,"state":"active","ping":41},{"user_id":892,"name":"sora :3","steam_id":76561198096547662,"connected_time":6449000000000,"state":"active","ping":49},{"user_id":931,"name":"Kristianma","steam_id":76561198021772843,"connected_time":2094000000000,"state":"active","ping":67},{"user_id":915,"name":"Bill Carr","steam_id":76561198110033943,"connected_time":3439000000000,"state":"active","ping":34},{"user_id":894,"name":"dn4k","steam_id":76561199221755690,"connected_time":6085000000000,"state":"active","ping":86},{"user_id":907,"name":"boywife","steam_id":76561198397931520,"connected_time":4636000000000,"state":"active","ping":74},{"user_id":938,"name":"chazza","steam_id":76561199076124858,"connected_time":1434000000000,"state":"active","ping":50},{"user_id":900,"name":"REN","steam_id":76561198000596385,"connected_time":5134000000000,"state":"active","ping":90},{"user_id":934,"name":"Mingo","steam_id":76561198057377305,"connected_time":1745000000000,"state":"active","ping":59},{"user_id":859,"name":"Mr_Pulse_","steam_id":76561198095001602,"connected_time":8619000000000,"state":"active","ping":102},{"user_id":942,"name":"fieldbox","steam_id":76561198101893112,"connected_time":1411000000000,"state":"active","ping":49},{"user_id":930,"name":"Suspicious Viktor","steam_id":76561198136496249,"connected_time":2517000000000,"state":"active","ping":68},{"user_id":943,"name":"cinny","steam_id":76561198832112629,"connected_time":1394000000000,"state":"active","ping":85},{"user_id":936,"name":"Explosive Poptart","steam_id":76561198023918830,"connected_time":1721000000000,"state":"active","ping":45},{"user_id":920,"name":"dd","steam_id":76561198257836694,"connected_time":3241000000000,"state":"active","ping":44},{"user_id":928,"name":"vehicle guy","steam_id":76561198860065033,"connected_time":2747000000000,"state":"active","ping":53},{"user_id":944,"name":"Modge","steam_id":76561198034119979,"connected_time":1361000000000,"state":"active","ping":55},{"user_id":945,"name":"frosty","steam_id":76561198094560834,"connected_time":1341000000000,"state":"active","ping":51},{"user_id":921,"name":"KeTlEr","steam_id":76561198100957443,"connected_time":3237000000000,"state":"active","ping":75},{"user_id":947,"name":"SuperBob103","steam_id":76561199175360012,"connected_time":839000000000,"state":"active","ping":62},{"user_id":889,"name":"Dirty Joe","steam_id":76561198142418870,"connected_time":6839000000000,"state":"active","ping":45},{"user_id":946,"name":"M1ssileT0E","steam_id":76561199052865451,"connected_time":1338000000000,"state":"active","ping":120},{"user_id":911,"name":"beebo","steam_id":76561199120277007,"connected_time":4040000000000,"state":"active","ping":82},{"user_id":924,"name":"OFF","steam_id":76561199066495477,"connected_time":3175000000000,"state":"active","ping":72}]},{"server_id":320,"name":"Uncletopia | London | 3 | All Maps","name_short":"lon-3","host":"lon-1.uk.uncletopia.com","port":27035,"enabled":true,"region":"eu","cc":"gb","latitude":51.509865,"longitude":-0.118092,"reserved":0,"last_update":"0001-01-01T00:00:00Z","name_a2s":"Uncletopia | London | 3 | All Maps","protocol":17,"map":"cp_steel","folder":"tf","game":"Team Fortress","app_id":440,"player_count":24,"max_players":24,"Bots":0,"server_type":"Dedicated","server_os":"Linux","password":true,"vac":true,"version":"7882260","steam_id":85568392924510192,"keywords":["cp","nocrits","nodmgspread","uncletopia"],"game_id":440,"stv_port":27036,"stv_name":"Uncletopia | London | 3 | All Maps | STV","players":[{"user_id":745,"name":"Tegnerud","steam_id":76561198214185612,"connected_time":1713000000000,"state":"active","ping":75},{"user_id":729,"name":"EGirl | Klarra","steam_id":76561198077745407,"connected_time":2267000000000,"state":"active","ping":66},{"user_id":763,"name":"lark","steam_id":76561198091724522,"connected_time":108000000000,"state":"active","ping":54},{"user_id":748,"name":"Circular","steam_id":76561198001536710,"connected_time":1380000000000,"state":"active","ping":45},{"user_id":702,"name":"Lario","steam_id":76561199194109193,"connected_time":4868000000000,"state":"active","ping":60},{"user_id":713,"name":"‚ô• trixy ‚ô•","steam_id":76561199474154775,"connected_time":4630000000000,"state":"active","ping":57},{"user_id":764,"name":"Saken","steam_id":76561198049075295,"connected_time":108000000000,"state":"active","ping":66},{"user_id":755,"name":"washed up","steam_id":76561198275742101,"connected_time":559000000000,"state":"active","ping":66},{"user_id":738,"name":"Valfezant","steam_id":76561199063983797,"connected_time":2018000000000,"state":"active","ping":75},{"user_id":766,"name":"0-D","steam_id":76561198073319628,"connected_time":98000000000,"state":"active","ping":54},{"user_id":754,"name":"Raingnome @SaveTF2","steam_id":76561198007394958,"connected_time":648000000000,"state":"active","ping":59},{"user_id":756,"name":"Aroo","steam_id":76561198132601368,"connected_time":537000000000,"state":"active","ping":76},{"user_id":757,"name":"The Subway Scientist","steam_id":76561198193757646,"connected_time":526000000000,"state":"active","ping":45},{"user_id":765,"name":"cropping","steam_id":76561198026586456,"connected_time":107000000000,"state":"active","ping":58},{"user_id":728,"name":"I am NOT in your walls...","steam_id":76561198347336086,"connected_time":2463000000000,"state":"active","ping":46},{"user_id":717,"name":"Meadawn","steam_id":76561198069136500,"connected_time":3463000000000,"state":"active","ping":68},{"user_id":721,"name":"CumbustiblePunda","steam_id":76561197974274677,"connected_time":3016000000000,"state":"active","ping":58},{"user_id":563,"name":"Voks_","steam_id":76561198159687785,"connected_time":9952000000000,"state":"active","ping":75},{"user_id":762,"name":"Milk","steam_id":76561198125876588,"connected_time":188000000000,"state":"active","ping":44},{"user_id":576,"name":"ufomaster1111111","steam_id":76561198837347666,"connected_time":8732000000000,"state":"active","ping":65},{"user_id":741,"name":"Will or Mole","steam_id":76561198046415938,"connected_time":1957000000000,"state":"active","ping":57},{"user_id":727,"name":"DragonLord","steam_id":76561198074279225,"connected_time":2500000000000,"state":"active","ping":48},{"user_id":760,"name":"Riordan the Armpit Inspector","steam_id":76561198001346236,"connected_time":505000000000,"state":"active","ping":74},{"user_id":726,"name":"Woman (Real)","steam_id":76561199151823932,"connected_time":2532000000000,"state":"active","ping":86}]},{"server_id":321,"name":"Uncletopia | London | 4 | All Maps","name_short":"lon-4","host":"lon-1.uk.uncletopia.com","port":27045,"enabled":true,"region":"eu","cc":"gb","latitude":51.509865,"longitude":-0.118092,"reserved":0,"last_update":"0001-01-01T00:00:00Z","name_a2s":"Uncletopia | London | 4 | All Maps","protocol":17,"map":"koth_cascade","folder":"tf","game":"Team Fortress","app_id":440,"player_count":2,"max_players":24,"Bots":0,"server_type":"Dedicated","server_os":"Linux","password":true,"vac":true,"version":"7882260","steam_id":85568392924510193,"keywords":["cp","nocrits","nodmgspread","uncletopia"],"game_id":440,"stv_port":27046,"stv_name":"Uncletopia | London | 4 | All Maps | STV","players":[{"user_id":542,"name":"coingunisop","steam_id":76561199380445009,"connected_time":521000000000,"state":"active","ping":151},{"user_id":544,"name":"IndigoJones","steam_id":76561198050284262,"connected_time":478000000000,"state":"active","ping":39}]},{"server_id":21,"name":"Uncletopia | London | 5 | All Maps","name_short":"lon-5","host":"lon-1.uk.uncletopia.com","port":27055,"enabled":true,"region":"eu","cc":"gb","latitude":51.509865,"longitude":-0.118092,"reserved":0,"last_update":"0001-01-01T00:00:00Z","name_a2s":"Uncletopia | London | 5 | All Maps","protocol":17,"map":"pl_snowycoast","folder":"tf","game":"Team Fortress","app_id":440,"player_count":7,"max_players":24,"Bots":0,"server_type":"Dedicated","server_os":"Linux","password":true,"vac":true,"version":"7882260","steam_id":85568392924742829,"keywords":["nocrits","nodmgspread","payload","uncletopia"],"game_id":440,"stv_port":27056,"stv_name":"Uncletopia | London | 5 | All Maps | STV","players":[{"user_id":775,"name":"A Possum","steam_id":76561199083147807,"connected_time":112000000000,"state":"active","ping":60},{"user_id":765,"name":"M A D M A X","steam_id":76561198205304508,"connected_time":1877000000000,"state":"active","ping":43},{"user_id":769,"name":"zet705","steam_id":76561198356030211,"connected_time":1616000000000,"state":"active","ping":76},{"user_id":773,"name":"PASTAMAN!!!","steam_id":76561198995641765,"connected_time":687000000000,"state":"active","ping":62},{"user_id":774,"name":"wide appreciator","steam_id":76561198083286511,"connected_time":683000000000,"state":"active","ping":33},{"user_id":771,"name":"desnot","steam_id":76561198862581894,"connected_time":1479000000000,"state":"active","ping":68},{"user_id":708,"name":"nyanezt","steam_id":76561198253734265,"connected_time":6932000000000,"state":"active","ping":88}]},{"server_id":22,"name":"Uncletopia | London | 6 | All Maps","name_short":"lon-6","host":"lon-1.uk.uncletopia.com","port":27065,"enabled":true,"region":"eu","cc":"gb","latitude":51.509865,"longitude":-0.118092,"reserved":0,"last_update":"0001-01-01T00:00:00Z","name_a2s":"Uncletopia | London | 6 | All Maps","protocol":17,"map":"pl_frontier_final","folder":"tf","game":"Team Fortress","app_id":440,"player_count":24,"max_players":24,"Bots":0,"server_type":"Dedicated","server_os":"Linux","password":true,"vac":true,"version":"7882260","steam_id":85568392924742830,"keywords":["nocrits","nodmgspread","payload","uncletopia"],"game_id":440,"stv_port":27066,"stv_name":"Uncletopia | London | 6 | All Maps | STV","players":[{"user_id":888,"name":"St√ºmpy","steam_id":76561198255904077,"connected_time":306000000000,"state":"active","ping":70},{"user_id":854,"name":"bombo112","steam_id":76561198059743551,"connected_time":1232000000000,"state":"active","ping":85},{"user_id":887,"name":"yangus","steam_id":76561198075157560,"connected_time":335000000000,"state":"active","ping":46},{"user_id":889,"name":"Chuck Mcgill Gaming","steam_id":76561198074001910,"connected_time":286000000000,"state":"active","ping":63},{"user_id":890,"name":"„É†ngel‚òØ","steam_id":76561198009888169,"connected_time":254000000000,"state":"active","ping":74},{"user_id":891,"name":"Cursed.","steam_id":76561198381491880,"connected_time":251000000000,"state":"active","ping":98},{"user_id":884,"name":"Emiljosen","steam_id":76561198353691583,"connected_time":352000000000,"state":"active","ping":59},{"user_id":728,"name":"meriones","steam_id":76561198034234373,"connected_time":4468000000000,"state":"active","ping":41},{"user_id":892,"name":"etc","steam_id":76561197998394797,"connected_time":243000000000,"state":"active","ping":54},{"user_id":879,"name":"Mi Manchi","steam_id":76561198171573129,"connected_time":403000000000,"state":"active","ping":60},{"user_id":813,"name":"Kacperos12","steam_id":76561198044168268,"connected_time":2263000000000,"state":"active","ping":101},{"user_id":893,"name":"jonbob","steam_id":76561197963506620,"connected_time":152000000000,"state":"active","ping":54},{"user_id":865,"name":"modavak","steam_id":76561198946290908,"connected_time":755000000000,"state":"active","ping":105},{"user_id":883,"name":"SwingyWingyShoes","steam_id":76561198089547302,"connected_time":361000000000,"state":"active","ping":51},{"user_id":871,"name":"cold","steam_id":76561199017901552,"connected_time":559000000000,"state":"active","ping":159},{"user_id":894,"name":"Ross from F.R.I.E.N.D.S.","steam_id":76561198008511665,"connected_time":136000000000,"state":"active","ping":51},{"user_id":895,"name":"...","steam_id":76561199003053533,"connected_time":119000000000,"state":"active","ping":96},{"user_id":896,"name":"Tomboslinger","steam_id":76561199216201591,"connected_time":70000000000,"state":"active","ping":319},{"user_id":872,"name":"THVG","steam_id":76561199156685368,"connected_time":556000000000,"state":"active","ping":68},{"user_id":886,"name":"mumbler","steam_id":76561197970641239,"connected_time":345000000000,"state":"active","ping":59},{"user_id":858,"name":"truth serum drinker","steam_id":76561198145465595,"connected_time":1072000000000,"state":"active","ping":36},{"user_id":859,"name":"BELIEVE THE MACHINE","steam_id":76561198027033926,"connected_time":1072000000000,"state":"active","ping":57},{"user_id":752,"name":"Steen","steam_id":76561198122992510,"connected_time":3810000000000,"state":"active","ping":45},{"user_id":885,"name":"Bajas","steam_id":76561198179339326,"connected_time":348000000000,"state":"active","ping":75}]},{"server_id":40,"name":"Uncletopia | London | 7 | No Payload","name_short":"lon-7","host":"lon-1.uk.uncletopia.com","port":27075,"enabled":true,"region":"eu","cc":"gb","latitude":51.509865,"longitude":-0.118092,"reserved":0,"last_update":"0001-01-01T00:00:00Z","name_a2s":"Uncletopia | London | 7 | No Payload","protocol":17,"map":"ctf_2fort","folder":"tf","game":"Team Fortress","app_id":440,"player_count":3,"max_players":24,"Bots":0,"server_type":"Dedicated","server_os":"Linux","password":true,"vac":true,"version":"7882260","steam_id":85568392924964314,"keywords":["ctf","nocrits","nodmgspread","uncletopia"],"game_id":440,"stv_port":27076,"stv_name":"Uncletopia | London | 7 | No Payload | STV","players":[{"user_id":550,"name":"GREEP","steam_id":76561199443547191,"connected_time":4348000000000,"state":"active","ping":55},{"user_id":564,"name":"Concorde","steam_id":76561199141714627,"connected_time":2909000000000,"state":"active","ping":61},{"user_id":552,"name":"MagicA","steam_id":76561198454494204,"connected_time":4293000000000,"state":"active","ping":56}]},{"server_id":41,"name":"Uncletopia | London | 8 | Community","name_short":"lon-8","host":"lon-1.uk.uncletopia.com","port":27085,"enabled":true,"region":"eu","cc":"gb","latitude":51.509865,"longitude":-0.118092,"reserved":0,"last_update":"0001-01-01T00:00:00Z","name_a2s":"Uncletopia | London | 8 | Community","protocol":17,"map":"workshop/koth_trenchfoot_b1a.ugc731436616","folder":"tf","game":"Team Fortress","app_id":440,"player_count":0,"max_players":24,"Bots":0,"server_type":"Dedicated","server_os":"Linux","password":true,"vac":true,"version":"7882260","steam_id":85568392924964315,"keywords":["cp","nocrits","nodmgspread","uncletopia"],"game_id":440,"stv_port":27086,"stv_name":"Uncletopia | London | 8 | Community | STV","players":null},{"server_id":300,"name":"Uncletopia | Montr√©al | 1 | All Maps","name_short":"mtl-1","host":"mtl-1.ca.uncletopia.com","port":27015,"enabled":true,"region":"us-east","cc":"ca","latitude":45.50889,"longitude":-73.56167,"reserved":0,"last_update":"0001-01-01T00:00:00Z","name_a2s":"Uncletopia | Montr√©al | 1 | All Maps","protocol":17,"map":"pl_pier","folder":"tf","game":"Team Fortress","app_id":440,"player_count":24,"max_players":24,"Bots":0,"server_type":"Dedicated","server_os":"Linux","password":true,"vac":true,"version":"7882260","steam_id":85568392924500087,"keywords":["nocrits","nodmgspread","payload","uncletopia"],"game_id":440,"stv_port":27016,"stv_name":"Uncletopia | Montr√©al | 1 | All Maps | STV","players":[{"user_id":140,"name":"CrazyKermitRubes","steam_id":76561198009065204,"connected_time":3259000000000,"state":"active","ping":66},{"user_id":150,"name":"Atlas (Skylar)","steam_id":76561198041531774,"connected_time":2338000000000,"state":"active","ping":74},{"user_id":160,"name":"Downie Dan","steam_id":76561198098400520,"connected_time":814000000000,"state":"active","ping":69},{"user_id":137,"name":"BluCoffee","steam_id":76561198214995967,"connected_time":3441000000000,"state":"active","ping":47},{"user_id":95,"name":"TheGuyWhoPlays","steam_id":76561198277363002,"connected_time":7669000000000,"state":"active","ping":56},{"user_id":167,"name":"A Shiny Meat Bicycle","steam_id":76561198358757709,"connected_time":500000000000,"state":"active","ping":114},{"user_id":161,"name":"dont suck me i uber","steam_id":76561198281968441,"connected_time":805000000000,"state":"active","ping":128},{"user_id":144,"name":"I Like Cheese","steam_id":76561198006265659,"connected_time":2935000000000,"state":"active","ping":65},{"user_id":123,"name":"ApertureCity","steam_id":76561198004153607,"connected_time":4329000000000,"state":"active","ping":93},{"user_id":154,"name":"Whippin Forgies","steam_id":76561198071058300,"connected_time":2120000000000,"state":"active","ping":59},{"user_id":162,"name":"braindeadtunabread","steam_id":76561199194640257,"connected_time":793000000000,"state":"active","ping":74},{"user_id":163,"name":"Caster","steam_id":76561198131592341,"connected_time":776000000000,"state":"active","ping":132},{"user_id":88,"name":"Sodemo","steam_id":76561198074987146,"connected_time":8239000000000,"state":"active","ping":71},{"user_id":138,"name":"Cheesemelt","steam_id":76561198008221847,"connected_time":3429000000000,"state":"active","ping":34},{"user_id":169,"name":"45 Cent","steam_id":76561198048690188,"connected_time":179000000000,"state":"active","ping":60},{"user_id":141,"name":"BoneHeadTRex","steam_id":76561199438411250,"connected_time":3256000000000,"state":"active","ping":110},{"user_id":164,"name":"starry","steam_id":76561198989740125,"connected_time":765000000000,"state":"active","ping":81},{"user_id":49,"name":"Blueberry The Fox","steam_id":76561198311460784,"connected_time":10978000000000,"state":"active","ping":71},{"user_id":53,"name":"Viriditaz","steam_id":76561198255457461,"connected_time":10848000000000,"state":"active","ping":67},{"user_id":139,"name":"Erik The Guy","steam_id":76561199105401037,"connected_time":3334000000000,"state":"active","ping":69},{"user_id":158,"name":"grif","steam_id":76561198272333800,"connected_time":1282000000000,"state":"active","ping":75},{"user_id":168,"name":"nemaxilb","steam_id":76561199074875663,"connected_time":500000000000,"state":"active","ping":97},{"user_id":156,"name":"cold spaghetti","steam_id":76561198983037944,"connected_time":1438000000000,"state":"active","ping":49},{"user_id":143,"name":"FunTimeDaisy01","steam_id":76561198448258755,"connected_time":3159000000000,"state":"active","ping":84}]},{"server_id":301,"name":"Uncletopia | Montr√©al | 2 | All Maps","name_short":"mtl-2","host":"mtl-1.ca.uncletopia.com","port":27025,"enabled":true,"region":"us-east","cc":"ca","latitude":45.50889,"longitude":-73.56167,"reserved":0,"last_update":"0001-01-01T00:00:00Z","name_a2s":"Uncletopia | Montr√©al | 2 | All Maps","protocol":17,"map":"cp_vanguard","folder":"tf","game":"Team Fortress","app_id":440,"player_count":20,"max_players":24,"Bots":0,"server_type":"Dedicated","server_os":"Linux","password":true,"vac":true,"version":"7882260","steam_id":85568392924500088,"keywords":["cp","nocrits","nodmgspread","uncletopia"],"game_id":440,"stv_port":27026,"stv_name":"Uncletopia | Montr√©al | 2 | All Maps | STV","players":[{"user_id":87,"name":"///","steam_id":76561198360946437,"connected_time":1224000000000,"state":"active","ping":42},{"user_id":83,"name":"PizzariaDelPepperino","steam_id":76561198107925910,"connected_time":1433000000000,"state":"active","ping":144},{"user_id":97,"name":"Noctis","steam_id":76561198845208323,"connected_time":920000000000,"state":"active","ping":102},{"user_id":109,"name":"amanofboys91","steam_id":76561199474653798,"connected_time":401000000000,"state":"active","ping":136},{"user_id":89,"name":"Jewrybullxxx","steam_id":76561198143826450,"connected_time":1199000000000,"state":"active","ping":66},{"user_id":110,"name":"Guns Blazing","steam_id":76561198379461118,"connected_time":373000000000,"state":"active","ping":55},{"user_id":107,"name":"Rue","steam_id":76561198013135993,"connected_time":485000000000,"state":"active","ping":39},{"user_id":15,"name":"Fashion","steam_id":76561198056788026,"connected_time":5735000000000,"state":"active","ping":72},{"user_id":106,"name":"oddlyobtuselemon1654","steam_id":76561198877069773,"connected_time":547000000000,"state":"active","ping":85},{"user_id":93,"name":"Marl Karx","steam_id":76561198396797516,"connected_time":1088000000000,"state":"active","ping":148},{"user_id":94,"name":"dr sex, md (sexologist)","steam_id":76561198115874625,"connected_time":1049000000000,"state":"active","ping":70},{"user_id":55,"name":"Frank the Tank","steam_id":76561198014574925,"connected_time":3228000000000,"state":"active","ping":74},{"user_id":56,"name":"Matt","steam_id":76561198008108521,"connected_time":3220000000000,"state":"active","ping":60},{"user_id":95,"name":"5KY13R","steam_id":76561198027603266,"connected_time":1039000000000,"state":"active","ping":59},{"user_id":98,"name":"Mg330","steam_id":76561199438395728,"connected_time":897000000000,"state":"active","ping":98},{"user_id":113,"name":"send dudes","steam_id":76561198084277762,"connected_time":168000000000,"state":"active","ping":38},{"user_id":108,"name":"lafiesta","steam_id":76561198047355912,"connected_time":439000000000,"state":"active","ping":58},{"user_id":111,"name":"Doorman","steam_id":76561199043284744,"connected_time":356000000000,"state":"active","ping":105},{"user_id":104,"name":"Nick","steam_id":76561199077079827,"connected_time":700000000000,"state":"active","ping":64},{"user_id":112,"name":"Fraglin","steam_id":76561198124964000,"connected_time":353000000000,"state":"active","ping":66}]},{"server_id":302,"name":"Uncletopia | Montr√©al | 3 | All Maps","name_short":"mtl-3","host":"mtl-1.ca.uncletopia.com","port":27035,"enabled":true,"region":"us-east","cc":"ca","latitude":45.50889,"longitude":-73.56167,"reserved":0,"last_update":"0001-01-01T00:00:00Z","name_a2s":"Uncletopia | Montr√©al | 3 | All Maps","protocol":17,"map":"pl_barnblitz","folder":"tf","game":"Team Fortress","app_id":440,"player_count":0,"max_players":24,"Bots":0,"server_type":"Dedicated","server_os":"Linux","password":true,"vac":true,"version":"7882260","steam_id":85568392924500089,"keywords":["nocrits","nodmgspread","payload","uncletopia"],"game_id":440,"stv_port":27036,"stv_name":"Uncletopia | Montr√©al | 3 | All Maps | STV","players":null},{"server_id":303,"name":"Uncletopia | Montr√©al | 4 | No Payload","name_short":"mtl-4","host":"mtl-1.ca.uncletopia.com","port":27045,"enabled":true,"region":"us-east","cc":"ca","latitude":45.50889,"longitude":-73.56167,"reserved":0,"last_update":"0001-01-01T00:00:00Z","name_a2s":"Uncletopia | Montr√©al | 4 | No Payload","protocol":17,"map":"koth_harvest_final","folder":"tf","game":"Team Fortress","app_id":440,"player_count":0,"max_players":24,"Bots":0,"server_type":"Dedicated","server_os":"Linux","password":true,"vac":true,"version":"7882260","steam_id":85568392924500090,"keywords":["cp","nocrits","nodmgspread","uncletopia"],"game_id":440,"stv_port":27046,"stv_name":"Uncletopia | Montr√©al | 4 | No Payload | STV","players":null},{"server_id":13,"name":"Uncletopia | New York City | 1 | All Maps","name_short":"nyc-1","host":"nyc-1.us.uncletopia.com","port":27015,"enabled":true,"region":"us-east","cc":"us","latitude":40.73061,"longitude":-73.93524,"reserved":0,"last_update":"0001-01-01T00:00:00Z","name_a2s":"Uncletopia | New York City | 1 | All Maps","protocol":17,"map":"cp_mossrock","folder":"tf","game":"Team Fortress","app_id":440,"player_count":24,"max_players":24,"Bots":0,"server_type":"Dedicated","server_os":"Linux","password":true,"vac":true,"version":"7882260","steam_id":85568392924469993,"keywords":["cp","nocrits","nodmgspread","uncletopia"],"game_id":440,"stv_port":27016,"stv_name":"Uncletopia | New York City | 1 | All Maps | STV","players":[{"user_id":457,"name":"WALL-E","steam_id":76561198154701370,"connected_time":285000000000,"state":"active","ping":74},{"user_id":439,"name":"darrenrichardson.ohva","steam_id":76561198427938861,"connected_time":2703000000000,"state":"active","ping":78},{"user_id":448,"name":"Wattle","steam_id":76561198036756626,"connected_time":1805000000000,"state":"active","ping":58},{"user_id":429,"name":"Juan Pablo Gonzalez 2023","steam_id":76561199197961413,"connected_time":3088000000000,"state":"active","ping":45},{"user_id":460,"name":"amablehughes","steam_id":76561199007131236,"connected_time":205000000000,"state":"active","ping":62},{"user_id":461,"name":"IExist","steam_id":76561199048998153,"connected_time":162000000000,"state":"active","ping":57},{"user_id":463,"name":"Frank the Atomic Green Been","steam_id":76561198147300992,"connected_time":74000000000,"state":"active","ping":58},{"user_id":431,"name":"Benis Gonzalez","steam_id":76561198799391259,"connected_time":2909000000000,"state":"active","ping":130},{"user_id":464,"name":"Richthegamerguy","steam_id":76561198119595413,"connected_time":50000000000,"state":"spawning","ping":48},{"user_id":465,"name":"laddie","steam_id":76561198063029230,"connected_time":41000000000,"state":"active","ping":54},{"user_id":466,"name":"The_Skull_boy","steam_id":76561198227692664,"connected_time":37000000000,"state":"active","ping":120},{"user_id":376,"name":"GanZ","steam_id":76561199378883538,"connected_time":8363000000000,"state":"active","ping":72},{"user_id":433,"name":"Bee","steam_id":76561198074681324,"connected_time":2890000000000,"state":"active","ping":45},{"user_id":408,"name":"M249 | Spectre","steam_id":76561198118334485,"connected_time":4561000000000,"state":"active","ping":68},{"user_id":446,"name":"tinkercrab11","steam_id":76561198881792140,"connected_time":1954000000000,"state":"active","ping":65},{"user_id":424,"name":"Junkfish","steam_id":76561199168630846,"connected_time":3508000000000,"state":"active","ping":66},{"user_id":450,"name":"Magnet Dood","steam_id":76561198364178746,"connected_time":1417000000000,"state":"active","ping":72},{"user_id":453,"name":"DrMisteryous2","steam_id":76561198336307012,"connected_time":919000000000,"state":"active","ping":181},{"user_id":454,"name":"agert","steam_id":76561199028751406,"connected_time":826000000000,"state":"active","ping":82},{"user_id":435,"name":"MoonMan","steam_id":76561198196754081,"connected_time":2862000000000,"state":"active","ping":52},{"user_id":467,"name":"milk","steam_id":76561198813251405,"connected_time":29000000000,"state":"active","ping":52},{"user_id":455,"name":"Dream Witch","steam_id":76561198060135722,"connected_time":546000000000,"state":"active","ping":78},{"user_id":468,"name":"i have sex (:","steam_id":76561198313364985,"connected_time":14000000000,"state":"spawning","ping":89},{"user_id":416,"name":"Waffle Wannabe","steam_id":76561198064510650,"connected_time":3656000000000,"state":"active","ping":54}]},{"server_id":14,"name":"Uncletopia | New York City | 2 | All Maps","name_short":"nyc-2","host":"nyc-1.us.uncletopia.com","port":27025,"enabled":true,"region":"us-east","cc":"us","latitude":40.73061,"longitude":-73.93524,"reserved":0,"last_update":"0001-01-01T00:00:00Z","name_a2s":"Uncletopia | New York City | 2 | All Maps","protocol":17,"map":"koth_sawmill","folder":"tf","game":"Team Fortress","app_id":440,"player_count":23,"max_players":24,"Bots":0,"server_type":"Dedicated","server_os":"Linux","password":true,"vac":true,"version":"7882260","steam_id":85568392924469994,"keywords":["cp","nocrits","nodmgspread","uncletopia"],"game_id":440,"stv_port":27026,"stv_name":"Uncletopia | New York City | 2 | All Maps | STV","players":[{"user_id":381,"name":"glue sniffer","steam_id":76561198044689778,"connected_time":3715000000000,"state":"active","ping":47},{"user_id":406,"name":"Shattered Glass","steam_id":76561198116835391,"connected_time":1680000000000,"state":"active","ping":87},{"user_id":427,"name":"\u003cUsername Unknown\u003e","steam_id":76561198255311543,"connected_time":215000000000,"state":"active","ping":68},{"user_id":389,"name":"Neocherry","steam_id":76561198137036962,"connected_time":2838000000000,"state":"active","ping":104},{"user_id":428,"name":"tntexplosion","steam_id":76561199090152308,"connected_time":166000000000,"state":"active","ping":117},{"user_id":297,"name":"Gentoo Linux Gaming","steam_id":76561197999657118,"connected_time":10295000000000,"state":"active","ping":64},{"user_id":424,"name":"caberknight tf2","steam_id":76561199148536553,"connected_time":688000000000,"state":"active","ping":186},{"user_id":416,"name":"Diarrhea Gaming","steam_id":76561198090589784,"connected_time":1134000000000,"state":"active","ping":73},{"user_id":387,"name":"DarkWolf","steam_id":76561198392222947,"connected_time":2864000000000,"state":"active","ping":97},{"user_id":429,"name":"sunglasses","steam_id":76561198173747227,"connected_time":72000000000,"state":"active","ping":68},{"user_id":417,"name":"Pixel","steam_id":76561198096221632,"connected_time":1124000000000,"state":"active","ping":61},{"user_id":430,"name":"Bl√∏ssm","steam_id":76561198317538650,"connected_time":17000000000,"state":"active","ping":168},{"user_id":422,"name":"chroma","steam_id":76561198050188632,"connected_time":767000000000,"state":"active","ping":49},{"user_id":399,"name":"I crash into ice cream trucks","steam_id":76561198078565975,"connected_time":2363000000000,"state":"active","ping":48},{"user_id":419,"name":"BUCKY!","steam_id":76561198400316901,"connected_time":1068000000000,"state":"active","ping":77},{"user_id":418,"name":"Fredrick","steam_id":76561197981419964,"connected_time":1093000000000,"state":"active","ping":50},{"user_id":413,"name":"clancy","steam_id":76561199294116951,"connected_time":1412000000000,"state":"active","ping":146},{"user_id":410,"name":"Slazzer","steam_id":76561198404351844,"connected_time":1620000000000,"state":"active","ping":63},{"user_id":378,"name":"meat glasses","steam_id":76561198046742645,"connected_time":4711000000000,"state":"active","ping":60},{"user_id":420,"name":"playfasteatass","steam_id":76561198019284001,"connected_time":942000000000,"state":"active","ping":64},{"user_id":400,"name":"Estradiol yummy","steam_id":76561198085813708,"connected_time":2257000000000,"state":"active","ping":70},{"user_id":425,"name":"Pocket Medic Girlfriend","steam_id":76561198378587138,"connected_time":515000000000,"state":"active","ping":106},{"user_id":415,"name":"kramer","steam_id":76561198117761965,"connected_time":1174000000000,"state":"active","ping":58}]},{"server_id":15,"name":"Uncletopia | New York City | 3 | Stopwatch Beta","name_short":"nyc-3","host":"nyc-1.us.uncletopia.com","port":27035,"enabled":true,"region":"us-east","cc":"us","latitude":40.73061,"longitude":-73.93524,"reserved":0,"last_update":"0001-01-01T00:00:00Z","name_a2s":"Uncletopia | New York City | 3 | Stopwatch Beta","protocol":17,"map":"workshop/koth_bagel_rc6.ugc2514036946","folder":"tf","game":"Team Fortress","app_id":440,"player_count":0,"max_players":24,"Bots":0,"server_type":"Dedicated","server_os":"Linux","password":true,"vac":true,"version":"7882260","steam_id":85568392924742820,"keywords":["cp","nocrits","nodmgspread","uncletopia"],"game_id":440,"stv_port":27036,"stv_name":"Uncletopia | New York City | 3 | Stopwatch Beta | STV","players":null},{"server_id":16,"name":"Uncletopia | New York City | 4 | Community","name_short":"nyc-4","host":"nyc-1.us.uncletopia.com","port":27045,"enabled":true,"region":"us-east","cc":"us","latitude":40.73061,"longitude":-73.93524,"reserved":0,"last_update":"0001-01-01T00:00:00Z","name_a2s":"Uncletopia | New York City | 4 | Community","protocol":17,"map":"workshop/pl_vigil_rc9.ugc1266210012","folder":"tf","game":"Team Fortress","app_id":440,"player_count":21,"max_players":24,"Bots":0,"server_type":"Dedicated","server_os":"Linux","password":true,"vac":true,"version":"7882260","steam_id":85568392924742821,"keywords":["nocrits","nodmgspread","payload","uncletopia"],"game_id":440,"stv_port":27046,"stv_name":"Uncletopia | New York City | 4 | Community | STV","players":[{"user_id":159,"name":"Potato Zilla","steam_id":76561199220230400,"connected_time":2632000000000,"state":"active","ping":73},{"user_id":201,"name":"supermannx","steam_id":76561198142124129,"connected_time":674000000000,"state":"spawning","ping":321},{"user_id":140,"name":"gorf?","steam_id":76561198142286417,"connected_time":3688000000000,"state":"active","ping":104},{"user_id":163,"name":"Un-Destroyer","steam_id":76561199441945270,"connected_time":2599000000000,"state":"active","ping":80},{"user_id":179,"name":"code","steam_id":76561199221385501,"connected_time":1596000000000,"state":"active","ping":134},{"user_id":193,"name":"YourExGayLover","steam_id":76561198041460359,"connected_time":961000000000,"state":"active","ping":47},{"user_id":202,"name":"help","steam_id":76561199056338917,"connected_time":364000000000,"state":"active","ping":76},{"user_id":200,"name":"Jacob lft","steam_id":76561198004630011,"connected_time":838000000000,"state":"active","ping":63},{"user_id":187,"name":"Sputnix","steam_id":76561198236857310,"connected_time":1394000000000,"state":"active","ping":45},{"user_id":203,"name":"Fillanator","steam_id":76561198046517563,"connected_time":335000000000,"state":"active","ping":69},{"user_id":184,"name":"Beebo","steam_id":76561198042271448,"connected_time":1447000000000,"state":"active","ping":40},{"user_id":135,"name":"TheCaberMagnet","steam_id":76561198796383697,"connected_time":3758000000000,"state":"active","ping":70},{"user_id":204,"name":"Rex","steam_id":76561199132866589,"connected_time":326000000000,"state":"active","ping":130},{"user_id":158,"name":"Rx Auntie","steam_id":76561198051618393,"connected_time":2638000000000,"state":"active","ping":45},{"user_id":148,"name":"LaggyDude7","steam_id":76561198124813666,"connected_time":3164000000000,"state":"active","ping":51},{"user_id":205,"name":"leonardo doujinshi","steam_id":76561198025810326,"connected_time":153000000000,"state":"active","ping":75},{"user_id":198,"name":"Sneetch [sRb]","steam_id":76561197996693506,"connected_time":884000000000,"state":"active","ping":99},{"user_id":185,"name":"Darathus","steam_id":76561198069120720,"connected_time":1440000000000,"state":"active","ping":107},{"user_id":189,"name":"Cuttle's Fish","steam_id":76561198280483257,"connected_time":1314000000000,"state":"active","ping":63},{"user_id":177,"name":"duane (stinks good)","steam_id":76561198149565822,"connected_time":1953000000000,"state":"spawning","ping":115},{"user_id":192,"name":"drought","steam_id":76561198094512992,"connected_time":1000000000000,"state":"active","ping":61}]},{"server_id":142,"name":"Uncletopia | S√£o Paulo | 1 | All Maps","name_short":"sao-1","host":"sao-1.br.uncletopia.com","port":27015,"enabled":true,"region":"sa","cc":"br","latitude":-23.533773,"longitude":-46.62529,"reserved":0,"last_update":"0001-01-01T00:00:00Z","name_a2s":"Uncletopia | S√£o Paulo | 1 | All Maps","protocol":17,"map":"koth_lakeside_final","folder":"tf","game":"Team Fortress","app_id":440,"player_count":0,"max_players":24,"Bots":0,"server_type":"Dedicated","server_os":"Linux","password":true,"vac":true,"version":"7882260","steam_id":85568392924469996,"keywords":["cp","nocrits","nodmgspread","uncletopia"],"game_id":440,"stv_port":27016,"stv_name":"Uncletopia | S√£o Paulo | 1 | All Maps | STV","players":null},{"server_id":143,"name":"Uncletopia | S√£o Paulo | 2 | All Maps","name_short":"sao-2","host":"sao-2.br.uncletopia.com","port":27015,"enabled":true,"region":"sa","cc":"br","latitude":-23.533773,"longitude":-46.62529,"reserved":0,"last_update":"0001-01-01T00:00:00Z","name_a2s":"Uncletopia | S√£o Paulo | 2 | All Maps","protocol":17,"map":"cp_dustbowl","folder":"tf","game":"Team Fortress","app_id":440,"player_count":19,"max_players":24,"Bots":0,"server_type":"Dedicated","server_os":"Linux","password":true,"vac":true,"version":"7882260","steam_id":85568392924485349,"keywords":["cp","nocrits","nodmgspread","uncletopia"],"game_id":440,"stv_port":27016,"stv_name":"Uncletopia | S√£o Paulo | 2 | All Maps | STV","players":[{"user_id":261,"name":"guiso de porqueria....","steam_id":76561198302870271,"connected_time":1408000000000,"state":"active","ping":60},{"user_id":266,"name":"[G.C]guiso de manaos","steam_id":76561198208421807,"connected_time":1216000000000,"state":"active","ping":76},{"user_id":281,"name":"ShadowHawky","steam_id":76561198163775303,"connected_time":520000000000,"state":"active","ping":184},{"user_id":286,"name":"Walter","steam_id":76561198070129152,"connected_time":178000000000,"state":"active","ping":57},{"user_id":263,"name":"red","steam_id":76561198172912625,"connected_time":1343000000000,"state":"active","ping":66},{"user_id":283,"name":"ARK","steam_id":76561198253139686,"connected_time":396000000000,"state":"active","ping":96},{"user_id":224,"name":"Stalin","steam_id":76561198073356694,"connected_time":3191000000000,"state":"active","ping":68},{"user_id":252,"name":"john gutter","steam_id":76561198259690529,"connected_time":1575000000000,"state":"active","ping":118},{"user_id":278,"name":"Dutra","steam_id":76561199135404566,"connected_time":796000000000,"state":"active","ping":47},{"user_id":223,"name":"Filthcomet","steam_id":76561199439861484,"connected_time":3276000000000,"state":"active","ping":70},{"user_id":232,"name":"brg","steam_id":76561198049993814,"connected_time":2793000000000,"state":"active","ping":60},{"user_id":258,"name":"[G.C]guiso de anashe","steam_id":76561198825900597,"connected_time":1429000000000,"state":"active","ping":86},{"user_id":268,"name":"migay (sim, \"migay\" de \"mickey\"","steam_id":76561199150151109,"connected_time":1186000000000,"state":"active","ping":59},{"user_id":273,"name":"kimchiking82","steam_id":76561198008423339,"connected_time":995000000000,"state":"active","ping":159},{"user_id":279,"name":"MrRodje‚Ñ¢","steam_id":76561198058756855,"connected_time":765000000000,"state":"active","ping":71},{"user_id":284,"name":"eduduao","steam_id":76561199066246644,"connected_time":362000000000,"state":"active","ping":79},{"user_id":280,"name":"Pap","steam_id":76561198976053500,"connected_time":762000000000,"state":"active","ping":195},{"user_id":242,"name":"H√©rcules","steam_id":76561199017999458,"connected_time":2343000000000,"state":"active","ping":84},{"user_id":217,"name":"Carnip","steam_id":76561198130005329,"connected_time":3671000000000,"state":"active","ping":47}]},{"server_id":7,"name":"Uncletopia | Seattle | 1 | All Maps","name_short":"sea-1","host":"sea-1.us.uncletopia.com","port":27015,"enabled":true,"region":"us-west","cc":"us","latitude":47.608013,"longitude":-122.33517,"reserved":0,"last_update":"0001-01-01T00:00:00Z","name_a2s":"Uncletopia | Seattle | 1 | All Maps","protocol":17,"map":"cp_well","folder":"tf","game":"Team Fortress","app_id":440,"player_count":24,"max_players":24,"Bots":0,"server_type":"Dedicated","server_os":"Linux","password":true,"vac":true,"version":"7882260","steam_id":85568392924469997,"keywords":["cp","nocrits","nodmgspread","uncletopia"],"game_id":440,"stv_port":27016,"stv_name":"Uncletopia | Seattle | 1 | All Maps | STV","players":[{"user_id":421,"name":"Willy Wonker","steam_id":76561198082944789,"connected_time":3387000000000,"state":"active","ping":90},{"user_id":453,"name":"Sadodere Grimace","steam_id":76561198008332028,"connected_time":1013000000000,"state":"active","ping":85},{"user_id":454,"name":"Clear Sights","steam_id":76561198006215683,"connected_time":998000000000,"state":"active","ping":105},{"user_id":429,"name":"The Super Mario Bros. Movie","steam_id":76561198871692156,"connected_time":3049000000000,"state":"active","ping":45},{"user_id":430,"name":"makeshift_burrito","steam_id":76561198042510825,"connected_time":2833000000000,"state":"active","ping":67},{"user_id":455,"name":"Hawksgamer","steam_id":76561198152405941,"connected_time":923000000000,"state":"active","ping":54},{"user_id":446,"name":" ≥·µí ∏·µí","steam_id":76561198155447646,"connected_time":1289000000000,"state":"active","ping":124},{"user_id":414,"name":"forest (girldick)","steam_id":76561198157960257,"connected_time":4127000000000,"state":"active","ping":43},{"user_id":461,"name":"dansal","steam_id":76561197997042510,"connected_time":625000000000,"state":"active","ping":119},{"user_id":423,"name":"jayeskae","steam_id":76561198144220801,"connected_time":3341000000000,"state":"active","ping":45},{"user_id":443,"name":"Mr8bittripper","steam_id":76561198133894229,"connected_time":1386000000000,"state":"active","ping":45},{"user_id":420,"name":"Boyaredeen","steam_id":76561198880492636,"connected_time":3596000000000,"state":"active","ping":56},{"user_id":463,"name":"Shaggy Brando","steam_id":76561198862922651,"connected_time":297000000000,"state":"active","ping":105},{"user_id":467,"name":"Chol","steam_id":76561198122054259,"connected_time":36000000000,"state":"spawning","ping":134},{"user_id":442,"name":"Piggy","steam_id":76561198000399862,"connected_time":1455000000000,"state":"active","ping":88},{"user_id":464,"name":"Neil \"the grass\" tyson","steam_id":76561198872345538,"connected_time":219000000000,"state":"active","ping":85},{"user_id":334,"name":"Flesh Eating Turtle","steam_id":76561198116742139,"connected_time":9114000000000,"state":"active","ping":55},{"user_id":426,"name":"HaphazardHazel","steam_id":76561198316812693,"connected_time":3135000000000,"state":"active","ping":128},{"user_id":440,"name":"Mitchell","steam_id":76561197972922328,"connected_time":1578000000000,"state":"active","ping":85},{"user_id":451,"name":"littlecatking","steam_id":76561199041359755,"connected_time":1257000000000,"state":"active","ping":136},{"user_id":438,"name":"Ducks","steam_id":76561198130038345,"connected_time":1794000000000,"state":"active","ping":65},{"user_id":458,"name":"Board","steam_id":76561198134326473,"connected_time":768000000000,"state":"active","ping":69},{"user_id":465,"name":"Rave Cat","steam_id":76561198026369683,"connected_time":181000000000,"state":"active","ping":87},{"user_id":406,"name":"Themasterman75","steam_id":76561199385573293,"connected_time":4719000000000,"state":"active","ping":73}]},{"server_id":119,"name":"Uncletopia | Seattle | 2 | All Maps","name_short":"sea-2","host":"sea-1.us.uncletopia.com","port":27025,"enabled":true,"region":"us-west","cc":"us","latitude":47.608013,"longitude":-122.33517,"reserved":0,"last_update":"0001-01-01T00:00:00Z","name_a2s":"Uncletopia | Seattle | 2 | All Maps","protocol":17,"map":"pl_pier","folder":"tf","game":"Team Fortress","app_id":440,"player_count":24,"max_players":24,"Bots":0,"server_type":"Dedicated","server_os":"Linux","password":true,"vac":true,"version":"7882260","steam_id":85568392924469998,"keywords":["nocrits","nodmgspread","payload","uncletopia"],"game_id":440,"stv_port":27026,"stv_name":"Uncletopia | Seattle | 2 | All Maps | STV","players":[{"user_id":315,"name":"Vincent Van Bro","steam_id":76561197966919802,"connected_time":38000000000,"state":"active","ping":72},{"user_id":313,"name":"090-nsalih","steam_id":76561199467467873,"connected_time":213000000000,"state":"spawning","ping":183},{"user_id":283,"name":"rizz god","steam_id":76561198210322871,"connected_time":1697000000000,"state":"active","ping":67},{"user_id":306,"name":"[Bandit]","steam_id":76561197986919852,"connected_time":636000000000,"state":"active","ping":80},{"user_id":165,"name":"Dunkle","steam_id":76561198041903573,"connected_time":11252000000000,"state":"active","ping":73},{"user_id":288,"name":"jBracko","steam_id":76561198019261602,"connected_time":1521000000000,"state":"active","ping":58},{"user_id":307,"name":"wario 5789","steam_id":76561198848119263,"connected_time":605000000000,"state":"spawning","ping":48},{"user_id":304,"name":"KellyKapoor","steam_id":76561198040828123,"connected_time":646000000000,"state":"spawning","ping":78},{"user_id":300,"name":"Ryld","steam_id":76561198010174380,"connected_time":996000000000,"state":"active","ping":97},{"user_id":260,"name":"shy guy","steam_id":76561198151246059,"connected_time":3270000000000,"state":"spawning","ping":120},{"user_id":293,"name":"Dongus","steam_id":76561197979056451,"connected_time":1243000000000,"state":"active","ping":84},{"user_id":314,"name":"Grungus","steam_id":76561198047700230,"connected_time":177000000000,"state":"spawning","ping":72},{"user_id":263,"name":"Kanade","steam_id":76561198088665810,"connected_time":2775000000000,"state":"active","ping":84},{"user_id":294,"name":"Swiggity369","steam_id":76561198073010682,"connected_time":1164000000000,"state":"active","ping":131},{"user_id":274,"name":"Wingman","steam_id":76561198066270405,"connected_time":2156000000000,"state":"active","ping":52},{"user_id":309,"name":"Lumer","steam_id":76561198992487609,"connected_time":474000000000,"state":"active","ping":357},{"user_id":277,"name":"Jacobzeba01","steam_id":76561198131808718,"connected_time":2103000000000,"state":"active","ping":57},{"user_id":310,"name":"MacchuPeachu","steam_id":76561199093242587,"connected_time":468000000000,"state":"spawning","ping":79},{"user_id":316,"name":"=Silver=","steam_id":76561198292307127,"connected_time":30000000000,"state":"connecting","ping":61},{"user_id":301,"name":"green bean","steam_id":76561198113099204,"connected_time":994000000000,"state":"active","ping":51},{"user_id":251,"name":"Sweatpants","steam_id":76561198097188001,"connected_time":4484000000000,"state":"spawning","ping":35},{"user_id":311,"name":"gugcat","steam_id":76561198129822860,"connected_time":322000000000,"state":"active","ping":79},{"user_id":308,"name":"captscrubby","steam_id":76561198064257591,"connected_time":580000000000,"state":"active","ping":77},{"user_id":292,"name":"ExpDelta","steam_id":76561199126443129,"connected_time":1353000000000,"state":"active","ping":125}]},{"server_id":406,"name":"Uncletopia | Seattle | 3 | Stopwatch Beta","name_short":"sea-3","host":"sea-1.us.uncletopia.com","port":27035,"enabled":true,"region":"us-west","cc":"us","latitude":47.608013,"longitude":-122.33517,"reserved":0,"last_update":"0001-01-01T00:00:00Z","name_a2s":"Uncletopia | Seattle | 3 | Stopwatch Beta","protocol":17,"map":"workshop/koth_ashville_final.ugc2130459942","folder":"tf","game":"Team Fortress","app_id":440,"player_count":0,"max_players":24,"Bots":0,"server_type":"Dedicated","server_os":"Linux","password":true,"vac":true,"version":"7882260","steam_id":85568392924515217,"keywords":["cp","nocrits","nodmgspread","uncletopia"],"game_id":440,"stv_port":27036,"stv_name":"Uncletopia | Seattle | 3 | Stopwatch Beta | STV","players":null},{"server_id":17,"name":"Uncletopia | San Francisco | 1 | All Maps","name_short":"sfo-1","host":"sfo-1.us.uncletopia.com","port":27015,"enabled":true,"region":"us-west","cc":"us","latitude":37.77397,"longitude":-122.4313,"reserved":0,"last_update":"0001-01-01T00:00:00Z","name_a2s":"Uncletopia | San Francisco | 1 | All Maps","protocol":17,"map":"cp_process_final","folder":"tf","game":"Team Fortress","app_id":440,"player_count":0,"max_players":24,"Bots":0,"server_type":"Dedicated","server_os":"Linux","password":true,"vac":true,"version":"7757534","steam_id":85568392924469999,"keywords":["cp","nocrits","nodmgspread","uncletopia"],"game_id":440,"stv_port":27016,"stv_name":"Uncletopia | San Francisco | 1 | All Maps | STV","players":null},{"server_id":18,"name":"Uncletopia | San Francisco | 2 | All Maps","name_short":"sfo-2","host":"sfo-1.us.uncletopia.com","port":27025,"enabled":true,"region":"us-west","cc":"us","latitude":37.77397,"longitude":-122.4313,"reserved":0,"last_update":"0001-01-01T00:00:00Z","name_a2s":"Uncletopia | San Francisco | 2 | All Maps","protocol":17,"map":"koth_highpass","folder":"tf","game":"Team Fortress","app_id":440,"player_count":0,"max_players":24,"Bots":0,"server_type":"Dedicated","server_os":"Linux","password":true,"vac":true,"version":"7757534","steam_id":85568392924470000,"keywords":["cp","nocrits","nodmgspread","uncletopia"],"game_id":440,"stv_port":27026,"stv_name":"Uncletopia | San Francisco | 2 | All Maps | STV","players":null},{"server_id":19,"name":"Uncletopia | San Francisco | 3 | Stopwatch Beta","name_short":"sfo-3","host":"sfo-1.us.uncletopia.com","port":27035,"enabled":true,"region":"us-west","cc":"us","latitude":37.77397,"longitude":-122.4313,"reserved":0,"last_update":"0001-01-01T00:00:00Z","name_a2s":"Uncletopia | San Francisco | 3 | Stopwatch Beta","protocol":17,"map":"koth_lakeside_final","folder":"tf","game":"Team Fortress","app_id":440,"player_count":0,"max_players":24,"Bots":0,"server_type":"Dedicated","server_os":"Linux","password":true,"vac":true,"version":"7757534","steam_id":85568392924742824,"keywords":["cp","nocrits","nodmgspread","uncletopia"],"game_id":440,"stv_port":27036,"stv_name":"Uncletopia | San Francisco | 3 | Stopwatch Beta | STV","players":null},{"server_id":20,"name":"Uncletopia | San Francisco | 4 | Community","name_short":"sfo-4","host":"sfo-1.us.uncletopia.com","port":27045,"enabled":true,"region":"us-west","cc":"us","latitude":37.77397,"longitude":-122.4313,"reserved":0,"last_update":"0001-01-01T00:00:00Z","name_a2s":"Uncletopia | San Francisco | 4 | Community","protocol":17,"map":"cp_altitude","folder":"tf","game":"Team Fortress","app_id":440,"player_count":0,"max_players":24,"Bots":0,"server_type":"Dedicated","server_os":"Linux","password":true,"vac":true,"version":"7757534","steam_id":85568392924742826,"keywords":["cp","nocrits","nodmgspread","uncletopia"],"game_id":440,"stv_port":27046,"stv_name":"Uncletopia | San Francisco | 4 | Community | STV","players":null},{"server_id":141,"name":"Uncletopia | Sydney | 1 | All Maps","name_short":"syd-1","host":"syd-1.au.uncletopia.com","port":27015,"enabled":true,"region":"au","cc":"au","latitude":-33.865143,"longitude":151.2099,"reserved":0,"last_update":"0001-01-01T00:00:00Z","name_a2s":"Uncletopia | Sydney | 1 | All Maps","protocol":17,"map":"koth_highpass","folder":"tf","game":"Team Fortress","app_id":440,"player_count":0,"max_players":24,"Bots":0,"server_type":"Dedicated","server_os":"Linux","password":true,"vac":true,"version":"7882260","steam_id":85568392924470001,"keywords":["cp","nocrits","nodmgspread","uncletopia"],"game_id":440,"stv_port":27016,"stv_name":"Uncletopia | Sydney | 1 | All Maps | STV","players":null},{"server_id":123,"name":"Uncletopia | Sydney | 2 | All Maps","name_short":"syd-2","host":"syd-1.au.uncletopia.com","port":27025,"enabled":true,"region":"au","cc":"au","latitude":-33.865143,"longitude":151.2099,"reserved":0,"last_update":"0001-01-01T00:00:00Z","name_a2s":"Uncletopia | Sydney | 2 | All Maps","protocol":17,"map":"pl_barnblitz","folder":"tf","game":"Team Fortress","app_id":440,"player_count":0,"max_players":24,"Bots":0,"server_type":"Dedicated","server_os":"Linux","password":true,"vac":true,"version":"7882260","steam_id":85568392924470002,"keywords":["nocrits","nodmgspread","payload","uncletopia"],"game_id":440,"stv_port":27026,"stv_name":"Uncletopia | Sydney | 2 | All Maps | STV","players":null},{"server_id":395,"name":"Uncletopia | Sydney | 3 | All Maps","name_short":"syd-3","host":"syd-1.au.uncletopia.com","port":27035,"enabled":true,"region":"au","cc":"au","latitude":-33.865143,"longitude":151.2099,"reserved":0,"last_update":"0001-01-01T00:00:00Z","name_a2s":"Uncletopia | Sydney | 3 | All Maps","protocol":17,"map":"pl_badwater","folder":"tf","game":"Team Fortress","app_id":440,"player_count":0,"max_players":24,"Bots":0,"server_type":"Dedicated","server_os":"Linux","password":true,"vac":true,"version":"7882260","steam_id":85568392925194467,"keywords":["nocrits","nodmgspread","payload","uncletopia"],"game_id":440,"stv_port":27036,"stv_name":"Uncletopia | Sydney | 3 | All Maps | STV","players":null},{"server_id":396,"name":"Uncletopia | Sydney | 4 | All Maps","name_short":"syd-4","host":"syd-1.au.uncletopia.com","port":27045,"enabled":true,"region":"au","cc":"au","latitude":-33.865143,"longitude":151.2099,"reserved":0,"last_update":"0001-01-01T00:00:00Z","name_a2s":"Uncletopia | Sydney | 4 | All Maps","protocol":17,"map":"pl_upward","folder":"tf","game":"Team Fortress","app_id":440,"player_count":0,"max_players":24,"Bots":0,"server_type":"Dedicated","server_os":"Linux","password":true,"vac":true,"version":"7882260","steam_id":85568392925397958,"keywords":["nocrits","nodmgspread","payload","uncletopia"],"game_id":440,"stv_port":27046,"stv_name":"Uncletopia | Sydney | 4 | All Maps | STV","players":null},{"server_id":58,"name":"Uncletopia | Sydney | 5 | Stopwatch Beta","name_short":"syd-5","host":"syd-1.au.uncletopia.com","port":27055,"enabled":true,"region":"au","cc":"au","latitude":-33.865143,"longitude":151.2099,"reserved":0,"last_update":"0001-01-01T00:00:00Z","name_a2s":"Uncletopia | Sydney | 5 | Stopwatch Beta","protocol":17,"map":"cp_snakewater_final1","folder":"tf","game":"Team Fortress","app_id":440,"player_count":0,"max_players":24,"Bots":0,"server_type":"Dedicated","server_os":"Linux","password":true,"vac":true,"version":"7882260","steam_id":85568392925397959,"keywords":["cp","nocrits","nodmgspread","uncletopia"],"game_id":440,"stv_port":27056,"stv_name":"Uncletopia | Sydney | 5 | Stopwatch Beta | STV","players":null},{"server_id":59,"name":"Uncletopia | Sydney | 6 | Community","name_short":"syd-6","host":"syd-1.au.uncletopia.com","port":27065,"enabled":true,"region":"au","cc":"au","latitude":-33.865143,"longitude":151.2099,"reserved":0,"last_update":"0001-01-01T00:00:00Z","name_a2s":"Uncletopia | Sydney | 6 | Community","protocol":17,"map":"pl_snowycoast","folder":"tf","game":"Team Fortress","app_id":440,"player_count":0,"max_players":24,"Bots":0,"server_type":"Dedicated","server_os":"Linux","password":true,"vac":true,"version":"7882260","steam_id":85568392925397960,"keywords":["nocrits","nodmgspread","payload","uncletopia"],"game_id":440,"stv_port":27066,"stv_name":"Uncletopia | Sydney | 6 | Community | STV","players":null},{"server_id":49,"name":"Uncletopia | Warsaw | 1 | All Maps","name_short":"waw-1","host":"waw-1.pl.uncletopia.com","port":27015,"enabled":true,"region":"eu","cc":"pl","latitude":52.2297,"longitude":21.017532,"reserved":0,"last_update":"0001-01-01T00:00:00Z","name_a2s":"","protocol":0,"map":"","folder":"","game":"","app_id":0,"player_count":0,"max_players":0,"Bots":0,"server_type":"","server_os":"","password":false,"vac":false,"version":"","steam_id":0,"keywords":null,"game_id":0,"stv_port":0,"stv_name":"","players":null},{"server_id":50,"name":"Uncletopia | Warsaw | 2 | All Maps","name_short":"waw-2","host":"waw-1.pl.uncletopia.com","port":27025,"enabled":true,"region":"eu","cc":"pl","latitude":52.2297,"longitude":21.017532,"reserved":0,"last_update":"0001-01-01T00:00:00Z","name_a2s":"Uncletopia | Warsaw | 2 | All Maps","protocol":17,"map":"koth_cascade","folder":"tf","game":"Team Fortress","app_id":440,"player_count":0,"max_players":24,"Bots":0,"server_type":"Dedicated","server_os":"Linux","password":true,"vac":true,"version":"7882260","steam_id":85568392925397851,"keywords":["cp","nocrits","nodmgspread","uncletopia"],"game_id":440,"stv_port":27026,"stv_name":"Uncletopia | Warsaw | 2 | All Maps | STV","players":null},{"server_id":51,"name":"Uncletopia | Warsaw | 3 | All Maps","name_short":"waw-3","host":"waw-1.pl.uncletopia.com","port":27035,"enabled":true,"region":"eu","cc":"pl","latitude":52.2297,"longitude":21.017532,"reserved":0,"last_update":"0001-01-01T00:00:00Z","name_a2s":"Uncletopia | Warsaw | 3 | All Maps","protocol":17,"map":"pl_frontier_final","folder":"tf","game":"Team Fortress","app_id":440,"player_count":0,"max_players":24,"Bots":0,"server_type":"Dedicated","server_os":"Linux","password":true,"vac":true,"version":"7882260","steam_id":85568392925397852,"keywords":["nocrits","nodmgspread","payload","uncletopia"],"game_id":440,"stv_port":27036,"stv_name":"Uncletopia | Warsaw | 3 | All Maps | STV","players":null},{"server_id":52,"name":"Uncletopia | Warsaw | 4 | All Maps","name_short":"waw-4","host":"waw-1.pl.uncletopia.com","port":27045,"enabled":true,"region":"eu","cc":"pl","latitude":52.2297,"longitude":21.017532,"reserved":0,"last_update":"0001-01-01T00:00:00Z","name_a2s":"Uncletopia | Warsaw | 4 | All Maps","protocol":17,"map":"pl_frontier_final","folder":"tf","game":"Team Fortress","app_id":440,"player_count":0,"max_players":24,"Bots":0,"server_type":"Dedicated","server_os":"Linux","password":true,"vac":true,"version":"7882260","steam_id":85568392925397853,"keywords":["nocrits","nodmgspread","payload","uncletopia"],"game_id":440,"stv_port":27046,"stv_name":"Uncletopia | Warsaw | 4 | All Maps | STV","players":null},{"server_id":53,"name":"Uncletopia | Warsaw | 5 | Stopwatch Beta","name_short":"waw-5","host":"waw-1.pl.uncletopia.com","port":27055,"enabled":true,"region":"eu","cc":"pl","latitude":52.2297,"longitude":21.017532,"reserved":0,"last_update":"0001-01-01T00:00:00Z","name_a2s":"Uncletopia | Warsaw | 5 | Stopwatch Beta","protocol":17,"map":"workshop/koth_bagel_rc6.ugc2514036946","folder":"tf","game":"Team Fortress","app_id":440,"player_count":0,"max_players":24,"Bots":0,"server_type":"Dedicated","server_os":"Linux","password":true,"vac":true,"version":"7882260","steam_id":85568392925397854,"keywords":["cp","nocrits","nodmgspread","uncletopia"],"game_id":440,"stv_port":27056,"stv_name":"Uncletopia | Warsaw | 5 | Stopwatch Beta | STV","players":null},{"server_id":54,"name":"Uncletopia | Warsaw | 6 | Community","name_short":"waw-6","host":"waw-1.pl.uncletopia.com","port":27065,"enabled":true,"region":"eu","cc":"pl","latitude":52.2297,"longitude":21.017532,"reserved":0,"last_update":"0001-01-01T00:00:00Z","name_a2s":"Uncletopia | Warsaw | 6 | Community","protocol":17,"map":"workshop/koth_bagel_rc6.ugc2514036946","folder":"tf","game":"Team Fortress","app_id":440,"player_count":0,"max_players":24,"Bots":0,"server_type":"Dedicated","server_os":"Linux","password":true,"vac":true,"version":"7882260","steam_id":85568392925397856,"keywords":["cp","nocrits","nodmgspread","uncletopia"],"game_id":440,"stv_port":27066,"stv_name":"Uncletopia | Warsaw | 6 | Community | STV","players":null}]}