{"status":true,"message":"","result":[{"server_id":9,"name":"Uncletopia | Atlanta | 1 | All Maps","name_short":"atl-1","host":"atl-1.us.uncletopia.com","port":27015,"enabled":true,"region":"us-east","cc":"us","latitude":33.753746,"longitude":-84.38633,"reserved":0,"last_update":"0001-01-01T00:00:00Z","name_a2s":"Uncletopia | Atlanta | 1 | All Maps","protocol":17,"map":"pl_upward","folder":"tf","game":"Team Fortress","app_id":440,"player_count":24,"max_players":24,"Bots":0,"server_type":"Dedicated","server_os":"Linux","password":true,"vac":true,"version":"7742253","steam_id":85568392924469982,"keywords":["nocrits","nodmgspread","payload","uncletopia"],"game_id":440,"stv_port":27016,"stv_name":"Uncletopia | Atlanta | 1 | All Maps | STV","players":[{"user_id":653,"name":"yomokha lft","steam_id":76561198063175935,"connected_time":747000000000,"state":"active","ping":58},{"user_id":655,"name":"O.N.A","steam_id":76561198047730827,"connected_time":618000000000,"state":"active","ping":87},{"user_id":636,"name":"Zoombini16","steam_id":76561198324428992,"connected_time":1177000000000,"state":"active","ping":59},{"user_id":637,"name":"Pluto","steam_id":76561198012630802,"connected_time":1169000000000,"state":"active","ping":107},{"user_id":505,"name":"ATL1 | on my hunting trip","steam_id":76561198315341646,"connected_time":13491000000000,"state":"active","ping":57},{"user_id":626,"name":"Biggie Cheese","steam_id":76561198030835586,"connected_time":2322000000000,"state":"active","ping":75},{"user_id":588,"name":"goober","steam_id":76561198943598378,"connected_time":6205000000000,"state":"active","ping":52},{"user_id":549,"name":"Jin","steam_id":76561198119873148,"connected_time":9449000000000,"state":"active","ping":77},{"user_id":638,"name":"Presto","steam_id":76561198069293923,"connected_time":1136000000000,"state":"active","ping":77},{"user_id":657,"name":"marshmallowdragon999","steam_id":76561199129773712,"connected_time":588000000000,"state":"active","ping":102},{"user_id":632,"name":"FemboyNate","steam_id":76561198146636410,"connected_time":1516000000000,"state":"active","ping":76},{"user_id":639,"name":"MR. MODE","steam_id":76561198046775352,"connected_time":1122000000000,"state":"active","ping":105},{"user_id":640,"name":"Anxiety","steam_id":76561198365627687,"connected_time":1048000000000,"state":"active","ping":127},{"user_id":641,"name":"Duckywinner","steam_id":76561198254828139,"connected_time":1044000000000,"state":"active","ping":56},{"user_id":642,"name":"Slowboop","steam_id":76561198111076317,"connected_time":1015000000000,"state":"active","ping":65},{"user_id":643,"name":"Cpt. Bearshark00","steam_id":76561198072528090,"connected_time":1013000000000,"state":"active","ping":70},{"user_id":644,"name":"HotCoco","steam_id":76561198212382635,"connected_time":1009000000000,"state":"active","ping":80},{"user_id":662,"name":"Intro Bonito","steam_id":76561198119478838,"connected_time":119000000000,"state":"active","ping":60},{"user_id":659,"name":"kimin","steam_id":76561198263393063,"connected_time":456000000000,"state":"active","ping":155},{"user_id":660,"name":"Nash","steam_id":76561198044192734,"connected_time":432000000000,"state":"active","ping":46},{"user_id":661,"name":"Tranquil","steam_id":76561198058287648,"connected_time":245000000000,"state":"active","ping":83},{"user_id":650,"name":"Admiral Shackleford","steam_id":76561198051952755,"connected_time":884000000000,"state":"active","ping":104},{"user_id":621,"name":"Citron","steam_id":76561198278687374,"connected_time":2790000000000,"state":"active","ping":73},{"user_id":616,"name":"Drygongames","steam_id":76561198250418424,"connected_time":3304000000000,"state":"active","ping":98}]},{"server_id":400,"name":"Uncletopia | Atlanta | 3 | Stopwatch Beta","name_short":"atl-3","host":"atl-1.us.uncletopia.com","port":27035,"enabled":true,"region":"us-east","cc":"us","latitude":33.753746,"longitude":-84.38633,"reserved":0,"last_update":"0001-01-01T00:00:00Z","name_a2s":"Uncletopia | Atlanta | 3 | Stopwatch Beta","protocol":17,"map":"pl_upward","folder":"tf","game":"Team Fortress","app_id":440,"player_count":0,"max_players":24,"Bots":0,"server_type":"Dedicated","server_os":"Linux","password":true,"vac":true,"version":"7742253","steam_id":85568392924515187,"keywords":["nocrits","nodmgspread","payload","uncletopia"],"game_id":440,"stv_port":27036,"stv_name":"Uncletopia | Atlanta | 3 | Stopwatch Beta | STV","players":null},{"server_id":401,"name":"Uncletopia | Atlanta | 4 | No Payload","name_short":"atl-4","host":"atl-1.us.uncletopia.com","port":27045,"enabled":true,"region":"us-east","cc":"us","latitude":33.753746,"longitude":-84.38633,"reserved":0,"last_update":"0001-01-01T00:00:00Z","name_a2s":"Uncletopia | Atlanta | 4 | No Payload","protocol":17,"map":"pl_pier","folder":"tf","game":"Team Fortress","app_id":440,"player_count":0,"max_players":24,"Bots":0,"server_type":"Dedicated","server_os":"Linux","password":true,"vac":true,"version":"7723704","steam_id":85568392924515188,"keywords":["nocrits","nodmgspread","payload","uncletopia"],"game_id":440,"stv_port":27046,"stv_name":"Uncletopia | Atlanta | 4 | No Payload | STV","players":null},{"server_id":2,"name":"Uncletopia | Chicago | 1 | All Maps","name_short":"chi-1","host":"chi-1.us.uncletopia.com","port":27015,"enabled":true,"region":"us-central","cc":"us","latitude":41.881832,"longitude":-87.62318,"reserved":0,"last_update":"0001-01-01T00:00:00Z","name_a2s":"Uncletopia | Chicago | 1 | All Maps","protocol":17,"map":"pl_badwater","folder":"tf","game":"Team Fortress","app_id":440,"player_count":24,"max_players":24,"Bots":0,"server_type":"Dedicated","server_os":"Linux","password":true,"vac":true,"version":"7742253","steam_id":85568392924469984,"keywords":["nocrits","nodmgspread","payload","uncletopia"],"game_id":440,"stv_port":27016,"stv_name":"Uncletopia | Chicago | 1 | All Maps | STV","players":[{"user_id":779,"name":"Iycedrem","steam_id":76561198000605300,"connected_time":1940000000000,"state":"active","ping":73},{"user_id":797,"name":"Lore","steam_id":76561198098407538,"connected_time":424000000000,"state":"active","ping":48},{"user_id":796,"name":"lag","steam_id":76561197963872739,"connected_time":474000000000,"state":"active","ping":90},{"user_id":754,"name":"Zamich","steam_id":76561198087033116,"connected_time":3470000000000,"state":"active","ping":72},{"user_id":611,"name":"Daddy Senpai Chan","steam_id":76561198400204109,"connected_time":13269000000000,"state":"active","ping":58},{"user_id":773,"name":"howtobepker","steam_id":76561198115053865,"connected_time":2631000000000,"state":"active","ping":77},{"user_id":766,"name":"Dill","steam_id":76561197985091914,"connected_time":2908000000000,"state":"active","ping":62},{"user_id":780,"name":"IZISOO","steam_id":76561198970380577,"connected_time":1846000000000,"state":"active","ping":74},{"user_id":794,"name":"mommy","steam_id":76561198129195009,"connected_time":597000000000,"state":"active","ping":77},{"user_id":784,"name":"jamn","steam_id":76561198082668526,"connected_time":1554000000000,"state":"active","ping":75},{"user_id":801,"name":"Koaladollas","steam_id":76561198196967878,"connected_time":289000000000,"state":"active","ping":97},{"user_id":751,"name":"Painkiller","steam_id":76561198049787400,"connected_time":4175000000000,"state":"active","ping":92},{"user_id":763,"name":"strawberry","steam_id":76561198101926397,"connected_time":3352000000000,"state":"active","ping":54},{"user_id":802,"name":"demolitions guy","steam_id":76561198357231071,"connected_time":283000000000,"state":"active","ping":69},{"user_id":781,"name":"teruh","steam_id":76561198044842961,"connected_time":1745000000000,"state":"active","ping":51},{"user_id":752,"name":"arashsmash","steam_id":76561198277649058,"connected_time":3942000000000,"state":"active","ping":65},{"user_id":786,"name":"Jimmy","steam_id":76561197970838363,"connected_time":1386000000000,"state":"active","ping":59},{"user_id":799,"name":"goopgrabber","steam_id":76561199029951083,"connected_time":383000000000,"state":"active","ping":81},{"user_id":777,"name":"Do Moose go Moo?","steam_id":76561198073550620,"connected_time":2590000000000,"state":"active","ping":45},{"user_id":769,"name":"WitheringLeo","steam_id":76561198046722918,"connected_time":2758000000000,"state":"active","ping":77},{"user_id":742,"name":"burial","steam_id":76561198069431694,"connected_time":4798000000000,"state":"active","ping":80},{"user_id":787,"name":"cirkuu","steam_id":76561198053465042,"connected_time":1307000000000,"state":"active","ping":78},{"user_id":795,"name":"crybaby","steam_id":76561199383952901,"connected_time":572000000000,"state":"active","ping":82},{"user_id":800,"name":"golia","steam_id":76561198000264266,"connected_time":383000000000,"state":"active","ping":105}]},{"server_id":106,"name":"Uncletopia | Chicago | 2 | All Maps","name_short":"chi-2","host":"chi-1.us.uncletopia.com","port":27025,"enabled":true,"region":"us-central","cc":"us","latitude":41.881832,"longitude":-87.62318,"reserved":0,"last_update":"0001-01-01T00:00:00Z","name_a2s":"Uncletopia | Chicago | 2 | All Maps","protocol":17,"map":"koth_cascade","folder":"tf","game":"Team Fortress","app_id":440,"player_count":0,"max_players":24,"Bots":0,"server_type":"Dedicated","server_os":"Linux","password":true,"vac":true,"version":"7742253","steam_id":85568392924469985,"keywords":["cp","nocrits","nodmgspread","uncletopia"],"game_id":440,"stv_port":27026,"stv_name":"Uncletopia | Chicago | 2 | All Maps | STV","players":null},{"server_id":402,"name":"Uncletopia | Chicago | 3 | All Maps","name_short":"chi-3","host":"chi-1.us.uncletopia.com","port":27035,"enabled":true,"region":"us-central","cc":"us","latitude":41.881832,"longitude":-87.62318,"reserved":0,"last_update":"0001-01-01T00:00:00Z","name_a2s":"Uncletopia | Chicago | 3 | All Maps","protocol":17,"map":"koth_harvest_final","folder":"tf","game":"Team Fortress","app_id":440,"player_count":10,"max_players":24,"Bots":0,"server_type":"Dedicated","server_os":"Linux","password":true,"vac":true,"version":"7742253","steam_id":85568392924515191,"keywords":["cp","nocrits","nodmgspread","uncletopia"],"game_id":440,"stv_port":27036,"stv_name":"Uncletopia | Chicago | 3 | All Maps | STV","players":[{"user_id":965,"name":"charles mingus","steam_id":76561198232617936,"connected_time":2048000000000,"state":"active","ping":49},{"user_id":948,"name":"gangstalker","steam_id":76561198363267009,"connected_time":3139000000000,"state":"active","ping":66},{"user_id":857,"name":"Christmas Cretin","steam_id":76561198149063013,"connected_time":9355000000000,"state":"active","ping":81},{"user_id":967,"name":"{FITH}™ Halcyon","steam_id":76561198049132808,"connected_time":1950000000000,"state":"active","ping":63},{"user_id":932,"name":"DonoC","steam_id":76561198274473338,"connected_time":4118000000000,"state":"active","ping":80},{"user_id":972,"name":"Miller™","steam_id":76561198085090516,"connected_time":1669000000000,"state":"active","ping":76},{"user_id":935,"name":"Randy \"the Man\" Johnson","steam_id":76561198039124445,"connected_time":4011000000000,"state":"active","ping":77},{"user_id":980,"name":"BuddyMocha","steam_id":76561198054654515,"connected_time":540000000000,"state":"active","ping":42},{"user_id":890,"name":"nvm_","steam_id":76561198843128678,"connected_time":7358000000000,"state":"active","ping":44},{"user_id":982,"name":"Sir Iasis","steam_id":76561198035666760,"connected_time":303000000000,"state":"active","ping":59}]},{"server_id":403,"name":"Uncletopia | Chicago | 4 | All Maps","name_short":"chi-4","host":"chi-1.us.uncletopia.com","port":27045,"enabled":true,"region":"us-central","cc":"us","latitude":41.881832,"longitude":-87.62318,"reserved":0,"last_update":"0001-01-01T00:00:00Z","name_a2s":"Uncletopia | Chicago | 4 | All Maps","protocol":17,"map":"pl_swiftwater_final1","folder":"tf","game":"Team Fortress","app_id":440,"player_count":24,"max_players":24,"Bots":0,"server_type":"Dedicated","server_os":"Linux","password":true,"vac":true,"version":"7742253","steam_id":85568392924515193,"keywords":["nocrits","nodmgspread","payload","uncletopia"],"game_id":440,"stv_port":27046,"stv_name":"Uncletopia | Chicago | 4 | All Maps | STV","players":[{"user_id":325,"name":"Garbage","steam_id":76561198286796934,"connected_time":7817000000000,"state":"active","ping":67},{"user_id":397,"name":"Agent Ukulele","steam_id":76561198171707091,"connected_time":2880000000000,"state":"active","ping":56},{"user_id":426,"name":"sweaterfan","steam_id":76561199389567214,"connected_time":202000000000,"state":"active","ping":69},{"user_id":425,"name":"[Strange Festive Sugar Rush]","steam_id":76561198094620058,"connected_time":470000000000,"state":"active","ping":66},{"user_id":411,"name":"lemon","steam_id":76561198329179651,"connected_time":1988000000000,"state":"active","ping":107},{"user_id":427,"name":"tingus pingus","steam_id":76561198147746558,"connected_time":135000000000,"state":"active","ping":60},{"user_id":412,"name":"crimmson","steam_id":76561198416325300,"connected_time":1948000000000,"state":"active","ping":89},{"user_id":380,"name":"fice (autumnheals)","steam_id":76561198860361610,"connected_time":4718000000000,"state":"active","ping":59},{"user_id":404,"name":"kams of christmas past (jolly)","steam_id":76561198076627084,"connected_time":2648000000000,"state":"active","ping":65},{"user_id":368,"name":"Soyboy Atheist Redditor","steam_id":76561198129768826,"connected_time":5012000000000,"state":"active","ping":91},{"user_id":371,"name":"CHRIMSTAS CAT","steam_id":76561198042570322,"connected_time":4980000000000,"state":"active","ping":59},{"user_id":415,"name":"NovaSc6ut","steam_id":76561198277163301,"connected_time":1145000000000,"state":"active","ping":79},{"user_id":418,"name":"Antreuse","steam_id":76561198219721132,"connected_time":1082000000000,"state":"active","ping":111},{"user_id":423,"name":"squid game","steam_id":76561199248960166,"connected_time":694000000000,"state":"active","ping":87},{"user_id":394,"name":"reis","steam_id":76561199232952016,"connected_time":3199000000000,"state":"active","ping":184},{"user_id":370,"name":"Pizza","steam_id":76561198118748364,"connected_time":4992000000000,"state":"active","ping":82},{"user_id":358,"name":"TÖZI","steam_id":76561198045268695,"connected_time":5590000000000,"state":"active","ping":62},{"user_id":384,"name":"goldorsteel","steam_id":76561198363467087,"connected_time":4593000000000,"state":"active","ping":84},{"user_id":419,"name":"Exalted Finalist","steam_id":76561198192021295,"connected_time":1081000000000,"state":"active","ping":141},{"user_id":372,"name":"lawnmowinkitty","steam_id":76561198038997467,"connected_time":4975000000000,"state":"active","ping":101},{"user_id":428,"name":"oyasumi","steam_id":76561198072950262,"connected_time":79000000000,"state":"active","ping":57},{"user_id":430,"name":"dreaming of a whyte christmas","steam_id":76561198022597081,"connected_time":17000000000,"state":"active","ping":109},{"user_id":420,"name":"negativity","steam_id":76561199173085825,"connected_time":1074000000000,"state":"active","ping":78},{"user_id":408,"name":".-.","steam_id":76561198820617005,"connected_time":2393000000000,"state":"active","ping":108}]},{"server_id":36,"name":"Uncletopia | Chicago | 5 | All Maps","name_short":"chi-5","host":"chi-2.us.uncletopia.com","port":27015,"enabled":true,"region":"us-central","cc":"us","latitude":41.881832,"longitude":-87.62318,"reserved":0,"last_update":"0001-01-01T00:00:00Z","name_a2s":"Uncletopia | Chicago | 5 | All Maps","protocol":17,"map":"cp_process_final","folder":"tf","game":"Team Fortress","app_id":440,"player_count":3,"max_players":24,"Bots":0,"server_type":"Dedicated","server_os":"Linux","password":true,"vac":true,"version":"7742253","steam_id":85568392924866362,"keywords":["cp","nocrits","nodmgspread","uncletopia"],"game_id":440,"stv_port":27016,"stv_name":"Uncletopia | Chicago | 5 | All Maps | STV","players":[{"user_id":242,"name":"name420","steam_id":76561198129374525,"connected_time":2563000000000,"state":"active","ping":63},{"user_id":282,"name":"TriggerHappyPacifist","steam_id":76561197963455267,"connected_time":55000000000,"state":"active","ping":79},{"user_id":250,"name":"Chillin Turt","steam_id":76561198025796849,"connected_time":2382000000000,"state":"active","ping":75}]},{"server_id":37,"name":"Uncletopia | Chicago | 6 | All Maps","name_short":"chi-6","host":"chi-2.us.uncletopia.com","port":27025,"enabled":true,"region":"us-central","cc":"us","latitude":41.881832,"longitude":-87.62318,"reserved":0,"last_update":"0001-01-01T00:00:00Z","name_a2s":"Uncletopia | Chicago | 6 | All Maps","protocol":17,"map":"koth_cascade","folder":"tf","game":"Team Fortress","app_id":440,"player_count":0,"max_players":24,"Bots":0,"server_type":"Dedicated","server_os":"Linux","password":true,"vac":true,"version":"7742253","steam_id":85568392924866363,"keywords":["cp","nocrits","nodmgspread","uncletopia"],"game_id":440,"stv_port":27026,"stv_name":"Uncletopia | Chicago | 6 | All Maps | STV","players":null},{"server_id":38,"name":"Uncletopia | Chicago | 7 | Stopwatch Beta","name_short":"chi-7","host":"chi-2.us.uncletopia.com","port":27035,"enabled":true,"region":"us-central","cc":"us","latitude":41.881832,"longitude":-87.62318,"reserved":0,"last_update":"0001-01-01T00:00:00Z","name_a2s":"Uncletopia | Chicago | 7 | Stopwatch Beta","protocol":17,"map":"cp_altitude","folder":"tf","game":"Team Fortress","app_id":440,"player_count":0,"max_players":24,"Bots":0,"server_type":"Dedicated","server_os":"Linux","password":true,"vac":true,"version":"7742253","steam_id":85568392924866364,"keywords":["cp","nocrits","nodmgspread","uncletopia"],"game_id":440,"stv_port":27036,"stv_name":"Uncletopia | Chicago | 7 | Stopwatch Beta | STV","players":null},{"server_id":39,"name":"Uncletopia | Chicago | 8 | Community","name_short":"chi-8","host":"chi-2.us.uncletopia.com","port":27045,"enabled":true,"region":"us-central","cc":"us","latitude":41.881832,"longitude":-87.62318,"reserved":0,"last_update":"0001-01-01T00:00:00Z","name_a2s":"Uncletopia | Chicago | 8 | Community","protocol":17,"map":"workshop/koth_product_final.ugc454272353","folder":"tf","game":"Team Fortress","app_id":440,"player_count":0,"max_players":24,"Bots":0,"server_type":"Dedicated","server_os":"Linux","password":true,"vac":true,"version":"7742253","steam_id":85568392924866365,"keywords":["cp","nocrits","nodmgspread","uncletopia"],"game_id":440,"stv_port":27046,"stv_name":"Uncletopia | Chicago | 8 | Community | STV","players":null},{"server_id":8,"name":"Uncletopia | Dallas | 1 | All Maps","name_short":"dal-1","host":"dal-1.us.uncletopia.com","port":27015,"enabled":true,"region":"us-central","cc":"us","latitude":32.779167,"longitude":-96.80889,"reserved":0,"last_update":"0001-01-01T00:00:00Z","name_a2s":"Uncletopia | Dallas | 1 | All Maps","protocol":17,"map":"cp_process_final","folder":"tf","game":"Team Fortress","app_id":440,"player_count":0,"max_players":24,"Bots":0,"server_type":"Dedicated","server_os":"Linux","password":true,"vac":true,"version":"7742253","steam_id":85568392924469986,"keywords":["cp","nocrits","nodmgspread","uncletopia"],"game_id":440,"stv_port":27016,"stv_name":"Uncletopia | Dallas | 1 | All Maps | STV","players":null},{"server_id":108,"name":"Uncletopia | Dallas | 2 | All Maps","name_short":"dal-2","host":"dal-1.us.uncletopia.com","port":27025,"enabled":true,"region":"us-central","cc":"us","latitude":32.779167,"longitude":-96.80889,"reserved":0,"last_update":"0001-01-01T00:00:00Z","name_a2s":"Uncletopia | Dallas | 2 | All Maps","protocol":17,"map":"cp_dustbowl","folder":"tf","game":"Team Fortress","app_id":440,"player_count":11,"max_players":24,"Bots":0,"server_type":"Dedicated","server_os":"Linux","password":true,"vac":true,"version":"7742253","steam_id":85568392924469988,"keywords":["cp","nocrits","nodmgspread","uncletopia"],"game_id":440,"stv_port":27026,"stv_name":"Uncletopia | Dallas | 2 | All Maps | STV","players":[{"user_id":658,"name":"miles","steam_id":76561199029019040,"connected_time":162000000000,"state":"active","ping":92},{"user_id":659,"name":"Klip","steam_id":76561198316254429,"connected_time":54000000000,"state":"active","ping":45},{"user_id":635,"name":"MantisTobboggan","steam_id":76561197969447887,"connected_time":2645000000000,"state":"active","ping":122},{"user_id":657,"name":"Nautilus","steam_id":76561198413431111,"connected_time":210000000000,"state":"connecting","ping":0},{"user_id":660,"name":"kopirate","steam_id":76561198170448097,"connected_time":45000000000,"state":"spawning","ping":133},{"user_id":661,"name":"SL1T","steam_id":76561198069380992,"connected_time":30000000000,"state":"active","ping":49},{"user_id":589,"name":"FG7","steam_id":76561198381197197,"connected_time":7161000000000,"state":"active","ping":122},{"user_id":639,"name":"Octopoda","steam_id":76561199064758232,"connected_time":2424000000000,"state":"active","ping":46},{"user_id":654,"name":"Thatoneguy","steam_id":76561198065314017,"connected_time":403000000000,"state":"active","ping":47},{"user_id":656,"name":"shoko","steam_id":76561198431770137,"connected_time":340000000000,"state":"active","ping":42},{"user_id":623,"name":"Ultra\u003c3","steam_id":76561198352021493,"connected_time":3296000000000,"state":"active","ping":78}]},{"server_id":5,"name":"Uncletopia | Frankfurt | 1 | All Maps","name_short":"frk-1","host":"frk-1.de.uncletopia.com","port":27015,"enabled":true,"region":"eu","cc":"de","latitude":50.110924,"longitude":8.682127,"reserved":0,"last_update":"0001-01-01T00:00:00Z","name_a2s":"Uncletopia | Frankfurt | 1 | All Maps","protocol":17,"map":"pl_barnblitz","folder":"tf","game":"Team Fortress","app_id":440,"player_count":0,"max_players":24,"Bots":0,"server_type":"Dedicated","server_os":"Linux","password":true,"vac":true,"version":"7742253","steam_id":85568392924469989,"keywords":["nocrits","nodmgspread","payload","uncletopia"],"game_id":440,"stv_port":27016,"stv_name":"Uncletopia | Frankfurt | 1 | All Maps | STV","players":null},{"server_id":110,"name":"Uncletopia | Frankfurt | 2 | All Maps","name_short":"frk-2","host":"frk-1.de.uncletopia.com","port":27025,"enabled":true,"region":"eu","cc":"de","latitude":50.110924,"longitude":8.682127,"reserved":0,"last_update":"0001-01-01T00:00:00Z","name_a2s":"Uncletopia | Frankfurt | 2 | All Maps","protocol":17,"map":"pl_snowycoast","folder":"tf","game":"Team Fortress","app_id":440,"player_count":16,"max_players":24,"Bots":0,"server_type":"Dedicated","server_os":"Linux","password":true,"vac":true,"version":"7742253","steam_id":85568392924469990,"keywords":["nocrits","nodmgspread","payload","uncletopia"],"game_id":440,"stv_port":27026,"stv_name":"Uncletopia | Frankfurt | 2 | All Maps | STV","players":[{"user_id":32,"name":"Crinlex","steam_id":76561198954203985,"connected_time":1252000000000,"state":"active","ping":118},{"user_id":53,"name":"pyro sex","steam_id":76561199225397974,"connected_time":387000000000,"state":"active","ping":119},{"user_id":13,"name":"Pinkchup","steam_id":76561198106802803,"connected_time":5065000000000,"state":"active","ping":71},{"user_id":33,"name":"Awesome_Welles","steam_id":76561198001582778,"connected_time":1227000000000,"state":"active","ping":51},{"user_id":57,"name":"marsel","steam_id":76561198116168271,"connected_time":157000000000,"state":"active","ping":86},{"user_id":26,"name":"Waysub","steam_id":76561199289743676,"connected_time":1754000000000,"state":"active","ping":169},{"user_id":20,"name":"Jeg","steam_id":76561198405291408,"connected_time":2332000000000,"state":"active","ping":59},{"user_id":21,"name":"The brown part of the banana","steam_id":76561198323425034,"connected_time":2329000000000,"state":"active","ping":83},{"user_id":34,"name":"Msuni","steam_id":76561198334903726,"connected_time":1139000000000,"state":"active","ping":64},{"user_id":55,"name":"TheGreenWolf","steam_id":76561198170607033,"connected_time":258000000000,"state":"active","ping":67},{"user_id":37,"name":"your opinion \u003c my shit after a ","steam_id":76561198152620745,"connected_time":886000000000,"state":"active","ping":68},{"user_id":31,"name":"SkyLine_54","steam_id":76561198439293760,"connected_time":1439000000000,"state":"active","ping":80},{"user_id":42,"name":"spy","steam_id":76561199053898447,"connected_time":716000000000,"state":"active","ping":75},{"user_id":47,"name":"engie?","steam_id":76561198331852832,"connected_time":587000000000,"state":"active","ping":88},{"user_id":56,"name":"LavenderJayJay","steam_id":76561198966667657,"connected_time":208000000000,"state":"active","ping":52},{"user_id":49,"name":"Commando Booce","steam_id":76561199209786129,"connected_time":528000000000,"state":"active","ping":116}]},{"server_id":308,"name":"Uncletopia | Frankfurt | 3 | All Maps","name_short":"frk-3","host":"frk-1.de.uncletopia.com","port":27035,"enabled":true,"region":"eu","cc":"de","latitude":50.110924,"longitude":8.682127,"reserved":0,"last_update":"0001-01-01T00:00:00Z","name_a2s":"Uncletopia | Frankfurt | 3 | All Maps","protocol":17,"map":"koth_viaduct","folder":"tf","game":"Team Fortress","app_id":440,"player_count":0,"max_players":24,"Bots":0,"server_type":"Dedicated","server_os":"Linux","password":true,"vac":true,"version":"7742253","steam_id":85568392924504274,"keywords":["cp","nocrits","nodmgspread","uncletopia"],"game_id":440,"stv_port":27036,"stv_name":"Uncletopia | Frankfurt | 3 | All Maps | STV","players":null},{"server_id":309,"name":"Uncletopia | Frankfurt | 4 | All Maps","name_short":"frk-4","host":"frk-1.de.uncletopia.com","port":27045,"enabled":true,"region":"eu","cc":"de","latitude":50.110924,"longitude":8.682127,"reserved":0,"last_update":"0001-01-01T00:00:00Z","name_a2s":"Uncletopia | Frankfurt | 4 | All Maps","protocol":17,"map":"pl_frontier_final","folder":"tf","game":"Team Fortress","app_id":440,"player_count":0,"max_players":24,"Bots":0,"server_type":"Dedicated","server_os":"Linux","password":true,"vac":true,"version":"7742253","steam_id":85568392924504275,"keywords":["nocrits","nodmgspread","payload","uncletopia"],"game_id":440,"stv_port":27046,"stv_name":"Uncletopia | Frankfurt | 4 | All Maps | STV","players":null},{"server_id":310,"name":"Uncletopia | Frankfurt | 5 | All Maps","name_short":"frk-5","host":"frk-1.de.uncletopia.com","port":27055,"enabled":true,"region":"eu","cc":"de","latitude":50.110924,"longitude":8.682127,"reserved":0,"last_update":"0001-01-01T00:00:00Z","name_a2s":"Uncletopia | Frankfurt | 5 | All Maps","protocol":17,"map":"cp_sunshine","folder":"tf","game":"Team Fortress","app_id":440,"player_count":0,"max_players":24,"Bots":0,"server_type":"Dedicated","server_os":"Linux","password":true,"vac":true,"version":"7742253","steam_id":85568392924504277,"keywords":["cp","nocrits","nodmgspread","uncletopia"],"game_id":440,"stv_port":27056,"stv_name":"Uncletopia | Frankfurt | 5 | All Maps | STV","players":null},{"server_id":311,"name":"Uncletopia | Frankfurt | 6 | All Maps","name_short":"frk-6","host":"frk-1.de.uncletopia.com","port":27065,"enabled":true,"region":"eu","cc":"de","latitude":50.110924,"longitude":8.682127,"reserved":0,"last_update":"0001-01-01T00:00:00Z","name_a2s":"Uncletopia | Frankfurt | 6 | All Maps","protocol":17,"map":"pl_frontier_final","folder":"tf","game":"Team Fortress","app_id":440,"player_count":0,"max_players":24,"Bots":0,"server_type":"Dedicated","server_os":"Linux","password":true,"vac":true,"version":"7742253","steam_id":85568392924504278,"keywords":["nocrits","nodmgspread","payload","uncletopia"],"game_id":440,"stv_port":27066,"stv_name":"Uncletopia | Frankfurt | 6 | All Maps | STV","players":null},{"server_id":23,"name":"Uncletopia | Frankfurt | 7 | Stopwatch Beta","name_short":"frk-7","host":"frk-1.de.uncletopia.com","port":27075,"enabled":true,"region":"eu","cc":"de","latitude":50.110924,"longitude":8.682127,"reserved":0,"last_update":"0001-01-01T00:00:00Z","name_a2s":"Uncletopia | Frankfurt | 7 | Stopwatch Beta","protocol":17,"map":"koth_lakeside_final","folder":"tf","game":"Team Fortress","app_id":440,"player_count":0,"max_players":24,"Bots":0,"server_type":"Dedicated","server_os":"Linux","password":true,"vac":true,"version":"7742253","steam_id":85568392924742827,"keywords":["cp","nocrits","nodmgspread","uncletopia"],"game_id":440,"stv_port":27076,"stv_name":"Uncletopia | Frankfurt | 7 | Stopwatch Beta | STV","players":null},{"server_id":24,"name":"Uncletopia | Frankfurt | 8 | Community","name_short":"frk-8","host":"frk-1.de.uncletopia.com","port":27085,"enabled":true,"region":"eu","cc":"de","latitude":50.110924,"longitude":8.682127,"reserved":0,"last_update":"0001-01-01T00:00:00Z","name_a2s":"Uncletopia | Frankfurt | 8 | Community","protocol":17,"map":"pl_pier","folder":"tf","game":"Team Fortress","app_id":440,"player_count":0,"max_players":24,"Bots":0,"server_type":"Dedicated","server_os":"Linux","password":true,"vac":true,"version":"7742253","steam_id":85568392924742828,"keywords":["nocrits","nodmgspread","payload","uncletopia"],"game_id":440,"stv_port":27086,"stv_name":"Uncletopia | Frankfurt | 8 | Community | STV","players":null},{"server_id":202,"name":"Uncletopia | Hong Kong | 1 | All Maps","name_short":"hgk-1","host":"hgk-1.hk.uncletopia.com","port":27015,"enabled":true,"region":"asia","cc":"hk","latitude":22.302711,"longitude":114.177216,"reserved":0,"last_update":"0001-01-01T00:00:00Z","name_a2s":"Uncletopia | Hong Kong | 1 | All Maps","protocol":17,"map":"pl_borneo","folder":"tf","game":"Team Fortress","app_id":440,"player_count":24,"max_players":24,"Bots":0,"server_type":"Dedicated","server_os":"Linux","password":true,"vac":true,"version":"7742253","steam_id":85568392924494504,"keywords":["nocrits","nodmgspread","payload","uncletopia"],"game_id":440,"stv_port":27016,"stv_name":"Uncletopia | Hong Kong | 1 | All Maps | STV","players":[{"user_id":284,"name":"jams","steam_id":76561198435115378,"connected_time":1586000000000,"state":"active","ping":75},{"user_id":72,"name":"Bertengkar","steam_id":76561198213031155,"connected_time":11541000000000,"state":"active","ping":97},{"user_id":247,"name":"troll juice","steam_id":76561199146847474,"connected_time":6558000000000,"state":"active","ping":67},{"user_id":33,"name":"Talkk More","steam_id":76561198305424433,"connected_time":14316000000000,"state":"active","ping":91},{"user_id":291,"name":"spinach hero","steam_id":76561198042539541,"connected_time":563000000000,"state":"active","ping":75},{"user_id":64,"name":"lillalune","steam_id":76561198230213828,"connected_time":12518000000000,"state":"active","ping":61},{"user_id":272,"name":"FAQ","steam_id":76561198068689092,"connected_time":4009000000000,"state":"active","ping":85},{"user_id":268,"name":"lettuce at 58p","steam_id":76561199401283123,"connected_time":4405000000000,"state":"active","ping":86},{"user_id":251,"name":":)","steam_id":76561198437941450,"connected_time":6465000000000,"state":"active","ping":83},{"user_id":173,"name":"Milk❤ (most loved guy in ut)","steam_id":76561198163911560,"connected_time":7808000000000,"state":"active","ping":79},{"user_id":289,"name":"Scarlly.","steam_id":76561198156852158,"connected_time":738000000000,"state":"active","ping":121},{"user_id":196,"name":"big poo (training arc)","steam_id":76561199104552936,"connected_time":7358000000000,"state":"active","ping":70},{"user_id":271,"name":"LOLGAL","steam_id":76561198347418251,"connected_time":4068000000000,"state":"active","ping":64},{"user_id":257,"name":"MS PowerPoint","steam_id":76561198369523192,"connected_time":5502000000000,"state":"active","ping":64},{"user_id":286,"name":"Pillboi","steam_id":76561198011172886,"connected_time":1070000000000,"state":"active","ping":45},{"user_id":276,"name":"water tastes good","steam_id":76561199375947670,"connected_time":3221000000000,"state":"active","ping":68},{"user_id":261,"name":"Kiyomi","steam_id":76561198240627872,"connected_time":4803000000000,"state":"active","ping":48},{"user_id":288,"name":"BAKABAZOOKA","steam_id":76561198061628689,"connected_time":748000000000,"state":"active","ping":59},{"user_id":279,"name":"aiae by yuyoyuppe","steam_id":76561198412329672,"connected_time":1605000000000,"state":"active","ping":89},{"user_id":270,"name":"+","steam_id":76561198121311286,"connected_time":4332000000000,"state":"active","ping":71},{"user_id":277,"name":"Corhix","steam_id":76561198968706355,"connected_time":2380000000000,"state":"active","ping":47},{"user_id":96,"name":"Windmill","steam_id":76561199230997986,"connected_time":10110000000000,"state":"active","ping":80},{"user_id":280,"name":"aisha","steam_id":76561198132172320,"connected_time":1604000000000,"state":"active","ping":81},{"user_id":292,"name":"Lu","steam_id":76561198320532821,"connected_time":113000000000,"state":"active","ping":55}]},{"server_id":1,"name":"Uncletopia | Los Angeles | 1 | All Maps","name_short":"lax-1","host":"lax-1.us.uncletopia.com","port":27015,"enabled":true,"region":"us-west","cc":"us","latitude":33.94279,"longitude":-118.41004,"reserved":0,"last_update":"0001-01-01T00:00:00Z","name_a2s":"Uncletopia | Los Angeles | 1 | All Maps","protocol":17,"map":"koth_lakeside_final","folder":"tf","game":"Team Fortress","app_id":440,"player_count":0,"max_players":24,"Bots":0,"server_type":"Dedicated","server_os":"Linux","password":true,"vac":true,"version":"7742253","steam_id":85568392924469991,"keywords":["cp","nocrits","nodmgspread","uncletopia"],"game_id":440,"stv_port":27016,"stv_name":"Uncletopia | Los Angeles | 1 | All Maps | STV","players":null},{"server_id":112,"name":"Uncletopia | Los Angeles | 2 | All Maps","name_short":"lax-2","host":"lax-1.us.uncletopia.com","port":27025,"enabled":true,"region":"us-west","cc":"us","latitude":33.94279,"longitude":-118.41004,"reserved":0,"last_update":"0001-01-01T00:00:00Z","name_a2s":"Uncletopia | Los Angeles | 2 | All Maps","protocol":17,"map":"pl_swiftwater_final1","folder":"tf","game":"Team Fortress","app_id":440,"player_count":23,"max_players":24,"Bots":0,"server_type":"Dedicated","server_os":"Linux","password":true,"vac":true,"version":"7742253","steam_id":85568392924469992,"keywords":["nocrits","nodmgspread","payload","uncletopia"],"game_id":440,"stv_port":27026,"stv_name":"Uncletopia | Los Angeles | 2 | All Maps | STV","players":[{"user_id":304,"name":"Verde","steam_id":76561198035623915,"connected_time":1153000000000,"state":"active","ping":91},{"user_id":331,"name":"hoopla","steam_id":76561198014920568,"connected_time":315000000000,"state":"active","ping":110},{"user_id":301,"name":"Chad the Sex Haver","steam_id":76561198058236528,"connected_time":1578000000000,"state":"active","ping":46},{"user_id":265,"name":"brobtlcehc","steam_id":76561198043558709,"connected_time":5467000000000,"state":"active","ping":79},{"user_id":313,"name":"mc ride gaming","steam_id":76561198275509919,"connected_time":692000000000,"state":"active","ping":52},{"user_id":302,"name":"Sleuth","steam_id":76561198418288939,"connected_time":1574000000000,"state":"active","ping":61},{"user_id":332,"name":"PirateJet","steam_id":76561198050858744,"connected_time":22000000000,"state":"active","ping":48},{"user_id":289,"name":"Bobbo","steam_id":76561198055689771,"connected_time":3459000000000,"state":"active","ping":77},{"user_id":292,"name":"Krow Lincoln (she/her)","steam_id":76561198085410622,"connected_time":2655000000000,"state":"active","ping":80},{"user_id":288,"name":"dandy","steam_id":76561197967362217,"connected_time":3503000000000,"state":"active","ping":45},{"user_id":307,"name":"The Spy from Team Fortress 2","steam_id":76561198058802333,"connected_time":767000000000,"state":"active","ping":81},{"user_id":314,"name":"raduski","steam_id":76561198795699119,"connected_time":669000000000,"state":"active","ping":90},{"user_id":333,"name":"Rakk","steam_id":76561198855176174,"connected_time":10000000000,"state":"active","ping":80},{"user_id":121,"name":"JJP","steam_id":76561198032914094,"connected_time":15303000000000,"state":"active","ping":52},{"user_id":329,"name":"Koyota","steam_id":76561198069878114,"connected_time":398000000000,"state":"active","ping":73},{"user_id":323,"name":"Blackbeard","steam_id":76561198046952265,"connected_time":552000000000,"state":"active","ping":71},{"user_id":328,"name":"Frongus","steam_id":76561197979056451,"connected_time":408000000000,"state":"active","ping":74},{"user_id":275,"name":"Lumberjane37 (She/Her)","steam_id":76561198014841793,"connected_time":5201000000000,"state":"active","ping":58},{"user_id":308,"name":"CheeseCake488","steam_id":76561199407617942,"connected_time":762000000000,"state":"active","ping":85},{"user_id":318,"name":"Tora","steam_id":76561198000740296,"connected_time":618000000000,"state":"active","ping":51},{"user_id":319,"name":"o2","steam_id":76561199262570913,"connected_time":608000000000,"state":"active","ping":178},{"user_id":267,"name":"selvhat","steam_id":76561198114225509,"connected_time":5436000000000,"state":"active","ping":53},{"user_id":322,"name":"The Senator from Ohio","steam_id":76561198165834369,"connected_time":597000000000,"state":"active","ping":53}]},{"server_id":324,"name":"Uncletopia | Los Angeles | 3 | All Maps","name_short":"lax-3","host":"lax-1.us.uncletopia.com","port":27035,"enabled":true,"region":"us-west","cc":"us","latitude":33.94279,"longitude":-118.41004,"reserved":0,"last_update":"0001-01-01T00:00:00Z","name_a2s":"Uncletopia | Los Angeles | 3 | All Maps","protocol":17,"map":"cp_dustbowl","folder":"tf","game":"Team Fortress","app_id":440,"player_count":0,"max_players":24,"Bots":0,"server_type":"Dedicated","server_os":"Linux","password":true,"vac":true,"version":"7742253","steam_id":85568392924510198,"keywords":["cp","nocrits","nodmgspread","uncletopia"],"game_id":440,"stv_port":27036,"stv_name":"Uncletopia | Los Angeles | 3 | All Maps | STV","players":null},{"server_id":25,"name":"Uncletopia | Los Angeles | 4 | Stopwatch Beta","name_short":"lax-4","host":"lax-1.us.uncletopia.com","port":27045,"enabled":true,"region":"us-west","cc":"us","latitude":33.94279,"longitude":-118.41004,"reserved":0,"last_update":"0001-01-01T00:00:00Z","name_a2s":"Uncletopia | Los Angeles | 4 | Stopwatch Beta","protocol":17,"map":"cp_process_final","folder":"tf","game":"Team Fortress","app_id":440,"player_count":0,"max_players":24,"Bots":0,"server_type":"Dedicated","server_os":"Linux","password":true,"vac":true,"version":"7742253","steam_id":85568392924510199,"keywords":["cp","nocrits","nodmgspread","uncletopia"],"game_id":440,"stv_port":27046,"stv_name":"Uncletopia | Los Angeles | 4 | Stopwatch Beta | STV","players":null},{"server_id":11,"name":"Uncletopia | London | 1 | All Maps","name_short":"lon-1","host":"lon-1.uk.uncletopia.com","port":27015,"enabled":true,"region":"eu","cc":"gb","latitude":51.509865,"longitude":-0.118092,"reserved":0,"last_update":"0001-01-01T00:00:00Z","name_a2s":"Uncletopia | London | 1 | All Maps","protocol":17,"map":"cp_dustbowl","folder":"tf","game":"Team Fortress","app_id":440,"player_count":0,"max_players":24,"Bots":0,"server_type":"Dedicated","server_os":"Linux","password":true,"vac":true,"version":"7742253","steam_id":85568392924367362,"keywords":["cp","nocrits","nodmgspread","uncletopia"],"game_id":440,"stv_port":27016,"stv_name":"Uncletopia | London | 1 | All Maps | STV","players":null},{"server_id":114,"name":"Uncletopia | London | 2 | All Maps","name_short":"lon-2","host":"lon-1.uk.uncletopia.com","port":27025,"enabled":true,"region":"eu","cc":"gb","latitude":51.509865,"longitude":-0.118092,"reserved":0,"last_update":"0001-01-01T00:00:00Z","name_a2s":"Uncletopia | London | 2 | All Maps","protocol":17,"map":"cp_altitude","folder":"tf","game":"Team Fortress","app_id":440,"player_count":0,"max_players":24,"Bots":0,"server_type":"Dedicated","server_os":"Linux","password":true,"vac":true,"version":"7742253","steam_id":85568392924470941,"keywords":["cp","nocrits","nodmgspread","uncletopia"],"game_id":440,"stv_port":27026,"stv_name":"Uncletopia | London | 2 | All Maps | STV","players":null},{"server_id":320,"name":"Uncletopia | London | 3 | All Maps","name_short":"lon-3","host":"lon-1.uk.uncletopia.com","port":27035,"enabled":true,"region":"eu","cc":"gb","latitude":51.509865,"longitude":-0.118092,"reserved":0,"last_update":"0001-01-01T00:00:00Z","name_a2s":"Uncletopia | London | 3 | All Maps","protocol":17,"map":"cp_mountainlab","folder":"tf","game":"Team Fortress","app_id":440,"player_count":0,"max_players":24,"Bots":0,"server_type":"Dedicated","server_os":"Linux","password":true,"vac":true,"version":"7742253","steam_id":85568392924510192,"keywords":["cp","nocrits","nodmgspread","uncletopia"],"game_id":440,"stv_port":27036,"stv_name":"Uncletopia | London | 3 | All Maps | STV","players":null},{"server_id":321,"name":"Uncletopia | London | 4 | All Maps","name_short":"lon-4","host":"lon-1.uk.uncletopia.com","port":27045,"enabled":true,"region":"eu","cc":"gb","latitude":51.509865,"longitude":-0.118092,"reserved":0,"last_update":"0001-01-01T00:00:00Z","name_a2s":"Uncletopia | London | 4 | All Maps","protocol":17,"map":"pl_borneo","folder":"tf","game":"Team Fortress","app_id":440,"player_count":0,"max_players":24,"Bots":0,"server_type":"Dedicated","server_os":"Linux","password":true,"vac":true,"version":"7742253","steam_id":85568392924510193,"keywords":["nocrits","nodmgspread","payload","uncletopia"],"game_id":440,"stv_port":27046,"stv_name":"Uncletopia | London | 4 | All Maps | STV","players":null},{"server_id":21,"name":"Uncletopia | London | 5 | All Maps","name_short":"lon-5","host":"lon-1.uk.uncletopia.com","port":27055,"enabled":true,"region":"eu","cc":"gb","latitude":51.509865,"longitude":-0.118092,"reserved":0,"last_update":"0001-01-01T00:00:00Z","name_a2s":"Uncletopia | London | 5 | All Maps","protocol":17,"map":"cp_process_final","folder":"tf","game":"Team Fortress","app_id":440,"player_count":0,"max_players":24,"Bots":0,"server_type":"Dedicated","server_os":"Linux","password":true,"vac":true,"version":"7742253","steam_id":85568392924742829,"keywords":["cp","nocrits","nodmgspread","uncletopia"],"game_id":440,"stv_port":27056,"stv_name":"Uncletopia | London | 5 | All Maps | STV","players":null},{"server_id":22,"name":"Uncletopia | London | 6 | All Maps","name_short":"lon-6","host":"lon-1.uk.uncletopia.com","port":27065,"enabled":true,"region":"eu","cc":"gb","latitude":51.509865,"longitude":-0.118092,"reserved":0,"last_update":"0001-01-01T00:00:00Z","name_a2s":"Uncletopia | London | 6 | All Maps","protocol":17,"map":"pl_badwater","folder":"tf","game":"Team Fortress","app_id":440,"player_count":0,"max_players":24,"Bots":0,"server_type":"Dedicated","server_os":"Linux","password":true,"vac":true,"version":"7742253","steam_id":85568392924742830,"keywords":["nocrits","nodmgspread","payload","uncletopia"],"game_id":440,"stv_port":27066,"stv_name":"Uncletopia | London | 6 | All Maps | STV","players":null},{"server_id":40,"name":"Uncletopia | London | 7 | No Payload","name_short":"lon-7","host":"lon-1.uk.uncletopia.com","port":27075,"enabled":true,"region":"eu","cc":"gb","latitude":51.509865,"longitude":-0.118092,"reserved":0,"last_update":"0001-01-01T00:00:00Z","name_a2s":"Uncletopia | London | 7 | No Payload","protocol":17,"map":"pl_borneo","folder":"tf","game":"Team Fortress","app_id":440,"player_count":0,"max_players":24,"Bots":0,"server_type":"Dedicated","server_os":"Linux","password":true,"vac":true,"version":"7742253","steam_id":85568392924964314,"keywords":["nocrits","nodmgspread","payload","uncletopia"],"game_id":440,"stv_port":27076,"stv_name":"Uncletopia | London | 7 | No Payload | STV","players":null},{"server_id":41,"name":"Uncletopia | London | 8 | Community","name_short":"lon-8","host":"lon-1.uk.uncletopia.com","port":27085,"enabled":true,"region":"eu","cc":"gb","latitude":51.509865,"longitude":-0.118092,"reserved":0,"last_update":"0001-01-01T00:00:00Z","name_a2s":"Uncletopia | London | 8 | Community","protocol":17,"map":"cp_process_final","folder":"tf","game":"Team Fortress","app_id":440,"player_count":0,"max_players":24,"Bots":0,"server_type":"Dedicated","server_os":"Linux","password":true,"vac":true,"version":"7742253","steam_id":85568392924964315,"keywords":["cp","nocrits","nodmgspread","uncletopia"],"game_id":440,"stv_port":27086,"stv_name":"Uncletopia | London | 8 | Community | STV","players":null},{"server_id":300,"name":"Uncletopia | Montréal | 1 | All Maps","name_short":"mtl-1","host":"mtl-1.ca.uncletopia.com","port":27015,"enabled":true,"region":"us-east","cc":"ca","latitude":45.50889,"longitude":-73.56167,"reserved":0,"last_update":"0001-01-01T00:00:00Z","name_a2s":"Uncletopia | Montréal | 1 | All Maps","protocol":17,"map":"cp_sunshine","folder":"tf","game":"Team Fortress","app_id":440,"player_count":0,"max_players":24,"Bots":0,"server_type":"Dedicated","server_os":"Linux","password":true,"vac":true,"version":"7742253","steam_id":85568392924500087,"keywords":["cp","nocrits","nodmgspread","uncletopia"],"game_id":440,"stv_port":27016,"stv_name":"Uncletopia | Montréal | 1 | All Maps | STV","players":null},{"server_id":301,"name":"Uncletopia | Montréal | 2 | All Maps","name_short":"mtl-2","host":"mtl-1.ca.uncletopia.com","port":27025,"enabled":true,"region":"us-east","cc":"ca","latitude":45.50889,"longitude":-73.56167,"reserved":0,"last_update":"0001-01-01T00:00:00Z","name_a2s":"Uncletopia | Montréal | 2 | All Maps","protocol":17,"map":"koth_lakeside_final","folder":"tf","game":"Team Fortress","app_id":440,"player_count":0,"max_players":24,"Bots":0,"server_type":"Dedicated","server_os":"Linux","password":true,"vac":true,"version":"7742253","steam_id":85568392924500088,"keywords":["cp","nocrits","nodmgspread","uncletopia"],"game_id":440,"stv_port":27026,"stv_name":"Uncletopia | Montréal | 2 | All Maps | STV","players":null},{"server_id":302,"name":"Uncletopia | Montréal | 3 | All Maps","name_short":"mtl-3","host":"mtl-1.ca.uncletopia.com","port":27035,"enabled":true,"region":"us-east","cc":"ca","latitude":45.50889,"longitude":-73.56167,"reserved":0,"last_update":"0001-01-01T00:00:00Z","name_a2s":"Uncletopia | Montréal | 3 | All Maps","protocol":17,"map":"pl_badwater","folder":"tf","game":"Team Fortress","app_id":440,"player_count":0,"max_players":24,"Bots":0,"server_type":"Dedicated","server_os":"Linux","password":true,"vac":true,"version":"7742253","steam_id":85568392924500089,"keywords":["nocrits","nodmgspread","payload","uncletopia"],"game_id":440,"stv_port":27036,"stv_name":"Uncletopia | Montréal | 3 | All Maps | STV","players":null},{"server_id":303,"name":"Uncletopia | Montréal | 4 | No Payload","name_short":"mtl-4","host":"mtl-1.ca.uncletopia.com","port":27045,"enabled":true,"region":"us-east","cc":"ca","latitude":45.50889,"longitude":-73.56167,"reserved":0,"last_update":"0001-01-01T00:00:00Z","name_a2s":"Uncletopia | Montréal | 4 | No Payload","protocol":17,"map":"cp_mercenarypark","folder":"tf","game":"Team Fortress","app_id":440,"player_count":0,"max_players":24,"Bots":0,"server_type":"Dedicated","server_os":"Linux","password":true,"vac":true,"version":"7742253","steam_id":85568392924500090,"keywords":["cp","nocrits","nodmgspread","uncletopia"],"game_id":440,"stv_port":27046,"stv_name":"Uncletopia | Montréal | 4 | No Payload | STV","players":null},{"server_id":13,"name":"Uncletopia | New York City | 1 | All Maps","name_short":"nyc-1","host":"nyc-1.us.uncletopia.com","port":27015,"enabled":true,"region":"us-east","cc":"us","latitude":40.73061,"longitude":-73.93524,"reserved":0,"last_update":"0001-01-01T00:00:00Z","name_a2s":"Uncletopia | New York City | 1 | All Maps","protocol":17,"map":"cp_mountainlab","folder":"tf","game":"Team Fortress","app_id":440,"player_count":1,"max_players":24,"Bots":0,"server_type":"Dedicated","server_os":"Linux","password":true,"vac":true,"version":"7742253","steam_id":85568392924469993,"keywords":["cp","nocrits","nodmgspread","uncletopia"],"game_id":440,"stv_port":27016,"stv_name":"Uncletopia | New York City | 1 | All Maps | STV","players":[{"user_id":735,"name":"french Fry","steam_id":76561198365351519,"connected_time":405000000000,"state":"active","ping":185}]},{"server_id":14,"name":"Uncletopia | New York City | 2 | All Maps","name_short":"nyc-2","host":"nyc-1.us.uncletopia.com","port":27025,"enabled":true,"region":"us-east","cc":"us","latitude":40.73061,"longitude":-73.93524,"reserved":0,"last_update":"0001-01-01T00:00:00Z","name_a2s":"Uncletopia | New York City | 2 | All Maps","protocol":17,"map":"cp_sunshine","folder":"tf","game":"Team Fortress","app_id":440,"player_count":0,"max_players":24,"Bots":0,"server_type":"Dedicated","server_os":"Linux","password":true,"vac":true,"version":"7742253","steam_id":85568392924469994,"keywords":["cp","nocrits","nodmgspread","uncletopia"],"game_id":440,"stv_port":27026,"stv_name":"Uncletopia | New York City | 2 | All Maps | STV","players":null},{"server_id":15,"name":"Uncletopia | New York City | 3 | Stopwatch Beta","name_short":"nyc-3","host":"nyc-1.us.uncletopia.com","port":27035,"enabled":true,"region":"us-east","cc":"us","latitude":40.73061,"longitude":-73.93524,"reserved":0,"last_update":"0001-01-01T00:00:00Z","name_a2s":"Uncletopia | New York City | 3 | Stopwatch Beta","protocol":17,"map":"cp_altitude","folder":"tf","game":"Team Fortress","app_id":440,"player_count":0,"max_players":24,"Bots":0,"server_type":"Dedicated","server_os":"Linux","password":true,"vac":true,"version":"7742253","steam_id":85568392924742820,"keywords":["cp","nocrits","nodmgspread","uncletopia"],"game_id":440,"stv_port":27036,"stv_name":"Uncletopia | New York City | 3 | Stopwatch Beta | STV","players":null},{"server_id":16,"name":"Uncletopia | New York City | 4 | Community","name_short":"nyc-4","host":"nyc-1.us.uncletopia.com","port":27045,"enabled":true,"region":"us-east","cc":"us","latitude":40.73061,"longitude":-73.93524,"reserved":0,"last_update":"0001-01-01T00:00:00Z","name_a2s":"Uncletopia | New York City | 4 | Community","protocol":17,"map":"workshop/cp_reckoner_rc6.ugc674719999","folder":"tf","game":"Team Fortress","app_id":440,"player_count":0,"max_players":24,"Bots":0,"server_type":"Dedicated","server_os":"Linux","password":true,"vac":true,"version":"7742253","steam_id":85568392924742821,"keywords":["cp","nocrits","nodmgspread","uncletopia"],"game_id":440,"stv_port":27046,"stv_name":"Uncletopia | New York City | 4 | Community | STV","players":null},{"server_id":142,"name":"Uncletopia | São Paulo | 1 | All Maps","name_short":"sao-1","host":"sao-1.br.uncletopia.com","port":27015,"enabled":true,"region":"sa","cc":"br","latitude":-23.533773,"longitude":-46.62529,"reserved":0,"last_update":"0001-01-01T00:00:00Z","name_a2s":"Uncletopia | São Paulo | 1 | All Maps","protocol":17,"map":"cp_altitude","folder":"tf","game":"Team Fortress","app_id":440,"player_count":0,"max_players":24,"Bots":0,"server_type":"Dedicated","server_os":"Linux","password":true,"vac":true,"version":"7742253","steam_id":85568392924469996,"keywords":["cp","nocrits","nodmgspread","uncletopia"],"game_id":440,"stv_port":27016,"stv_name":"Uncletopia | São Paulo | 1 | All Maps | STV","players":null},{"server_id":143,"name":"Uncletopia | São Paulo | 2 | All Maps","name_short":"sao-2","host":"sao-2.br.uncletopia.com","port":27015,"enabled":true,"region":"sa","cc":"br","latitude":-23.533773,"longitude":-46.62529,"reserved":0,"last_update":"0001-01-01T00:00:00Z","name_a2s":"Uncletopia | São Paulo | 2 | All Maps","protocol":17,"map":"koth_cascade","folder":"tf","game":"Team Fortress","app_id":440,"player_count":0,"max_players":24,"Bots":0,"server_type":"Dedicated","server_os":"Linux","password":true,"vac":true,"version":"7742253","steam_id":85568392924485349,"keywords":["cp","nocrits","nodmgspread","uncletopia"],"game_id":440,"stv_port":27016,"stv_name":"Uncletopia | São Paulo | 2 | All Maps | STV","players":null},{"server_id":7,"name":"Uncletopia | Seattle | 1 | All Maps","name_short":"sea-1","host":"sea-1.us.uncletopia.com","port":27015,"enabled":true,"region":"us-west","cc":"us","latitude":47.608013,"longitude":-122.33517,"reserved":0,"last_update":"0001-01-01T00:00:00Z","name_a2s":"Uncletopia | Seattle | 1 | All Maps","protocol":17,"map":"pl_upward","folder":"tf","game":"Team Fortress","app_id":440,"player_count":24,"max_players":24,"Bots":0,"server_type":"Dedicated","server_os":"Linux","password":true,"vac":true,"version":"7742253","steam_id":85568392924469997,"keywords":["nocrits","nodmgspread","payload","uncletopia"],"game_id":440,"stv_port":27016,"stv_name":"Uncletopia | Seattle | 1 | All Maps | STV","players":[{"user_id":750,"name":"The Caretaker","steam_id":76561198125241411,"connected_time":1829000000000,"state":"active","ping":104},{"user_id":708,"name":"rorytherednosedreindeer","steam_id":76561198065825165,"connected_time":6156000000000,"state":"active","ping":106},{"user_id":765,"name":"Asphodel","steam_id":76561198750101819,"connected_time":19000000000,"state":"spawning","ping":47},{"user_id":762,"name":"Scrumfel Nutz","steam_id":76561198123286409,"connected_time":60000000000,"state":"active","ping":54},{"user_id":729,"name":"Elias","steam_id":76561198031295139,"connected_time":3843000000000,"state":"active","ping":45},{"user_id":740,"name":"Florist","steam_id":76561198009121060,"connected_time":2647000000000,"state":"active","ping":45},{"user_id":763,"name":"Doctor™","steam_id":76561198134309750,"connected_time":55000000000,"state":"active","ping":100},{"user_id":724,"name":"Joy in A Box","steam_id":76561198156820753,"connected_time":4317000000000,"state":"active","ping":178},{"user_id":758,"name":"a homeless cat","steam_id":76561198058388903,"connected_time":76000000000,"state":"active","ping":49},{"user_id":764,"name":"Oof","steam_id":76561198066584165,"connected_time":55000000000,"state":"active","ping":82},{"user_id":759,"name":"Jade","steam_id":76561198151596927,"connected_time":76000000000,"state":"active","ping":100},{"user_id":751,"name":"bok","steam_id":76561197999411826,"connected_time":1159000000000,"state":"active","ping":74},{"user_id":707,"name":"thunderous prophet","steam_id":76561198131166135,"connected_time":6519000000000,"state":"active","ping":36},{"user_id":743,"name":"Arsonist Goose","steam_id":76561198147441830,"connected_time":2256000000000,"state":"active","ping":71},{"user_id":754,"name":"AxiosIV","steam_id":76561198097613292,"connected_time":470000000000,"state":"active","ping":97},{"user_id":755,"name":"Sweets","steam_id":76561198998446307,"connected_time":305000000000,"state":"active","ping":61},{"user_id":726,"name":"Skabbety","steam_id":76561198168044257,"connected_time":3896000000000,"state":"active","ping":35},{"user_id":747,"name":"Pneumo.","steam_id":76561197987911883,"connected_time":1848000000000,"state":"active","ping":67},{"user_id":730,"name":"Hassium","steam_id":76561198162541373,"connected_time":3836000000000,"state":"active","ping":52},{"user_id":748,"name":"resh","steam_id":76561198239598834,"connected_time":1847000000000,"state":"active","ping":129},{"user_id":752,"name":"οbaba","steam_id":76561198092633845,"connected_time":976000000000,"state":"active","ping":76},{"user_id":757,"name":"ed","steam_id":76561198080475712,"connected_time":186000000000,"state":"active","ping":60},{"user_id":697,"name":"brimstone","steam_id":76561198066619792,"connected_time":7586000000000,"state":"active","ping":76},{"user_id":760,"name":"lavender","steam_id":76561199069518286,"connected_time":73000000000,"state":"active","ping":73}]},{"server_id":119,"name":"Uncletopia | Seattle | 2 | All Maps","name_short":"sea-2","host":"sea-1.us.uncletopia.com","port":27025,"enabled":true,"region":"us-west","cc":"us","latitude":47.608013,"longitude":-122.33517,"reserved":0,"last_update":"0001-01-01T00:00:00Z","name_a2s":"Uncletopia | Seattle | 2 | All Maps","protocol":17,"map":"pl_wutville_event","folder":"tf","game":"Team Fortress","app_id":440,"player_count":14,"max_players":24,"Bots":0,"server_type":"Dedicated","server_os":"Linux","password":true,"vac":true,"version":"7742253","steam_id":85568392924469998,"keywords":["nocrits","nodmgspread","payload","uncletopia"],"game_id":440,"stv_port":27026,"stv_name":"Uncletopia | Seattle | 2 | All Maps | STV","players":[{"user_id":438,"name":"Juri Han","steam_id":76561198041678517,"connected_time":414000000000,"state":"active","ping":66},{"user_id":437,"name":"Dosario","steam_id":76561198298095535,"connected_time":648000000000,"state":"active","ping":43},{"user_id":366,"name":"The Horny","steam_id":76561198863639459,"connected_time":6874000000000,"state":"active","ping":48},{"user_id":441,"name":"♥krystal301♥","steam_id":76561198118772664,"connected_time":187000000000,"state":"active","ping":73},{"user_id":442,"name":"mango cafe","steam_id":76561198142328193,"connected_time":162000000000,"state":"active","ping":43},{"user_id":445,"name":"Ahzain","steam_id":76561198035894333,"connected_time":15000000000,"state":"active","ping":79},{"user_id":443,"name":"I'm sorry in advance","steam_id":76561198087380785,"connected_time":128000000000,"state":"active","ping":70},{"user_id":444,"name":"Checkmate","steam_id":76561199071968894,"connected_time":112000000000,"state":"active","ping":44},{"user_id":415,"name":"Chiaki Nanami","steam_id":76561198164782653,"connected_time":3103000000000,"state":"active","ping":116},{"user_id":446,"name":"Solid Piglet","steam_id":76561198107218282,"connected_time":10000000000,"state":"spawning","ping":68},{"user_id":410,"name":"gerg","steam_id":76561197997127387,"connected_time":3234000000000,"state":"active","ping":61},{"user_id":436,"name":"Day Man","steam_id":76561198067154807,"connected_time":758000000000,"state":"active","ping":45},{"user_id":395,"name":"TheCowledWiz","steam_id":76561198016735868,"connected_time":4279000000000,"state":"active","ping":46},{"user_id":413,"name":"social distance warrior","steam_id":76561198128992994,"connected_time":3182000000000,"state":"active","ping":44}]},{"server_id":406,"name":"Uncletopia | Seattle | 3 | Stopwatch Beta","name_short":"sea-3","host":"sea-1.us.uncletopia.com","port":27035,"enabled":true,"region":"us-west","cc":"us","latitude":47.608013,"longitude":-122.33517,"reserved":0,"last_update":"0001-01-01T00:00:00Z","name_a2s":"Uncletopia | Seattle | 3 | Stopwatch Beta","protocol":17,"map":"pl_upward","folder":"tf","game":"Team Fortress","app_id":440,"player_count":2,"max_players":24,"Bots":0,"server_type":"Dedicated","server_os":"Linux","password":true,"vac":false,"version":"7742253","steam_id":0,"keywords":["nocrits","nodmgspread","payload","uncletopia"],"game_id":440,"stv_port":27036,"stv_name":"Uncletopia | Seattle | 3 | Stopwatch Beta | STV","players":[{"user_id":10,"name":"Némiscau","steam_id":76561198257979613,"connected_time":105000000000,"state":"active","ping":48},{"user_id":11,"name":"foura","steam_id":76561198181972739,"connected_time":101000000000,"state":"active","ping":58}]},{"server_id":17,"name":"Uncletopia | San Francisco | 1 | All Maps","name_short":"sfo-1","host":"sfo-1.us.uncletopia.com","port":27015,"enabled":true,"region":"us-west","cc":"us","latitude":37.77397,"longitude":-122.4313,"reserved":0,"last_update":"0001-01-01T00:00:00Z","name_a2s":"Uncletopia | San Francisco | 1 | All Maps","protocol":17,"map":"pl_barnblitz","folder":"tf","game":"Team Fortress","app_id":440,"player_count":19,"max_players":24,"Bots":0,"server_type":"Dedicated","server_os":"Linux","password":true,"vac":true,"version":"7742253","steam_id":85568392924469999,"keywords":["nocrits","nodmgspread","payload","uncletopia"],"game_id":440,"stv_port":27016,"stv_name":"Uncletopia | San Francisco | 1 | All Maps | STV","players":[{"user_id":705,"name":"Ichibad","steam_id":76561198448611460,"connected_time":343000000000,"state":"active","ping":77},{"user_id":706,"name":"Earth","steam_id":76561198108908550,"connected_time":296000000000,"state":"active","ping":52},{"user_id":707,"name":"Scoron","steam_id":76561198062099305,"connected_time":284000000000,"state":"active","ping":52},{"user_id":708,"name":"Nautilus","steam_id":76561198413431111,"connected_time":213000000000,"state":"active","ping":59},{"user_id":664,"name":"krootonitron","steam_id":76561198114113037,"connected_time":2104000000000,"state":"active","ping":36},{"user_id":657,"name":"HAT-WEARING™ Maggot Gamer Cat","steam_id":76561197973992705,"connected_time":3013000000000,"state":"active","ping":53},{"user_id":689,"name":"Ctheillist","steam_id":76561199275451590,"connected_time":1309000000000,"state":"active","ping":82},{"user_id":713,"name":"Ann Ziegler (No Sound)","steam_id":76561198052249401,"connected_time":46000000000,"state":"active","ping":105},{"user_id":623,"name":"NooBHatteR","steam_id":76561198077662703,"connected_time":4861000000000,"state":"active","ping":68},{"user_id":669,"name":"OPenLyfe","steam_id":76561197963035148,"connected_time":1954000000000,"state":"active","ping":61},{"user_id":702,"name":"Athenara_","steam_id":76561199120696315,"connected_time":468000000000,"state":"active","ping":69},{"user_id":661,"name":"ogj","steam_id":76561198170102971,"connected_time":2623000000000,"state":"active","ping":47},{"user_id":714,"name":"Ryan","steam_id":76561198046600383,"connected_time":42000000000,"state":"active","ping":99},{"user_id":575,"name":"aisu","steam_id":76561198043768507,"connected_time":9638000000000,"state":"active","ping":98},{"user_id":693,"name":"Soviet Potato","steam_id":76561198068546113,"connected_time":1074000000000,"state":"active","ping":43},{"user_id":709,"name":"AKKAWI","steam_id":76561198203159952,"connected_time":209000000000,"state":"active","ping":58},{"user_id":711,"name":"Spy","steam_id":76561199189754581,"connected_time":188000000000,"state":"active","ping":67},{"user_id":712,"name":"Ayyyy","steam_id":76561198121729211,"connected_time":99000000000,"state":"active","ping":58},{"user_id":704,"name":"Chuck Finley","steam_id":76561198027411284,"connected_time":445000000000,"state":"active","ping":94}]},{"server_id":18,"name":"Uncletopia | San Francisco | 2 | All Maps","name_short":"sfo-2","host":"sfo-1.us.uncletopia.com","port":27025,"enabled":true,"region":"us-west","cc":"us","latitude":37.77397,"longitude":-122.4313,"reserved":0,"last_update":"0001-01-01T00:00:00Z","name_a2s":"Uncletopia | San Francisco | 2 | All Maps","protocol":17,"map":"pl_snowycoast","folder":"tf","game":"Team Fortress","app_id":440,"player_count":0,"max_players":24,"Bots":0,"server_type":"Dedicated","server_os":"Linux","password":true,"vac":true,"version":"7742253","steam_id":85568392924470000,"keywords":["nocrits","nodmgspread","payload","uncletopia"],"game_id":440,"stv_port":27026,"stv_name":"Uncletopia | San Francisco | 2 | All Maps | STV","players":null},{"server_id":19,"name":"Uncletopia | San Francisco | 3 | Stopwatch Beta","name_short":"sfo-3","host":"sfo-1.us.uncletopia.com","port":27035,"enabled":true,"region":"us-west","cc":"us","latitude":37.77397,"longitude":-122.4313,"reserved":0,"last_update":"0001-01-01T00:00:00Z","name_a2s":"Uncletopia | San Francisco | 3 | Stopwatch Beta","protocol":17,"map":"cp_snakewater_final1","folder":"tf","game":"Team Fortress","app_id":440,"player_count":0,"max_players":24,"Bots":0,"server_type":"Dedicated","server_os":"Linux","password":true,"vac":true,"version":"7742253","steam_id":85568392924742824,"keywords":["cp","nocrits","nodmgspread","uncletopia"],"game_id":440,"stv_port":27036,"stv_name":"Uncletopia | San Francisco | 3 | Stopwatch Beta | STV","players":null},{"server_id":20,"name":"Uncletopia | San Francisco | 4 | Community","name_short":"sfo-4","host":"sfo-1.us.uncletopia.com","port":27045,"enabled":true,"region":"us-west","cc":"us","latitude":37.77397,"longitude":-122.4313,"reserved":0,"last_update":"0001-01-01T00:00:00Z","name_a2s":"Uncletopia | San Francisco | 4 | Community","protocol":17,"map":"workshop/koth_synthetic_rc6a.ugc1549817316","folder":"tf","game":"Team Fortress","app_id":440,"player_count":0,"max_players":24,"Bots":0,"server_type":"Dedicated","server_os":"Linux","password":true,"vac":true,"version":"7742253","steam_id":85568392924742826,"keywords":["cp","nocrits","nodmgspread","uncletopia"],"game_id":440,"stv_port":27046,"stv_name":"Uncletopia | San Francisco | 4 | Community | STV","players":null},{"server_id":141,"name":"Uncletopia | Sydney | 1 | All Maps","name_short":"syd-1","host":"syd-1.au.uncletopia.com","port":27015,"enabled":true,"region":"au","cc":"au","latitude":-33.865143,"longitude":151.2099,"reserved":0,"last_update":"0001-01-01T00:00:00Z","name_a2s":"Uncletopia | Sydney | 1 | All Maps","protocol":17,"map":"pl_upward","folder":"tf","game":"Team Fortress","app_id":440,"player_count":22,"max_players":24,"Bots":0,"server_type":"Dedicated","server_os":"Linux","password":true,"vac":true,"version":"7742253","steam_id":85568392924470001,"keywords":["nocrits","nodmgspread","payload","uncletopia"],"game_id":440,"stv_port":27016,"stv_name":"Uncletopia | Sydney | 1 | All Maps | STV","players":[{"user_id":415,"name":"trash","steam_id":76561198110764631,"connected_time":8000000000,"state":"spawning","ping":46},{"user_id":413,"name":"Average E Girl","steam_id":76561198354523762,"connected_time":38000000000,"state":"active","ping":46},{"user_id":408,"name":"nojnosbod11","steam_id":76561199176012151,"connected_time":232000000000,"state":"active","ping":61},{"user_id":412,"name":"opioidaddiction","steam_id":76561198066432690,"connected_time":45000000000,"state":"active","ping":47},{"user_id":387,"name":"Tricka •","steam_id":76561197968440123,"connected_time":1486000000000,"state":"active","ping":49},{"user_id":390,"name":"SUCC MY DUCC","steam_id":76561198127068703,"connected_time":1261000000000,"state":"active","ping":82},{"user_id":368,"name":"Bake Potato Cat","steam_id":76561198220460804,"connected_time":2674000000000,"state":"active","ping":174},{"user_id":414,"name":"April","steam_id":76561198848287180,"connected_time":31000000000,"state":"active","ping":47},{"user_id":397,"name":"SilverPenguin","steam_id":76561199025744213,"connected_time":934000000000,"state":"active","ping":91},{"user_id":396,"name":"Later","steam_id":76561198226538836,"connected_time":948000000000,"state":"active","ping":59},{"user_id":398,"name":"cypher","steam_id":76561198969463048,"connected_time":926000000000,"state":"active","ping":71},{"user_id":409,"name":"Hybrid_Knight76","steam_id":76561199073462213,"connected_time":197000000000,"state":"active","ping":44},{"user_id":382,"name":"Courage","steam_id":76561198051379740,"connected_time":1834000000000,"state":"active","ping":48},{"user_id":411,"name":"oatmilk","steam_id":76561198997194322,"connected_time":111000000000,"state":"active","ping":62},{"user_id":391,"name":"Michaelsoft Binbows","steam_id":76561198422847304,"connected_time":1258000000000,"state":"active","ping":58},{"user_id":376,"name":"MikkyD","steam_id":76561198043452962,"connected_time":2223000000000,"state":"active","ping":69},{"user_id":337,"name":"AcidOxidant","steam_id":76561198053504029,"connected_time":4488000000000,"state":"active","ping":35},{"user_id":402,"name":"bluehat","steam_id":76561198355125370,"connected_time":695000000000,"state":"active","ping":39},{"user_id":359,"name":"Wake'n'Bake'n'Make'n'Bacon","steam_id":76561198061960926,"connected_time":3243000000000,"state":"active","ping":93},{"user_id":301,"name":"LightningBlock","steam_id":76561198289997742,"connected_time":7396000000000,"state":"active","ping":38},{"user_id":384,"name":"War","steam_id":76561198157868917,"connected_time":1760000000000,"state":"active","ping":53},{"user_id":400,"name":"tim88435","steam_id":76561198089653987,"connected_time":770000000000,"state":"active","ping":46}]},{"server_id":123,"name":"Uncletopia | Sydney | 2 | All Maps","name_short":"syd-2","host":"syd-1.au.uncletopia.com","port":27025,"enabled":true,"region":"au","cc":"au","latitude":-33.865143,"longitude":151.2099,"reserved":0,"last_update":"0001-01-01T00:00:00Z","name_a2s":"Uncletopia | Sydney | 2 | All Maps","protocol":17,"map":"koth_lakeside_final","folder":"tf","game":"Team Fortress","app_id":440,"player_count":0,"max_players":24,"Bots":0,"server_type":"Dedicated","server_os":"Linux","password":true,"vac":true,"version":"7742253","steam_id":85568392924470002,"keywords":["cp","nocrits","nodmgspread","uncletopia"],"game_id":440,"stv_port":27026,"stv_name":"Uncletopia | Sydney | 2 | All Maps | STV","players":null},{"server_id":395,"name":"Uncletopia | Sydney | 3 | All Maps","name_short":"syd-3","host":"syd-1.au.uncletopia.com","port":27035,"enabled":true,"region":"au","cc":"au","latitude":-33.865143,"longitude":151.2099,"reserved":0,"last_update":"0001-01-01T00:00:00Z","name_a2s":"Uncletopia | Sydney | 3 | All Maps","protocol":17,"map":"cp_dustbowl","folder":"tf","game":"Team Fortress","app_id":440,"player_count":0,"max_players":24,"Bots":0,"server_type":"Dedicated","server_os":"Linux","password":true,"vac":true,"version":"7742253","steam_id":85568392925194467,"keywords":["cp","nocrits","nodmgspread","uncletopia"],"game_id":440,"stv_port":27036,"stv_name":"Uncletopia | Sydney | 3 | All Maps | STV","players":null},{"server_id":396,"name":"Uncletopia | Sydney | 4 | All Maps","name_short":"syd-4","host":"syd-1.au.uncletopia.com","port":27045,"enabled":true,"region":"au","cc":"au","latitude":-33.865143,"longitude":151.2099,"reserved":0,"last_update":"0001-01-01T00:00:00Z","name_a2s":"Uncletopia | Sydney | 4 | All Maps","protocol":17,"map":"cp_process_final","folder":"tf","game":"Team Fortress","app_id":440,"player_count":0,"max_players":24,"Bots":0,"server_type":"Dedicated","server_os":"Linux","password":true,"vac":true,"version":"7742253","steam_id":85568392925397958,"keywords":["cp","nocrits","nodmgspread","uncletopia"],"game_id":440,"stv_port":27046,"stv_name":"Uncletopia | Sydney | 4 | All Maps | STV","players":null},{"server_id":58,"name":"Uncletopia | Sydney | 5 | Stopwatch Beta","name_short":"syd-5","host":"syd-1.au.uncletopia.com","port":27055,"enabled":true,"region":"au","cc":"au","latitude":-33.865143,"longitude":151.2099,"reserved":0,"last_update":"0001-01-01T00:00:00Z","name_a2s":"Uncletopia | Sydney | 5 | Stopwatch Beta","protocol":17,"map":"cp_snakewater_final1","folder":"tf","game":"Team Fortress","app_id":440,"player_count":0,"max_players":24,"Bots":0,"server_type":"Dedicated","server_os":"Linux","password":true,"vac":true,"version":"7742253","steam_id":85568392925397959,"keywords":["cp","nocrits","nodmgspread","uncletopia"],"game_id":440,"stv_port":27056,"stv_name":"Uncletopia | Sydney | 5 | Stopwatch Beta | STV","players":null},{"server_id":59,"name":"Uncletopia | Sydney | 6 | Community","name_short":"syd-6","host":"syd-1.au.uncletopia.com","port":27065,"enabled":true,"region":"au","cc":"au","latitude":-33.865143,"longitude":151.2099,"reserved":0,"last_update":"0001-01-01T00:00:00Z","name_a2s":"Uncletopia | Sydney | 6 | Community","protocol":17,"map":"workshop/koth_product_final.ugc454272353","folder":"tf","game":"Team Fortress","app_id":440,"player_count":0,"max_players":24,"Bots":0,"server_type":"Dedicated","server_os":"Linux","password":true,"vac":true,"version":"7742253","steam_id":85568392925397960,"keywords":["cp","nocrits","nodmgspread","uncletopia"],"game_id":440,"stv_port":27066,"stv_name":"Uncletopia | Sydney | 6 | Community | STV","players":null},{"server_id":49,"name":"Uncletopia | Warsaw | 1 | All Maps","name_short":"waw-1","host":"waw-1.pl.uncletopia.com","port":27015,"enabled":true,"region":"eu","cc":"pl","latitude":52.2297,"longitude":21.017532,"reserved":0,"last_update":"0001-01-01T00:00:00Z","name_a2s":"Uncletopia | Warsaw | 1 | All Maps","protocol":17,"map":"koth_lakeside_final","folder":"tf","game":"Team Fortress","app_id":440,"player_count":0,"max_players":24,"Bots":0,"server_type":"Dedicated","server_os":"Linux","password":true,"vac":true,"version":"7723704","steam_id":85568392925397850,"keywords":["cp","nocrits","nodmgspread","uncletopia"],"game_id":440,"stv_port":27016,"stv_name":"Uncletopia | Warsaw | 1 | All Maps | STV","players":null},{"server_id":50,"name":"Uncletopia | Warsaw | 2 | All Maps","name_short":"waw-2","host":"waw-1.pl.uncletopia.com","port":27025,"enabled":true,"region":"eu","cc":"pl","latitude":52.2297,"longitude":21.017532,"reserved":0,"last_update":"0001-01-01T00:00:00Z","name_a2s":"Uncletopia | Warsaw | 2 | All Maps","protocol":17,"map":"pl_frontier_final","folder":"tf","game":"Team Fortress","app_id":440,"player_count":0,"max_players":24,"Bots":0,"server_type":"Dedicated","server_os":"Linux","password":true,"vac":true,"version":"7742253","steam_id":85568392925397851,"keywords":["nocrits","nodmgspread","payload","uncletopia"],"game_id":440,"stv_port":27026,"stv_name":"Uncletopia | Warsaw | 2 | All Maps | STV","players":null},{"server_id":51,"name":"Uncletopia | Warsaw | 3 | All Maps","name_short":"waw-3","host":"waw-1.pl.uncletopia.com","port":27035,"enabled":true,"region":"eu","cc":"pl","latitude":52.2297,"longitude":21.017532,"reserved":0,"last_update":"0001-01-01T00:00:00Z","name_a2s":"Uncletopia | Warsaw | 3 | All Maps","protocol":17,"map":"pl_frontier_final","folder":"tf","game":"Team Fortress","app_id":440,"player_count":0,"max_players":24,"Bots":0,"server_type":"Dedicated","server_os":"Linux","password":true,"vac":true,"version":"7742253","steam_id":85568392925397852,"keywords":["nocrits","nodmgspread","payload","uncletopia"],"game_id":440,"stv_port":27036,"stv_name":"Uncletopia | Warsaw | 3 | All Maps | STV","players":null},{"server_id":52,"name":"Uncletopia | Warsaw | 4 | All Maps","name_short":"waw-4","host":"waw-1.pl.uncletopia.com","port":27045,"enabled":true,"region":"eu","cc":"pl","latitude":52.2297,"longitude":21.017532,"reserved":0,"last_update":"0001-01-01T00:00:00Z","name_a2s":"Uncletopia | Warsaw | 4 | All Maps","protocol":17,"map":"pl_swiftwater_final1","folder":"tf","game":"Team Fortress","app_id":440,"player_count":0,"max_players":24,"Bots":0,"server_type":"Dedicated","server_os":"Linux","password":true,"vac":true,"version":"7742253","steam_id":85568392925397853,"keywords":["nocrits","nodmgspread","payload","uncletopia"],"game_id":440,"stv_port":27046,"stv_name":"Uncletopia | Warsaw | 4 | All Maps | STV","players":null},{"server_id":53,"name":"Uncletopia | Warsaw | 5 | Stopwatch Beta","name_short":"waw-5","host":"waw-1.pl.uncletopia.com","port":27055,"enabled":true,"region":"eu","cc":"pl","latitude":52.2297,"longitude":21.017532,"reserved":0,"last_update":"0001-01-01T00:00:00Z","name_a2s":"Uncletopia | Warsaw | 5 | Stopwatch Beta","protocol":17,"map":"pl_pier","folder":"tf","game":"Team Fortress","app_id":440,"player_count":0,"max_players":24,"Bots":0,"server_type":"Dedicated","server_os":"Linux","password":true,"vac":true,"version":"7742253","steam_id":85568392925397854,"keywords":["nocrits","nodmgspread","payload","uncletopia"],"game_id":440,"stv_port":27056,"stv_name":"Uncletopia | Warsaw | 5 | Stopwatch Beta | STV","players":null},{"server_id":54,"name":"Uncletopia | Warsaw | 6 | Community","name_short":"waw-6","host":"waw-1.pl.uncletopia.com","port":27065,"enabled":true,"region":"eu","cc":"pl","latitude":52.2297,"longitude":21.017532,"reserved":0,"last_update":"0001-01-01T00:00:00Z","name_a2s":"Uncletopia | Warsaw | 6 | Community","protocol":17,"map":"cp_sunshine","folder":"tf","game":"Team Fortress","app_id":440,"player_count":0,"max_players":24,"Bots":0,"server_type":"Dedicated","server_os":"Linux","password":true,"vac":true,"version":"7742253","steam_id":85568392925397856,"keywords":["cp","nocrits","nodmgspread","uncletopia"],"game_id":440,"stv_port":27066,"stv_name":"Uncletopia | Warsaw | 6 | Community | STV","players":null}]}