{"status":true,"message":"","result":[{"server_id":9,"name":"Uncletopia | Atlanta | 1 | All Maps","name_short":"atl-1","host":"atl-1.us.uncletopia.com","port":27015,"enabled":true,"region":"us-east","cc":"us","latitude":33.753746,"longitude":-84.38633,"reserved":0,"last_update":"0001-01-01T00:00:00Z","name_a2s":"Uncletopia | Atlanta | 1 | All Maps","protocol":17,"map":"pl_upward","folder":"tf","game":"Team Fortress","app_id":440,"player_count":24,"max_players":24,"Bots":0,"server_type":"Dedicated","server_os":"Linux","password":true,"vac":true,"version":"7961495","steam_id":85568392924469982,"keywords":["nocrits","nodmgspread","payload","uncletopia"],"game_id":440,"stv_port":27016,"stv_name":"Uncletopia | Atlanta | 1 | All Maps | STV","players":[{"user_id":384,"name":"argonaut","steam_id":76561197969961750,"connected_time":919000000000,"state":"active","ping":63},{"user_id":378,"name":"lexi","steam_id":76561198176299759,"connected_time":1405000000000,"state":"active","ping":87},{"user_id":380,"name":"Mog","steam_id":76561198025575870,"connected_time":1322000000000,"state":"active","ping":75},{"user_id":349,"name":"Smug Catgirl","steam_id":76561198170389427,"connected_time":3722000000000,"state":"active","ping":125},{"user_id":392,"name":"MeatShield 2000","steam_id":76561199375192850,"connected_time":212000000000,"state":"active","ping":114},{"user_id":293,"name":"The entire state of Wisconsin","steam_id":76561199022178492,"connected_time":7121000000000,"state":"active","ping":39},{"user_id":397,"name":"FOOL","steam_id":76561198370866973,"connected_time":3000000000,"state":"spawning","ping":104},{"user_id":390,"name":"trianamarco780","steam_id":76561199084319677,"connected_time":250000000000,"state":"active","ping":119},{"user_id":361,"name":"z","steam_id":76561198377478982,"connected_time":2261000000000,"state":"active","ping":74},{"user_id":371,"name":"KBoneski ♡","steam_id":76561198307409065,"connected_time":2115000000000,"state":"active","ping":74},{"user_id":387,"name":"werterioso","steam_id":76561198339254386,"connected_time":857000000000,"state":"active","ping":110},{"user_id":394,"name":"sloth (i have gay)","steam_id":76561198047098172,"connected_time":176000000000,"state":"active","ping":84},{"user_id":357,"name":"gallowsCalibrator","steam_id":76561198404707578,"connected_time":3062000000000,"state":"active","ping":59},{"user_id":393,"name":"Kartyac","steam_id":76561197991069005,"connected_time":201000000000,"state":"active","ping":78},{"user_id":389,"name":"i miss fauna","steam_id":76561198045144546,"connected_time":263000000000,"state":"active","ping":72},{"user_id":395,"name":"reymundo","steam_id":76561197989412830,"connected_time":173000000000,"state":"active","ping":113},{"user_id":376,"name":"Apple Zoo","steam_id":76561198013732450,"connected_time":1692000000000,"state":"active","ping":74},{"user_id":330,"name":"ATL1 | to4st","steam_id":76561198981009008,"connected_time":5199000000000,"state":"active","ping":73},{"user_id":396,"name":"[MOM] Preening Champion","steam_id":76561198055855534,"connected_time":154000000000,"state":"active","ping":61},{"user_id":381,"name":"cee","steam_id":76561198420893458,"connected_time":1308000000000,"state":"active","ping":81},{"user_id":276,"name":"Fudgely","steam_id":76561198039425862,"connected_time":8816000000000,"state":"active","ping":77},{"user_id":355,"name":"Shirt","steam_id":76561198072153940,"connected_time":3562000000000,"state":"active","ping":60},{"user_id":326,"name":"APlasticBag","steam_id":76561198205389735,"connected_time":5497000000000,"state":"active","ping":100},{"user_id":327,"name":"YourLocalMedic","steam_id":76561198004148003,"connected_time":5486000000000,"state":"active","ping":104}]},{"server_id":104,"name":"Uncletopia | Atlanta | 2 | All Maps","name_short":"atl-2","host":"atl-1.us.uncletopia.com","port":27025,"enabled":true,"region":"us-east","cc":"us","latitude":33.753746,"longitude":-84.38633,"reserved":0,"last_update":"0001-01-01T00:00:00Z","name_a2s":"Uncletopia | Atlanta | 2 | All Maps","protocol":17,"map":"pl_barnblitz","folder":"tf","game":"Team Fortress","app_id":440,"player_count":24,"max_players":24,"Bots":0,"server_type":"Dedicated","server_os":"Linux","password":true,"vac":true,"version":"7961495","steam_id":85568392924469983,"keywords":["nocrits","nodmgspread","payload","uncletopia"],"game_id":440,"stv_port":27026,"stv_name":"Uncletopia | Atlanta | 2 | All Maps | STV","players":[{"user_id":160,"name":"floofy","steam_id":76561198389769098,"connected_time":991000000000,"state":"active","ping":66},{"user_id":128,"name":"The Grungler","steam_id":76561198126561438,"connected_time":3453000000000,"state":"active","ping":95},{"user_id":98,"name":"Decapitation Station","steam_id":76561198201796098,"connected_time":5643000000000,"state":"active","ping":63},{"user_id":116,"name":"Nassu","steam_id":76561198147367577,"connected_time":4118000000000,"state":"active","ping":75},{"user_id":165,"name":"CapNamey","steam_id":76561198100782173,"connected_time":145000000000,"state":"active","ping":90},{"user_id":166,"name":"Grify","steam_id":76561198012292317,"connected_time":142000000000,"state":"active","ping":60},{"user_id":163,"name":"HÖLLENFEUER","steam_id":76561198032751171,"connected_time":360000000000,"state":"active","ping":46},{"user_id":139,"name":"Monte","steam_id":76561198097499917,"connected_time":2447000000000,"state":"active","ping":91},{"user_id":159,"name":"TheGrassMan (He/Him)","steam_id":76561198118984048,"connected_time":1118000000000,"state":"active","ping":80},{"user_id":147,"name":"chaffy","steam_id":76561198021754567,"connected_time":1506000000000,"state":"active","ping":45},{"user_id":161,"name":"goodypiggy","steam_id":76561198434705310,"connected_time":980000000000,"state":"active","ping":100},{"user_id":149,"name":"tunaa","steam_id":76561198362763159,"connected_time":1463000000000,"state":"active","ping":101},{"user_id":101,"name":"DlTTO","steam_id":76561199427026752,"connected_time":5503000000000,"state":"active","ping":76},{"user_id":164,"name":"mublerking","steam_id":76561198069465213,"connected_time":268000000000,"state":"active","ping":88},{"user_id":150,"name":"alex","steam_id":76561199281389958,"connected_time":1462000000000,"state":"active","ping":166},{"user_id":155,"name":"Soapbar","steam_id":76561198081714169,"connected_time":1358000000000,"state":"active","ping":67},{"user_id":162,"name":"LiMPs","steam_id":76561198176806234,"connected_time":421000000000,"state":"active","ping":65},{"user_id":126,"name":"the creature","steam_id":76561199015635037,"connected_time":3595000000000,"state":"active","ping":57},{"user_id":106,"name":"Ok-Par","steam_id":76561199221067945,"connected_time":5251000000000,"state":"active","ping":69},{"user_id":122,"name":"Young-OG","steam_id":76561198058800479,"connected_time":4029000000000,"state":"active","ping":61},{"user_id":145,"name":"Max_Attack","steam_id":76561198944028607,"connected_time":1778000000000,"state":"active","ping":76},{"user_id":95,"name":"non_ai","steam_id":76561198270951938,"connected_time":5713000000000,"state":"active","ping":79},{"user_id":167,"name":"m e","steam_id":76561198216487540,"connected_time":134000000000,"state":"active","ping":121},{"user_id":156,"name":"wheresgeorge","steam_id":76561198986281248,"connected_time":1350000000000,"state":"active","ping":56}]},{"server_id":400,"name":"Uncletopia | Atlanta | 3 | Stopwatch","name_short":"atl-3","host":"atl-1.us.uncletopia.com","port":27035,"enabled":true,"region":"us-east","cc":"us","latitude":33.753746,"longitude":-84.38633,"reserved":0,"last_update":"0001-01-01T00:00:00Z","name_a2s":"Uncletopia | Atlanta | 3 | Stopwatch","protocol":17,"map":"workshop/koth_jamram_rc1a.ugc2964065613","folder":"tf","game":"Team Fortress","app_id":440,"player_count":0,"max_players":24,"Bots":0,"server_type":"Dedicated","server_os":"Linux","password":true,"vac":true,"version":"7961495","steam_id":85568392924515187,"keywords":["cp","nocrits","nodmgspread","uncletopia"],"game_id":440,"stv_port":27036,"stv_name":"Uncletopia | Atlanta | 3 | Stopwatch | STV","players":null},{"server_id":401,"name":"Uncletopia | Atlanta | 4 | Community","name_short":"atl-4","host":"atl-1.us.uncletopia.com","port":27045,"enabled":true,"region":"us-east","cc":"us","latitude":33.753746,"longitude":-84.38633,"reserved":0,"last_update":"0001-01-01T00:00:00Z","name_a2s":"Uncletopia | Atlanta | 4 | Community","protocol":17,"map":"workshop/cp_reckoner_rc6.ugc674719999","folder":"tf","game":"Team Fortress","app_id":440,"player_count":0,"max_players":24,"Bots":0,"server_type":"Dedicated","server_os":"Linux","password":true,"vac":true,"version":"7961495","steam_id":85568392924515188,"keywords":["cp","nocrits","nodmgspread","uncletopia"],"game_id":440,"stv_port":27046,"stv_name":"Uncletopia | Atlanta | 4 | Community | STV","players":null},{"server_id":2,"name":"Uncletopia | Chicago | 1 | All Maps","name_short":"chi-1","host":"chi-1.us.uncletopia.com","port":27015,"enabled":true,"region":"us-central","cc":"us","latitude":41.881832,"longitude":-87.62318,"reserved":0,"last_update":"0001-01-01T00:00:00Z","name_a2s":"Uncletopia | Chicago | 1 | All Maps","protocol":17,"map":"cp_gorge","folder":"tf","game":"Team Fortress","app_id":440,"player_count":24,"max_players":24,"Bots":0,"server_type":"Dedicated","server_os":"Linux","password":true,"vac":true,"version":"7961495","steam_id":85568392924469984,"keywords":["cp","nocrits","nodmgspread","uncletopia"],"game_id":440,"stv_port":27016,"stv_name":"Uncletopia | Chicago | 1 | All Maps | STV","players":[{"user_id":277,"name":"beep","steam_id":76561199096448766,"connected_time":198000000000,"state":"active","ping":61},{"user_id":196,"name":"Your Local Queer Librarian","steam_id":76561198013077080,"connected_time":4652000000000,"state":"active","ping":47},{"user_id":285,"name":"airsumo","steam_id":76561198044193815,"connected_time":125000000000,"state":"active","ping":41},{"user_id":278,"name":"Jrock","steam_id":76561198045715996,"connected_time":197000000000,"state":"active","ping":82},{"user_id":287,"name":"vap","steam_id":76561198019760796,"connected_time":72000000000,"state":"active","ping":101},{"user_id":271,"name":"shoot","steam_id":76561198170172583,"connected_time":1121000000000,"state":"active","ping":77},{"user_id":270,"name":"Oh, it's Zach","steam_id":76561198103309672,"connected_time":1138000000000,"state":"active","ping":57},{"user_id":244,"name":"büddeh","steam_id":76561198070735936,"connected_time":2320000000000,"state":"active","ping":60},{"user_id":232,"name":"same as it ever was","steam_id":76561198038742278,"connected_time":3188000000000,"state":"active","ping":101},{"user_id":280,"name":"Yarn","steam_id":76561199227148369,"connected_time":183000000000,"state":"active","ping":75},{"user_id":195,"name":"Clean Lines","steam_id":76561197960691518,"connected_time":4899000000000,"state":"active","ping":50},{"user_id":281,"name":"the plunderer","steam_id":76561198061284371,"connected_time":163000000000,"state":"active","ping":61},{"user_id":282,"name":"Ty","steam_id":76561198132068284,"connected_time":160000000000,"state":"active","ping":92},{"user_id":268,"name":"Hovg9000","steam_id":76561199191556710,"connected_time":1241000000000,"state":"active","ping":77},{"user_id":289,"name":"P.C. Baby","steam_id":76561198067011379,"connected_time":32000000000,"state":"active","ping":104},{"user_id":273,"name":"SenpaiZetch","steam_id":76561199132227118,"connected_time":893000000000,"state":"active","ping":71},{"user_id":246,"name":"Augustus Gloop","steam_id":76561198145561348,"connected_time":2264000000000,"state":"active","ping":55},{"user_id":286,"name":"LikeASir","steam_id":76561198042209721,"connected_time":105000000000,"state":"active","ping":45},{"user_id":258,"name":"OH BOY","steam_id":76561199052273428,"connected_time":1871000000000,"state":"active","ping":54},{"user_id":264,"name":"Posture Check","steam_id":76561198998634786,"connected_time":1671000000000,"state":"active","ping":87},{"user_id":200,"name":"TheAlmightyG","steam_id":76561198235946096,"connected_time":4488000000000,"state":"active","ping":79},{"user_id":275,"name":"sickomode123","steam_id":76561198975511346,"connected_time":313000000000,"state":"active","ping":83},{"user_id":215,"name":"P E P S I","steam_id":76561198115035038,"connected_time":4196000000000,"state":"active","ping":76},{"user_id":199,"name":"Celestial Bodies","steam_id":76561198212572955,"connected_time":4555000000000,"state":"active","ping":78}]},{"server_id":106,"name":"Uncletopia | Chicago | 2 | All Maps","name_short":"chi-2","host":"chi-1.us.uncletopia.com","port":27025,"enabled":true,"region":"us-central","cc":"us","latitude":41.881832,"longitude":-87.62318,"reserved":0,"last_update":"0001-01-01T00:00:00Z","name_a2s":"Uncletopia | Chicago | 2 | All Maps","protocol":17,"map":"koth_viaduct","folder":"tf","game":"Team Fortress","app_id":440,"player_count":24,"max_players":24,"Bots":0,"server_type":"Dedicated","server_os":"Linux","password":true,"vac":true,"version":"7961495","steam_id":85568392924469985,"keywords":["cp","nocrits","nodmgspread","uncletopia"],"game_id":440,"stv_port":27026,"stv_name":"Uncletopia | Chicago | 2 | All Maps | STV","players":[{"user_id":401,"name":"Vincent Van Ghoul","steam_id":76561198271907916,"connected_time":9153000000000,"state":"active","ping":59},{"user_id":480,"name":"whitr","steam_id":76561198043981478,"connected_time":3418000000000,"state":"active","ping":90},{"user_id":481,"name":"shoobs","steam_id":76561198042507255,"connected_time":3407000000000,"state":"active","ping":74},{"user_id":516,"name":"Letters","steam_id":76561198035508148,"connected_time":1932000000000,"state":"active","ping":63},{"user_id":496,"name":"Mongoose88","steam_id":76561197961442445,"connected_time":3086000000000,"state":"active","ping":55},{"user_id":514,"name":"Big Boy Beni","steam_id":76561197995469460,"connected_time":2220000000000,"state":"active","ping":91},{"user_id":531,"name":"gIBBY","steam_id":76561198080099598,"connected_time":124000000000,"state":"active","ping":56},{"user_id":525,"name":"Monkey","steam_id":76561198293422854,"connected_time":1083000000000,"state":"active","ping":48},{"user_id":467,"name":"Kirbout","steam_id":76561198071788465,"connected_time":4327000000000,"state":"active","ping":68},{"user_id":397,"name":"Ajax","steam_id":76561197962240140,"connected_time":9553000000000,"state":"active","ping":55},{"user_id":515,"name":"Mario","steam_id":76561198099304627,"connected_time":2098000000000,"state":"active","ping":76},{"user_id":506,"name":"c64guy","steam_id":76561198023022744,"connected_time":2818000000000,"state":"active","ping":60},{"user_id":527,"name":"winrarFanatic","steam_id":76561198026538317,"connected_time":993000000000,"state":"active","ping":60},{"user_id":484,"name":"caberknight tf2  (f2p-ish)","steam_id":76561199273882768,"connected_time":3366000000000,"state":"active","ping":50},{"user_id":508,"name":"Creature","steam_id":76561198194585781,"connected_time":2609000000000,"state":"active","ping":92},{"user_id":521,"name":"CheeseCake488","steam_id":76561199407617942,"connected_time":1463000000000,"state":"active","ping":127},{"user_id":509,"name":"Weed Dealer","steam_id":76561198418604400,"connected_time":2603000000000,"state":"active","ping":91},{"user_id":493,"name":"Derblitz","steam_id":76561198040953176,"connected_time":3232000000000,"state":"active","ping":105},{"user_id":524,"name":"Sunshine","steam_id":76561198885528098,"connected_time":1089000000000,"state":"active","ping":73},{"user_id":530,"name":"randomusername","steam_id":76561199078214700,"connected_time":289000000000,"state":"active","ping":60},{"user_id":512,"name":"truggerr","steam_id":76561198000875619,"connected_time":2499000000000,"state":"active","ping":67},{"user_id":528,"name":"Steak-Pocketer","steam_id":76561198277651410,"connected_time":728000000000,"state":"active","ping":60},{"user_id":449,"name":"Window Licker #pride","steam_id":76561198386717007,"connected_time":5442000000000,"state":"active","ping":55},{"user_id":505,"name":"Aldinach","steam_id":76561198079912615,"connected_time":2934000000000,"state":"active","ping":50}]},{"server_id":402,"name":"Uncletopia | Chicago | 3 | All Maps","name_short":"chi-3","host":"chi-1.us.uncletopia.com","port":27035,"enabled":true,"region":"us-central","cc":"us","latitude":41.881832,"longitude":-87.62318,"reserved":0,"last_update":"0001-01-01T00:00:00Z","name_a2s":"Uncletopia | Chicago | 3 | All Maps","protocol":17,"map":"pl_upward","folder":"tf","game":"Team Fortress","app_id":440,"player_count":24,"max_players":24,"Bots":0,"server_type":"Dedicated","server_os":"Linux","password":true,"vac":true,"version":"7961495","steam_id":85568392924515191,"keywords":["nocrits","nodmgspread","payload","uncletopia"],"game_id":440,"stv_port":27036,"stv_name":"Uncletopia | Chicago | 3 | All Maps | STV","players":[{"user_id":155,"name":"Rex","steam_id":76561198138365053,"connected_time":440000000000,"state":"active","ping":120},{"user_id":158,"name":"sabdychan","steam_id":76561198973078784,"connected_time":400000000000,"state":"active","ping":49},{"user_id":162,"name":"vacachimuela","steam_id":76561198297332421,"connected_time":3000000000,"state":"spawning","ping":131},{"user_id":102,"name":"deaf and bad","steam_id":76561199011865268,"connected_time":3990000000000,"state":"active","ping":32},{"user_id":133,"name":"yatil","steam_id":76561198311004039,"connected_time":2010000000000,"state":"active","ping":90},{"user_id":130,"name":"dunk","steam_id":76561198132476501,"connected_time":2169000000000,"state":"active","ping":52},{"user_id":136,"name":"ChaingunnerFails","steam_id":76561198963075967,"connected_time":1837000000000,"state":"active","ping":122},{"user_id":127,"name":"cotton candy pill bug","steam_id":76561198058998371,"connected_time":2273000000000,"state":"active","ping":59},{"user_id":157,"name":"Mr. Biggles","steam_id":76561197995249096,"connected_time":415000000000,"state":"active","ping":141},{"user_id":161,"name":"Kurama","steam_id":76561198137649711,"connected_time":80000000000,"state":"active","ping":74},{"user_id":126,"name":"Louis Litt","steam_id":76561198170859755,"connected_time":2323000000000,"state":"active","ping":74},{"user_id":37,"name":"thecal","steam_id":76561198307893384,"connected_time":7939000000000,"state":"active","ping":50},{"user_id":149,"name":"sleepy","steam_id":76561199008634102,"connected_time":1116000000000,"state":"active","ping":75},{"user_id":154,"name":"Kick Down Door 6:00AM TUCK☃RO","steam_id":76561197976146738,"connected_time":490000000000,"state":"active","ping":76},{"user_id":140,"name":"IlikeChowMien","steam_id":76561199466131782,"connected_time":1740000000000,"state":"active","ping":68},{"user_id":159,"name":"Monty","steam_id":76561197993567253,"connected_time":397000000000,"state":"active","ping":100},{"user_id":152,"name":"Raz","steam_id":76561198002426150,"connected_time":943000000000,"state":"active","ping":73},{"user_id":160,"name":"Lao","steam_id":76561198004528684,"connected_time":394000000000,"state":"active","ping":145},{"user_id":147,"name":"-.-","steam_id":76561199239412094,"connected_time":1240000000000,"state":"active","ping":139},{"user_id":117,"name":"Rode hard, put away wet","steam_id":76561198062764039,"connected_time":3337000000000,"state":"active","ping":56},{"user_id":138,"name":"Drafty Hades","steam_id":76561198344595480,"connected_time":1808000000000,"state":"active","ping":100},{"user_id":90,"name":"Satori Komeiji","steam_id":76561198158211423,"connected_time":4896000000000,"state":"active","ping":93},{"user_id":135,"name":"juan_valdez","steam_id":76561198041046332,"connected_time":1866000000000,"state":"active","ping":74},{"user_id":122,"name":"[DATS➡] Sugar Meowth","steam_id":76561197995251793,"connected_time":2836000000000,"state":"active","ping":90}]},{"server_id":403,"name":"Uncletopia | Chicago | 4 | All Maps","name_short":"chi-4","host":"chi-1.us.uncletopia.com","port":27045,"enabled":true,"region":"us-central","cc":"us","latitude":41.881832,"longitude":-87.62318,"reserved":0,"last_update":"0001-01-01T00:00:00Z","name_a2s":"Uncletopia | Chicago | 4 | All Maps","protocol":17,"map":"pl_upward","folder":"tf","game":"Team Fortress","app_id":440,"player_count":24,"max_players":24,"Bots":0,"server_type":"Dedicated","server_os":"Linux","password":true,"vac":true,"version":"7961495","steam_id":85568392924515193,"keywords":["nocrits","nodmgspread","payload","uncletopia"],"game_id":440,"stv_port":27046,"stv_name":"Uncletopia | Chicago | 4 | All Maps | STV","players":[{"user_id":126,"name":"Dr. R","steam_id":76561198155976984,"connected_time":544000000000,"state":"active","ping":48},{"user_id":109,"name":"jinxxedbyu2","steam_id":76561198341045051,"connected_time":1505000000000,"state":"active","ping":58},{"user_id":127,"name":"Firesword_654","steam_id":76561199174342673,"connected_time":533000000000,"state":"active","ping":51},{"user_id":110,"name":"jg125","steam_id":76561198824953530,"connected_time":1432000000000,"state":"active","ping":136},{"user_id":125,"name":"Balsamicpork","steam_id":76561197995358472,"connected_time":647000000000,"state":"active","ping":81},{"user_id":112,"name":"Just a BLU Toon","steam_id":76561198273199771,"connected_time":1425000000000,"state":"active","ping":74},{"user_id":113,"name":"4MU3RTØ4 (Muerto)","steam_id":76561198046841025,"connected_time":1385000000000,"state":"active","ping":67},{"user_id":140,"name":"Jaflampe","steam_id":76561198175827647,"connected_time":392000000000,"state":"active","ping":57},{"user_id":135,"name":"Real","steam_id":76561198119315680,"connected_time":504000000000,"state":"active","ping":57},{"user_id":128,"name":"azusa","steam_id":76561197961779026,"connected_time":531000000000,"state":"active","ping":103},{"user_id":123,"name":"your moms car","steam_id":76561199389283507,"connected_time":909000000000,"state":"active","ping":62},{"user_id":116,"name":"PorSurface","steam_id":76561198999584253,"connected_time":1273000000000,"state":"active","ping":48},{"user_id":129,"name":"inshallah","steam_id":76561198165212575,"connected_time":517000000000,"state":"active","ping":65},{"user_id":130,"name":"Thor","steam_id":76561198220366151,"connected_time":511000000000,"state":"active","ping":72},{"user_id":117,"name":"submackeen","steam_id":76561198799855913,"connected_time":1244000000000,"state":"active","ping":74},{"user_id":96,"name":"Iron Fox (Update-sized)","steam_id":76561198326520372,"connected_time":2949000000000,"state":"active","ping":56},{"user_id":137,"name":"Johnny Lawrence #JohnnyMaxxing","steam_id":76561199367141671,"connected_time":488000000000,"state":"active","ping":65},{"user_id":136,"name":"cass","steam_id":76561198059362878,"connected_time":496000000000,"state":"active","ping":45},{"user_id":138,"name":".jpg","steam_id":76561198137237377,"connected_time":483000000000,"state":"active","ping":70},{"user_id":119,"name":"C Papi","steam_id":76561198027779564,"connected_time":1226000000000,"state":"active","ping":57},{"user_id":122,"name":"com lag","steam_id":76561198019019392,"connected_time":1134000000000,"state":"active","ping":48},{"user_id":139,"name":"Clyde","steam_id":76561198158206236,"connected_time":482000000000,"state":"active","ping":113},{"user_id":141,"name":"quadraspazzed on a lifeglug","steam_id":76561198025514255,"connected_time":217000000000,"state":"active","ping":76},{"user_id":121,"name":"ATLS1 | Strange Festive","steam_id":76561198050385093,"connected_time":1195000000000,"state":"active","ping":70}]},{"server_id":36,"name":"Uncletopia | Chicago | 5 | All Maps","name_short":"chi-5","host":"chi-2.us.uncletopia.com","port":27015,"enabled":true,"region":"us-central","cc":"us","latitude":41.881832,"longitude":-87.62318,"reserved":0,"last_update":"0001-01-01T00:00:00Z","name_a2s":"Uncletopia | Chicago | 5 | All Maps","protocol":17,"map":"cp_dustbowl","folder":"tf","game":"Team Fortress","app_id":440,"player_count":22,"max_players":24,"Bots":0,"server_type":"Dedicated","server_os":"Linux","password":true,"vac":true,"version":"7961495","steam_id":85568392924866362,"keywords":["cp","nocrits","nodmgspread","uncletopia"],"game_id":440,"stv_port":27016,"stv_name":"Uncletopia | Chicago | 5 | All Maps | STV","players":[{"user_id":424,"name":"Elias","steam_id":76561198106431732,"connected_time":476000000000,"state":"active","ping":57},{"user_id":413,"name":"Don't Fuckle with Shuckle","steam_id":76561199020102367,"connected_time":670000000000,"state":"active","ping":62},{"user_id":402,"name":"nomkeko","steam_id":76561198155447346,"connected_time":1143000000000,"state":"active","ping":87},{"user_id":403,"name":"Doctor Gaming","steam_id":76561198376518215,"connected_time":1119000000000,"state":"active","ping":54},{"user_id":425,"name":"the.land.of.avalon","steam_id":76561198245431668,"connected_time":89000000000,"state":"active","ping":45},{"user_id":376,"name":"Bullwinkle J. Moose","steam_id":76561198075977196,"connected_time":4867000000000,"state":"active","ping":92},{"user_id":407,"name":"piment0","steam_id":76561198403649648,"connected_time":803000000000,"state":"active","ping":61},{"user_id":422,"name":"Lucky Roux","steam_id":76561198298884337,"connected_time":576000000000,"state":"active","ping":75},{"user_id":390,"name":"❀Rami❀","steam_id":76561198993652475,"connected_time":3129000000000,"state":"active","ping":65},{"user_id":409,"name":"Mer","steam_id":76561198192171041,"connected_time":762000000000,"state":"active","ping":111},{"user_id":389,"name":"A jpeg of Robert Downey Jr","steam_id":76561198993010853,"connected_time":3234000000000,"state":"active","ping":76},{"user_id":410,"name":"Windows Gangster Edition","steam_id":76561198166982558,"connected_time":722000000000,"state":"active","ping":81},{"user_id":411,"name":"Tallboi","steam_id":76561198274286470,"connected_time":718000000000,"state":"active","ping":118},{"user_id":414,"name":"Prec1sioN","steam_id":76561198931137867,"connected_time":664000000000,"state":"active","ping":47},{"user_id":416,"name":"I microwave fish","steam_id":76561198011603359,"connected_time":643000000000,"state":"active","ping":76},{"user_id":417,"name":"Yam Jazzy Jim","steam_id":76561198000788950,"connected_time":620000000000,"state":"active","ping":67},{"user_id":418,"name":"Random Protogen","steam_id":76561198904570192,"connected_time":614000000000,"state":"active","ping":54},{"user_id":367,"name":"MD","steam_id":76561197976300679,"connected_time":5332000000000,"state":"active","ping":77},{"user_id":419,"name":"Papillon","steam_id":76561198049725849,"connected_time":611000000000,"state":"active","ping":74},{"user_id":423,"name":"Kaypo","steam_id":76561198262420097,"connected_time":566000000000,"state":"active","ping":57},{"user_id":421,"name":"GuyGoom","steam_id":76561198254522178,"connected_time":579000000000,"state":"active","ping":60}]},{"server_id":37,"name":"Uncletopia | Chicago | 6 | All Maps","name_short":"chi-6","host":"chi-2.us.uncletopia.com","port":27025,"enabled":true,"region":"us-central","cc":"us","latitude":41.881832,"longitude":-87.62318,"reserved":0,"last_update":"0001-01-01T00:00:00Z","name_a2s":"Uncletopia | Chicago | 6 | All Maps","protocol":17,"map":"cp_powerhouse","folder":"tf","game":"Team Fortress","app_id":440,"player_count":24,"max_players":24,"Bots":0,"server_type":"Dedicated","server_os":"Linux","password":true,"vac":true,"version":"7961495","steam_id":85568392924866363,"keywords":["cp","nocrits","nodmgspread","uncletopia"],"game_id":440,"stv_port":27026,"stv_name":"Uncletopia | Chicago | 6 | All Maps | STV","players":[{"user_id":345,"name":"swagerman90020 from oblock","steam_id":76561199196918355,"connected_time":450000000000,"state":"active","ping":54},{"user_id":323,"name":"Owl Pacino","steam_id":76561197979970666,"connected_time":2060000000000,"state":"active","ping":58},{"user_id":344,"name":"beesechurger™","steam_id":76561198867219032,"connected_time":561000000000,"state":"active","ping":59},{"user_id":346,"name":"RomeLad","steam_id":76561198965438663,"connected_time":448000000000,"state":"active","ping":90},{"user_id":263,"name":"Dr. Adderman","steam_id":76561199072803576,"connected_time":5537000000000,"state":"active","ping":60},{"user_id":336,"name":"hedahman","steam_id":76561198052398134,"connected_time":1144000000000,"state":"active","ping":95},{"user_id":335,"name":"bird who can't aim","steam_id":76561198062360755,"connected_time":1172000000000,"state":"active","ping":55},{"user_id":338,"name":"BLØRG","steam_id":76561198036126673,"connected_time":1084000000000,"state":"active","ping":88},{"user_id":340,"name":"lionel messi","steam_id":76561198138455706,"connected_time":1043000000000,"state":"active","ping":75},{"user_id":355,"name":"Bim","steam_id":76561198155979811,"connected_time":198000000000,"state":"active","ping":68},{"user_id":320,"name":"Manly Mann Saul Goodmann","steam_id":76561198116449787,"connected_time":2540000000000,"state":"active","ping":77},{"user_id":307,"name":"general.b","steam_id":76561198162480519,"connected_time":2957000000000,"state":"active","ping":73},{"user_id":347,"name":"J O S H³²","steam_id":76561198122603779,"connected_time":447000000000,"state":"active","ping":102},{"user_id":265,"name":"Kirby","steam_id":76561199161858008,"connected_time":5431000000000,"state":"active","ping":70},{"user_id":348,"name":"Haveltherock27","steam_id":76561199219844391,"connected_time":391000000000,"state":"active","ping":85},{"user_id":349,"name":"8625","steam_id":76561199396172197,"connected_time":377000000000,"state":"active","ping":72},{"user_id":350,"name":"8BitWyatt","steam_id":76561198453336518,"connected_time":348000000000,"state":"active","ping":95},{"user_id":351,"name":"IRUMBLERI","steam_id":76561198285541599,"connected_time":329000000000,"state":"active","ping":68},{"user_id":352,"name":"msay","steam_id":76561198170888029,"connected_time":313000000000,"state":"active","ping":99},{"user_id":319,"name":"oppenheimer style","steam_id":76561198026664629,"connected_time":2558000000000,"state":"active","ping":52},{"user_id":295,"name":"Pancakedestroyer","steam_id":76561199188609622,"connected_time":3582000000000,"state":"active","ping":70},{"user_id":353,"name":"T3CHR0MANC3R","steam_id":76561198860215897,"connected_time":298000000000,"state":"active","ping":76},{"user_id":299,"name":"what","steam_id":76561198082336619,"connected_time":3448000000000,"state":"active","ping":65},{"user_id":300,"name":"Fightin Cow","steam_id":76561198080941486,"connected_time":3417000000000,"state":"active","ping":74}]},{"server_id":38,"name":"Uncletopia | Chicago | 7 | Stopwatch","name_short":"chi-7","host":"chi-2.us.uncletopia.com","port":27035,"enabled":true,"region":"us-central","cc":"us","latitude":41.881832,"longitude":-87.62318,"reserved":0,"last_update":"0001-01-01T00:00:00Z","name_a2s":"Uncletopia | Chicago | 7 | Stopwatch","protocol":17,"map":"koth_lakeside_final","folder":"tf","game":"Team Fortress","app_id":440,"player_count":0,"max_players":24,"Bots":0,"server_type":"Dedicated","server_os":"Linux","password":true,"vac":true,"version":"7961495","steam_id":85568392924866364,"keywords":["cp","nocrits","nodmgspread","uncletopia"],"game_id":440,"stv_port":27036,"stv_name":"Uncletopia | Chicago | 7 | Stopwatch | STV","players":null},{"server_id":39,"name":"Uncletopia | Chicago | 8 | Community","name_short":"chi-8","host":"chi-2.us.uncletopia.com","port":27045,"enabled":true,"region":"us-central","cc":"us","latitude":41.881832,"longitude":-87.62318,"reserved":0,"last_update":"0001-01-01T00:00:00Z","name_a2s":"Uncletopia | Chicago | 8 | Community","protocol":17,"map":"workshop/koth_slaughter_rc1.ugc1712845210","folder":"tf","game":"Team Fortress","app_id":440,"player_count":0,"max_players":24,"Bots":0,"server_type":"Dedicated","server_os":"Linux","password":true,"vac":true,"version":"7961495","steam_id":85568392924866365,"keywords":["cp","nocrits","nodmgspread","uncletopia"],"game_id":440,"stv_port":27046,"stv_name":"Uncletopia | Chicago | 8 | Community | STV","players":null},{"server_id":8,"name":"Uncletopia | Dallas | 1 | All Maps","name_short":"dal-1","host":"dal-1.us.uncletopia.com","port":27015,"enabled":true,"region":"us-central","cc":"us","latitude":32.779167,"longitude":-96.80889,"reserved":0,"last_update":"0001-01-01T00:00:00Z","name_a2s":"Uncletopia | Dallas | 1 | All Maps","protocol":17,"map":"pl_barnblitz","folder":"tf","game":"Team Fortress","app_id":440,"player_count":1,"max_players":24,"Bots":0,"server_type":"Dedicated","server_os":"Linux","password":true,"vac":true,"version":"7961495","steam_id":85568392924469986,"keywords":["nocrits","nodmgspread","payload","uncletopia"],"game_id":440,"stv_port":27016,"stv_name":"Uncletopia | Dallas | 1 | All Maps | STV","players":[{"user_id":365,"name":"thetrustydoughnut","steam_id":76561198353445256,"connected_time":631000000000,"state":"active","ping":91}]},{"server_id":108,"name":"Uncletopia | Dallas | 2 | All Maps","name_short":"dal-2","host":"dal-1.us.uncletopia.com","port":27025,"enabled":true,"region":"us-central","cc":"us","latitude":32.779167,"longitude":-96.80889,"reserved":0,"last_update":"0001-01-01T00:00:00Z","name_a2s":"Uncletopia | Dallas | 2 | All Maps","protocol":17,"map":"cp_sunshine","folder":"tf","game":"Team Fortress","app_id":440,"player_count":24,"max_players":24,"Bots":0,"server_type":"Dedicated","server_os":"Linux","password":true,"vac":true,"version":"7961495","steam_id":85568392924469988,"keywords":["cp","nocrits","nodmgspread","uncletopia"],"game_id":440,"stv_port":27026,"stv_name":"Uncletopia | Dallas | 2 | All Maps | STV","players":[{"user_id":211,"name":"[UNFAIR] H1gh0nSt34m","steam_id":76561198839068126,"connected_time":1550000000000,"state":"active","ping":53},{"user_id":137,"name":"TrashPanda (she/her)","steam_id":76561198447864095,"connected_time":6315000000000,"state":"active","ping":59},{"user_id":212,"name":"ChoccyMiltank","steam_id":76561198981474284,"connected_time":1517000000000,"state":"active","ping":66},{"user_id":188,"name":"ZombieSlayer77","steam_id":76561199023974356,"connected_time":3645000000000,"state":"active","ping":75},{"user_id":248,"name":"Dabbledornk","steam_id":76561198065241300,"connected_time":457000000000,"state":"active","ping":76},{"user_id":252,"name":"Arrluk","steam_id":76561198396679452,"connected_time":399000000000,"state":"active","ping":58},{"user_id":266,"name":"Bonkpan","steam_id":76561198156482596,"connected_time":60000000000,"state":"active","ping":83},{"user_id":233,"name":"Scout","steam_id":76561198865519822,"connected_time":638000000000,"state":"active","ping":84},{"user_id":264,"name":"Serenue","steam_id":76561199040361250,"connected_time":128000000000,"state":"active","ping":104},{"user_id":177,"name":"sora","steam_id":76561198094256973,"connected_time":4050000000000,"state":"active","ping":98},{"user_id":202,"name":"ridge","steam_id":76561198381568825,"connected_time":2289000000000,"state":"active","ping":85},{"user_id":263,"name":"mcdonald's cashier","steam_id":76561198064631164,"connected_time":165000000000,"state":"active","ping":75},{"user_id":197,"name":"PowerGem3000","steam_id":76561198944644691,"connected_time":2966000000000,"state":"active","ping":65},{"user_id":218,"name":"ohton","steam_id":76561199033233448,"connected_time":1121000000000,"state":"active","ping":92},{"user_id":267,"name":"Congcrab","steam_id":76561198078687685,"connected_time":31000000000,"state":"active","ping":76},{"user_id":237,"name":"cupsovietxeno","steam_id":76561198997539399,"connected_time":583000000000,"state":"active","ping":84},{"user_id":163,"name":"Bogey","steam_id":76561198096227944,"connected_time":4813000000000,"state":"active","ping":47},{"user_id":221,"name":"Shay","steam_id":76561199009875286,"connected_time":983000000000,"state":"active","ping":125},{"user_id":209,"name":"SoCal Kaizer","steam_id":76561198334361081,"connected_time":1616000000000,"state":"active","ping":97},{"user_id":268,"name":"elephant thumb","steam_id":76561198118859752,"connected_time":21000000000,"state":"active","ping":73},{"user_id":265,"name":"Photoshop","steam_id":76561198122192838,"connected_time":106000000000,"state":"active","ping":73},{"user_id":223,"name":"Smug","steam_id":76561198448205229,"connected_time":872000000000,"state":"active","ping":65},{"user_id":226,"name":"Greasy Guavas","steam_id":76561198089650428,"connected_time":794000000000,"state":"active","ping":52},{"user_id":216,"name":"UnkownGamerLOL","steam_id":76561198225902368,"connected_time":1473000000000,"state":"active","ping":71}]},{"server_id":404,"name":"Uncletopia | Dallas | 3 | All Maps","name_short":"dal-3","host":"dal-1.us.uncletopia.com","port":27035,"enabled":true,"region":"us-central","cc":"us","latitude":32.779167,"longitude":-96.80889,"reserved":0,"last_update":"0001-01-01T00:00:00Z","name_a2s":"Uncletopia | Dallas | 3 | All Maps","protocol":17,"map":"koth_cascade","folder":"tf","game":"Team Fortress","app_id":440,"player_count":0,"max_players":24,"Bots":0,"server_type":"Dedicated","server_os":"Linux","password":true,"vac":true,"version":"7961495","steam_id":85568392924515219,"keywords":["cp","nocrits","nodmgspread","uncletopia"],"game_id":440,"stv_port":27036,"stv_name":"Uncletopia | Dallas | 3 | All Maps | STV","players":null},{"server_id":405,"name":"Uncletopia | Dallas | 4 | Community","name_short":"dal-4","host":"dal-1.us.uncletopia.com","port":27045,"enabled":true,"region":"us-central","cc":"us","latitude":32.779167,"longitude":-96.80889,"reserved":0,"last_update":"0001-01-01T00:00:00Z","name_a2s":"Uncletopia | Dallas | 4 | Community","protocol":17,"map":"workshop/cp_glassworks_rc7a.ugc454118349","folder":"tf","game":"Team Fortress","app_id":440,"player_count":2,"max_players":24,"Bots":0,"server_type":"Dedicated","server_os":"Linux","password":true,"vac":true,"version":"7961495","steam_id":85568392924515220,"keywords":["cp","nocrits","nodmgspread","uncletopia"],"game_id":440,"stv_port":27046,"stv_name":"Uncletopia | Dallas | 4 | Community | STV","players":[{"user_id":9,"name":"Lavender (they/them)","steam_id":76561198135961731,"connected_time":162000000000,"state":"active","ping":33},{"user_id":6,"name":"◾Just Infa◾","steam_id":76561198920210152,"connected_time":2379000000000,"state":"active","ping":73}]},{"server_id":5,"name":"Uncletopia | Frankfurt | 1 | All Maps","name_short":"frk-1","host":"frk-1.de.uncletopia.com","port":27015,"enabled":true,"region":"eu","cc":"de","latitude":50.110924,"longitude":8.682127,"reserved":0,"last_update":"0001-01-01T00:00:00Z","name_a2s":"Uncletopia | Frankfurt | 1 | All Maps","protocol":17,"map":"koth_viaduct","folder":"tf","game":"Team Fortress","app_id":440,"player_count":0,"max_players":24,"Bots":0,"server_type":"Dedicated","server_os":"Linux","password":true,"vac":true,"version":"7961495","steam_id":85568392924469989,"keywords":["cp","nocrits","nodmgspread","uncletopia"],"game_id":440,"stv_port":27016,"stv_name":"Uncletopia | Frankfurt | 1 | All Maps | STV","players":null},{"server_id":110,"name":"Uncletopia | Frankfurt | 2 | All Maps","name_short":"frk-2","host":"frk-1.de.uncletopia.com","port":27025,"enabled":true,"region":"eu","cc":"de","latitude":50.110924,"longitude":8.682127,"reserved":0,"last_update":"0001-01-01T00:00:00Z","name_a2s":"Uncletopia | Frankfurt | 2 | All Maps","protocol":17,"map":"koth_harvest_final","folder":"tf","game":"Team Fortress","app_id":440,"player_count":6,"max_players":24,"Bots":0,"server_type":"Dedicated","server_os":"Linux","password":true,"vac":true,"version":"7961495","steam_id":85568392924469990,"keywords":["cp","nocrits","nodmgspread","uncletopia"],"game_id":440,"stv_port":27026,"stv_name":"Uncletopia | Frankfurt | 2 | All Maps | STV","players":[{"user_id":604,"name":"cain","steam_id":76561198982417906,"connected_time":364000000000,"state":"active","ping":51},{"user_id":605,"name":"Speenta","steam_id":76561198387714017,"connected_time":230000000000,"state":"active","ping":143},{"user_id":596,"name":"Filip22","steam_id":76561198353098403,"connected_time":2149000000000,"state":"active","ping":90},{"user_id":599,"name":"jetstream sam","steam_id":76561198971953922,"connected_time":1605000000000,"state":"active","ping":51},{"user_id":606,"name":"[fake]maxxe","steam_id":76561198026896715,"connected_time":84000000000,"state":"active","ping":45},{"user_id":560,"name":"kadanov","steam_id":76561198055365234,"connected_time":6284000000000,"state":"active","ping":69}]},{"server_id":308,"name":"Uncletopia | Frankfurt | 3 | All Maps","name_short":"frk-3","host":"frk-1.de.uncletopia.com","port":27035,"enabled":true,"region":"eu","cc":"de","latitude":50.110924,"longitude":8.682127,"reserved":0,"last_update":"0001-01-01T00:00:00Z","name_a2s":"Uncletopia | Frankfurt | 3 | All Maps","protocol":17,"map":"cp_process_final","folder":"tf","game":"Team Fortress","app_id":440,"player_count":0,"max_players":24,"Bots":0,"server_type":"Dedicated","server_os":"Linux","password":true,"vac":true,"version":"7961495","steam_id":85568392924504274,"keywords":["cp","nocrits","nodmgspread","uncletopia"],"game_id":440,"stv_port":27036,"stv_name":"Uncletopia | Frankfurt | 3 | All Maps | STV","players":null},{"server_id":309,"name":"Uncletopia | Frankfurt | 4 | All Maps","name_short":"frk-4","host":"frk-1.de.uncletopia.com","port":27045,"enabled":true,"region":"eu","cc":"de","latitude":50.110924,"longitude":8.682127,"reserved":0,"last_update":"0001-01-01T00:00:00Z","name_a2s":"Uncletopia | Frankfurt | 4 | All Maps","protocol":17,"map":"pl_snowycoast","folder":"tf","game":"Team Fortress","app_id":440,"player_count":25,"max_players":24,"Bots":0,"server_type":"Dedicated","server_os":"Linux","password":true,"vac":true,"version":"7961495","steam_id":85568392924504275,"keywords":["nocrits","nodmgspread","payload","uncletopia"],"game_id":440,"stv_port":27046,"stv_name":"Uncletopia | Frankfurt | 4 | All Maps | STV","players":[{"user_id":726,"name":"Pipper","steam_id":76561197970326616,"connected_time":3645000000000,"state":"active","ping":48},{"user_id":749,"name":"Predrag218","steam_id":76561199242439630,"connected_time":733000000000,"state":"active","ping":102},{"user_id":707,"name":"Metzgermeister","steam_id":76561198115145974,"connected_time":4277000000000,"state":"active","ping":52},{"user_id":709,"name":"random critz wizard","steam_id":76561198019416262,"connected_time":4248000000000,"state":"active","ping":72},{"user_id":729,"name":"else1","steam_id":76561197996558319,"connected_time":2983000000000,"state":"active","ping":74},{"user_id":732,"name":"Edla","steam_id":76561198062815315,"connected_time":2648000000000,"state":"active","ping":116},{"user_id":733,"name":"Mr.Shpee","steam_id":76561198158701474,"connected_time":2621000000000,"state":"active","ping":75},{"user_id":710,"name":"Tumulus","steam_id":76561199164225741,"connected_time":4242000000000,"state":"active","ping":62},{"user_id":742,"name":"finbar","steam_id":76561198056812396,"connected_time":1032000000000,"state":"active","ping":79},{"user_id":739,"name":"Clydios","steam_id":76561198332311225,"connected_time":2401000000000,"state":"active","ping":82},{"user_id":744,"name":"KittyKate ❤","steam_id":76561198116340817,"connected_time":968000000000,"state":"active","ping":60},{"user_id":752,"name":"Sex","steam_id":76561199138993597,"connected_time":381000000000,"state":"active","ping":59},{"user_id":651,"name":"kavun","steam_id":76561198023461869,"connected_time":9446000000000,"state":"active","ping":73},{"user_id":753,"name":"Jack","steam_id":76561198397105421,"connected_time":98000000000,"state":"active","ping":60},{"user_id":741,"name":"Lucki","steam_id":76561198410249745,"connected_time":1132000000000,"state":"active","ping":55},{"user_id":735,"name":"Siegmeyer","steam_id":76561198328543549,"connected_time":2489000000000,"state":"active","ping":77},{"user_id":700,"name":"TidB","steam_id":76561198055342304,"connected_time":5479000000000,"state":"active","ping":59},{"user_id":747,"name":"Mza28","steam_id":76561198873993324,"connected_time":772000000000,"state":"active","ping":65},{"user_id":737,"name":"cuddles","steam_id":76561198805181599,"connected_time":2458000000000,"state":"active","ping":56},{"user_id":738,"name":"BlueBlueFox","steam_id":76561198053817230,"connected_time":2428000000000,"state":"active","ping":71},{"user_id":754,"name":"leminsc8","steam_id":76561198825084995,"connected_time":11000000000,"state":"spawning","ping":41},{"user_id":748,"name":"Drillboy Jenkins","steam_id":76561198160497421,"connected_time":771000000000,"state":"active","ping":74},{"user_id":727,"name":"Bebol_420","steam_id":76561198074604296,"connected_time":3443000000000,"state":"active","ping":61},{"user_id":724,"name":"Ephix","steam_id":76561197977164055,"connected_time":3661000000000,"state":"active","ping":45},{"user_id":751,"name":"BuzzBees ❤","steam_id":76561198101502273,"connected_time":633000000000,"state":"active","ping":60}]},{"server_id":310,"name":"Uncletopia | Frankfurt | 5 | All Maps","name_short":"frk-5","host":"frk-1.de.uncletopia.com","port":27055,"enabled":true,"region":"eu","cc":"de","latitude":50.110924,"longitude":8.682127,"reserved":0,"last_update":"0001-01-01T00:00:00Z","name_a2s":"Uncletopia | Frankfurt | 5 | All Maps","protocol":17,"map":"pl_snowycoast","folder":"tf","game":"Team Fortress","app_id":440,"player_count":0,"max_players":24,"Bots":0,"server_type":"Dedicated","server_os":"Linux","password":true,"vac":true,"version":"7961495","steam_id":85568392924504277,"keywords":["nocrits","nodmgspread","payload","uncletopia"],"game_id":440,"stv_port":27056,"stv_name":"Uncletopia | Frankfurt | 5 | All Maps | STV","players":null},{"server_id":311,"name":"Uncletopia | Frankfurt | 6 | All Maps","name_short":"frk-6","host":"frk-1.de.uncletopia.com","port":27065,"enabled":true,"region":"eu","cc":"de","latitude":50.110924,"longitude":8.682127,"reserved":0,"last_update":"0001-01-01T00:00:00Z","name_a2s":"Uncletopia | Frankfurt | 6 | All Maps","protocol":17,"map":"koth_cascade","folder":"tf","game":"Team Fortress","app_id":440,"player_count":0,"max_players":24,"Bots":0,"server_type":"Dedicated","server_os":"Linux","password":true,"vac":true,"version":"7961495","steam_id":85568392924504278,"keywords":["cp","nocrits","nodmgspread","uncletopia"],"game_id":440,"stv_port":27066,"stv_name":"Uncletopia | Frankfurt | 6 | All Maps | STV","players":null},{"server_id":23,"name":"Uncletopia | Frankfurt | 7 | Stopwatch","name_short":"frk-7","host":"frk-1.de.uncletopia.com","port":27075,"enabled":true,"region":"eu","cc":"de","latitude":50.110924,"longitude":8.682127,"reserved":0,"last_update":"0001-01-01T00:00:00Z","name_a2s":"Uncletopia | Frankfurt | 7 | Stopwatch","protocol":17,"map":"workshop/koth_clearcut_b15.ugc2107050255","folder":"tf","game":"Team Fortress","app_id":440,"player_count":0,"max_players":24,"Bots":0,"server_type":"Dedicated","server_os":"Linux","password":true,"vac":true,"version":"7961495","steam_id":85568392924742827,"keywords":["cp","nocrits","nodmgspread","uncletopia"],"game_id":440,"stv_port":27076,"stv_name":"Uncletopia | Frankfurt | 7 | Stopwatch | STV","players":null},{"server_id":24,"name":"Uncletopia | Frankfurt | 8 | Community","name_short":"frk-8","host":"frk-1.de.uncletopia.com","port":27085,"enabled":true,"region":"eu","cc":"de","latitude":50.110924,"longitude":8.682127,"reserved":0,"last_update":"0001-01-01T00:00:00Z","name_a2s":"Uncletopia | Frankfurt | 8 | Community","protocol":17,"map":"workshop/koth_jamram_rc1a.ugc2964065613","folder":"tf","game":"Team Fortress","app_id":440,"player_count":0,"max_players":24,"Bots":0,"server_type":"Dedicated","server_os":"Linux","password":true,"vac":true,"version":"7961495","steam_id":85568392924742828,"keywords":["cp","nocrits","nodmgspread","uncletopia"],"game_id":440,"stv_port":27086,"stv_name":"Uncletopia | Frankfurt | 8 | Community | STV","players":null},{"server_id":202,"name":"Uncletopia | Hong Kong | 1 | All Maps","name_short":"hgk-1","host":"hgk-1.hk.uncletopia.com","port":27015,"enabled":true,"region":"asia","cc":"hk","latitude":22.302711,"longitude":114.177216,"reserved":0,"last_update":"0001-01-01T00:00:00Z","name_a2s":"Uncletopia | Hong Kong | 1 | All Maps","protocol":17,"map":"cp_gravelpit","folder":"tf","game":"Team Fortress","app_id":440,"player_count":0,"max_players":24,"Bots":0,"server_type":"Dedicated","server_os":"Linux","password":true,"vac":true,"version":"7961495","steam_id":85568392924494504,"keywords":["cp","nocrits","nodmgspread","uncletopia"],"game_id":440,"stv_port":27016,"stv_name":"Uncletopia | Hong Kong | 1 | All Maps | STV","players":null},{"server_id":1,"name":"Uncletopia | Los Angeles | 1 | All Maps","name_short":"lax-1","host":"lax-1.us.uncletopia.com","port":27015,"enabled":true,"region":"us-west","cc":"us","latitude":33.94279,"longitude":-118.41004,"reserved":0,"last_update":"0001-01-01T00:00:00Z","name_a2s":"Uncletopia | Los Angeles | 1 | All Maps","protocol":17,"map":"cp_sunshine","folder":"tf","game":"Team Fortress","app_id":440,"player_count":9,"max_players":24,"Bots":0,"server_type":"Dedicated","server_os":"Linux","password":true,"vac":true,"version":"7961495","steam_id":85568392924469991,"keywords":["cp","nocrits","nodmgspread","uncletopia"],"game_id":440,"stv_port":27016,"stv_name":"Uncletopia | Los Angeles | 1 | All Maps | STV","players":[{"user_id":43,"name":"The Broken Lightbulb","steam_id":76561198141566312,"connected_time":1633000000000,"state":"active","ping":46},{"user_id":44,"name":"ZePazta","steam_id":76561198263901997,"connected_time":1340000000000,"state":"active","ping":44},{"user_id":45,"name":"AmBoxReally","steam_id":76561198200640118,"connected_time":1268000000000,"state":"active","ping":75},{"user_id":47,"name":"Stimpry","steam_id":76561199055662248,"connected_time":1155000000000,"state":"active","ping":53},{"user_id":48,"name":"Laz","steam_id":76561198119165226,"connected_time":776000000000,"state":"active","ping":94},{"user_id":49,"name":"milkrunner","steam_id":76561198164605753,"connected_time":713000000000,"state":"active","ping":103},{"user_id":50,"name":"imby","steam_id":76561198103642134,"connected_time":682000000000,"state":"active","ping":69},{"user_id":51,"name":"elder lich joe biden","steam_id":76561198257134732,"connected_time":556000000000,"state":"active","ping":75},{"user_id":52,"name":"srkwy","steam_id":76561199456393445,"connected_time":491000000000,"state":"active","ping":82}]},{"server_id":112,"name":"Uncletopia | Los Angeles | 2 | All Maps","name_short":"lax-2","host":"lax-1.us.uncletopia.com","port":27025,"enabled":true,"region":"us-west","cc":"us","latitude":33.94279,"longitude":-118.41004,"reserved":0,"last_update":"0001-01-01T00:00:00Z","name_a2s":"Uncletopia | Los Angeles | 2 | All Maps","protocol":17,"map":"koth_cascade","folder":"tf","game":"Team Fortress","app_id":440,"player_count":0,"max_players":24,"Bots":0,"server_type":"Dedicated","server_os":"Linux","password":true,"vac":true,"version":"7961495","steam_id":85568392924469992,"keywords":["cp","nocrits","nodmgspread","uncletopia"],"game_id":440,"stv_port":27026,"stv_name":"Uncletopia | Los Angeles | 2 | All Maps | STV","players":null},{"server_id":324,"name":"Uncletopia | Los Angeles | 3 | All Maps","name_short":"lax-3","host":"lax-1.us.uncletopia.com","port":27035,"enabled":true,"region":"us-west","cc":"us","latitude":33.94279,"longitude":-118.41004,"reserved":0,"last_update":"0001-01-01T00:00:00Z","name_a2s":"Uncletopia | Los Angeles | 3 | All Maps","protocol":17,"map":"pl_pier","folder":"tf","game":"Team Fortress","app_id":440,"player_count":0,"max_players":24,"Bots":0,"server_type":"Dedicated","server_os":"Linux","password":true,"vac":true,"version":"7961495","steam_id":85568392924510198,"keywords":["nocrits","nodmgspread","payload","uncletopia"],"game_id":440,"stv_port":27036,"stv_name":"Uncletopia | Los Angeles | 3 | All Maps | STV","players":null},{"server_id":25,"name":"Uncletopia | Los Angeles | 4 | Stopwatch","name_short":"lax-4","host":"lax-1.us.uncletopia.com","port":27045,"enabled":true,"region":"us-west","cc":"us","latitude":33.94279,"longitude":-118.41004,"reserved":0,"last_update":"0001-01-01T00:00:00Z","name_a2s":"Uncletopia | Los Angeles | 4 | Stopwatch","protocol":17,"map":"workshop/koth_jamram_rc1a.ugc2964065613","folder":"tf","game":"Team Fortress","app_id":440,"player_count":0,"max_players":24,"Bots":0,"server_type":"Dedicated","server_os":"Linux","password":true,"vac":true,"version":"7961495","steam_id":85568392924510199,"keywords":["cp","nocrits","nodmgspread","uncletopia"],"game_id":440,"stv_port":27046,"stv_name":"Uncletopia | Los Angeles | 4 | Stopwatch | STV","players":null},{"server_id":11,"name":"Uncletopia | London | 1 | All Maps","name_short":"lon-1","host":"lon-1.uk.uncletopia.com","port":27015,"enabled":true,"region":"eu","cc":"gb","latitude":51.509865,"longitude":-0.118092,"reserved":0,"last_update":"0001-01-01T00:00:00Z","name_a2s":"Uncletopia | London | 1 | All Maps","protocol":17,"map":"pl_badwater","folder":"tf","game":"Team Fortress","app_id":440,"player_count":24,"max_players":24,"Bots":0,"server_type":"Dedicated","server_os":"Linux","password":true,"vac":true,"version":"7961495","steam_id":85568392924367362,"keywords":["nocrits","nodmgspread","payload","uncletopia"],"game_id":440,"stv_port":27016,"stv_name":"Uncletopia | London | 1 | All Maps | STV","players":[{"user_id":707,"name":"Kenny Savage","steam_id":76561199049383900,"connected_time":980000000000,"state":"active","ping":72},{"user_id":610,"name":"BreadBubbles","steam_id":76561198174332826,"connected_time":10030000000000,"state":"active","ping":63},{"user_id":702,"name":"Buddygong","steam_id":76561198092433363,"connected_time":1316000000000,"state":"active","ping":126},{"user_id":706,"name":"wimble","steam_id":76561198060850739,"connected_time":1055000000000,"state":"active","ping":41},{"user_id":725,"name":"Steen","steam_id":76561198122992510,"connected_time":224000000000,"state":"active","ping":45},{"user_id":722,"name":"Deadlycow","steam_id":76561197980761347,"connected_time":479000000000,"state":"active","ping":68},{"user_id":644,"name":"sora (live :3)","steam_id":76561198096547662,"connected_time":7221000000000,"state":"active","ping":50},{"user_id":692,"name":"Kphi(i)","steam_id":76561198970587061,"connected_time":1683000000000,"state":"active","ping":57},{"user_id":686,"name":"Henry","steam_id":76561198108018305,"connected_time":2821000000000,"state":"active","ping":79},{"user_id":709,"name":"Aku+","steam_id":76561198813782795,"connected_time":833000000000,"state":"active","ping":70},{"user_id":695,"name":"Arsonist","steam_id":76561199087953833,"connected_time":1576000000000,"state":"active","ping":99},{"user_id":716,"name":"Sabour","steam_id":76561197963965445,"connected_time":591000000000,"state":"active","ping":57},{"user_id":687,"name":"beebo","steam_id":76561199120277007,"connected_time":2095000000000,"state":"active","ping":46},{"user_id":723,"name":"M","steam_id":76561198317592319,"connected_time":467000000000,"state":"active","ping":64},{"user_id":724,"name":"Mei","steam_id":76561198363464483,"connected_time":358000000000,"state":"active","ping":69},{"user_id":670,"name":"Misty weeeeeee","steam_id":76561199099286087,"connected_time":4363000000000,"state":"active","ping":49},{"user_id":664,"name":"Meannaise","steam_id":76561198353496134,"connected_time":5433000000000,"state":"active","ping":53},{"user_id":676,"name":"heal","steam_id":76561198046754534,"connected_time":4177000000000,"state":"active","ping":90},{"user_id":696,"name":"mq","steam_id":76561198091888948,"connected_time":1495000000000,"state":"active","ping":58},{"user_id":697,"name":"based roider","steam_id":76561198080524596,"connected_time":1490000000000,"state":"active","ping":46},{"user_id":713,"name":"Furious_Coder","steam_id":76561198146046621,"connected_time":666000000000,"state":"active","ping":105},{"user_id":684,"name":"gibb (heLP HELP HELP)","steam_id":76561198074097655,"connected_time":2852000000000,"state":"active","ping":64},{"user_id":719,"name":"voltimetro","steam_id":76561198195798495,"connected_time":553000000000,"state":"active","ping":77},{"user_id":720,"name":"yeL7owore","steam_id":76561198160173286,"connected_time":532000000000,"state":"active","ping":106}]},{"server_id":114,"name":"Uncletopia | London | 2 | All Maps","name_short":"lon-2","host":"lon-1.uk.uncletopia.com","port":27025,"enabled":true,"region":"eu","cc":"gb","latitude":51.509865,"longitude":-0.118092,"reserved":0,"last_update":"0001-01-01T00:00:00Z","name_a2s":"Uncletopia | London | 2 | All Maps","protocol":17,"map":"pl_swiftwater_final1","folder":"tf","game":"Team Fortress","app_id":440,"player_count":24,"max_players":24,"Bots":0,"server_type":"Dedicated","server_os":"Linux","password":true,"vac":true,"version":"7961495","steam_id":85568392924470941,"keywords":["nocrits","nodmgspread","payload","uncletopia"],"game_id":440,"stv_port":27026,"stv_name":"Uncletopia | London | 2 | All Maps | STV","players":[{"user_id":499,"name":"☦ ЗВЕР ☦","steam_id":76561198001174470,"connected_time":3168000000000,"state":"active","ping":68},{"user_id":479,"name":"AFerociousTeddyBearSlayer","steam_id":76561198247447256,"connected_time":4748000000000,"state":"active","ping":48},{"user_id":495,"name":"😵💫","steam_id":76561198394345037,"connected_time":3196000000000,"state":"active","ping":94},{"user_id":534,"name":"Datsunbrah","steam_id":76561198088494680,"connected_time":166000000000,"state":"active","ping":79},{"user_id":483,"name":"tntisbased","steam_id":76561198371466555,"connected_time":4028000000000,"state":"active","ping":46},{"user_id":527,"name":"gracz bez rąk","steam_id":76561198880042335,"connected_time":1010000000000,"state":"active","ping":87},{"user_id":510,"name":"Woman (Real)","steam_id":76561199151823932,"connected_time":2764000000000,"state":"active","ping":80},{"user_id":526,"name":"Cheekus Breekus","steam_id":76561198188310329,"connected_time":1036000000000,"state":"active","ping":80},{"user_id":482,"name":"Turek","steam_id":76561198280066503,"connected_time":4335000000000,"state":"active","ping":77},{"user_id":530,"name":"Refurbished Boy","steam_id":76561197995834697,"connected_time":654000000000,"state":"active","ping":81},{"user_id":535,"name":"Coldynator","steam_id":76561198042224175,"connected_time":143000000000,"state":"active","ping":75},{"user_id":536,"name":"yuno appreciator","steam_id":76561198083286511,"connected_time":127000000000,"state":"active","ping":36},{"user_id":431,"name":"Ergas","steam_id":76561198860861032,"connected_time":8368000000000,"state":"active","ping":73},{"user_id":433,"name":"tapeworms!","steam_id":76561198069649097,"connected_time":8194000000000,"state":"active","ping":37},{"user_id":492,"name":"Lucky Number 13","steam_id":76561198043951279,"connected_time":3373000000000,"state":"active","ping":75},{"user_id":516,"name":"Hey!","steam_id":76561198204837289,"connected_time":2362000000000,"state":"active","ping":41},{"user_id":521,"name":"REN","steam_id":76561198000596385,"connected_time":1535000000000,"state":"active","ping":67},{"user_id":460,"name":"Snowingle","steam_id":76561199222526482,"connected_time":6788000000000,"state":"active","ping":73},{"user_id":509,"name":"shadowhunter","steam_id":76561198247456394,"connected_time":2795000000000,"state":"active","ping":45},{"user_id":471,"name":"LILY-CHAN","steam_id":76561198035085893,"connected_time":5669000000000,"state":"active","ping":96},{"user_id":514,"name":"PROFILE NAME","steam_id":76561198180056982,"connected_time":2501000000000,"state":"active","ping":57},{"user_id":501,"name":"spencer pooties","steam_id":76561198123044544,"connected_time":3140000000000,"state":"active","ping":64},{"user_id":525,"name":"tr4ce","steam_id":76561198085296732,"connected_time":1059000000000,"state":"active","ping":45},{"user_id":498,"name":"seri","steam_id":76561198242700202,"connected_time":3171000000000,"state":"active","ping":60}]},{"server_id":320,"name":"Uncletopia | London | 3 | All Maps","name_short":"lon-3","host":"lon-1.uk.uncletopia.com","port":27035,"enabled":true,"region":"eu","cc":"gb","latitude":51.509865,"longitude":-0.118092,"reserved":0,"last_update":"0001-01-01T00:00:00Z","name_a2s":"Uncletopia | London | 3 | All Maps","protocol":17,"map":"koth_harvest_final","folder":"tf","game":"Team Fortress","app_id":440,"player_count":4,"max_players":24,"Bots":0,"server_type":"Dedicated","server_os":"Linux","password":true,"vac":true,"version":"7961495","steam_id":85568392924510192,"keywords":["cp","nocrits","nodmgspread","uncletopia"],"game_id":440,"stv_port":27036,"stv_name":"Uncletopia | London | 3 | All Maps | STV","players":[{"user_id":220,"name":"flybynyt","steam_id":76561198121747990,"connected_time":425000000000,"state":"active","ping":58},{"user_id":215,"name":"SCooler27","steam_id":76561199200454579,"connected_time":1403000000000,"state":"active","ping":65},{"user_id":219,"name":"Ice_cold_magic","steam_id":76561199209065777,"connected_time":951000000000,"state":"active","ping":49},{"user_id":202,"name":"Diddy","steam_id":76561198043840095,"connected_time":3025000000000,"state":"active","ping":50}]},{"server_id":321,"name":"Uncletopia | London | 4 | All Maps","name_short":"lon-4","host":"lon-1.uk.uncletopia.com","port":27045,"enabled":true,"region":"eu","cc":"gb","latitude":51.509865,"longitude":-0.118092,"reserved":0,"last_update":"0001-01-01T00:00:00Z","name_a2s":"Uncletopia | London | 4 | All Maps","protocol":17,"map":"pl_frontier_final","folder":"tf","game":"Team Fortress","app_id":440,"player_count":21,"max_players":24,"Bots":0,"server_type":"Dedicated","server_os":"Linux","password":true,"vac":true,"version":"7961495","steam_id":85568392924510193,"keywords":["nocrits","nodmgspread","payload","uncletopia"],"game_id":440,"stv_port":27046,"stv_name":"Uncletopia | London | 4 | All Maps | STV","players":[{"user_id":376,"name":"CausticsMeth","steam_id":76561198780744160,"connected_time":550000000000,"state":"active","ping":47},{"user_id":329,"name":"Satsuki Kiryuin ☘","steam_id":76561198105207050,"connected_time":3427000000000,"state":"active","ping":54},{"user_id":330,"name":"zayd","steam_id":76561198895235231,"connected_time":3421000000000,"state":"active","ping":57},{"user_id":356,"name":"Kuiko","steam_id":76561198097720052,"connected_time":1452000000000,"state":"active","ping":80},{"user_id":331,"name":"suriver22","steam_id":76561198231778492,"connected_time":3394000000000,"state":"active","ping":161},{"user_id":337,"name":"Joe Swanson","steam_id":76561198178175462,"connected_time":3055000000000,"state":"active","ping":44},{"user_id":332,"name":"❤Fanta","steam_id":76561199506760703,"connected_time":3329000000000,"state":"active","ping":31},{"user_id":333,"name":"Maho!!","steam_id":76561198799213401,"connected_time":3304000000000,"state":"active","ping":46},{"user_id":383,"name":"карасик","steam_id":76561197971140507,"connected_time":265000000000,"state":"active","ping":74},{"user_id":378,"name":"Jombus Quan","steam_id":76561198240560666,"connected_time":522000000000,"state":"active","ping":45},{"user_id":353,"name":"wrong vibe","steam_id":76561198280507478,"connected_time":1748000000000,"state":"active","ping":63},{"user_id":374,"name":"beda 👁️👁️👁","steam_id":76561198277943630,"connected_time":867000000000,"state":"active","ping":74},{"user_id":355,"name":"Hyppy ja liipasin pohjaan :D","steam_id":76561198080669698,"connected_time":1486000000000,"state":"active","ping":73},{"user_id":345,"name":"hammythegreat #SaveTF2","steam_id":76561198079526946,"connected_time":2212000000000,"state":"active","ping":148},{"user_id":379,"name":"The Twice-Gorped Morp","steam_id":76561198052636352,"connected_time":517000000000,"state":"active","ping":47},{"user_id":380,"name":"Onions","steam_id":76561198150195195,"connected_time":508000000000,"state":"active","ping":53},{"user_id":359,"name":"Goomba gaming","steam_id":76561199470354045,"connected_time":1378000000000,"state":"active","ping":138},{"user_id":351,"name":"Caramel","steam_id":76561198021214844,"connected_time":1888000000000,"state":"active","ping":46},{"user_id":360,"name":"nordstream bomber","steam_id":76561199401283123,"connected_time":1374000000000,"state":"active","ping":38},{"user_id":361,"name":"Oaky Leaf","steam_id":76561198162821920,"connected_time":1338000000000,"state":"active","ping":91},{"user_id":363,"name":"tola","steam_id":76561199504168033,"connected_time":1310000000000,"state":"active","ping":48}]},{"server_id":21,"name":"Uncletopia | London | 5 | All Maps","name_short":"lon-5","host":"lon-1.uk.uncletopia.com","port":27055,"enabled":true,"region":"eu","cc":"gb","latitude":51.509865,"longitude":-0.118092,"reserved":0,"last_update":"0001-01-01T00:00:00Z","name_a2s":"Uncletopia | London | 5 | All Maps","protocol":17,"map":"pl_upward","folder":"tf","game":"Team Fortress","app_id":440,"player_count":22,"max_players":24,"Bots":0,"server_type":"Dedicated","server_os":"Linux","password":true,"vac":true,"version":"7961495","steam_id":85568392924742829,"keywords":["nocrits","nodmgspread","payload","uncletopia"],"game_id":440,"stv_port":27056,"stv_name":"Uncletopia | London | 5 | All Maps | STV","players":[{"user_id":263,"name":"ScudFXX","steam_id":76561198136603848,"connected_time":3820000000000,"state":"active","ping":49},{"user_id":304,"name":"mambo4000","steam_id":76561198054769419,"connected_time":799000000000,"state":"active","ping":60},{"user_id":292,"name":"Seigneur Des Cendres","steam_id":76561199249206889,"connected_time":1719000000000,"state":"active","ping":91},{"user_id":307,"name":"PrinzAnalFaust","steam_id":76561198136407626,"connected_time":662000000000,"state":"active","ping":70},{"user_id":315,"name":"PAX","steam_id":76561198046692146,"connected_time":156000000000,"state":"active","ping":61},{"user_id":311,"name":"Niyaah","steam_id":76561198110209191,"connected_time":548000000000,"state":"active","ping":63},{"user_id":314,"name":"昭和天皇","steam_id":76561198082071538,"connected_time":392000000000,"state":"active","ping":48},{"user_id":310,"name":"Accident","steam_id":76561198037232641,"connected_time":571000000000,"state":"active","ping":48},{"user_id":306,"name":"Raphaël Ambrosius Costeau","steam_id":76561198142478237,"connected_time":688000000000,"state":"active","ping":49},{"user_id":176,"name":"Laru","steam_id":76561197998838438,"connected_time":9637000000000,"state":"active","ping":78},{"user_id":267,"name":"haakonrg","steam_id":76561198067151891,"connected_time":3641000000000,"state":"active","ping":47},{"user_id":276,"name":"Swagmaster","steam_id":76561198045828392,"connected_time":3149000000000,"state":"active","ping":53},{"user_id":300,"name":"alpha","steam_id":76561198250491640,"connected_time":1261000000000,"state":"active","ping":32},{"user_id":289,"name":"Smartest Person In the Universe","steam_id":76561199444636848,"connected_time":1863000000000,"state":"active","ping":51},{"user_id":290,"name":"cock sucka","steam_id":76561198065630180,"connected_time":1819000000000,"state":"active","ping":61},{"user_id":270,"name":"Pterodactyl P. Jones","steam_id":76561198017513012,"connected_time":3546000000000,"state":"active","ping":49},{"user_id":271,"name":"Thias","steam_id":76561197981661714,"connected_time":3538000000000,"state":"active","ping":45},{"user_id":312,"name":"Mr_Pulse_","steam_id":76561198095001602,"connected_time":505000000000,"state":"active","ping":86},{"user_id":313,"name":"Coca162","steam_id":76561198230656540,"connected_time":445000000000,"state":"active","ping":43},{"user_id":273,"name":"A Succulent Chinese Meal","steam_id":76561198069472440,"connected_time":3495000000000,"state":"active","ping":58},{"user_id":296,"name":"fem","steam_id":76561199103444466,"connected_time":1539000000000,"state":"active","ping":86},{"user_id":278,"name":"Penis Contortionist","steam_id":76561198073663784,"connected_time":3123000000000,"state":"active","ping":36}]},{"server_id":22,"name":"Uncletopia | London | 6 | All Maps","name_short":"lon-6","host":"lon-1.uk.uncletopia.com","port":27065,"enabled":true,"region":"eu","cc":"gb","latitude":51.509865,"longitude":-0.118092,"reserved":0,"last_update":"0001-01-01T00:00:00Z","name_a2s":"Uncletopia | London | 6 | All Maps","protocol":17,"map":"cp_altitude","folder":"tf","game":"Team Fortress","app_id":440,"player_count":7,"max_players":24,"Bots":0,"server_type":"Dedicated","server_os":"Linux","password":true,"vac":true,"version":"7961495","steam_id":85568392924742830,"keywords":["cp","nocrits","nodmgspread","uncletopia"],"game_id":440,"stv_port":27066,"stv_name":"Uncletopia | London | 6 | All Maps | STV","players":[{"user_id":316,"name":"mex :3","steam_id":76561198091083324,"connected_time":869000000000,"state":"active","ping":59},{"user_id":317,"name":"The Big J","steam_id":76561198158202901,"connected_time":869000000000,"state":"active","ping":58},{"user_id":318,"name":"vi","steam_id":76561198303147966,"connected_time":855000000000,"state":"active","ping":47},{"user_id":305,"name":"Sebiromanes (Spookmáster)","steam_id":76561198112800408,"connected_time":2041000000000,"state":"active","ping":96},{"user_id":291,"name":"E-Girl | Yetti","steam_id":76561198162873354,"connected_time":4395000000000,"state":"active","ping":99},{"user_id":237,"name":"misterwondo","steam_id":76561198187934110,"connected_time":8923000000000,"state":"active","ping":52},{"user_id":274,"name":"E-Boy | Yetti","steam_id":76561198049582917,"connected_time":5942000000000,"state":"active","ping":72}]},{"server_id":40,"name":"Uncletopia | London | 7 | Stopwatch","name_short":"lon-7","host":"lon-1.uk.uncletopia.com","port":27075,"enabled":true,"region":"eu","cc":"gb","latitude":51.509865,"longitude":-0.118092,"reserved":0,"last_update":"0001-01-01T00:00:00Z","name_a2s":"Uncletopia | London | 7 | Stopwatch","protocol":17,"map":"workshop/koth_jamram_rc1a.ugc2964065613","folder":"tf","game":"Team Fortress","app_id":440,"player_count":0,"max_players":24,"Bots":0,"server_type":"Dedicated","server_os":"Linux","password":true,"vac":true,"version":"7961495","steam_id":85568392924964314,"keywords":["cp","nocrits","nodmgspread","uncletopia"],"game_id":440,"stv_port":27076,"stv_name":"Uncletopia | London | 7 | Stopwatch | STV","players":null},{"server_id":41,"name":"Uncletopia | London | 8 | Community","name_short":"lon-8","host":"lon-1.uk.uncletopia.com","port":27085,"enabled":true,"region":"eu","cc":"gb","latitude":51.509865,"longitude":-0.118092,"reserved":0,"last_update":"0001-01-01T00:00:00Z","name_a2s":"Uncletopia | London | 8 | Community","protocol":17,"map":"workshop/koth_synthetic_rc6a.ugc1549817316","folder":"tf","game":"Team Fortress","app_id":440,"player_count":0,"max_players":24,"Bots":0,"server_type":"Dedicated","server_os":"Linux","password":true,"vac":true,"version":"7961495","steam_id":85568392924964315,"keywords":["cp","nocrits","nodmgspread","uncletopia"],"game_id":440,"stv_port":27086,"stv_name":"Uncletopia | London | 8 | Community | STV","players":null},{"server_id":300,"name":"Uncletopia | Montréal | 1 | One Thousand Uncles","name_short":"mtl-1","host":"mtl-1.ca.uncletopia.com","port":27015,"enabled":true,"region":"us-east","cc":"ca","latitude":45.50889,"longitude":-73.56167,"reserved":0,"last_update":"0001-01-01T00:00:00Z","name_a2s":"Uncletopia | Montréal | 1 | One Thousand Uncles","protocol":17,"map":"cp_dustbowl","folder":"tf","game":"Team Fortress","app_id":440,"player_count":23,"max_players":32,"Bots":16,"server_type":"Dedicated","server_os":"Linux","password":true,"vac":true,"version":"7961495","steam_id":85568392924500087,"keywords":["alltalk","bots","cp","danepve","increased_maxplayers","norespawntime","uncletopia"],"game_id":440,"stv_port":0,"stv_name":"","players":[{"user_id":93,"name":"Grand Wizard","steam_id":76561199382783363,"connected_time":4715000000000,"state":"active","ping":71},{"user_id":110,"name":"Kazuma Yagami","steam_id":76561199044812516,"connected_time":4342000000000,"state":"active","ping":75},{"user_id":113,"name":"bath","steam_id":76561197969993352,"connected_time":3097000000000,"state":"active","ping":96},{"user_id":118,"name":"Jared","steam_id":76561198020432651,"connected_time":1159000000000,"state":"active","ping":54},{"user_id":120,"name":"St. Arnold of Soissons","steam_id":76561197974133892,"connected_time":656000000000,"state":"active","ping":53},{"user_id":122,"name":"Papa John","steam_id":76561199386119444,"connected_time":430000000000,"state":"active","ping":77},{"user_id":123,"name":"Stewest Griffin","steam_id":76561198150251920,"connected_time":271000000000,"state":"active","ping":88}]},{"server_id":301,"name":"Uncletopia | Montréal | 2 | One Thousand Uncles","name_short":"mtl-2","host":"mtl-1.ca.uncletopia.com","port":27025,"enabled":true,"region":"us-east","cc":"ca","latitude":45.50889,"longitude":-73.56167,"reserved":0,"last_update":"0001-01-01T00:00:00Z","name_a2s":"Uncletopia | Montréal | 2 | One Thousand Uncles","protocol":17,"map":"pl_chilly","folder":"tf","game":"Team Fortress","app_id":440,"player_count":0,"max_players":32,"Bots":0,"server_type":"Dedicated","server_os":"Linux","password":true,"vac":true,"version":"7961495","steam_id":85568392924500088,"keywords":["alltalk","danepve","increased_maxplayers","norespawntime","payload","uncletopia"],"game_id":440,"stv_port":0,"stv_name":"","players":null},{"server_id":302,"name":"Uncletopia | Montréal | 3 | One Thousand Uncles","name_short":"mtl-3","host":"mtl-1.ca.uncletopia.com","port":27035,"enabled":true,"region":"us-east","cc":"ca","latitude":45.50889,"longitude":-73.56167,"reserved":0,"last_update":"0001-01-01T00:00:00Z","name_a2s":"Uncletopia | Montréal | 3 | One Thousand Uncles","protocol":17,"map":"pl_upward","folder":"tf","game":"Team Fortress","app_id":440,"player_count":18,"max_players":32,"Bots":16,"server_type":"Dedicated","server_os":"Linux","password":true,"vac":true,"version":"7961495","steam_id":85568392924500089,"keywords":["alltalk","bots","danepve","increased_maxplayers","norespawntime","payload","uncletopia"],"game_id":440,"stv_port":0,"stv_name":"","players":[{"user_id":224,"name":"Engineer Gaming","steam_id":76561198892751522,"connected_time":2233000000000,"state":"active","ping":109},{"user_id":225,"name":"Lucorn","steam_id":76561199208676818,"connected_time":806000000000,"state":"active","ping":42}]},{"server_id":13,"name":"Uncletopia | New York City | 1 | All Maps","name_short":"nyc-1","host":"nyc-1.us.uncletopia.com","port":27015,"enabled":true,"region":"us-east","cc":"us","latitude":40.73061,"longitude":-73.93524,"reserved":0,"last_update":"0001-01-01T00:00:00Z","name_a2s":"Uncletopia | New York City | 1 | All Maps","protocol":17,"map":"pl_borneo","folder":"tf","game":"Team Fortress","app_id":440,"player_count":16,"max_players":24,"Bots":0,"server_type":"Dedicated","server_os":"Linux","password":true,"vac":true,"version":"7961495","steam_id":85568392924469993,"keywords":["cp","nocrits","nodmgspread","uncletopia"],"game_id":440,"stv_port":27016,"stv_name":"Uncletopia | New York City | 1 | All Maps | STV","players":[{"user_id":34,"name":"Nerrrd_","steam_id":76561198870129960,"connected_time":5700000000000,"state":"connecting","ping":56},{"user_id":112,"name":"Neacrock","steam_id":76561199178338856,"connected_time":1743000000000,"state":"connecting","ping":45},{"user_id":125,"name":"Chirox","steam_id":76561198034516923,"connected_time":503000000000,"state":"connecting","ping":93},{"user_id":121,"name":"StretchySnail59","steam_id":76561198073535005,"connected_time":941000000000,"state":"connecting","ping":78},{"user_id":91,"name":"Brown_Dream","steam_id":76561198975766145,"connected_time":2792000000000,"state":"connecting","ping":76},{"user_id":107,"name":"hazel (she/her)","steam_id":76561198879911815,"connected_time":2061000000000,"state":"connecting","ping":59},{"user_id":119,"name":"Dareu","steam_id":76561198081781710,"connected_time":1080000000000,"state":"connecting","ping":48},{"user_id":123,"name":"Brawling Bouse","steam_id":76561198030271278,"connected_time":779000000000,"state":"connecting","ping":46},{"user_id":31,"name":"Ashton","steam_id":76561198300590302,"connected_time":5979000000000,"state":"connecting","ping":94},{"user_id":104,"name":"Verily","steam_id":76561198200558318,"connected_time":2247000000000,"state":"connecting","ping":56},{"user_id":113,"name":"Dr.StrangeGlove","steam_id":76561198286114229,"connected_time":1668000000000,"state":"connecting","ping":95},{"user_id":117,"name":"McJagen","steam_id":76561198264580583,"connected_time":1188000000000,"state":"connecting","ping":91},{"user_id":111,"name":"ToyBox","steam_id":76561199074735423,"connected_time":1751000000000,"state":"connecting","ping":57},{"user_id":106,"name":"GnarlySheep","steam_id":76561198067288233,"connected_time":2142000000000,"state":"connecting","ping":46},{"user_id":124,"name":"GoGo","steam_id":76561198023080645,"connected_time":654000000000,"state":"connecting","ping":74}]},{"server_id":14,"name":"Uncletopia | New York City | 2 | All Maps","name_short":"nyc-2","host":"nyc-1.us.uncletopia.com","port":27025,"enabled":true,"region":"us-east","cc":"us","latitude":40.73061,"longitude":-73.93524,"reserved":0,"last_update":"0001-01-01T00:00:00Z","name_a2s":"Uncletopia | New York City | 2 | All Maps","protocol":17,"map":"cp_gorge","folder":"tf","game":"Team Fortress","app_id":440,"player_count":23,"max_players":24,"Bots":0,"server_type":"Dedicated","server_os":"Linux","password":true,"vac":true,"version":"7961495","steam_id":85568392924469994,"keywords":["cp","nocrits","nodmgspread","uncletopia"],"game_id":440,"stv_port":27026,"stv_name":"Uncletopia | New York City | 2 | All Maps | STV","players":[{"user_id":258,"name":"Smiles","steam_id":76561198107197973,"connected_time":736000000000,"state":"active","ping":76},{"user_id":225,"name":"bnob?","steam_id":76561198965284387,"connected_time":2533000000000,"state":"active","ping":43},{"user_id":264,"name":"noel","steam_id":76561198128280883,"connected_time":375000000000,"state":"active","ping":52},{"user_id":171,"name":"S    P    I    C    Y","steam_id":76561198054756954,"connected_time":4861000000000,"state":"active","ping":37},{"user_id":261,"name":"Baby Swag","steam_id":76561198029298778,"connected_time":462000000000,"state":"active","ping":110},{"user_id":267,"name":"mothra","steam_id":76561198083063005,"connected_time":307000000000,"state":"active","ping":108},{"user_id":268,"name":"WinterBucket","steam_id":76561198381313801,"connected_time":290000000000,"state":"active","ping":143},{"user_id":248,"name":"CandiedStuff","steam_id":76561199070782261,"connected_time":1214000000000,"state":"active","ping":40},{"user_id":271,"name":"gavingamer1776","steam_id":76561198448059707,"connected_time":266000000000,"state":"active","ping":71},{"user_id":245,"name":"War on Drugs Fighter","steam_id":76561198103211035,"connected_time":1364000000000,"state":"active","ping":60},{"user_id":263,"name":"Dylanxp300","steam_id":76561198271974937,"connected_time":398000000000,"state":"active","ping":53},{"user_id":247,"name":"sprite in the bong","steam_id":76561198233984300,"connected_time":1223000000000,"state":"active","ping":61},{"user_id":262,"name":"Ptahotep","steam_id":76561198008708645,"connected_time":449000000000,"state":"active","ping":111},{"user_id":252,"name":"MantisToboggan","steam_id":76561197969447887,"connected_time":1020000000000,"state":"active","ping":131},{"user_id":254,"name":"karl556","steam_id":76561198283738645,"connected_time":978000000000,"state":"active","ping":94},{"user_id":241,"name":"Viewie","steam_id":76561198280108853,"connected_time":1916000000000,"state":"active","ping":59},{"user_id":250,"name":"BeefClapper420","steam_id":76561198080892634,"connected_time":1165000000000,"state":"active","ping":54},{"user_id":272,"name":"Epicgamer92","steam_id":76561198312448484,"connected_time":258000000000,"state":"active","ping":74},{"user_id":251,"name":"barry steakfries","steam_id":76561199472218520,"connected_time":1159000000000,"state":"active","ping":70},{"user_id":76,"name":"Wique","steam_id":76561198071217597,"connected_time":9864000000000,"state":"active","ping":55},{"user_id":275,"name":"the keebler","steam_id":76561199486326945,"connected_time":208000000000,"state":"active","ping":76},{"user_id":265,"name":"colorblindwizardlvl5","steam_id":76561199208988804,"connected_time":374000000000,"state":"active","ping":62},{"user_id":274,"name":"DivineBanana","steam_id":76561198026529731,"connected_time":230000000000,"state":"active","ping":76}]},{"server_id":15,"name":"Uncletopia | New York City | 3 | Stopwatch","name_short":"nyc-3","host":"nyc-1.us.uncletopia.com","port":27035,"enabled":true,"region":"us-east","cc":"us","latitude":40.73061,"longitude":-73.93524,"reserved":0,"last_update":"0001-01-01T00:00:00Z","name_a2s":"Uncletopia | New York City | 3 | Stopwatch","protocol":17,"map":"workshop/koth_product_final.ugc454272353","folder":"tf","game":"Team Fortress","app_id":440,"player_count":0,"max_players":24,"Bots":0,"server_type":"Dedicated","server_os":"Linux","password":true,"vac":true,"version":"7961495","steam_id":85568392924742820,"keywords":["cp","nocrits","nodmgspread","uncletopia"],"game_id":440,"stv_port":27036,"stv_name":"Uncletopia | New York City | 3 | Stopwatch | STV","players":null},{"server_id":16,"name":"Uncletopia | New York City | 4 | Community","name_short":"nyc-4","host":"nyc-1.us.uncletopia.com","port":27045,"enabled":true,"region":"us-east","cc":"us","latitude":40.73061,"longitude":-73.93524,"reserved":0,"last_update":"0001-01-01T00:00:00Z","name_a2s":"Uncletopia | New York City | 4 | Community","protocol":17,"map":"workshop/koth_slaughter_rc1.ugc1712845210","folder":"tf","game":"Team Fortress","app_id":440,"player_count":0,"max_players":24,"Bots":0,"server_type":"Dedicated","server_os":"Linux","password":true,"vac":true,"version":"7961495","steam_id":85568392924742821,"keywords":["cp","nocrits","nodmgspread","uncletopia"],"game_id":440,"stv_port":27046,"stv_name":"Uncletopia | New York City | 4 | Community | STV","players":null},{"server_id":142,"name":"Uncletopia | São Paulo | 1 | All Maps","name_short":"sao-1","host":"sao-1.br.uncletopia.com","port":27015,"enabled":true,"region":"sa","cc":"br","latitude":-23.533773,"longitude":-46.62529,"reserved":0,"last_update":"0001-01-01T00:00:00Z","name_a2s":"Uncletopia | São Paulo | 1 | All Maps","protocol":17,"map":"koth_highpass","folder":"tf","game":"Team Fortress","app_id":440,"player_count":0,"max_players":24,"Bots":0,"server_type":"Dedicated","server_os":"Linux","password":true,"vac":true,"version":"7961495","steam_id":85568392924469996,"keywords":["cp","nocrits","nodmgspread","uncletopia"],"game_id":440,"stv_port":27016,"stv_name":"Uncletopia | São Paulo | 1 | All Maps | STV","players":null},{"server_id":143,"name":"Uncletopia | São Paulo | 2 | Community","name_short":"sao-2","host":"sao-2.br.uncletopia.com","port":27015,"enabled":true,"region":"sa","cc":"br","latitude":-23.533773,"longitude":-46.62529,"reserved":0,"last_update":"0001-01-01T00:00:00Z","name_a2s":"Uncletopia | São Paulo | 2 | Community","protocol":17,"map":"workshop/cp_logjam_rc12.ugc454812035","folder":"tf","game":"Team Fortress","app_id":440,"player_count":0,"max_players":24,"Bots":0,"server_type":"Dedicated","server_os":"Linux","password":true,"vac":true,"version":"7961495","steam_id":85568392924485349,"keywords":["cp","nocrits","nodmgspread","uncletopia"],"game_id":440,"stv_port":27016,"stv_name":"Uncletopia | São Paulo | 2 | Community | STV","players":null},{"server_id":7,"name":"Uncletopia | Seattle | 1 | All Maps","name_short":"sea-1","host":"sea-1.us.uncletopia.com","port":27015,"enabled":true,"region":"us-west","cc":"us","latitude":47.608013,"longitude":-122.33517,"reserved":0,"last_update":"0001-01-01T00:00:00Z","name_a2s":"Uncletopia | Seattle | 1 | All Maps","protocol":17,"map":"pl_badwater","folder":"tf","game":"Team Fortress","app_id":440,"player_count":24,"max_players":24,"Bots":0,"server_type":"Dedicated","server_os":"Linux","password":true,"vac":true,"version":"7961495","steam_id":85568392924469997,"keywords":["nocrits","nodmgspread","payload","uncletopia"],"game_id":440,"stv_port":27016,"stv_name":"Uncletopia | Seattle | 1 | All Maps | STV","players":[{"user_id":300,"name":"dairy","steam_id":76561198047270339,"connected_time":733000000000,"state":"active","ping":45},{"user_id":297,"name":"MerkZ","steam_id":76561198047620432,"connected_time":803000000000,"state":"active","ping":68},{"user_id":290,"name":"Eraser cat","steam_id":76561199045570463,"connected_time":1647000000000,"state":"active","ping":45},{"user_id":267,"name":"(pybro) ♩Karmism♩","steam_id":76561199453410299,"connected_time":3588000000000,"state":"active","ping":120},{"user_id":287,"name":"crumbles","steam_id":76561198168707036,"connected_time":2027000000000,"state":"active","ping":68},{"user_id":299,"name":"lshleo","steam_id":76561198366975960,"connected_time":738000000000,"state":"active","ping":150},{"user_id":278,"name":"rad killl raccoon","steam_id":76561198980975595,"connected_time":2276000000000,"state":"active","ping":43},{"user_id":246,"name":"Aardappel","steam_id":76561198030894676,"connected_time":5268000000000,"state":"active","ping":60},{"user_id":295,"name":"Ting","steam_id":76561198111669760,"connected_time":1304000000000,"state":"active","ping":48},{"user_id":275,"name":"Tracey [sillymoder]","steam_id":76561198202235495,"connected_time":2771000000000,"state":"active","ping":37},{"user_id":274,"name":"Sinn","steam_id":76561199013434543,"connected_time":2778000000000,"state":"active","ping":64},{"user_id":308,"name":"SibilantSerpent","steam_id":76561198154488754,"connected_time":197000000000,"state":"active","ping":44},{"user_id":309,"name":"MakerRov","steam_id":76561198914108894,"connected_time":187000000000,"state":"active","ping":58},{"user_id":285,"name":"Supersonic","steam_id":76561198042167127,"connected_time":2099000000000,"state":"active","ping":58},{"user_id":293,"name":"moe","steam_id":76561198929586245,"connected_time":1585000000000,"state":"active","ping":62},{"user_id":304,"name":"Drake from State Farm","steam_id":76561199069029812,"connected_time":264000000000,"state":"active","ping":82},{"user_id":311,"name":"BlazedBunny","steam_id":76561198243610560,"connected_time":34000000000,"state":"spawning","ping":62},{"user_id":302,"name":"you just got dyked on","steam_id":76561198018977723,"connected_time":298000000000,"state":"active","ping":50},{"user_id":249,"name":"dust | it/she","steam_id":76561198045218909,"connected_time":4994000000000,"state":"active","ping":43},{"user_id":277,"name":"goos  e","steam_id":76561198036774894,"connected_time":2406000000000,"state":"active","ping":55},{"user_id":301,"name":"DaBigA","steam_id":76561198326492538,"connected_time":410000000000,"state":"active","ping":44},{"user_id":260,"name":"-_-","steam_id":76561198005773253,"connected_time":3968000000000,"state":"active","ping":96},{"user_id":289,"name":"Cave Mushroom","steam_id":76561198090419068,"connected_time":1687000000000,"state":"active","ping":71},{"user_id":251,"name":"Dimple","steam_id":76561198980324190,"connected_time":4766000000000,"state":"active","ping":60}]},{"server_id":119,"name":"Uncletopia | Seattle | 2 | All Maps","name_short":"sea-2","host":"sea-1.us.uncletopia.com","port":27025,"enabled":true,"region":"us-west","cc":"us","latitude":47.608013,"longitude":-122.33517,"reserved":0,"last_update":"0001-01-01T00:00:00Z","name_a2s":"Uncletopia | Seattle | 2 | All Maps","protocol":17,"map":"koth_lakeside_final","folder":"tf","game":"Team Fortress","app_id":440,"player_count":0,"max_players":24,"Bots":0,"server_type":"Dedicated","server_os":"Linux","password":true,"vac":true,"version":"7961495","steam_id":85568392924469998,"keywords":["cp","nocrits","nodmgspread","uncletopia"],"game_id":440,"stv_port":27026,"stv_name":"Uncletopia | Seattle | 2 | All Maps | STV","players":null},{"server_id":406,"name":"Uncletopia | Seattle | 3 | Stopwatch","name_short":"sea-3","host":"sea-1.us.uncletopia.com","port":27035,"enabled":true,"region":"us-west","cc":"us","latitude":47.608013,"longitude":-122.33517,"reserved":0,"last_update":"0001-01-01T00:00:00Z","name_a2s":"Uncletopia | Seattle | 3 | Stopwatch","protocol":17,"map":"cp_gullywash_final1","folder":"tf","game":"Team Fortress","app_id":440,"player_count":0,"max_players":24,"Bots":0,"server_type":"Dedicated","server_os":"Linux","password":true,"vac":true,"version":"7961495","steam_id":85568392924515217,"keywords":["cp","nocrits","nodmgspread","uncletopia"],"game_id":440,"stv_port":27036,"stv_name":"Uncletopia | Seattle | 3 | Stopwatch | STV","players":null},{"server_id":17,"name":"Uncletopia | San Francisco | 1 | All Maps","name_short":"sfo-1","host":"sfo-1.us.uncletopia.com","port":27015,"enabled":true,"region":"us-west","cc":"us","latitude":37.77397,"longitude":-122.4313,"reserved":0,"last_update":"0001-01-01T00:00:00Z","name_a2s":"Uncletopia | San Francisco | 1 | All Maps","protocol":17,"map":"koth_highpass","folder":"tf","game":"Team Fortress","app_id":440,"player_count":0,"max_players":24,"Bots":0,"server_type":"Dedicated","server_os":"Linux","password":true,"vac":true,"version":"7961495","steam_id":85568392924469999,"keywords":["cp","nocrits","nodmgspread","uncletopia"],"game_id":440,"stv_port":27016,"stv_name":"Uncletopia | San Francisco | 1 | All Maps | STV","players":null},{"server_id":18,"name":"Uncletopia | San Francisco | 2 | All Maps","name_short":"sfo-2","host":"sfo-1.us.uncletopia.com","port":27025,"enabled":true,"region":"us-west","cc":"us","latitude":37.77397,"longitude":-122.4313,"reserved":0,"last_update":"0001-01-01T00:00:00Z","name_a2s":"Uncletopia | San Francisco | 2 | All Maps","protocol":17,"map":"pl_pier","folder":"tf","game":"Team Fortress","app_id":440,"player_count":23,"max_players":24,"Bots":0,"server_type":"Dedicated","server_os":"Linux","password":true,"vac":true,"version":"7961495","steam_id":85568392924470000,"keywords":["nocrits","nodmgspread","payload","uncletopia"],"game_id":440,"stv_port":27026,"stv_name":"Uncletopia | San Francisco | 2 | All Maps | STV","players":[{"user_id":91,"name":"estrodollvalory","steam_id":76561198131833567,"connected_time":714000000000,"state":"active","ping":53},{"user_id":95,"name":"Y Dough","steam_id":76561198003827633,"connected_time":168000000000,"state":"active","ping":35},{"user_id":57,"name":"solus","steam_id":76561198195437593,"connected_time":3338000000000,"state":"active","ping":50},{"user_id":43,"name":"Sesa","steam_id":76561198098781088,"connected_time":4019000000000,"state":"active","ping":70},{"user_id":92,"name":"mafia is mafia","steam_id":76561198042574722,"connected_time":589000000000,"state":"active","ping":68},{"user_id":90,"name":"raaabr","steam_id":76561198050339024,"connected_time":802000000000,"state":"active","ping":56},{"user_id":15,"name":"K2f","steam_id":76561198049600563,"connected_time":5418000000000,"state":"active","ping":60},{"user_id":40,"name":"ronald_stackerusa55","steam_id":76561198150406851,"connected_time":4087000000000,"state":"active","ping":45},{"user_id":93,"name":"conmaros45","steam_id":76561199492995447,"connected_time":575000000000,"state":"active","ping":107},{"user_id":66,"name":"Eden","steam_id":76561198081284664,"connected_time":2388000000000,"state":"active","ping":60},{"user_id":81,"name":"Oktayey","steam_id":76561198143213426,"connected_time":1599000000000,"state":"active","ping":48},{"user_id":77,"name":"ĐïɐȐɹɦɆa","steam_id":76561198981411945,"connected_time":1623000000000,"state":"active","ping":112},{"user_id":41,"name":"Undefinedmaniac","steam_id":76561198034331708,"connected_time":4071000000000,"state":"active","ping":72},{"user_id":85,"name":"Drilly22","steam_id":76561198068838338,"connected_time":1069000000000,"state":"active","ping":90},{"user_id":61,"name":"✫P∀nck∈✫","steam_id":76561198050163618,"connected_time":2814000000000,"state":"active","ping":61},{"user_id":82,"name":"Firedust19","steam_id":76561198153238631,"connected_time":1372000000000,"state":"active","ping":64},{"user_id":49,"name":"Laxoloni","steam_id":76561199197045700,"connected_time":3699000000000,"state":"active","ping":54},{"user_id":38,"name":"Ralph Kramden (Slim Charles)","steam_id":76561197981687895,"connected_time":4170000000000,"state":"active","ping":57},{"user_id":94,"name":"Keamy","steam_id":76561199471434875,"connected_time":309000000000,"state":"active","ping":63},{"user_id":96,"name":"Pixelated Pussy","steam_id":76561198002511088,"connected_time":133000000000,"state":"active","ping":54},{"user_id":71,"name":"triph","steam_id":76561198067196509,"connected_time":2040000000000,"state":"active","ping":60},{"user_id":63,"name":"Humus","steam_id":76561198175286355,"connected_time":2626000000000,"state":"active","ping":56},{"user_id":54,"name":"noceof","steam_id":76561198043656816,"connected_time":3547000000000,"state":"active","ping":154}]},{"server_id":19,"name":"Uncletopia | San Francisco | 3 | Stopwatch","name_short":"sfo-3","host":"sfo-1.us.uncletopia.com","port":27035,"enabled":true,"region":"us-west","cc":"us","latitude":37.77397,"longitude":-122.4313,"reserved":0,"last_update":"0001-01-01T00:00:00Z","name_a2s":"Uncletopia | San Francisco | 3 | Stopwatch","protocol":17,"map":"workshop/koth_product_final.ugc454272353","folder":"tf","game":"Team Fortress","app_id":440,"player_count":0,"max_players":24,"Bots":0,"server_type":"Dedicated","server_os":"Linux","password":true,"vac":true,"version":"7961495","steam_id":85568392924742824,"keywords":["cp","nocrits","nodmgspread","uncletopia"],"game_id":440,"stv_port":27036,"stv_name":"Uncletopia | San Francisco | 3 | Stopwatch | STV","players":null},{"server_id":20,"name":"Uncletopia | San Francisco | 4 | Community","name_short":"sfo-4","host":"sfo-1.us.uncletopia.com","port":27045,"enabled":true,"region":"us-west","cc":"us","latitude":37.77397,"longitude":-122.4313,"reserved":0,"last_update":"0001-01-01T00:00:00Z","name_a2s":"Uncletopia | San Francisco | 4 | Community","protocol":17,"map":"workshop/pl_cactuscanyon_redux_final2.ugc2579644293","folder":"tf","game":"Team Fortress","app_id":440,"player_count":0,"max_players":24,"Bots":0,"server_type":"Dedicated","server_os":"Linux","password":true,"vac":true,"version":"7961495","steam_id":85568392924742826,"keywords":["nocrits","nodmgspread","payload","uncletopia"],"game_id":440,"stv_port":27046,"stv_name":"Uncletopia | San Francisco | 4 | Community | STV","players":null},{"server_id":141,"name":"Uncletopia | Sydney | 1 | All Maps","name_short":"syd-1","host":"syd-1.au.uncletopia.com","port":27015,"enabled":true,"region":"au","cc":"au","latitude":-33.865143,"longitude":151.2099,"reserved":0,"last_update":"0001-01-01T00:00:00Z","name_a2s":"Uncletopia | Sydney | 1 | All Maps","protocol":17,"map":"koth_nucleus","folder":"tf","game":"Team Fortress","app_id":440,"player_count":2,"max_players":24,"Bots":0,"server_type":"Dedicated","server_os":"Linux","password":true,"vac":true,"version":"7961495","steam_id":85568392924470001,"keywords":["cp","nocrits","nodmgspread","uncletopia"],"game_id":440,"stv_port":27016,"stv_name":"Uncletopia | Sydney | 1 | All Maps | STV","players":[{"user_id":6,"name":"buff_sheep","steam_id":76561199122474585,"connected_time":476000000000,"state":"active","ping":76},{"user_id":7,"name":"King Stan II","steam_id":76561198890742309,"connected_time":230000000000,"state":"active","ping":54}]},{"server_id":123,"name":"Uncletopia | Sydney | 2 | All Maps","name_short":"syd-2","host":"syd-1.au.uncletopia.com","port":27025,"enabled":true,"region":"au","cc":"au","latitude":-33.865143,"longitude":151.2099,"reserved":0,"last_update":"0001-01-01T00:00:00Z","name_a2s":"Uncletopia | Sydney | 2 | All Maps","protocol":17,"map":"cp_fastlane","folder":"tf","game":"Team Fortress","app_id":440,"player_count":0,"max_players":24,"Bots":0,"server_type":"Dedicated","server_os":"Linux","password":true,"vac":true,"version":"7961495","steam_id":85568392924470002,"keywords":["cp","nocrits","nodmgspread","uncletopia"],"game_id":440,"stv_port":27026,"stv_name":"Uncletopia | Sydney | 2 | All Maps | STV","players":null},{"server_id":395,"name":"Uncletopia | Sydney | 3 | All Maps","name_short":"syd-3","host":"syd-1.au.uncletopia.com","port":27035,"enabled":true,"region":"au","cc":"au","latitude":-33.865143,"longitude":151.2099,"reserved":0,"last_update":"0001-01-01T00:00:00Z","name_a2s":"Uncletopia | Sydney | 3 | All Maps","protocol":17,"map":"cp_metalworks","folder":"tf","game":"Team Fortress","app_id":440,"player_count":0,"max_players":24,"Bots":0,"server_type":"Dedicated","server_os":"Linux","password":true,"vac":true,"version":"7961495","steam_id":85568392925194467,"keywords":["cp","nocrits","nodmgspread","uncletopia"],"game_id":440,"stv_port":27036,"stv_name":"Uncletopia | Sydney | 3 | All Maps | STV","players":null},{"server_id":396,"name":"Uncletopia | Sydney | 4 | All Maps","name_short":"syd-4","host":"syd-1.au.uncletopia.com","port":27045,"enabled":true,"region":"au","cc":"au","latitude":-33.865143,"longitude":151.2099,"reserved":0,"last_update":"0001-01-01T00:00:00Z","name_a2s":"Uncletopia | Sydney | 4 | All Maps","protocol":17,"map":"koth_cascade","folder":"tf","game":"Team Fortress","app_id":440,"player_count":0,"max_players":24,"Bots":0,"server_type":"Dedicated","server_os":"Linux","password":true,"vac":true,"version":"7961495","steam_id":85568392925397958,"keywords":["cp","nocrits","nodmgspread","uncletopia"],"game_id":440,"stv_port":27046,"stv_name":"Uncletopia | Sydney | 4 | All Maps | STV","players":null},{"server_id":58,"name":"Uncletopia | Sydney | 5 | Stopwatch","name_short":"syd-5","host":"syd-1.au.uncletopia.com","port":27055,"enabled":true,"region":"au","cc":"au","latitude":-33.865143,"longitude":151.2099,"reserved":0,"last_update":"0001-01-01T00:00:00Z","name_a2s":"Uncletopia | Sydney | 5 | Stopwatch","protocol":17,"map":"workshop/koth_product_final.ugc454272353","folder":"tf","game":"Team Fortress","app_id":440,"player_count":0,"max_players":24,"Bots":0,"server_type":"Dedicated","server_os":"Linux","password":true,"vac":true,"version":"7961495","steam_id":85568392925397959,"keywords":["cp","nocrits","nodmgspread","uncletopia"],"game_id":440,"stv_port":27056,"stv_name":"Uncletopia | Sydney | 5 | Stopwatch | STV","players":null},{"server_id":59,"name":"Uncletopia | Sydney | 6 | Community","name_short":"syd-6","host":"syd-1.au.uncletopia.com","port":27065,"enabled":true,"region":"au","cc":"au","latitude":-33.865143,"longitude":151.2099,"reserved":0,"last_update":"0001-01-01T00:00:00Z","name_a2s":"Uncletopia | Sydney | 6 | Community","protocol":17,"map":"workshop/koth_bagel_rc6.ugc2514036946","folder":"tf","game":"Team Fortress","app_id":440,"player_count":4,"max_players":24,"Bots":0,"server_type":"Dedicated","server_os":"Linux","password":true,"vac":true,"version":"7961495","steam_id":85568392925397960,"keywords":["cp","nocrits","nodmgspread","uncletopia"],"game_id":440,"stv_port":27066,"stv_name":"Uncletopia | Sydney | 6 | Community | STV","players":[{"user_id":7,"name":"Dave","steam_id":76561197994203216,"connected_time":944000000000,"state":"active","ping":45},{"user_id":4,"name":"Squishy","steam_id":76561198985769205,"connected_time":2420000000000,"state":"active","ping":30},{"user_id":5,"name":"pumpkineer","steam_id":76561199251487616,"connected_time":1157000000000,"state":"active","ping":36},{"user_id":9,"name":"Delta-is-pancake","steam_id":76561199229047605,"connected_time":626000000000,"state":"active","ping":55}]},{"server_id":49,"name":"Uncletopia | Warsaw | 1 | One Thousand Uncles","name_short":"waw-1","host":"waw-1.pl.uncletopia.com","port":27015,"enabled":true,"region":"eu","cc":"pl","latitude":52.2297,"longitude":21.017532,"reserved":0,"last_update":"0001-01-01T00:00:00Z","name_a2s":"Uncletopia | Warsaw | 1 | One Thousand Uncles","protocol":17,"map":"pl_thundermountain","folder":"tf","game":"Team Fortress","app_id":440,"player_count":19,"max_players":32,"Bots":16,"server_type":"Dedicated","server_os":"Linux","password":true,"vac":true,"version":"7961495","steam_id":85568392925397850,"keywords":["alltalk","bots","danepve","increased_maxplayers","norespawntime","payload","uncletopia"],"game_id":440,"stv_port":0,"stv_name":"","players":[{"user_id":786,"name":"ΩvetabolΩ","steam_id":76561199015064558,"connected_time":916000000000,"state":"active","ping":120},{"user_id":730,"name":"Aar0n","steam_id":76561198203165979,"connected_time":10217000000000,"state":"active","ping":73},{"user_id":688,"name":"Darkgege22","steam_id":76561198176636583,"connected_time":13504000000000,"state":"active","ping":78}]},{"server_id":50,"name":"Uncletopia | Warsaw | 2 | One Thousand Uncles","name_short":"waw-2","host":"waw-1.pl.uncletopia.com","port":27025,"enabled":true,"region":"eu","cc":"pl","latitude":52.2297,"longitude":21.017532,"reserved":0,"last_update":"0001-01-01T00:00:00Z","name_a2s":"Uncletopia | Warsaw | 2 | One Thousand Uncles","protocol":17,"map":"pl_badwater","folder":"tf","game":"Team Fortress","app_id":440,"player_count":0,"max_players":32,"Bots":0,"server_type":"Dedicated","server_os":"Linux","password":true,"vac":true,"version":"7961495","steam_id":85568392925397851,"keywords":["alltalk","danepve","increased_maxplayers","norespawntime","payload","uncletopia"],"game_id":440,"stv_port":0,"stv_name":"","players":null},{"server_id":51,"name":"Uncletopia | Warsaw | 3 | All Maps","name_short":"waw-3","host":"waw-1.pl.uncletopia.com","port":27035,"enabled":true,"region":"eu","cc":"pl","latitude":52.2297,"longitude":21.017532,"reserved":0,"last_update":"0001-01-01T00:00:00Z","name_a2s":"Uncletopia | Warsaw | 3 | All Maps","protocol":17,"map":"cp_mountainlab","folder":"tf","game":"Team Fortress","app_id":440,"player_count":0,"max_players":24,"Bots":0,"server_type":"Dedicated","server_os":"Linux","password":true,"vac":true,"version":"7961495","steam_id":85568392925397852,"keywords":["cp","nocrits","nodmgspread","uncletopia"],"game_id":440,"stv_port":27036,"stv_name":"Uncletopia | Warsaw | 3 | All Maps | STV","players":null},{"server_id":52,"name":"Uncletopia | Warsaw | 4 | All Maps","name_short":"waw-4","host":"waw-1.pl.uncletopia.com","port":27045,"enabled":true,"region":"eu","cc":"pl","latitude":52.2297,"longitude":21.017532,"reserved":0,"last_update":"0001-01-01T00:00:00Z","name_a2s":"Uncletopia | Warsaw | 4 | All Maps","protocol":17,"map":"koth_lakeside_final","folder":"tf","game":"Team Fortress","app_id":440,"player_count":0,"max_players":24,"Bots":0,"server_type":"Dedicated","server_os":"Linux","password":true,"vac":true,"version":"7961495","steam_id":85568392925397853,"keywords":["cp","nocrits","nodmgspread","uncletopia"],"game_id":440,"stv_port":27046,"stv_name":"Uncletopia | Warsaw | 4 | All Maps | STV","players":null},{"server_id":53,"name":"Uncletopia | Warsaw | 5 | Stopwatch","name_short":"waw-5","host":"waw-1.pl.uncletopia.com","port":27055,"enabled":true,"region":"eu","cc":"pl","latitude":52.2297,"longitude":21.017532,"reserved":0,"last_update":"0001-01-01T00:00:00Z","name_a2s":"Uncletopia | Warsaw | 5 | Stopwatch","protocol":17,"map":"workshop/pl_badwater_pro_v12.ugc2142942074","folder":"tf","game":"Team Fortress","app_id":440,"player_count":0,"max_players":24,"Bots":0,"server_type":"Dedicated","server_os":"Linux","password":true,"vac":true,"version":"7961495","steam_id":85568392925397854,"keywords":["nocrits","nodmgspread","payload","uncletopia"],"game_id":440,"stv_port":27056,"stv_name":"Uncletopia | Warsaw | 5 | Stopwatch | STV","players":null},{"server_id":54,"name":"Uncletopia | Warsaw | 6 | Community","name_short":"waw-6","host":"waw-1.pl.uncletopia.com","port":27065,"enabled":true,"region":"eu","cc":"pl","latitude":52.2297,"longitude":21.017532,"reserved":0,"last_update":"0001-01-01T00:00:00Z","name_a2s":"Uncletopia | Warsaw | 6 | Community","protocol":17,"map":"workshop/koth_trenchfoot_ab1.ugc731436616","folder":"tf","game":"Team Fortress","app_id":440,"player_count":0,"max_players":24,"Bots":0,"server_type":"Dedicated","server_os":"Linux","password":true,"vac":true,"version":"7961495","steam_id":85568392925397856,"keywords":["cp","nocrits","nodmgspread","uncletopia"],"game_id":440,"stv_port":27066,"stv_name":"Uncletopia | Warsaw | 6 | Community | STV","players":null}]}