{"status":true,"message":"","result":[{"server_id":9,"name":"Uncletopia | Atlanta | 1 | All Maps","name_short":"atl-1","host":"atl-1.us.uncletopia.com","port":27015,"enabled":true,"region":"us-east","cc":"us","latitude":33.753746,"longitude":-84.38633,"reserved":0,"last_update":"0001-01-01T00:00:00Z","name_a2s":"Uncletopia | Atlanta | 1 | All Maps","protocol":17,"map":"pl_snowycoast","folder":"tf","game":"Team Fortress","app_id":440,"player_count":24,"max_players":24,"Bots":0,"server_type":"Dedicated","server_os":"Linux","password":true,"vac":true,"version":"7757534","steam_id":85568392924469982,"keywords":["nocrits","nodmgspread","payload","uncletopia"],"game_id":440,"stv_port":27016,"stv_name":"Uncletopia | Atlanta | 1 | All Maps | STV","players":[{"user_id":117,"name":"Redlux","steam_id":76561199467334502,"connected_time":1001000000000,"state":"active","ping":106},{"user_id":101,"name":"BaconLol","steam_id":76561199125317999,"connected_time":2390000000000,"state":"active","ping":168},{"user_id":135,"name":"Wackydavo","steam_id":76561197990094209,"connected_time":220000000000,"state":"active","ping":121},{"user_id":122,"name":"leonidasg11","steam_id":76561198806529083,"connected_time":873000000000,"state":"active","ping":193},{"user_id":115,"name":"Duncle Frazzle","steam_id":76561198145596626,"connected_time":1071000000000,"state":"active","ping":115},{"user_id":125,"name":"Jambi","steam_id":76561198846091685,"connected_time":774000000000,"state":"active","ping":58},{"user_id":126,"name":"FourBeanSalad","steam_id":76561198117415145,"connected_time":752000000000,"state":"active","ping":109},{"user_id":120,"name":"Violet42","steam_id":76561198072927887,"connected_time":926000000000,"state":"active","ping":69},{"user_id":121,"name":"Dave The Sloth","steam_id":76561199135831355,"connected_time":918000000000,"state":"active","ping":142},{"user_id":41,"name":"rustyorion","steam_id":76561198439186347,"connected_time":6505000000000,"state":"active","ping":114},{"user_id":123,"name":"I'm Only 4 Inches","steam_id":76561198055542546,"connected_time":867000000000,"state":"active","ping":69},{"user_id":124,"name":"Demoman With One Joke","steam_id":76561197993467034,"connected_time":836000000000,"state":"active","ping":75},{"user_id":112,"name":"wils","steam_id":76561199238923581,"connected_time":1355000000000,"state":"active","ping":130},{"user_id":53,"name":"Finchy22","steam_id":76561198063355600,"connected_time":5868000000000,"state":"active","ping":79},{"user_id":127,"name":"TheLuckyOne","steam_id":76561198804171849,"connected_time":751000000000,"state":"active","ping":127},{"user_id":128,"name":"nalezinik","steam_id":76561198030026119,"connected_time":714000000000,"state":"active","ping":84},{"user_id":54,"name":"Squash","steam_id":76561198376453255,"connected_time":5858000000000,"state":"active","ping":87},{"user_id":134,"name":"ATL1 | Pango","steam_id":76561198069811545,"connected_time":378000000000,"state":"active","ping":47},{"user_id":130,"name":"Ninty","steam_id":76561199364725776,"connected_time":660000000000,"state":"active","ping":96},{"user_id":131,"name":"Halo Bonér","steam_id":76561199145173282,"connected_time":653000000000,"state":"active","ping":96},{"user_id":93,"name":"MILF Gaming","steam_id":76561198155378170,"connected_time":3446000000000,"state":"active","ping":91},{"user_id":133,"name":"chanoc","steam_id":76561198026734746,"connected_time":445000000000,"state":"active","ping":105},{"user_id":98,"name":"Some Dumb Werewolf","steam_id":76561198114146739,"connected_time":3089000000000,"state":"active","ping":78},{"user_id":137,"name":"Lanky Kong","steam_id":76561198142455488,"connected_time":163000000000,"state":"active","ping":74}]},{"server_id":400,"name":"Uncletopia | Atlanta | 3 | Community","name_short":"atl-3","host":"atl-1.us.uncletopia.com","port":27035,"enabled":true,"region":"us-east","cc":"us","latitude":33.753746,"longitude":-84.38633,"reserved":0,"last_update":"0001-01-01T00:00:00Z","name_a2s":"Uncletopia | Atlanta | 3 | Community","protocol":17,"map":"cp_mountainlab","folder":"tf","game":"Team Fortress","app_id":440,"player_count":0,"max_players":24,"Bots":0,"server_type":"Dedicated","server_os":"Linux","password":true,"vac":true,"version":"7757534","steam_id":85568392924515187,"keywords":["cp","nocrits","nodmgspread","uncletopia"],"game_id":440,"stv_port":27036,"stv_name":"Uncletopia | Atlanta | 3 | Community | STV","players":null},{"server_id":401,"name":"Uncletopia | Atlanta | 4 | No Payload","name_short":"atl-4","host":"atl-1.us.uncletopia.com","port":27045,"enabled":true,"region":"us-east","cc":"us","latitude":33.753746,"longitude":-84.38633,"reserved":0,"last_update":"0001-01-01T00:00:00Z","name_a2s":"","protocol":0,"map":"","folder":"","game":"","app_id":0,"player_count":0,"max_players":0,"Bots":0,"server_type":"","server_os":"","password":false,"vac":false,"version":"","steam_id":0,"keywords":null,"game_id":0,"stv_port":0,"stv_name":"","players":null},{"server_id":2,"name":"Uncletopia | Chicago | 1 | All Maps","name_short":"chi-1","host":"chi-1.us.uncletopia.com","port":27015,"enabled":true,"region":"us-central","cc":"us","latitude":41.881832,"longitude":-87.62318,"reserved":0,"last_update":"0001-01-01T00:00:00Z","name_a2s":"Uncletopia | Chicago | 1 | All Maps","protocol":17,"map":"pl_badwater","folder":"tf","game":"Team Fortress","app_id":440,"player_count":24,"max_players":24,"Bots":0,"server_type":"Dedicated","server_os":"Linux","password":true,"vac":true,"version":"7757534","steam_id":85568392924469984,"keywords":["nocrits","nodmgspread","payload","uncletopia"],"game_id":440,"stv_port":27016,"stv_name":"Uncletopia | Chicago | 1 | All Maps | STV","players":[{"user_id":284,"name":"The Drunk Clown","steam_id":76561197986850426,"connected_time":2538000000000,"state":"active","ping":75},{"user_id":316,"name":"Habber The Quesomancer","steam_id":76561198049642751,"connected_time":533000000000,"state":"active","ping":79},{"user_id":309,"name":"Dad 2","steam_id":76561198138546187,"connected_time":743000000000,"state":"active","ping":76},{"user_id":301,"name":"voidpuppy","steam_id":76561198799922000,"connected_time":1143000000000,"state":"active","ping":90},{"user_id":318,"name":"Dawnveu","steam_id":76561198041999612,"connected_time":346000000000,"state":"active","ping":59},{"user_id":310,"name":"SCATTER","steam_id":76561198405168492,"connected_time":738000000000,"state":"active","ping":78},{"user_id":272,"name":"Daddys Home","steam_id":76561198034702011,"connected_time":3217000000000,"state":"active","ping":82},{"user_id":304,"name":"Kraftlos","steam_id":76561198074350350,"connected_time":1114000000000,"state":"active","ping":73},{"user_id":319,"name":"fukfuk the friendly dinosaur","steam_id":76561198111878431,"connected_time":217000000000,"state":"active","ping":116},{"user_id":313,"name":"Leftshadows","steam_id":76561199089515791,"connected_time":645000000000,"state":"active","ping":116},{"user_id":289,"name":"PackedGorgon","steam_id":76561198042686806,"connected_time":2047000000000,"state":"active","ping":83},{"user_id":277,"name":"catrinaisahuman","steam_id":76561198281355729,"connected_time":2770000000000,"state":"active","ping":67},{"user_id":297,"name":"[Hoj] []V[]ega[]V[]an","steam_id":76561197961838875,"connected_time":1678000000000,"state":"active","ping":74},{"user_id":279,"name":"alolan duntski","steam_id":76561198038826744,"connected_time":2751000000000,"state":"active","ping":55},{"user_id":296,"name":"Elmo's Eternal Damnation","steam_id":76561198321235979,"connected_time":1746000000000,"state":"active","ping":86},{"user_id":280,"name":"psy","steam_id":76561198013195018,"connected_time":2747000000000,"state":"active","ping":74},{"user_id":314,"name":"nichole","steam_id":76561198267961813,"connected_time":636000000000,"state":"active","ping":73},{"user_id":306,"name":"Zetta","steam_id":76561198045710113,"connected_time":1037000000000,"state":"active","ping":107},{"user_id":299,"name":"upside down cat","steam_id":76561198028288349,"connected_time":1530000000000,"state":"active","ping":87},{"user_id":315,"name":"Lp1dude","steam_id":76561198384927471,"connected_time":608000000000,"state":"active","ping":59},{"user_id":320,"name":"Mads Mikkelsen","steam_id":76561198083482001,"connected_time":51000000000,"state":"active","ping":137},{"user_id":307,"name":"♥ Femboy♥Ventily ♥","steam_id":76561198157260335,"connected_time":1001000000000,"state":"active","ping":60},{"user_id":292,"name":"--_Cook_--","steam_id":76561198080855748,"connected_time":1995000000000,"state":"active","ping":47},{"user_id":317,"name":"skilaruh","steam_id":76561198413172611,"connected_time":381000000000,"state":"active","ping":60}]},{"server_id":106,"name":"Uncletopia | Chicago | 2 | All Maps","name_short":"chi-2","host":"chi-1.us.uncletopia.com","port":27025,"enabled":true,"region":"us-central","cc":"us","latitude":41.881832,"longitude":-87.62318,"reserved":0,"last_update":"0001-01-01T00:00:00Z","name_a2s":"Uncletopia | Chicago | 2 | All Maps","protocol":17,"map":"pl_borneo","folder":"tf","game":"Team Fortress","app_id":440,"player_count":24,"max_players":24,"Bots":0,"server_type":"Dedicated","server_os":"Linux","password":true,"vac":true,"version":"7757534","steam_id":85568392924469985,"keywords":["nocrits","nodmgspread","payload","uncletopia"],"game_id":440,"stv_port":27026,"stv_name":"Uncletopia | Chicago | 2 | All Maps | STV","players":[{"user_id":344,"name":"malopy","steam_id":76561198354990729,"connected_time":550000000000,"state":"active","ping":75},{"user_id":315,"name":"papa guacamole","steam_id":76561198167665608,"connected_time":2679000000000,"state":"active","ping":71},{"user_id":262,"name":"creeeeeee","steam_id":76561198392539722,"connected_time":6977000000000,"state":"active","ping":76},{"user_id":329,"name":"I can't heal","steam_id":76561198039763676,"connected_time":1258000000000,"state":"active","ping":64},{"user_id":274,"name":"augs","steam_id":76561199120607417,"connected_time":5620000000000,"state":"active","ping":58},{"user_id":289,"name":"creepycrawler","steam_id":76561198352016831,"connected_time":4026000000000,"state":"active","ping":58},{"user_id":290,"name":"Wahter","steam_id":76561198068654532,"connected_time":3999000000000,"state":"active","ping":86},{"user_id":345,"name":"zavala = smurf","steam_id":76561198249206656,"connected_time":413000000000,"state":"active","ping":71},{"user_id":325,"name":"BambuBabyPackRunner","steam_id":76561198320866421,"connected_time":1446000000000,"state":"active","ping":72},{"user_id":311,"name":"Enderneer","steam_id":76561198012136653,"connected_time":3271000000000,"state":"active","ping":61},{"user_id":313,"name":"teafital","steam_id":76561198406252824,"connected_time":2729000000000,"state":"active","ping":96},{"user_id":336,"name":"Circular.Cube","steam_id":76561198861595622,"connected_time":1127000000000,"state":"active","ping":104},{"user_id":349,"name":"Mexican spartan Boi","steam_id":76561198323249004,"connected_time":95000000000,"state":"active","ping":206},{"user_id":337,"name":"SomethingTypical","steam_id":76561199094292465,"connected_time":1125000000000,"state":"active","ping":102},{"user_id":305,"name":"HATEWORK.","steam_id":76561198286792807,"connected_time":3700000000000,"state":"active","ping":81},{"user_id":235,"name":"finger","steam_id":76561198068558572,"connected_time":9574000000000,"state":"active","ping":85},{"user_id":327,"name":"Yoyo","steam_id":76561199122577289,"connected_time":1302000000000,"state":"active","ping":64},{"user_id":323,"name":"Smiley Face","steam_id":76561198008710622,"connected_time":1813000000000,"state":"active","ping":87},{"user_id":342,"name":"Strange Diplomat","steam_id":76561198428191920,"connected_time":1005000000000,"state":"active","ping":76},{"user_id":346,"name":"Sunvaar","steam_id":76561198852679851,"connected_time":410000000000,"state":"active","ping":64},{"user_id":339,"name":"guyinatophat51","steam_id":76561198180230694,"connected_time":1125000000000,"state":"active","ping":73},{"user_id":277,"name":"Omnoman","steam_id":76561198006258213,"connected_time":5362000000000,"state":"active","ping":93},{"user_id":343,"name":"super","steam_id":76561198800358844,"connected_time":795000000000,"state":"active","ping":84},{"user_id":347,"name":"money getter","steam_id":76561199065645094,"connected_time":410000000000,"state":"active","ping":86}]},{"server_id":402,"name":"Uncletopia | Chicago | 3 | All Maps","name_short":"chi-3","host":"chi-1.us.uncletopia.com","port":27035,"enabled":true,"region":"us-central","cc":"us","latitude":41.881832,"longitude":-87.62318,"reserved":0,"last_update":"0001-01-01T00:00:00Z","name_a2s":"Uncletopia | Chicago | 3 | All Maps","protocol":17,"map":"koth_cascade","folder":"tf","game":"Team Fortress","app_id":440,"player_count":0,"max_players":24,"Bots":0,"server_type":"Dedicated","server_os":"Linux","password":true,"vac":true,"version":"7757534","steam_id":85568392924515191,"keywords":["cp","nocrits","nodmgspread","uncletopia"],"game_id":440,"stv_port":27036,"stv_name":"Uncletopia | Chicago | 3 | All Maps | STV","players":null},{"server_id":403,"name":"Uncletopia | Chicago | 4 | All Maps","name_short":"chi-4","host":"chi-1.us.uncletopia.com","port":27045,"enabled":true,"region":"us-central","cc":"us","latitude":41.881832,"longitude":-87.62318,"reserved":0,"last_update":"0001-01-01T00:00:00Z","name_a2s":"Uncletopia | Chicago | 4 | All Maps","protocol":17,"map":"koth_lakeside_final","folder":"tf","game":"Team Fortress","app_id":440,"player_count":18,"max_players":24,"Bots":0,"server_type":"Dedicated","server_os":"Linux","password":true,"vac":true,"version":"7757534","steam_id":85568392924515193,"keywords":["cp","nocrits","nodmgspread","uncletopia"],"game_id":440,"stv_port":27046,"stv_name":"Uncletopia | Chicago | 4 | All Maps | STV","players":[{"user_id":168,"name":"Hyper Muteki","steam_id":76561198400952853,"connected_time":659000000000,"state":"active","ping":62},{"user_id":171,"name":"jorjor wells","steam_id":76561199073429082,"connected_time":216000000000,"state":"active","ping":61},{"user_id":149,"name":"prdxninja","steam_id":76561198170081774,"connected_time":1662000000000,"state":"active","ping":42},{"user_id":113,"name":"Get Lobstered","steam_id":76561198115443354,"connected_time":4583000000000,"state":"active","ping":46},{"user_id":173,"name":"ItJustGetsWorse","steam_id":76561198078385108,"connected_time":138000000000,"state":"active","ping":83},{"user_id":146,"name":"crunchyrumble","steam_id":76561199049786946,"connected_time":1842000000000,"state":"active","ping":68},{"user_id":143,"name":"Slippery","steam_id":76561199469441947,"connected_time":1935000000000,"state":"active","ping":57},{"user_id":161,"name":"denim repair service","steam_id":76561198075666613,"connected_time":1015000000000,"state":"active","ping":88},{"user_id":74,"name":"int","steam_id":76561198155720118,"connected_time":6668000000000,"state":"active","ping":45},{"user_id":86,"name":"Rasputia","steam_id":76561198132051047,"connected_time":6193000000000,"state":"active","ping":105},{"user_id":167,"name":"Goober","steam_id":76561198105930089,"connected_time":751000000000,"state":"active","ping":55},{"user_id":159,"name":"SquidGames","steam_id":76561198081856310,"connected_time":1191000000000,"state":"active","ping":80},{"user_id":176,"name":"lag","steam_id":76561197963872739,"connected_time":82000000000,"state":"active","ping":90},{"user_id":175,"name":"Robin","steam_id":76561197991648012,"connected_time":96000000000,"state":"active","ping":81},{"user_id":109,"name":"bagelbillnacho","steam_id":76561198174342389,"connected_time":4796000000000,"state":"active","ping":69},{"user_id":178,"name":"ven","steam_id":76561198017539604,"connected_time":33000000000,"state":"active","ping":70},{"user_id":179,"name":"Sergeant Joker #savetf2","steam_id":76561198854616604,"connected_time":25000000000,"state":"active","ping":65},{"user_id":164,"name":"Styx","steam_id":76561198158334494,"connected_time":880000000000,"state":"active","ping":50}]},{"server_id":36,"name":"Uncletopia | Chicago | 5 | All Maps","name_short":"chi-5","host":"chi-2.us.uncletopia.com","port":27015,"enabled":true,"region":"us-central","cc":"us","latitude":41.881832,"longitude":-87.62318,"reserved":0,"last_update":"0001-01-01T00:00:00Z","name_a2s":"Uncletopia | Chicago | 5 | All Maps","protocol":17,"map":"koth_lakeside_final","folder":"tf","game":"Team Fortress","app_id":440,"player_count":0,"max_players":24,"Bots":0,"server_type":"Dedicated","server_os":"Linux","password":true,"vac":true,"version":"7757534","steam_id":85568392924866362,"keywords":["cp","nocrits","nodmgspread","uncletopia"],"game_id":440,"stv_port":27016,"stv_name":"Uncletopia | Chicago | 5 | All Maps | STV","players":null},{"server_id":37,"name":"Uncletopia | Chicago | 6 | All Maps","name_short":"chi-6","host":"chi-2.us.uncletopia.com","port":27025,"enabled":true,"region":"us-central","cc":"us","latitude":41.881832,"longitude":-87.62318,"reserved":0,"last_update":"0001-01-01T00:00:00Z","name_a2s":"Uncletopia | Chicago | 6 | All Maps","protocol":17,"map":"cp_dustbowl","folder":"tf","game":"Team Fortress","app_id":440,"player_count":0,"max_players":24,"Bots":0,"server_type":"Dedicated","server_os":"Linux","password":true,"vac":true,"version":"7757534","steam_id":85568392924866363,"keywords":["cp","nocrits","nodmgspread","uncletopia"],"game_id":440,"stv_port":27026,"stv_name":"Uncletopia | Chicago | 6 | All Maps | STV","players":null},{"server_id":38,"name":"Uncletopia | Chicago | 7 | Stopwatch Beta","name_short":"chi-7","host":"chi-2.us.uncletopia.com","port":27035,"enabled":true,"region":"us-central","cc":"us","latitude":41.881832,"longitude":-87.62318,"reserved":0,"last_update":"0001-01-01T00:00:00Z","name_a2s":"Uncletopia | Chicago | 7 | Stopwatch Beta","protocol":17,"map":"workshop/koth_bagel_rc6.ugc2514036946","folder":"tf","game":"Team Fortress","app_id":440,"player_count":0,"max_players":24,"Bots":0,"server_type":"Dedicated","server_os":"Linux","password":true,"vac":true,"version":"7757534","steam_id":85568392924866364,"keywords":["cp","nocrits","nodmgspread","uncletopia"],"game_id":440,"stv_port":27036,"stv_name":"Uncletopia | Chicago | 7 | Stopwatch Beta | STV","players":null},{"server_id":39,"name":"Uncletopia | Chicago | 8 | Community","name_short":"chi-8","host":"chi-2.us.uncletopia.com","port":27045,"enabled":true,"region":"us-central","cc":"us","latitude":41.881832,"longitude":-87.62318,"reserved":0,"last_update":"0001-01-01T00:00:00Z","name_a2s":"Uncletopia | Chicago | 8 | Community","protocol":17,"map":"koth_lakeside_final","folder":"tf","game":"Team Fortress","app_id":440,"player_count":0,"max_players":24,"Bots":0,"server_type":"Dedicated","server_os":"Linux","password":true,"vac":true,"version":"7757534","steam_id":85568392924866365,"keywords":["cp","nocrits","nodmgspread","uncletopia"],"game_id":440,"stv_port":27046,"stv_name":"Uncletopia | Chicago | 8 | Community | STV","players":null},{"server_id":8,"name":"Uncletopia | Dallas | 1 | All Maps","name_short":"dal-1","host":"dal-1.us.uncletopia.com","port":27015,"enabled":true,"region":"us-central","cc":"us","latitude":32.779167,"longitude":-96.80889,"reserved":0,"last_update":"0001-01-01T00:00:00Z","name_a2s":"Uncletopia | Dallas | 1 | All Maps","protocol":17,"map":"cp_dustbowl","folder":"tf","game":"Team Fortress","app_id":440,"player_count":24,"max_players":24,"Bots":0,"server_type":"Dedicated","server_os":"Linux","password":true,"vac":true,"version":"7757534","steam_id":85568392924469986,"keywords":["cp","nocrits","nodmgspread","uncletopia"],"game_id":440,"stv_port":27016,"stv_name":"Uncletopia | Dallas | 1 | All Maps | STV","players":[{"user_id":99,"name":"Shruumy","steam_id":76561198283329478,"connected_time":880000000000,"state":"active","ping":111},{"user_id":13,"name":"Vestuvian","steam_id":76561199007823355,"connected_time":4542000000000,"state":"active","ping":64},{"user_id":101,"name":"enolteiii","steam_id":76561198140843225,"connected_time":632000000000,"state":"active","ping":85},{"user_id":87,"name":"The Chrisind","steam_id":76561198024980467,"connected_time":1260000000000,"state":"active","ping":37},{"user_id":63,"name":"e doctor","steam_id":76561198081851446,"connected_time":2582000000000,"state":"active","ping":73},{"user_id":71,"name":"morgenne","steam_id":76561199224141679,"connected_time":2383000000000,"state":"active","ping":96},{"user_id":60,"name":"Cyril Warhawk","steam_id":76561198025169657,"connected_time":2710000000000,"state":"active","ping":74},{"user_id":107,"name":"̝̬̩͓̯̠̪ͦ͒̀ͫ̚ ͦ͒̚","steam_id":76561199161322235,"connected_time":308000000000,"state":"active","ping":70},{"user_id":61,"name":"Duckywinner","steam_id":76561198254828139,"connected_time":2705000000000,"state":"active","ping":84},{"user_id":109,"name":"Erabe","steam_id":76561199074189172,"connected_time":128000000000,"state":"active","ping":69},{"user_id":85,"name":"Anticitizen 1","steam_id":76561198038326731,"connected_time":1293000000000,"state":"active","ping":84},{"user_id":70,"name":"JAzzyjazz","steam_id":76561199061755340,"connected_time":2439000000000,"state":"active","ping":72},{"user_id":103,"name":"boobies arc","steam_id":76561198316753540,"connected_time":616000000000,"state":"active","ping":31},{"user_id":106,"name":"dad vibes","steam_id":76561197990714447,"connected_time":416000000000,"state":"active","ping":47},{"user_id":83,"name":"Stephen \"Fatso\" Stromboli","steam_id":76561198060911025,"connected_time":1401000000000,"state":"active","ping":74},{"user_id":90,"name":"amazing","steam_id":76561198386233160,"connected_time":1181000000000,"state":"active","ping":59},{"user_id":45,"name":"Not_Douglas","steam_id":76561199024184136,"connected_time":3140000000000,"state":"active","ping":83},{"user_id":66,"name":"Brian D","steam_id":76561198074638559,"connected_time":2547000000000,"state":"active","ping":99},{"user_id":104,"name":"PinguEnjoyer6","steam_id":76561199186723516,"connected_time":593000000000,"state":"active","ping":71},{"user_id":105,"name":"JelloMotion","steam_id":76561198045892038,"connected_time":584000000000,"state":"active","ping":68},{"user_id":84,"name":"freaxUSA","steam_id":76561198079410266,"connected_time":1362000000000,"state":"active","ping":100},{"user_id":75,"name":"Walmus","steam_id":76561198111416393,"connected_time":2165000000000,"state":"active","ping":71},{"user_id":98,"name":"a Hippobottomus","steam_id":76561198126853441,"connected_time":893000000000,"state":"active","ping":36},{"user_id":95,"name":"\u003c`)))))\u003c fish","steam_id":76561198410078962,"connected_time":1126000000000,"state":"active","ping":71}]},{"server_id":108,"name":"Uncletopia | Dallas | 2 | All Maps","name_short":"dal-2","host":"dal-1.us.uncletopia.com","port":27025,"enabled":true,"region":"us-central","cc":"us","latitude":32.779167,"longitude":-96.80889,"reserved":0,"last_update":"0001-01-01T00:00:00Z","name_a2s":"Uncletopia | Dallas | 2 | All Maps","protocol":17,"map":"pl_swiftwater_final1","folder":"tf","game":"Team Fortress","app_id":440,"player_count":0,"max_players":24,"Bots":0,"server_type":"Dedicated","server_os":"Linux","password":true,"vac":true,"version":"7757534","steam_id":85568392924469988,"keywords":["nocrits","nodmgspread","payload","uncletopia"],"game_id":440,"stv_port":27026,"stv_name":"Uncletopia | Dallas | 2 | All Maps | STV","players":null},{"server_id":5,"name":"Uncletopia | Frankfurt | 1 | All Maps","name_short":"frk-1","host":"frk-1.de.uncletopia.com","port":27015,"enabled":true,"region":"eu","cc":"de","latitude":50.110924,"longitude":8.682127,"reserved":0,"last_update":"0001-01-01T00:00:00Z","name_a2s":"Uncletopia | Frankfurt | 1 | All Maps","protocol":17,"map":"pl_barnblitz","folder":"tf","game":"Team Fortress","app_id":440,"player_count":24,"max_players":24,"Bots":0,"server_type":"Dedicated","server_os":"Linux","password":true,"vac":true,"version":"7757534","steam_id":85568392924469989,"keywords":["nocrits","nodmgspread","payload","uncletopia"],"game_id":440,"stv_port":27016,"stv_name":"Uncletopia | Frankfurt | 1 | All Maps | STV","players":[{"user_id":520,"name":"Saser","steam_id":76561198070438914,"connected_time":466000000000,"state":"active","ping":93},{"user_id":500,"name":"FANTANO MELON HEAD","steam_id":76561198146194820,"connected_time":1508000000000,"state":"active","ping":56},{"user_id":519,"name":"FatalRyhme","steam_id":76561198018713483,"connected_time":524000000000,"state":"active","ping":92},{"user_id":464,"name":"peter dangling","steam_id":76561198864327475,"connected_time":3404000000000,"state":"active","ping":45},{"user_id":460,"name":"TJ1212","steam_id":76561199013575313,"connected_time":3670000000000,"state":"active","ping":77},{"user_id":505,"name":"varnu [[HEATZONE]]","steam_id":76561198104896547,"connected_time":1394000000000,"state":"active","ping":71},{"user_id":503,"name":"Praise The Sun","steam_id":76561199028749999,"connected_time":1491000000000,"state":"active","ping":186},{"user_id":501,"name":"Ged","steam_id":76561198079288943,"connected_time":1508000000000,"state":"active","ping":101},{"user_id":484,"name":"Volterion #SaveTf2","steam_id":76561198293088484,"connected_time":2341000000000,"state":"active","ping":64},{"user_id":512,"name":"bob l'éponge","steam_id":76561198066631833,"connected_time":920000000000,"state":"active","ping":75},{"user_id":442,"name":"Kylul_","steam_id":76561198042981061,"connected_time":5972000000000,"state":"active","ping":59},{"user_id":515,"name":"Spajro","steam_id":76561198257383813,"connected_time":790000000000,"state":"active","ping":47},{"user_id":469,"name":"Spoody #JustPassing","steam_id":76561198031523769,"connected_time":3264000000000,"state":"active","ping":58},{"user_id":441,"name":"citronous","steam_id":76561198093290934,"connected_time":6009000000000,"state":"active","ping":59},{"user_id":502,"name":"Julez","steam_id":76561198045505082,"connected_time":1505000000000,"state":"active","ping":72},{"user_id":518,"name":"Omni // Feoraz","steam_id":76561197964320557,"connected_time":743000000000,"state":"active","ping":65},{"user_id":472,"name":"Yakko","steam_id":76561198044170177,"connected_time":3181000000000,"state":"active","ping":50},{"user_id":493,"name":"Veritasket","steam_id":76561198090074093,"connected_time":2001000000000,"state":"active","ping":73},{"user_id":514,"name":"Paintbrush","steam_id":76561198119987705,"connected_time":898000000000,"state":"active","ping":196},{"user_id":504,"name":"tallen","steam_id":76561198061708595,"connected_time":1484000000000,"state":"active","ping":89},{"user_id":522,"name":"SoupER","steam_id":76561198063056668,"connected_time":217000000000,"state":"active","ping":60},{"user_id":496,"name":"nky","steam_id":76561198086229832,"connected_time":1931000000000,"state":"active","ping":60},{"user_id":492,"name":"BlinkedUp","steam_id":76561198249985618,"connected_time":2067000000000,"state":"active","ping":63},{"user_id":499,"name":"COFFEE","steam_id":76561198869355986,"connected_time":1533000000000,"state":"active","ping":74}]},{"server_id":110,"name":"Uncletopia | Frankfurt | 2 | All Maps","name_short":"frk-2","host":"frk-1.de.uncletopia.com","port":27025,"enabled":true,"region":"eu","cc":"de","latitude":50.110924,"longitude":8.682127,"reserved":0,"last_update":"0001-01-01T00:00:00Z","name_a2s":"Uncletopia | Frankfurt | 2 | All Maps","protocol":17,"map":"pl_barnblitz","folder":"tf","game":"Team Fortress","app_id":440,"player_count":24,"max_players":24,"Bots":0,"server_type":"Dedicated","server_os":"Linux","password":true,"vac":true,"version":"7757534","steam_id":85568392924469990,"keywords":["nocrits","nodmgspread","payload","uncletopia"],"game_id":440,"stv_port":27026,"stv_name":"Uncletopia | Frankfurt | 2 | All Maps | STV","players":[{"user_id":302,"name":"hourglass","steam_id":76561198166613799,"connected_time":4285000000000,"state":"active","ping":93},{"user_id":328,"name":"Taez","steam_id":76561198261820803,"connected_time":2562000000000,"state":"active","ping":67},{"user_id":356,"name":"cockwater","steam_id":76561198209101861,"connected_time":339000000000,"state":"active","ping":66},{"user_id":317,"name":"The Wolf Leader","steam_id":76561198038007462,"connected_time":3702000000000,"state":"active","ping":66},{"user_id":354,"name":"Dolcelatte","steam_id":76561198038501770,"connected_time":613000000000,"state":"active","ping":46},{"user_id":353,"name":"METhOphetamine","steam_id":76561198068216224,"connected_time":708000000000,"state":"active","ping":55},{"user_id":304,"name":"Kenaga","steam_id":76561198052927473,"connected_time":4258000000000,"state":"active","ping":113},{"user_id":340,"name":"The voice in your head","steam_id":76561198848650365,"connected_time":1294000000000,"state":"active","ping":83},{"user_id":318,"name":"MARKO","steam_id":76561198065127504,"connected_time":3684000000000,"state":"active","ping":59},{"user_id":342,"name":"Doriian","steam_id":76561198071438810,"connected_time":1194000000000,"state":"active","ping":76},{"user_id":320,"name":"Kowakum","steam_id":76561197998125950,"connected_time":3652000000000,"state":"active","ping":104},{"user_id":307,"name":"where is my egg?","steam_id":76561198172542535,"connected_time":4247000000000,"state":"active","ping":80},{"user_id":352,"name":"bug shooter","steam_id":76561198133532980,"connected_time":891000000000,"state":"active","ping":60},{"user_id":359,"name":"Dr.Cranium","steam_id":76561197992726926,"connected_time":164000000000,"state":"active","ping":103},{"user_id":262,"name":"rizook","steam_id":76561198055010039,"connected_time":6925000000000,"state":"active","ping":61},{"user_id":343,"name":"_Shkoot","steam_id":76561198318170398,"connected_time":1171000000000,"state":"active","ping":42},{"user_id":324,"name":"Bleachy","steam_id":76561198101976229,"connected_time":3501000000000,"state":"active","ping":51},{"user_id":358,"name":"Tea","steam_id":76561198799243030,"connected_time":280000000000,"state":"active","ping":69},{"user_id":355,"name":"Norbert Hallelujah","steam_id":76561198137876982,"connected_time":349000000000,"state":"active","ping":61},{"user_id":351,"name":"「◆Raku• 」","steam_id":76561198059283183,"connected_time":929000000000,"state":"active","ping":76},{"user_id":269,"name":"Ragles","steam_id":76561198132454783,"connected_time":6674000000000,"state":"active","ping":72},{"user_id":329,"name":"Big Trader","steam_id":76561197992364667,"connected_time":2562000000000,"state":"active","ping":73},{"user_id":348,"name":"☞LaZe☜","steam_id":76561198202191400,"connected_time":1139000000000,"state":"active","ping":72},{"user_id":349,"name":"the voices in my head","steam_id":76561198315772174,"connected_time":1139000000000,"state":"active","ping":73}]},{"server_id":308,"name":"Uncletopia | Frankfurt | 3 | All Maps","name_short":"frk-3","host":"frk-1.de.uncletopia.com","port":27035,"enabled":true,"region":"eu","cc":"de","latitude":50.110924,"longitude":8.682127,"reserved":0,"last_update":"0001-01-01T00:00:00Z","name_a2s":"Uncletopia | Frankfurt | 3 | All Maps","protocol":17,"map":"cp_dustbowl","folder":"tf","game":"Team Fortress","app_id":440,"player_count":23,"max_players":24,"Bots":0,"server_type":"Dedicated","server_os":"Linux","password":true,"vac":true,"version":"7757534","steam_id":85568392924504274,"keywords":["cp","nocrits","nodmgspread","uncletopia"],"game_id":440,"stv_port":27036,"stv_name":"Uncletopia | Frankfurt | 3 | All Maps | STV","players":[{"user_id":110,"name":"Signor_UpB","steam_id":76561199145637231,"connected_time":3136000000000,"state":"active","ping":87},{"user_id":163,"name":"Vekkuli","steam_id":76561198107618679,"connected_time":249000000000,"state":"active","ping":88},{"user_id":144,"name":"Mikeshowsha","steam_id":76561199114014127,"connected_time":1308000000000,"state":"active","ping":60},{"user_id":145,"name":"gta_sa","steam_id":76561199433578516,"connected_time":1273000000000,"state":"active","ping":76},{"user_id":124,"name":":)","steam_id":76561198039964082,"connected_time":2390000000000,"state":"active","ping":51},{"user_id":143,"name":"Pootis penser","steam_id":76561198944032480,"connected_time":1411000000000,"state":"active","ping":88},{"user_id":79,"name":"lyudmilakh","steam_id":76561198362779878,"connected_time":5138000000000,"state":"active","ping":87},{"user_id":128,"name":"Uncle Owen","steam_id":76561198157999291,"connected_time":2255000000000,"state":"active","ping":81},{"user_id":113,"name":"Joel!","steam_id":76561198155422742,"connected_time":3039000000000,"state":"active","ping":59},{"user_id":120,"name":"Newax","steam_id":76561198020758511,"connected_time":2729000000000,"state":"active","ping":66},{"user_id":164,"name":"UFeindschiff[CW]","steam_id":76561198026514712,"connected_time":99000000000,"state":"active","ping":59},{"user_id":80,"name":"0xDEADBEEF","steam_id":76561199075416111,"connected_time":5137000000000,"state":"active","ping":91},{"user_id":126,"name":"twitch.tv/red_naxela","steam_id":76561197998803950,"connected_time":2344000000000,"state":"active","ping":61},{"user_id":158,"name":"Montrose","steam_id":76561198338911736,"connected_time":784000000000,"state":"active","ping":171},{"user_id":103,"name":"UndercoverFurbyHunter","steam_id":76561198265722644,"connected_time":4052000000000,"state":"active","ping":88},{"user_id":151,"name":"LemonLeCitron","steam_id":76561198215545267,"connected_time":1025000000000,"state":"active","ping":73},{"user_id":153,"name":"Shruk","steam_id":76561198126398022,"connected_time":965000000000,"state":"active","ping":69},{"user_id":156,"name":"The cum policeman","steam_id":76561198338129578,"connected_time":804000000000,"state":"active","ping":55},{"user_id":138,"name":"Kakograf","steam_id":76561198148375639,"connected_time":1745000000000,"state":"active","ping":85},{"user_id":157,"name":"CzechMate #SaveTF2","steam_id":76561198012687703,"connected_time":797000000000,"state":"active","ping":46},{"user_id":155,"name":"xd","steam_id":76561198066523881,"connected_time":876000000000,"state":"active","ping":55},{"user_id":146,"name":"Schnitzel","steam_id":76561198262231733,"connected_time":1205000000000,"state":"active","ping":60},{"user_id":159,"name":"wasps","steam_id":76561198049485054,"connected_time":760000000000,"state":"active","ping":76}]},{"server_id":309,"name":"Uncletopia | Frankfurt | 4 | All Maps","name_short":"frk-4","host":"frk-1.de.uncletopia.com","port":27045,"enabled":true,"region":"eu","cc":"de","latitude":50.110924,"longitude":8.682127,"reserved":0,"last_update":"0001-01-01T00:00:00Z","name_a2s":"Uncletopia | Frankfurt | 4 | All Maps","protocol":17,"map":"koth_viaduct","folder":"tf","game":"Team Fortress","app_id":440,"player_count":5,"max_players":24,"Bots":0,"server_type":"Dedicated","server_os":"Linux","password":true,"vac":true,"version":"7757534","steam_id":85568392924504275,"keywords":["cp","nocrits","nodmgspread","uncletopia"],"game_id":440,"stv_port":27046,"stv_name":"Uncletopia | Frankfurt | 4 | All Maps | STV","players":[{"user_id":16,"name":"Space_Fennik","steam_id":76561198199571111,"connected_time":2013000000000,"state":"active","ping":61},{"user_id":17,"name":"i_teleported_bread_for_3_day's","steam_id":76561198319328919,"connected_time":2006000000000,"state":"active","ping":62},{"user_id":20,"name":"Mr. Gobling","steam_id":76561199096778623,"connected_time":1138000000000,"state":"active","ping":59},{"user_id":21,"name":"Aureos_Maxus","steam_id":76561198967790212,"connected_time":1103000000000,"state":"active","ping":69},{"user_id":28,"name":"HOI","steam_id":76561198061182117,"connected_time":648000000000,"state":"active","ping":59}]},{"server_id":310,"name":"Uncletopia | Frankfurt | 5 | All Maps","name_short":"frk-5","host":"frk-1.de.uncletopia.com","port":27055,"enabled":true,"region":"eu","cc":"de","latitude":50.110924,"longitude":8.682127,"reserved":0,"last_update":"0001-01-01T00:00:00Z","name_a2s":"Uncletopia | Frankfurt | 5 | All Maps","protocol":17,"map":"pl_badwater","folder":"tf","game":"Team Fortress","app_id":440,"player_count":24,"max_players":24,"Bots":0,"server_type":"Dedicated","server_os":"Linux","password":true,"vac":true,"version":"7757534","steam_id":85568392924504277,"keywords":["nocrits","nodmgspread","payload","uncletopia"],"game_id":440,"stv_port":27056,"stv_name":"Uncletopia | Frankfurt | 5 | All Maps | STV","players":[{"user_id":27,"name":"Kalypso","steam_id":76561198241519562,"connected_time":5548000000000,"state":"active","ping":78},{"user_id":125,"name":"wickEd_","steam_id":76561198048068999,"connected_time":559000000000,"state":"active","ping":154},{"user_id":55,"name":"WHUSSKEY","steam_id":76561198137827441,"connected_time":4658000000000,"state":"active","ping":72},{"user_id":76,"name":"A fish and sea","steam_id":76561198194745827,"connected_time":3625000000000,"state":"active","ping":55},{"user_id":119,"name":"bigwish | bmod.tf","steam_id":76561197997859723,"connected_time":729000000000,"state":"active","ping":79},{"user_id":118,"name":"Hoff","steam_id":76561198138540938,"connected_time":1078000000000,"state":"active","ping":72},{"user_id":135,"name":"Milosz52","steam_id":76561199060940204,"connected_time":270000000000,"state":"active","ping":80},{"user_id":138,"name":"world's best slint tribute act","steam_id":76561199064350902,"connected_time":31000000000,"state":"spawning","ping":1224},{"user_id":121,"name":"glyph","steam_id":76561197980736364,"connected_time":604000000000,"state":"active","ping":78},{"user_id":137,"name":"$t@lker_Tim","steam_id":76561198963658042,"connected_time":99000000000,"state":"active","ping":120},{"user_id":78,"name":"AfroCookie","steam_id":76561198138362851,"connected_time":3510000000000,"state":"active","ping":111},{"user_id":136,"name":"im so silly XD  :333","steam_id":76561198058012525,"connected_time":177000000000,"state":"active","ping":73},{"user_id":131,"name":"Gandhi the Grater","steam_id":76561198051198555,"connected_time":397000000000,"state":"active","ping":78},{"user_id":25,"name":"Sky","steam_id":76561198087415698,"connected_time":5605000000000,"state":"active","ping":59},{"user_id":100,"name":"Penis Contortionist","steam_id":76561198073663784,"connected_time":2269000000000,"state":"active","ping":49},{"user_id":113,"name":"Lyell","steam_id":76561198350329389,"connected_time":1362000000000,"state":"active","ping":75},{"user_id":123,"name":"(wm) Das Fleisch","steam_id":76561198001250715,"connected_time":573000000000,"state":"active","ping":57},{"user_id":108,"name":"KGiorgios_Bully","steam_id":76561198825392728,"connected_time":1580000000000,"state":"active","ping":107},{"user_id":31,"name":"Pintarolas","steam_id":76561198124839451,"connected_time":5490000000000,"state":"active","ping":101},{"user_id":132,"name":"bájöniköl","steam_id":76561198273042780,"connected_time":378000000000,"state":"active","ping":63},{"user_id":128,"name":"HUGO","steam_id":76561198317134996,"connected_time":498000000000,"state":"active","ping":76},{"user_id":129,"name":"Mayor Wank from Wanker Town","steam_id":76561197998253588,"connected_time":489000000000,"state":"active","ping":45},{"user_id":134,"name":"addicted","steam_id":76561199129801006,"connected_time":350000000000,"state":"active","ping":45},{"user_id":61,"name":"Borat","steam_id":76561198122226417,"connected_time":4578000000000,"state":"active","ping":55}]},{"server_id":311,"name":"Uncletopia | Frankfurt | 6 | All Maps","name_short":"frk-6","host":"frk-1.de.uncletopia.com","port":27065,"enabled":true,"region":"eu","cc":"de","latitude":50.110924,"longitude":8.682127,"reserved":0,"last_update":"0001-01-01T00:00:00Z","name_a2s":"Uncletopia | Frankfurt | 6 | All Maps","protocol":17,"map":"koth_viaduct","folder":"tf","game":"Team Fortress","app_id":440,"player_count":0,"max_players":24,"Bots":0,"server_type":"Dedicated","server_os":"Linux","password":true,"vac":true,"version":"7757534","steam_id":85568392924504278,"keywords":["cp","nocrits","nodmgspread","uncletopia"],"game_id":440,"stv_port":27066,"stv_name":"Uncletopia | Frankfurt | 6 | All Maps | STV","players":null},{"server_id":23,"name":"Uncletopia | Frankfurt | 7 | Stopwatch Beta","name_short":"frk-7","host":"frk-1.de.uncletopia.com","port":27075,"enabled":true,"region":"eu","cc":"de","latitude":50.110924,"longitude":8.682127,"reserved":0,"last_update":"0001-01-01T00:00:00Z","name_a2s":"Uncletopia | Frankfurt | 7 | Stopwatch Beta","protocol":17,"map":"pl_borneo","folder":"tf","game":"Team Fortress","app_id":440,"player_count":0,"max_players":24,"Bots":0,"server_type":"Dedicated","server_os":"Linux","password":true,"vac":true,"version":"7757534","steam_id":85568392924742827,"keywords":["nocrits","nodmgspread","payload","uncletopia"],"game_id":440,"stv_port":27076,"stv_name":"Uncletopia | Frankfurt | 7 | Stopwatch Beta | STV","players":null},{"server_id":24,"name":"Uncletopia | Frankfurt | 8 | Community","name_short":"frk-8","host":"frk-1.de.uncletopia.com","port":27085,"enabled":true,"region":"eu","cc":"de","latitude":50.110924,"longitude":8.682127,"reserved":0,"last_update":"0001-01-01T00:00:00Z","name_a2s":"Uncletopia | Frankfurt | 8 | Community","protocol":17,"map":"koth_viaduct","folder":"tf","game":"Team Fortress","app_id":440,"player_count":0,"max_players":24,"Bots":0,"server_type":"Dedicated","server_os":"Linux","password":true,"vac":true,"version":"7757534","steam_id":85568392924742828,"keywords":["cp","nocrits","nodmgspread","uncletopia"],"game_id":440,"stv_port":27086,"stv_name":"Uncletopia | Frankfurt | 8 | Community | STV","players":null},{"server_id":202,"name":"Uncletopia | Hong Kong | 1 | All Maps","name_short":"hgk-1","host":"hgk-1.hk.uncletopia.com","port":27015,"enabled":true,"region":"asia","cc":"hk","latitude":22.302711,"longitude":114.177216,"reserved":0,"last_update":"0001-01-01T00:00:00Z","name_a2s":"Uncletopia | Hong Kong | 1 | All Maps","protocol":17,"map":"cp_process_final","folder":"tf","game":"Team Fortress","app_id":440,"player_count":0,"max_players":24,"Bots":0,"server_type":"Dedicated","server_os":"Linux","password":true,"vac":true,"version":"7757534","steam_id":85568392924494504,"keywords":["cp","nocrits","nodmgspread","uncletopia"],"game_id":440,"stv_port":27016,"stv_name":"Uncletopia | Hong Kong | 1 | All Maps | STV","players":null},{"server_id":1,"name":"Uncletopia | Los Angeles | 1 | All Maps","name_short":"lax-1","host":"lax-1.us.uncletopia.com","port":27015,"enabled":true,"region":"us-west","cc":"us","latitude":33.94279,"longitude":-118.41004,"reserved":0,"last_update":"0001-01-01T00:00:00Z","name_a2s":"Uncletopia | Los Angeles | 1 | All Maps","protocol":17,"map":"koth_lakeside_final","folder":"tf","game":"Team Fortress","app_id":440,"player_count":0,"max_players":24,"Bots":0,"server_type":"Dedicated","server_os":"Linux","password":true,"vac":true,"version":"7757534","steam_id":85568392924469991,"keywords":["cp","nocrits","nodmgspread","uncletopia"],"game_id":440,"stv_port":27016,"stv_name":"Uncletopia | Los Angeles | 1 | All Maps | STV","players":null},{"server_id":112,"name":"Uncletopia | Los Angeles | 2 | All Maps","name_short":"lax-2","host":"lax-1.us.uncletopia.com","port":27025,"enabled":true,"region":"us-west","cc":"us","latitude":33.94279,"longitude":-118.41004,"reserved":0,"last_update":"0001-01-01T00:00:00Z","name_a2s":"Uncletopia | Los Angeles | 2 | All Maps","protocol":17,"map":"koth_viaduct","folder":"tf","game":"Team Fortress","app_id":440,"player_count":0,"max_players":24,"Bots":0,"server_type":"Dedicated","server_os":"Linux","password":true,"vac":true,"version":"7757534","steam_id":85568392924469992,"keywords":["cp","nocrits","nodmgspread","uncletopia"],"game_id":440,"stv_port":27026,"stv_name":"Uncletopia | Los Angeles | 2 | All Maps | STV","players":null},{"server_id":324,"name":"Uncletopia | Los Angeles | 3 | All Maps","name_short":"lax-3","host":"lax-1.us.uncletopia.com","port":27035,"enabled":true,"region":"us-west","cc":"us","latitude":33.94279,"longitude":-118.41004,"reserved":0,"last_update":"0001-01-01T00:00:00Z","name_a2s":"Uncletopia | Los Angeles | 3 | All Maps","protocol":17,"map":"cp_altitude","folder":"tf","game":"Team Fortress","app_id":440,"player_count":0,"max_players":24,"Bots":0,"server_type":"Dedicated","server_os":"Linux","password":true,"vac":true,"version":"7757534","steam_id":85568392924510198,"keywords":["cp","nocrits","nodmgspread","uncletopia"],"game_id":440,"stv_port":27036,"stv_name":"Uncletopia | Los Angeles | 3 | All Maps | STV","players":null},{"server_id":25,"name":"Uncletopia | Los Angeles | 4 | Stopwatch Beta","name_short":"lax-4","host":"lax-1.us.uncletopia.com","port":27045,"enabled":true,"region":"us-west","cc":"us","latitude":33.94279,"longitude":-118.41004,"reserved":0,"last_update":"0001-01-01T00:00:00Z","name_a2s":"Uncletopia | Los Angeles | 4 | Stopwatch Beta","protocol":17,"map":"cp_dustbowl","folder":"tf","game":"Team Fortress","app_id":440,"player_count":0,"max_players":24,"Bots":0,"server_type":"Dedicated","server_os":"Linux","password":true,"vac":true,"version":"7757534","steam_id":85568392924510199,"keywords":["cp","nocrits","nodmgspread","uncletopia"],"game_id":440,"stv_port":27046,"stv_name":"Uncletopia | Los Angeles | 4 | Stopwatch Beta | STV","players":null},{"server_id":11,"name":"Uncletopia | London | 1 | All Maps","name_short":"lon-1","host":"lon-1.uk.uncletopia.com","port":27015,"enabled":true,"region":"eu","cc":"gb","latitude":51.509865,"longitude":-0.118092,"reserved":0,"last_update":"0001-01-01T00:00:00Z","name_a2s":"Uncletopia | London | 1 | All Maps","protocol":17,"map":"pl_swiftwater_final1","folder":"tf","game":"Team Fortress","app_id":440,"player_count":24,"max_players":24,"Bots":0,"server_type":"Dedicated","server_os":"Linux","password":true,"vac":true,"version":"7757534","steam_id":85568392924367362,"keywords":["nocrits","nodmgspread","payload","uncletopia"],"game_id":440,"stv_port":27016,"stv_name":"Uncletopia | London | 1 | All Maps | STV","players":[{"user_id":339,"name":"wxyz kapıcı izzet","steam_id":76561198241873438,"connected_time":4772000000000,"state":"active","ping":89},{"user_id":380,"name":"No Status","steam_id":76561198119526557,"connected_time":1152000000000,"state":"active","ping":46},{"user_id":360,"name":"Shlongulator","steam_id":76561198149779201,"connected_time":2729000000000,"state":"active","ping":53},{"user_id":394,"name":"Hegyi tahó F2P","steam_id":76561199219150356,"connected_time":635000000000,"state":"active","ping":78},{"user_id":341,"name":"Bat in a thousand","steam_id":76561198320506848,"connected_time":4627000000000,"state":"active","ping":43},{"user_id":392,"name":"ZENISHIRA","steam_id":76561198148357250,"connected_time":667000000000,"state":"active","ping":82},{"user_id":405,"name":"Dingus","steam_id":76561198140514058,"connected_time":534000000000,"state":"active","ping":38},{"user_id":384,"name":"[waffles]","steam_id":76561198951206047,"connected_time":1003000000000,"state":"active","ping":84},{"user_id":348,"name":"Lucoa Enjoyer","steam_id":76561198842622419,"connected_time":4041000000000,"state":"active","ping":114},{"user_id":386,"name":"Femboy with the wrong pronouns","steam_id":76561198072320671,"connected_time":930000000000,"state":"active","ping":37},{"user_id":409,"name":"MRLOLENO","steam_id":76561198450911838,"connected_time":489000000000,"state":"active","ping":67},{"user_id":381,"name":"Alexandre","steam_id":76561198121784446,"connected_time":1120000000000,"state":"active","ping":40},{"user_id":387,"name":"(can't chat)mafutbolero","steam_id":76561199233664005,"connected_time":912000000000,"state":"active","ping":93},{"user_id":388,"name":"QuorglepleegJR","steam_id":76561198984658438,"connected_time":908000000000,"state":"active","ping":51},{"user_id":377,"name":"etc","steam_id":76561197998394797,"connected_time":1857000000000,"state":"active","ping":57},{"user_id":371,"name":"spearfishNL","steam_id":76561199077022985,"connected_time":2312000000000,"state":"active","ping":57},{"user_id":410,"name":"Qxillum","steam_id":76561198037201297,"connected_time":384000000000,"state":"active","ping":55},{"user_id":397,"name":"Luna","steam_id":76561199140738350,"connected_time":611000000000,"state":"active","ping":55},{"user_id":411,"name":"PabloEnYT","steam_id":76561199077493476,"connected_time":361000000000,"state":"active","ping":66},{"user_id":400,"name":"Subterranean","steam_id":76561198106684566,"connected_time":562000000000,"state":"active","ping":84},{"user_id":412,"name":"ThomasK","steam_id":76561198202068428,"connected_time":279000000000,"state":"active","ping":43},{"user_id":379,"name":"Joseph Stalin","steam_id":76561198033199746,"connected_time":1641000000000,"state":"active","ping":58},{"user_id":390,"name":"Jughead","steam_id":76561198000355410,"connected_time":786000000000,"state":"active","ping":47},{"user_id":404,"name":"Dezalt","steam_id":76561198154866092,"connected_time":554000000000,"state":"active","ping":84}]},{"server_id":114,"name":"Uncletopia | London | 2 | All Maps","name_short":"lon-2","host":"lon-1.uk.uncletopia.com","port":27025,"enabled":true,"region":"eu","cc":"gb","latitude":51.509865,"longitude":-0.118092,"reserved":0,"last_update":"0001-01-01T00:00:00Z","name_a2s":"Uncletopia | London | 2 | All Maps","protocol":17,"map":"pl_pier","folder":"tf","game":"Team Fortress","app_id":440,"player_count":24,"max_players":24,"Bots":0,"server_type":"Dedicated","server_os":"Linux","password":true,"vac":true,"version":"7757534","steam_id":85568392924470941,"keywords":["nocrits","nodmgspread","payload","uncletopia"],"game_id":440,"stv_port":27026,"stv_name":"Uncletopia | London | 2 | All Maps | STV","players":[{"user_id":162,"name":"Moonlightexel","steam_id":76561198262044897,"connected_time":2565000000000,"state":"active","ping":96},{"user_id":168,"name":"saalvberg","steam_id":76561199409062000,"connected_time":1474000000000,"state":"active","ping":65},{"user_id":159,"name":"Onceknown1","steam_id":76561198120580611,"connected_time":2689000000000,"state":"active","ping":62},{"user_id":124,"name":"Tryrn","steam_id":76561198075487436,"connected_time":5001000000000,"state":"active","ping":95},{"user_id":173,"name":"Farmercy","steam_id":76561198000038039,"connected_time":1163000000000,"state":"active","ping":74},{"user_id":105,"name":"Zerfesh","steam_id":76561198117534358,"connected_time":7195000000000,"state":"active","ping":97},{"user_id":160,"name":"demolition2n3","steam_id":76561198356060442,"connected_time":2686000000000,"state":"active","ping":42},{"user_id":179,"name":"cazador","steam_id":76561198123096922,"connected_time":730000000000,"state":"active","ping":101},{"user_id":187,"name":"stonebum","steam_id":76561198057004606,"connected_time":92000000000,"state":"active","ping":57},{"user_id":184,"name":"Big Balls Bill","steam_id":76561198045998627,"connected_time":514000000000,"state":"active","ping":46},{"user_id":152,"name":"Sacrishee","steam_id":76561198169853697,"connected_time":3055000000000,"state":"active","ping":64},{"user_id":145,"name":"Pingutaro","steam_id":76561198112803718,"connected_time":3262000000000,"state":"active","ping":59},{"user_id":158,"name":"quickfast","steam_id":76561199438900919,"connected_time":2726000000000,"state":"active","ping":44},{"user_id":169,"name":"テイルス","steam_id":76561198022403271,"connected_time":1466000000000,"state":"active","ping":53},{"user_id":170,"name":"fl1p","steam_id":76561198148565659,"connected_time":1452000000000,"state":"active","ping":67},{"user_id":153,"name":"L.A. Palm Tree","steam_id":76561199289526521,"connected_time":3047000000000,"state":"active","ping":92},{"user_id":174,"name":"Haggabah,WhoPliesTheUmbralPath","steam_id":76561198846984399,"connected_time":1155000000000,"state":"active","ping":90},{"user_id":178,"name":"Madree","steam_id":76561199443143457,"connected_time":897000000000,"state":"active","ping":130},{"user_id":137,"name":"After8","steam_id":76561198090750865,"connected_time":4262000000000,"state":"active","ping":73},{"user_id":177,"name":"...","steam_id":76561198969234594,"connected_time":1039000000000,"state":"active","ping":72},{"user_id":172,"name":"Brasidas","steam_id":76561197966629582,"connected_time":1411000000000,"state":"active","ping":65},{"user_id":165,"name":"Sputnik","steam_id":76561198138660241,"connected_time":2035000000000,"state":"active","ping":60},{"user_id":185,"name":"Spieller","steam_id":76561198057197847,"connected_time":453000000000,"state":"active","ping":78},{"user_id":133,"name":"Rubi","steam_id":76561198139410003,"connected_time":4826000000000,"state":"active","ping":71}]},{"server_id":320,"name":"Uncletopia | London | 3 | All Maps","name_short":"lon-3","host":"lon-1.uk.uncletopia.com","port":27035,"enabled":true,"region":"eu","cc":"gb","latitude":51.509865,"longitude":-0.118092,"reserved":0,"last_update":"0001-01-01T00:00:00Z","name_a2s":"Uncletopia | London | 3 | All Maps","protocol":17,"map":"pl_upward","folder":"tf","game":"Team Fortress","app_id":440,"player_count":24,"max_players":24,"Bots":0,"server_type":"Dedicated","server_os":"Linux","password":true,"vac":true,"version":"7757534","steam_id":85568392924510192,"keywords":["nocrits","nodmgspread","payload","uncletopia"],"game_id":440,"stv_port":27036,"stv_name":"Uncletopia | London | 3 | All Maps | STV","players":[{"user_id":70,"name":"generic alias","steam_id":76561198271607226,"connected_time":893000000000,"state":"active","ping":87},{"user_id":17,"name":"dongus","steam_id":76561198042774930,"connected_time":2635000000000,"state":"active","ping":58},{"user_id":22,"name":"felame mimo","steam_id":76561198046921199,"connected_time":2465000000000,"state":"active","ping":67},{"user_id":49,"name":"Ablativus","steam_id":76561198025698470,"connected_time":1596000000000,"state":"active","ping":76},{"user_id":20,"name":"Mimo","steam_id":76561197974221343,"connected_time":2466000000000,"state":"active","ping":92},{"user_id":53,"name":"proko","steam_id":76561198032035497,"connected_time":1308000000000,"state":"active","ping":104},{"user_id":61,"name":"Brynjolf","steam_id":76561198531978435,"connected_time":1113000000000,"state":"active","ping":59},{"user_id":24,"name":"Captain Mimo","steam_id":76561198056783619,"connected_time":2460000000000,"state":"active","ping":39},{"user_id":55,"name":"9034kh-bgtio","steam_id":76561198401523966,"connected_time":1292000000000,"state":"active","ping":92},{"user_id":26,"name":"Maccel F","steam_id":76561198055283295,"connected_time":2415000000000,"state":"active","ping":55},{"user_id":27,"name":"banankgh","steam_id":76561199108845534,"connected_time":2396000000000,"state":"active","ping":88},{"user_id":79,"name":"anastasia","steam_id":76561197994492154,"connected_time":134000000000,"state":"active","ping":75},{"user_id":67,"name":"Jackleg Joel","steam_id":76561198271636476,"connected_time":920000000000,"state":"active","ping":69},{"user_id":51,"name":"RedPyro2009","steam_id":76561198935824363,"connected_time":1335000000000,"state":"active","ping":59},{"user_id":52,"name":"Momovsky","steam_id":76561198005738407,"connected_time":1326000000000,"state":"active","ping":90},{"user_id":75,"name":"Traveandre","steam_id":76561198372637536,"connected_time":170000000000,"state":"active","ping":66},{"user_id":78,"name":"Acceleration Mimo","steam_id":76561198105348049,"connected_time":159000000000,"state":"active","ping":75},{"user_id":35,"name":"Dark Mimo","steam_id":76561198349648942,"connected_time":1970000000000,"state":"active","ping":85},{"user_id":62,"name":"lore","steam_id":76561198120984188,"connected_time":1093000000000,"state":"active","ping":77},{"user_id":59,"name":"hwyad","steam_id":76561199129942647,"connected_time":1199000000000,"state":"active","ping":48},{"user_id":72,"name":"fresh prince of no hair","steam_id":76561198064342804,"connected_time":704000000000,"state":"active","ping":85},{"user_id":58,"name":"[fll.fi] Kaarlo","steam_id":76561198015176252,"connected_time":1279000000000,"state":"active","ping":94},{"user_id":69,"name":"3igen3ggy","steam_id":76561197989548015,"connected_time":896000000000,"state":"active","ping":74},{"user_id":76,"name":"Toaster1337","steam_id":76561198103706881,"connected_time":170000000000,"state":"active","ping":72}]},{"server_id":321,"name":"Uncletopia | London | 4 | All Maps","name_short":"lon-4","host":"lon-1.uk.uncletopia.com","port":27045,"enabled":true,"region":"eu","cc":"gb","latitude":51.509865,"longitude":-0.118092,"reserved":0,"last_update":"0001-01-01T00:00:00Z","name_a2s":"Uncletopia | London | 4 | All Maps","protocol":17,"map":"pl_borneo","folder":"tf","game":"Team Fortress","app_id":440,"player_count":24,"max_players":24,"Bots":0,"server_type":"Dedicated","server_os":"Linux","password":true,"vac":true,"version":"7757534","steam_id":85568392924510193,"keywords":["nocrits","nodmgspread","payload","uncletopia"],"game_id":440,"stv_port":27046,"stv_name":"Uncletopia | London | 4 | All Maps | STV","players":[{"user_id":62,"name":"Egor Pomidor","steam_id":76561199175688390,"connected_time":2347000000000,"state":"connecting","ping":102},{"user_id":40,"name":"simon","steam_id":76561198880361394,"connected_time":3426000000000,"state":"connecting","ping":79},{"user_id":84,"name":"TallestPerson","steam_id":76561198097923550,"connected_time":1210000000000,"state":"connecting","ping":71},{"user_id":77,"name":"pizzaboob (birds arent real)","steam_id":76561198097507847,"connected_time":1464000000000,"state":"connecting","ping":109},{"user_id":101,"name":"Markein","steam_id":76561198360754280,"connected_time":360000000000,"state":"connecting","ping":60},{"user_id":88,"name":"Datenegassie","steam_id":76561198089417032,"connected_time":1176000000000,"state":"connecting","ping":73},{"user_id":71,"name":"gibb (official)","steam_id":76561198074097655,"connected_time":1743000000000,"state":"connecting","ping":42},{"user_id":100,"name":"heatburn","steam_id":76561198019001992,"connected_time":405000000000,"state":"connecting","ping":70},{"user_id":102,"name":"FoOzTV","steam_id":76561197998636728,"connected_time":256000000000,"state":"connecting","ping":70},{"user_id":64,"name":"GardenFungus","steam_id":76561198054894337,"connected_time":2322000000000,"state":"spawning","ping":43},{"user_id":105,"name":"GuSkand","steam_id":76561198043775605,"connected_time":8000000000,"state":"connecting","ping":274},{"user_id":106,"name":"Amoru","steam_id":76561198798161817,"connected_time":3000000000,"state":"connecting","ping":157},{"user_id":90,"name":"SaltyCupcakes","steam_id":76561198256386417,"connected_time":911000000000,"state":"connecting","ping":56},{"user_id":97,"name":"Rezuim","steam_id":76561198112237136,"connected_time":579000000000,"state":"connecting","ping":94},{"user_id":94,"name":"the weakest twink","steam_id":76561198047828651,"connected_time":623000000000,"state":"connecting","ping":79},{"user_id":104,"name":"Baron The Bard","steam_id":76561198149512315,"connected_time":102000000000,"state":"connecting","ping":130},{"user_id":103,"name":"Bug","steam_id":76561198168268048,"connected_time":247000000000,"state":"connecting","ping":63},{"user_id":80,"name":"Célério","steam_id":76561198088253576,"connected_time":1380000000000,"state":"connecting","ping":64},{"user_id":87,"name":"biofun (santa is real)","steam_id":76561198170609049,"connected_time":1193000000000,"state":"spawning","ping":81},{"user_id":60,"name":"Bounter","steam_id":76561198072614188,"connected_time":2459000000000,"state":"connecting","ping":95},{"user_id":39,"name":"spring bonnie","steam_id":76561198988350454,"connected_time":3492000000000,"state":"connecting","ping":63},{"user_id":89,"name":"Ches subtly into Pizzaboo","steam_id":76561198067204908,"connected_time":1143000000000,"state":"connecting","ping":69},{"user_id":65,"name":"Malin","steam_id":76561198149586474,"connected_time":2299000000000,"state":"connecting","ping":150},{"user_id":86,"name":"Allereinan","steam_id":76561198342239906,"connected_time":1203000000000,"state":"connecting","ping":107}]},{"server_id":21,"name":"Uncletopia | London | 5 | All Maps","name_short":"lon-5","host":"lon-1.uk.uncletopia.com","port":27055,"enabled":true,"region":"eu","cc":"gb","latitude":51.509865,"longitude":-0.118092,"reserved":0,"last_update":"0001-01-01T00:00:00Z","name_a2s":"Uncletopia | London | 5 | All Maps","protocol":17,"map":"pl_pier","folder":"tf","game":"Team Fortress","app_id":440,"player_count":0,"max_players":24,"Bots":0,"server_type":"Dedicated","server_os":"Linux","password":true,"vac":true,"version":"7757534","steam_id":85568392924742829,"keywords":["nocrits","nodmgspread","payload","uncletopia"],"game_id":440,"stv_port":27056,"stv_name":"Uncletopia | London | 5 | All Maps | STV","players":null},{"server_id":22,"name":"Uncletopia | London | 6 | All Maps","name_short":"lon-6","host":"lon-1.uk.uncletopia.com","port":27065,"enabled":true,"region":"eu","cc":"gb","latitude":51.509865,"longitude":-0.118092,"reserved":0,"last_update":"0001-01-01T00:00:00Z","name_a2s":"Uncletopia | London | 6 | All Maps","protocol":17,"map":"koth_highpass","folder":"tf","game":"Team Fortress","app_id":440,"player_count":23,"max_players":24,"Bots":0,"server_type":"Dedicated","server_os":"Linux","password":true,"vac":true,"version":"7757534","steam_id":85568392924742830,"keywords":["cp","nocrits","nodmgspread","uncletopia"],"game_id":440,"stv_port":27066,"stv_name":"Uncletopia | London | 6 | All Maps | STV","players":[{"user_id":36,"name":"DaDogeDev (F2P)","steam_id":76561199098626049,"connected_time":104000000000,"state":"active","ping":90},{"user_id":39,"name":"gjhkgfkjfh","steam_id":76561198031181349,"connected_time":82000000000,"state":"active","ping":91},{"user_id":14,"name":"CrowbarWarrior","steam_id":76561198044077015,"connected_time":860000000000,"state":"active","ping":78},{"user_id":15,"name":"Artray","steam_id":76561199086334297,"connected_time":836000000000,"state":"active","ping":97},{"user_id":37,"name":":3","steam_id":76561198301481739,"connected_time":102000000000,"state":"active","ping":54},{"user_id":17,"name":"kevin wenstob","steam_id":76561197996149548,"connected_time":700000000000,"state":"active","ping":52},{"user_id":27,"name":"holykyckling","steam_id":76561198040661615,"connected_time":261000000000,"state":"active","ping":76},{"user_id":20,"name":"Takal","steam_id":76561198452365803,"connected_time":443000000000,"state":"active","ping":152},{"user_id":21,"name":"Minimi","steam_id":76561198873850443,"connected_time":396000000000,"state":"active","ping":36},{"user_id":22,"name":"Gender Stealer","steam_id":76561198436817109,"connected_time":367000000000,"state":"active","ping":52},{"user_id":35,"name":"Pain","steam_id":76561198106997949,"connected_time":142000000000,"state":"active","ping":76},{"user_id":24,"name":"DiscoTraveler","steam_id":76561199240168088,"connected_time":352000000000,"state":"active","ping":112},{"user_id":25,"name":"Slim3rs","steam_id":76561199088010585,"connected_time":331000000000,"state":"active","ping":180},{"user_id":42,"name":"cumstain","steam_id":76561198367337443,"connected_time":18000000000,"state":"spawning","ping":93},{"user_id":28,"name":"henkaton","steam_id":76561197997946074,"connected_time":258000000000,"state":"active","ping":75},{"user_id":29,"name":"Dooble donk man look at me donk","steam_id":76561198225523596,"connected_time":257000000000,"state":"active","ping":67},{"user_id":30,"name":"saml","steam_id":76561198040716257,"connected_time":250000000000,"state":"active","ping":80},{"user_id":32,"name":"Light","steam_id":76561198032475373,"connected_time":239000000000,"state":"active","ping":47},{"user_id":33,"name":"adriankurek","steam_id":76561199349026873,"connected_time":213000000000,"state":"active","ping":78},{"user_id":38,"name":"Yanniki","steam_id":76561197986058110,"connected_time":101000000000,"state":"active","ping":67},{"user_id":40,"name":"Baklava Enjoyer","steam_id":76561198990679631,"connected_time":46000000000,"state":"spawning","ping":160},{"user_id":43,"name":"a straight white male","steam_id":76561198381120660,"connected_time":17000000000,"state":"spawning","ping":84},{"user_id":44,"name":"Red","steam_id":76561198081676772,"connected_time":16000000000,"state":"active","ping":60}]},{"server_id":40,"name":"Uncletopia | London | 7 | No Payload","name_short":"lon-7","host":"lon-1.uk.uncletopia.com","port":27075,"enabled":true,"region":"eu","cc":"gb","latitude":51.509865,"longitude":-0.118092,"reserved":0,"last_update":"0001-01-01T00:00:00Z","name_a2s":"Uncletopia | London | 7 | No Payload","protocol":17,"map":"koth_highpass","folder":"tf","game":"Team Fortress","app_id":440,"player_count":0,"max_players":24,"Bots":0,"server_type":"Dedicated","server_os":"Linux","password":true,"vac":true,"version":"7757534","steam_id":85568392924964314,"keywords":["cp","nocrits","nodmgspread","uncletopia"],"game_id":440,"stv_port":27076,"stv_name":"Uncletopia | London | 7 | No Payload | STV","players":null},{"server_id":41,"name":"Uncletopia | London | 8 | Community","name_short":"lon-8","host":"lon-1.uk.uncletopia.com","port":27085,"enabled":true,"region":"eu","cc":"gb","latitude":51.509865,"longitude":-0.118092,"reserved":0,"last_update":"0001-01-01T00:00:00Z","name_a2s":"Uncletopia | London | 8 | Community","protocol":17,"map":"cp_altitude","folder":"tf","game":"Team Fortress","app_id":440,"player_count":0,"max_players":24,"Bots":0,"server_type":"Dedicated","server_os":"Linux","password":true,"vac":true,"version":"7757534","steam_id":85568392924964315,"keywords":["cp","nocrits","nodmgspread","uncletopia"],"game_id":440,"stv_port":27086,"stv_name":"Uncletopia | London | 8 | Community | STV","players":null},{"server_id":300,"name":"Uncletopia | Montréal | 1 | All Maps","name_short":"mtl-1","host":"mtl-1.ca.uncletopia.com","port":27015,"enabled":true,"region":"us-east","cc":"ca","latitude":45.50889,"longitude":-73.56167,"reserved":0,"last_update":"0001-01-01T00:00:00Z","name_a2s":"Uncletopia | Montréal | 1 | All Maps","protocol":17,"map":"pl_pier","folder":"tf","game":"Team Fortress","app_id":440,"player_count":0,"max_players":24,"Bots":0,"server_type":"Dedicated","server_os":"Linux","password":true,"vac":true,"version":"7757534","steam_id":85568392924500087,"keywords":["nocrits","nodmgspread","payload","uncletopia"],"game_id":440,"stv_port":27016,"stv_name":"Uncletopia | Montréal | 1 | All Maps | STV","players":null},{"server_id":301,"name":"Uncletopia | Montréal | 2 | All Maps","name_short":"mtl-2","host":"mtl-1.ca.uncletopia.com","port":27025,"enabled":true,"region":"us-east","cc":"ca","latitude":45.50889,"longitude":-73.56167,"reserved":0,"last_update":"0001-01-01T00:00:00Z","name_a2s":"Uncletopia | Montréal | 2 | All Maps","protocol":17,"map":"cp_sunshine","folder":"tf","game":"Team Fortress","app_id":440,"player_count":0,"max_players":24,"Bots":0,"server_type":"Dedicated","server_os":"Linux","password":true,"vac":true,"version":"7757534","steam_id":85568392924500088,"keywords":["cp","nocrits","nodmgspread","uncletopia"],"game_id":440,"stv_port":27026,"stv_name":"Uncletopia | Montréal | 2 | All Maps | STV","players":null},{"server_id":302,"name":"Uncletopia | Montréal | 3 | All Maps","name_short":"mtl-3","host":"mtl-1.ca.uncletopia.com","port":27035,"enabled":true,"region":"us-east","cc":"ca","latitude":45.50889,"longitude":-73.56167,"reserved":0,"last_update":"0001-01-01T00:00:00Z","name_a2s":"Uncletopia | Montréal | 3 | All Maps","protocol":17,"map":"pl_frontier_final","folder":"tf","game":"Team Fortress","app_id":440,"player_count":0,"max_players":24,"Bots":0,"server_type":"Dedicated","server_os":"Linux","password":true,"vac":true,"version":"7757534","steam_id":85568392924500089,"keywords":["nocrits","nodmgspread","payload","uncletopia"],"game_id":440,"stv_port":27036,"stv_name":"Uncletopia | Montréal | 3 | All Maps | STV","players":null},{"server_id":303,"name":"Uncletopia | Montréal | 4 | No Payload","name_short":"mtl-4","host":"mtl-1.ca.uncletopia.com","port":27045,"enabled":true,"region":"us-east","cc":"ca","latitude":45.50889,"longitude":-73.56167,"reserved":0,"last_update":"0001-01-01T00:00:00Z","name_a2s":"Uncletopia | Montréal | 4 | No Payload","protocol":17,"map":"pl_pier","folder":"tf","game":"Team Fortress","app_id":440,"player_count":0,"max_players":24,"Bots":0,"server_type":"Dedicated","server_os":"Linux","password":true,"vac":true,"version":"7757534","steam_id":85568392924500090,"keywords":["nocrits","nodmgspread","payload","uncletopia"],"game_id":440,"stv_port":27046,"stv_name":"Uncletopia | Montréal | 4 | No Payload | STV","players":null},{"server_id":13,"name":"Uncletopia | New York City | 1 | All Maps","name_short":"nyc-1","host":"nyc-1.us.uncletopia.com","port":27015,"enabled":true,"region":"us-east","cc":"us","latitude":40.73061,"longitude":-73.93524,"reserved":0,"last_update":"0001-01-01T00:00:00Z","name_a2s":"Uncletopia | New York City | 1 | All Maps","protocol":17,"map":"pl_pier","folder":"tf","game":"Team Fortress","app_id":440,"player_count":4,"max_players":24,"Bots":0,"server_type":"Dedicated","server_os":"Linux","password":true,"vac":true,"version":"7757534","steam_id":85568392924469993,"keywords":["nocrits","nodmgspread","payload","uncletopia"],"game_id":440,"stv_port":27016,"stv_name":"Uncletopia | New York City | 1 | All Maps | STV","players":[{"user_id":24,"name":"Two-Teste Tommy","steam_id":76561198064308936,"connected_time":272000000000,"state":"active","ping":46},{"user_id":25,"name":"purpleboi8056","steam_id":76561199386977971,"connected_time":106000000000,"state":"active","ping":101},{"user_id":8,"name":"Magnum_doom","steam_id":76561199119161534,"connected_time":3379000000000,"state":"active","ping":63},{"user_id":19,"name":"cremeoner","steam_id":76561198372332251,"connected_time":2006000000000,"state":"active","ping":35}]},{"server_id":14,"name":"Uncletopia | New York City | 2 | All Maps","name_short":"nyc-2","host":"nyc-1.us.uncletopia.com","port":27025,"enabled":true,"region":"us-east","cc":"us","latitude":40.73061,"longitude":-73.93524,"reserved":0,"last_update":"0001-01-01T00:00:00Z","name_a2s":"Uncletopia | New York City | 2 | All Maps","protocol":17,"map":"koth_viaduct","folder":"tf","game":"Team Fortress","app_id":440,"player_count":0,"max_players":24,"Bots":0,"server_type":"Dedicated","server_os":"Linux","password":true,"vac":true,"version":"7757534","steam_id":85568392924469994,"keywords":["cp","nocrits","nodmgspread","uncletopia"],"game_id":440,"stv_port":27026,"stv_name":"Uncletopia | New York City | 2 | All Maps | STV","players":null},{"server_id":15,"name":"Uncletopia | New York City | 3 | Stopwatch Beta","name_short":"nyc-3","host":"nyc-1.us.uncletopia.com","port":27035,"enabled":true,"region":"us-east","cc":"us","latitude":40.73061,"longitude":-73.93524,"reserved":0,"last_update":"0001-01-01T00:00:00Z","name_a2s":"Uncletopia | New York City | 3 | Stopwatch Beta","protocol":17,"map":"koth_cascade","folder":"tf","game":"Team Fortress","app_id":440,"player_count":0,"max_players":24,"Bots":0,"server_type":"Dedicated","server_os":"Linux","password":true,"vac":true,"version":"7757534","steam_id":85568392924742820,"keywords":["cp","nocrits","nodmgspread","uncletopia"],"game_id":440,"stv_port":27036,"stv_name":"Uncletopia | New York City | 3 | Stopwatch Beta | STV","players":null},{"server_id":16,"name":"Uncletopia | New York City | 4 | Community","name_short":"nyc-4","host":"nyc-1.us.uncletopia.com","port":27045,"enabled":true,"region":"us-east","cc":"us","latitude":40.73061,"longitude":-73.93524,"reserved":0,"last_update":"0001-01-01T00:00:00Z","name_a2s":"Uncletopia | New York City | 4 | Community","protocol":17,"map":"pl_frontier_final","folder":"tf","game":"Team Fortress","app_id":440,"player_count":0,"max_players":24,"Bots":0,"server_type":"Dedicated","server_os":"Linux","password":true,"vac":true,"version":"7757534","steam_id":85568392924742821,"keywords":["nocrits","nodmgspread","payload","uncletopia"],"game_id":440,"stv_port":27046,"stv_name":"Uncletopia | New York City | 4 | Community | STV","players":null},{"server_id":142,"name":"Uncletopia | São Paulo | 1 | All Maps","name_short":"sao-1","host":"sao-1.br.uncletopia.com","port":27015,"enabled":true,"region":"sa","cc":"br","latitude":-23.533773,"longitude":-46.62529,"reserved":0,"last_update":"0001-01-01T00:00:00Z","name_a2s":"Uncletopia | São Paulo | 1 | All Maps","protocol":17,"map":"pl_badwater","folder":"tf","game":"Team Fortress","app_id":440,"player_count":0,"max_players":24,"Bots":0,"server_type":"Dedicated","server_os":"Linux","password":true,"vac":true,"version":"7757534","steam_id":85568392924469996,"keywords":["nocrits","nodmgspread","payload","uncletopia"],"game_id":440,"stv_port":27016,"stv_name":"Uncletopia | São Paulo | 1 | All Maps | STV","players":null},{"server_id":143,"name":"Uncletopia | São Paulo | 2 | All Maps","name_short":"sao-2","host":"sao-2.br.uncletopia.com","port":27015,"enabled":true,"region":"sa","cc":"br","latitude":-23.533773,"longitude":-46.62529,"reserved":0,"last_update":"0001-01-01T00:00:00Z","name_a2s":"Uncletopia | São Paulo | 2 | All Maps","protocol":17,"map":"koth_viaduct","folder":"tf","game":"Team Fortress","app_id":440,"player_count":0,"max_players":24,"Bots":0,"server_type":"Dedicated","server_os":"Linux","password":true,"vac":true,"version":"7757534","steam_id":85568392924485349,"keywords":["cp","nocrits","nodmgspread","uncletopia"],"game_id":440,"stv_port":27016,"stv_name":"Uncletopia | São Paulo | 2 | All Maps | STV","players":null},{"server_id":7,"name":"Uncletopia | Seattle | 1 | All Maps","name_short":"sea-1","host":"sea-1.us.uncletopia.com","port":27015,"enabled":true,"region":"us-west","cc":"us","latitude":47.608013,"longitude":-122.33517,"reserved":0,"last_update":"0001-01-01T00:00:00Z","name_a2s":"Uncletopia | Seattle | 1 | All Maps","protocol":17,"map":"koth_harvest_final","folder":"tf","game":"Team Fortress","app_id":440,"player_count":19,"max_players":24,"Bots":0,"server_type":"Dedicated","server_os":"Linux","password":true,"vac":true,"version":"7757534","steam_id":85568392924469997,"keywords":["cp","nocrits","nodmgspread","uncletopia"],"game_id":440,"stv_port":27016,"stv_name":"Uncletopia | Seattle | 1 | All Maps | STV","players":[{"user_id":241,"name":"zinnk","steam_id":76561198092081825,"connected_time":252000000000,"state":"active","ping":59},{"user_id":201,"name":"crumblejon","steam_id":76561198111273302,"connected_time":3017000000000,"state":"active","ping":59},{"user_id":226,"name":"bodie._.","steam_id":76561198079474904,"connected_time":1881000000000,"state":"active","ping":59},{"user_id":236,"name":"Username","steam_id":76561198855586261,"connected_time":757000000000,"state":"active","ping":59},{"user_id":237,"name":"Nekomata","steam_id":76561198191536489,"connected_time":703000000000,"state":"active","ping":88},{"user_id":211,"name":"Futa Lover","steam_id":76561198056775795,"connected_time":2499000000000,"state":"active","ping":112},{"user_id":242,"name":"Vimh","steam_id":76561198384938589,"connected_time":8000000000,"state":"spawning","ping":51},{"user_id":205,"name":"Buswolley","steam_id":76561197995205571,"connected_time":2858000000000,"state":"active","ping":69},{"user_id":243,"name":"nnobi","steam_id":76561198878729277,"connected_time":4000000000,"state":"spawning","ping":122},{"user_id":178,"name":"Risky","steam_id":76561198231029328,"connected_time":4899000000000,"state":"active","ping":54},{"user_id":102,"name":"Little Linguine","steam_id":76561198816986370,"connected_time":9777000000000,"state":"active","ping":55},{"user_id":184,"name":"Kit Carson","steam_id":76561198115691546,"connected_time":4447000000000,"state":"active","ping":78},{"user_id":115,"name":"worker","steam_id":76561198039608940,"connected_time":9022000000000,"state":"active","ping":53},{"user_id":234,"name":"Donkitus","steam_id":76561198101336551,"connected_time":1172000000000,"state":"active","ping":30},{"user_id":181,"name":"LProduct","steam_id":76561199442139670,"connected_time":4791000000000,"state":"active","ping":69},{"user_id":235,"name":"McSpazatron","steam_id":76561198955942148,"connected_time":1150000000000,"state":"active","ping":70},{"user_id":232,"name":"berserker_tf2 yt","steam_id":76561198303464488,"connected_time":1465000000000,"state":"active","ping":75},{"user_id":227,"name":"Lil Urge","steam_id":76561198162207470,"connected_time":1874000000000,"state":"active","ping":59},{"user_id":240,"name":"TTV/ChadMorningWood","steam_id":76561198139832291,"connected_time":344000000000,"state":"active","ping":81}]},{"server_id":119,"name":"Uncletopia | Seattle | 2 | All Maps","name_short":"sea-2","host":"sea-1.us.uncletopia.com","port":27025,"enabled":true,"region":"us-west","cc":"us","latitude":47.608013,"longitude":-122.33517,"reserved":0,"last_update":"0001-01-01T00:00:00Z","name_a2s":"Uncletopia | Seattle | 2 | All Maps","protocol":17,"map":"pl_upward","folder":"tf","game":"Team Fortress","app_id":440,"player_count":1,"max_players":24,"Bots":0,"server_type":"Dedicated","server_os":"Linux","password":true,"vac":true,"version":"7757534","steam_id":85568392924469998,"keywords":["nocrits","nodmgspread","payload","uncletopia"],"game_id":440,"stv_port":27026,"stv_name":"Uncletopia | Seattle | 2 | All Maps | STV","players":[{"user_id":11,"name":"WaffleWithNoToppings","steam_id":76561199088280111,"connected_time":604000000000,"state":"active","ping":48}]},{"server_id":406,"name":"Uncletopia | Seattle | 3 | Stopwatch Beta","name_short":"sea-3","host":"sea-1.us.uncletopia.com","port":27035,"enabled":true,"region":"us-west","cc":"us","latitude":47.608013,"longitude":-122.33517,"reserved":0,"last_update":"0001-01-01T00:00:00Z","name_a2s":"Uncletopia | Seattle | 3 | Stopwatch Beta","protocol":17,"map":"cp_process_final","folder":"tf","game":"Team Fortress","app_id":440,"player_count":0,"max_players":24,"Bots":0,"server_type":"Dedicated","server_os":"Linux","password":true,"vac":true,"version":"7757534","steam_id":85568392924515217,"keywords":["cp","nocrits","nodmgspread","uncletopia"],"game_id":440,"stv_port":27036,"stv_name":"Uncletopia | Seattle | 3 | Stopwatch Beta | STV","players":null},{"server_id":17,"name":"Uncletopia | San Francisco | 1 | All Maps","name_short":"sfo-1","host":"sfo-1.us.uncletopia.com","port":27015,"enabled":true,"region":"us-west","cc":"us","latitude":37.77397,"longitude":-122.4313,"reserved":0,"last_update":"0001-01-01T00:00:00Z","name_a2s":"Uncletopia | San Francisco | 1 | All Maps","protocol":17,"map":"pl_badwater","folder":"tf","game":"Team Fortress","app_id":440,"player_count":0,"max_players":24,"Bots":0,"server_type":"Dedicated","server_os":"Linux","password":true,"vac":true,"version":"7757534","steam_id":85568392924469999,"keywords":["nocrits","nodmgspread","payload","uncletopia"],"game_id":440,"stv_port":27016,"stv_name":"Uncletopia | San Francisco | 1 | All Maps | STV","players":null},{"server_id":18,"name":"Uncletopia | San Francisco | 2 | All Maps","name_short":"sfo-2","host":"sfo-1.us.uncletopia.com","port":27025,"enabled":true,"region":"us-west","cc":"us","latitude":37.77397,"longitude":-122.4313,"reserved":0,"last_update":"0001-01-01T00:00:00Z","name_a2s":"Uncletopia | San Francisco | 2 | All Maps","protocol":17,"map":"koth_viaduct","folder":"tf","game":"Team Fortress","app_id":440,"player_count":0,"max_players":24,"Bots":0,"server_type":"Dedicated","server_os":"Linux","password":true,"vac":true,"version":"7757534","steam_id":85568392924470000,"keywords":["cp","nocrits","nodmgspread","uncletopia"],"game_id":440,"stv_port":27026,"stv_name":"Uncletopia | San Francisco | 2 | All Maps | STV","players":null},{"server_id":19,"name":"Uncletopia | San Francisco | 3 | Stopwatch Beta","name_short":"sfo-3","host":"sfo-1.us.uncletopia.com","port":27035,"enabled":true,"region":"us-west","cc":"us","latitude":37.77397,"longitude":-122.4313,"reserved":0,"last_update":"0001-01-01T00:00:00Z","name_a2s":"Uncletopia | San Francisco | 3 | Stopwatch Beta","protocol":17,"map":"cp_snakewater_final1","folder":"tf","game":"Team Fortress","app_id":440,"player_count":0,"max_players":24,"Bots":0,"server_type":"Dedicated","server_os":"Linux","password":true,"vac":true,"version":"7757534","steam_id":85568392924742824,"keywords":["cp","nocrits","nodmgspread","uncletopia"],"game_id":440,"stv_port":27036,"stv_name":"Uncletopia | San Francisco | 3 | Stopwatch Beta | STV","players":null},{"server_id":20,"name":"Uncletopia | San Francisco | 4 | Community","name_short":"sfo-4","host":"sfo-1.us.uncletopia.com","port":27045,"enabled":true,"region":"us-west","cc":"us","latitude":37.77397,"longitude":-122.4313,"reserved":0,"last_update":"0001-01-01T00:00:00Z","name_a2s":"Uncletopia | San Francisco | 4 | Community","protocol":17,"map":"pl_frontier_final","folder":"tf","game":"Team Fortress","app_id":440,"player_count":0,"max_players":24,"Bots":0,"server_type":"Dedicated","server_os":"Linux","password":true,"vac":true,"version":"7757534","steam_id":85568392924742826,"keywords":["nocrits","nodmgspread","payload","uncletopia"],"game_id":440,"stv_port":27046,"stv_name":"Uncletopia | San Francisco | 4 | Community | STV","players":null},{"server_id":141,"name":"Uncletopia | Sydney | 1 | All Maps","name_short":"syd-1","host":"syd-1.au.uncletopia.com","port":27015,"enabled":true,"region":"au","cc":"au","latitude":-33.865143,"longitude":151.2099,"reserved":0,"last_update":"0001-01-01T00:00:00Z","name_a2s":"Uncletopia | Sydney | 1 | All Maps","protocol":17,"map":"cp_dustbowl","folder":"tf","game":"Team Fortress","app_id":440,"player_count":0,"max_players":24,"Bots":0,"server_type":"Dedicated","server_os":"Linux","password":true,"vac":true,"version":"7757534","steam_id":85568392924470001,"keywords":["cp","nocrits","nodmgspread","uncletopia"],"game_id":440,"stv_port":27016,"stv_name":"Uncletopia | Sydney | 1 | All Maps | STV","players":null},{"server_id":123,"name":"Uncletopia | Sydney | 2 | All Maps","name_short":"syd-2","host":"syd-1.au.uncletopia.com","port":27025,"enabled":true,"region":"au","cc":"au","latitude":-33.865143,"longitude":151.2099,"reserved":0,"last_update":"0001-01-01T00:00:00Z","name_a2s":"Uncletopia | Sydney | 2 | All Maps","protocol":17,"map":"koth_highpass","folder":"tf","game":"Team Fortress","app_id":440,"player_count":0,"max_players":24,"Bots":0,"server_type":"Dedicated","server_os":"Linux","password":true,"vac":true,"version":"7757534","steam_id":85568392924470002,"keywords":["cp","nocrits","nodmgspread","uncletopia"],"game_id":440,"stv_port":27026,"stv_name":"Uncletopia | Sydney | 2 | All Maps | STV","players":null},{"server_id":395,"name":"Uncletopia | Sydney | 3 | All Maps","name_short":"syd-3","host":"syd-1.au.uncletopia.com","port":27035,"enabled":true,"region":"au","cc":"au","latitude":-33.865143,"longitude":151.2099,"reserved":0,"last_update":"0001-01-01T00:00:00Z","name_a2s":"Uncletopia | Sydney | 3 | All Maps","protocol":17,"map":"cp_sunshine","folder":"tf","game":"Team Fortress","app_id":440,"player_count":0,"max_players":24,"Bots":0,"server_type":"Dedicated","server_os":"Linux","password":true,"vac":true,"version":"7757534","steam_id":85568392925194467,"keywords":["cp","nocrits","nodmgspread","uncletopia"],"game_id":440,"stv_port":27036,"stv_name":"Uncletopia | Sydney | 3 | All Maps | STV","players":null},{"server_id":396,"name":"Uncletopia | Sydney | 4 | All Maps","name_short":"syd-4","host":"syd-1.au.uncletopia.com","port":27045,"enabled":true,"region":"au","cc":"au","latitude":-33.865143,"longitude":151.2099,"reserved":0,"last_update":"0001-01-01T00:00:00Z","name_a2s":"Uncletopia | Sydney | 4 | All Maps","protocol":17,"map":"koth_viaduct","folder":"tf","game":"Team Fortress","app_id":440,"player_count":0,"max_players":24,"Bots":0,"server_type":"Dedicated","server_os":"Linux","password":true,"vac":true,"version":"7757534","steam_id":85568392925397958,"keywords":["cp","nocrits","nodmgspread","uncletopia"],"game_id":440,"stv_port":27046,"stv_name":"Uncletopia | Sydney | 4 | All Maps | STV","players":null},{"server_id":58,"name":"Uncletopia | Sydney | 5 | Stopwatch Beta","name_short":"syd-5","host":"syd-1.au.uncletopia.com","port":27055,"enabled":true,"region":"au","cc":"au","latitude":-33.865143,"longitude":151.2099,"reserved":0,"last_update":"0001-01-01T00:00:00Z","name_a2s":"Uncletopia | Sydney | 5 | Stopwatch Beta","protocol":17,"map":"koth_cascade","folder":"tf","game":"Team Fortress","app_id":440,"player_count":0,"max_players":24,"Bots":0,"server_type":"Dedicated","server_os":"Linux","password":true,"vac":true,"version":"7757534","steam_id":85568392925397959,"keywords":["cp","nocrits","nodmgspread","uncletopia"],"game_id":440,"stv_port":27056,"stv_name":"Uncletopia | Sydney | 5 | Stopwatch Beta | STV","players":null},{"server_id":59,"name":"Uncletopia | Sydney | 6 | Community","name_short":"syd-6","host":"syd-1.au.uncletopia.com","port":27065,"enabled":true,"region":"au","cc":"au","latitude":-33.865143,"longitude":151.2099,"reserved":0,"last_update":"0001-01-01T00:00:00Z","name_a2s":"Uncletopia | Sydney | 6 | Community","protocol":17,"map":"workshop/koth_product_final.ugc454272353","folder":"tf","game":"Team Fortress","app_id":440,"player_count":0,"max_players":24,"Bots":0,"server_type":"Dedicated","server_os":"Linux","password":true,"vac":true,"version":"7757534","steam_id":85568392925397960,"keywords":["cp","nocrits","nodmgspread","uncletopia"],"game_id":440,"stv_port":27066,"stv_name":"Uncletopia | Sydney | 6 | Community | STV","players":null},{"server_id":49,"name":"Uncletopia | Warsaw | 1 | All Maps","name_short":"waw-1","host":"waw-1.pl.uncletopia.com","port":27015,"enabled":true,"region":"eu","cc":"pl","latitude":52.2297,"longitude":21.017532,"reserved":0,"last_update":"0001-01-01T00:00:00Z","name_a2s":"","protocol":0,"map":"","folder":"","game":"","app_id":0,"player_count":0,"max_players":0,"Bots":0,"server_type":"","server_os":"","password":false,"vac":false,"version":"","steam_id":0,"keywords":null,"game_id":0,"stv_port":0,"stv_name":"","players":null},{"server_id":50,"name":"Uncletopia | Warsaw | 2 | All Maps","name_short":"waw-2","host":"waw-1.pl.uncletopia.com","port":27025,"enabled":true,"region":"eu","cc":"pl","latitude":52.2297,"longitude":21.017532,"reserved":0,"last_update":"0001-01-01T00:00:00Z","name_a2s":"Uncletopia | Warsaw | 2 | All Maps","protocol":17,"map":"koth_highpass","folder":"tf","game":"Team Fortress","app_id":440,"player_count":0,"max_players":24,"Bots":0,"server_type":"Dedicated","server_os":"Linux","password":true,"vac":true,"version":"7757534","steam_id":85568392925397851,"keywords":["cp","nocrits","nodmgspread","uncletopia"],"game_id":440,"stv_port":27026,"stv_name":"Uncletopia | Warsaw | 2 | All Maps | STV","players":null},{"server_id":51,"name":"Uncletopia | Warsaw | 3 | All Maps","name_short":"waw-3","host":"waw-1.pl.uncletopia.com","port":27035,"enabled":true,"region":"eu","cc":"pl","latitude":52.2297,"longitude":21.017532,"reserved":0,"last_update":"0001-01-01T00:00:00Z","name_a2s":"Uncletopia | Warsaw | 3 | All Maps","protocol":17,"map":"pl_pier","folder":"tf","game":"Team Fortress","app_id":440,"player_count":0,"max_players":24,"Bots":0,"server_type":"Dedicated","server_os":"Linux","password":true,"vac":true,"version":"7757534","steam_id":85568392925397852,"keywords":["nocrits","nodmgspread","payload","uncletopia"],"game_id":440,"stv_port":27036,"stv_name":"Uncletopia | Warsaw | 3 | All Maps | STV","players":null},{"server_id":52,"name":"Uncletopia | Warsaw | 4 | All Maps","name_short":"waw-4","host":"waw-1.pl.uncletopia.com","port":27045,"enabled":true,"region":"eu","cc":"pl","latitude":52.2297,"longitude":21.017532,"reserved":0,"last_update":"0001-01-01T00:00:00Z","name_a2s":"Uncletopia | Warsaw | 4 | All Maps","protocol":17,"map":"cp_altitude","folder":"tf","game":"Team Fortress","app_id":440,"player_count":3,"max_players":24,"Bots":0,"server_type":"Dedicated","server_os":"Linux","password":true,"vac":true,"version":"7757534","steam_id":85568392925397853,"keywords":["cp","nocrits","nodmgspread","uncletopia"],"game_id":440,"stv_port":27046,"stv_name":"Uncletopia | Warsaw | 4 | All Maps | STV","players":[{"user_id":4,"name":"Name One TF2 Item","steam_id":76561199446125892,"connected_time":1778000000000,"state":"active","ping":75},{"user_id":5,"name":"Truegr","steam_id":76561198811912339,"connected_time":1658000000000,"state":"active","ping":71},{"user_id":7,"name":"eric","steam_id":76561198988470542,"connected_time":59000000000,"state":"active","ping":71}]},{"server_id":53,"name":"Uncletopia | Warsaw | 5 | Stopwatch Beta","name_short":"waw-5","host":"waw-1.pl.uncletopia.com","port":27055,"enabled":true,"region":"eu","cc":"pl","latitude":52.2297,"longitude":21.017532,"reserved":0,"last_update":"0001-01-01T00:00:00Z","name_a2s":"Uncletopia | Warsaw | 5 | Stopwatch Beta","protocol":17,"map":"pl_pier","folder":"tf","game":"Team Fortress","app_id":440,"player_count":0,"max_players":24,"Bots":0,"server_type":"Dedicated","server_os":"Linux","password":true,"vac":true,"version":"7757534","steam_id":85568392925397854,"keywords":["nocrits","nodmgspread","payload","uncletopia"],"game_id":440,"stv_port":27056,"stv_name":"Uncletopia | Warsaw | 5 | Stopwatch Beta | STV","players":null},{"server_id":54,"name":"Uncletopia | Warsaw | 6 | Community","name_short":"waw-6","host":"waw-1.pl.uncletopia.com","port":27065,"enabled":true,"region":"eu","cc":"pl","latitude":52.2297,"longitude":21.017532,"reserved":0,"last_update":"0001-01-01T00:00:00Z","name_a2s":"Uncletopia | Warsaw | 6 | Community","protocol":17,"map":"koth_highpass","folder":"tf","game":"Team Fortress","app_id":440,"player_count":0,"max_players":24,"Bots":0,"server_type":"Dedicated","server_os":"Linux","password":true,"vac":true,"version":"7757534","steam_id":85568392925397856,"keywords":["cp","nocrits","nodmgspread","uncletopia"],"game_id":440,"stv_port":27066,"stv_name":"Uncletopia | Warsaw | 6 | Community | STV","players":null}]}