{"status":true,"message":"","result":[{"server_id":9,"name":"Uncletopia | Atlanta | 1 | All Maps","name_short":"atl-1","host":"atl-1.us.uncletopia.com","port":27015,"enabled":true,"region":"us-east","cc":"us","latitude":33.753746,"longitude":-84.38633,"reserved":0,"last_update":"0001-01-01T00:00:00Z","name_a2s":"Uncletopia | Atlanta | 1 | All Maps","protocol":17,"map":"pl_snowycoast","folder":"tf","game":"Team Fortress","app_id":440,"player_count":23,"max_players":24,"Bots":0,"server_type":"Dedicated","server_os":"Linux","password":true,"vac":true,"version":"7882260","steam_id":85568392924469982,"keywords":["nocrits","nodmgspread","payload","uncletopia"],"game_id":440,"stv_port":27016,"stv_name":"Uncletopia | Atlanta | 1 | All Maps | STV","players":[{"user_id":56,"name":"VlAd","steam_id":76561198076597947,"connected_time":5465000000000,"state":"spawning","ping":88},{"user_id":30,"name":"Lazy_Vex","steam_id":76561198287661985,"connected_time":7116000000000,"state":"spawning","ping":132},{"user_id":107,"name":"Audiphon","steam_id":76561198051340300,"connected_time":204000000000,"state":"spawning","ping":105},{"user_id":91,"name":"Doubie","steam_id":76561198104492019,"connected_time":1970000000000,"state":"active","ping":64},{"user_id":105,"name":"crabapples","steam_id":76561198075818655,"connected_time":542000000000,"state":"active","ping":62},{"user_id":111,"name":"Anthony","steam_id":76561198066746822,"connected_time":13000000000,"state":"active","ping":118},{"user_id":66,"name":"bobbymcbobington","steam_id":76561199089411172,"connected_time":4375000000000,"state":"active","ping":99},{"user_id":89,"name":"FancyBones","steam_id":76561198180198885,"connected_time":2438000000000,"state":"active","ping":63},{"user_id":73,"name":"21 Rats Inside of a Trench Coat","steam_id":76561199191964937,"connected_time":3528000000000,"state":"active","ping":72},{"user_id":109,"name":"azzy","steam_id":76561198127332138,"connected_time":48000000000,"state":"spawning","ping":65},{"user_id":90,"name":"chexo4","steam_id":76561198150532531,"connected_time":2013000000000,"state":"active","ping":46},{"user_id":110,"name":"bleckbunny","steam_id":76561198057599452,"connected_time":30000000000,"state":"spawning","ping":191},{"user_id":112,"name":"ma0re","steam_id":76561199231971506,"connected_time":7000000000,"state":"spawning","ping":65},{"user_id":93,"name":"duck=life","steam_id":76561198122020886,"connected_time":1953000000000,"state":"active","ping":67},{"user_id":85,"name":"sex","steam_id":76561198398383076,"connected_time":3041000000000,"state":"active","ping":96},{"user_id":104,"name":"Scors","steam_id":76561198280833323,"connected_time":795000000000,"state":"active","ping":185},{"user_id":77,"name":"BIG HOG","steam_id":76561198079923652,"connected_time":3281000000000,"state":"active","ping":63},{"user_id":96,"name":"SHADOW CURSED FOR ETERNITY","steam_id":76561198048110137,"connected_time":1725000000000,"state":"active","ping":45},{"user_id":80,"name":"ATL1 | wire-guided","steam_id":76561198055407168,"connected_time":3225000000000,"state":"active","ping":46},{"user_id":94,"name":"Amyxts36","steam_id":76561198872232094,"connected_time":1932000000000,"state":"spawning","ping":64},{"user_id":81,"name":"lil hog","steam_id":76561199230929836,"connected_time":3203000000000,"state":"active","ping":84},{"user_id":106,"name":"‚ô°a femboy‚ô°","steam_id":76561199212971864,"connected_time":542000000000,"state":"active","ping":74},{"user_id":108,"name":"Xx_UrineEnjoyer_xX","steam_id":76561198397991402,"connected_time":204000000000,"state":"active","ping":122}]},{"server_id":104,"name":"Uncletopia | Atlanta | 2 | All Maps","name_short":"atl-2","host":"atl-1.us.uncletopia.com","port":27025,"enabled":true,"region":"us-east","cc":"us","latitude":33.753746,"longitude":-84.38633,"reserved":0,"last_update":"0001-01-01T00:00:00Z","name_a2s":"Uncletopia | Atlanta | 2 | All Maps","protocol":17,"map":"pl_snowycoast","folder":"tf","game":"Team Fortress","app_id":440,"player_count":24,"max_players":24,"Bots":0,"server_type":"Dedicated","server_os":"Linux","password":true,"vac":true,"version":"7882260","steam_id":85568392924469983,"keywords":["nocrits","nodmgspread","payload","uncletopia"],"game_id":440,"stv_port":27026,"stv_name":"Uncletopia | Atlanta | 2 | All Maps | STV","players":[{"user_id":93,"name":"SunnySideEggs","steam_id":76561198308377741,"connected_time":1426000000000,"state":"active","ping":72},{"user_id":106,"name":"Mx. Crazy Spacey","steam_id":76561198828788989,"connected_time":256000000000,"state":"active","ping":64},{"user_id":46,"name":"LeadHickory","steam_id":76561198219756521,"connected_time":4202000000000,"state":"active","ping":83},{"user_id":101,"name":"Ventastega","steam_id":76561197999366317,"connected_time":999000000000,"state":"active","ping":89},{"user_id":23,"name":"Victor","steam_id":76561198848984975,"connected_time":5941000000000,"state":"active","ping":74},{"user_id":94,"name":"greg","steam_id":76561199206080182,"connected_time":1384000000000,"state":"active","ping":71},{"user_id":82,"name":"Mecha","steam_id":76561198014927379,"connected_time":2293000000000,"state":"active","ping":90},{"user_id":44,"name":"uhooter","steam_id":76561198007829078,"connected_time":4635000000000,"state":"active","ping":68},{"user_id":90,"name":"DagyDin","steam_id":76561199212257554,"connected_time":1469000000000,"state":"active","ping":73},{"user_id":73,"name":"Eldritch Curio.üëÅ","steam_id":76561198044669027,"connected_time":2856000000000,"state":"active","ping":81},{"user_id":74,"name":"water bottle","steam_id":76561198096860013,"connected_time":2809000000000,"state":"active","ping":60},{"user_id":47,"name":"Lunar","steam_id":76561199120845371,"connected_time":4057000000000,"state":"active","ping":79},{"user_id":75,"name":"krispy kream man","steam_id":76561198272550339,"connected_time":2794000000000,"state":"active","ping":77},{"user_id":76,"name":"LegendaryMister151","steam_id":76561198064890524,"connected_time":2788000000000,"state":"active","ping":82},{"user_id":77,"name":"Melhoude","steam_id":76561198272694642,"connected_time":2771000000000,"state":"active","ping":64},{"user_id":91,"name":"Sgt. Dornan","steam_id":76561198063308122,"connected_time":1461000000000,"state":"active","ping":80},{"user_id":97,"name":"lost in spaaaaace","steam_id":76561199085974120,"connected_time":1094000000000,"state":"active","ping":67},{"user_id":92,"name":"A Trigger Happy Chipmunk","steam_id":76561198013608736,"connected_time":1458000000000,"state":"active","ping":49},{"user_id":95,"name":"Rhutebeer","steam_id":76561198018302761,"connected_time":1340000000000,"state":"active","ping":79},{"user_id":103,"name":"kermitcreeper(ZAZA)","steam_id":76561199222829972,"connected_time":497000000000,"state":"active","ping":75},{"user_id":104,"name":"Lord Arbon Wolf","steam_id":76561198028191603,"connected_time":475000000000,"state":"active","ping":65},{"user_id":98,"name":"XxDragon4321xX","steam_id":76561198046705735,"connected_time":1079000000000,"state":"active","ping":130},{"user_id":105,"name":"Mooksie","steam_id":76561198073074064,"connected_time":456000000000,"state":"active","ping":74},{"user_id":80,"name":"BombWolf","steam_id":76561198289812368,"connected_time":2683000000000,"state":"active","ping":110}]},{"server_id":400,"name":"Uncletopia | Atlanta | 3 | Community","name_short":"atl-3","host":"atl-1.us.uncletopia.com","port":27035,"enabled":true,"region":"us-east","cc":"us","latitude":33.753746,"longitude":-84.38633,"reserved":0,"last_update":"0001-01-01T00:00:00Z","name_a2s":"Uncletopia | Atlanta | 3 | Community","protocol":17,"map":"workshop/koth_ashville_final.ugc2130459942","folder":"tf","game":"Team Fortress","app_id":440,"player_count":0,"max_players":24,"Bots":0,"server_type":"Dedicated","server_os":"Linux","password":true,"vac":true,"version":"7882260","steam_id":85568392924515187,"keywords":["cp","nocrits","nodmgspread","uncletopia"],"game_id":440,"stv_port":27036,"stv_name":"Uncletopia | Atlanta | 3 | Community | STV","players":null},{"server_id":401,"name":"Uncletopia | Atlanta | 4 | No Payload","name_short":"atl-4","host":"atl-1.us.uncletopia.com","port":27045,"enabled":true,"region":"us-east","cc":"us","latitude":33.753746,"longitude":-84.38633,"reserved":0,"last_update":"0001-01-01T00:00:00Z","name_a2s":"","protocol":0,"map":"","folder":"","game":"","app_id":0,"player_count":0,"max_players":0,"Bots":0,"server_type":"","server_os":"","password":false,"vac":false,"version":"","steam_id":0,"keywords":null,"game_id":0,"stv_port":0,"stv_name":"","players":null},{"server_id":2,"name":"Uncletopia | Chicago | 1 | All Maps","name_short":"chi-1","host":"chi-1.us.uncletopia.com","port":27015,"enabled":true,"region":"us-central","cc":"us","latitude":41.881832,"longitude":-87.62318,"reserved":0,"last_update":"0001-01-01T00:00:00Z","name_a2s":"Uncletopia | Chicago | 1 | All Maps","protocol":17,"map":"cp_dustbowl","folder":"tf","game":"Team Fortress","app_id":440,"player_count":24,"max_players":24,"Bots":0,"server_type":"Dedicated","server_os":"Linux","password":true,"vac":true,"version":"7882260","steam_id":85568392924469984,"keywords":["cp","nocrits","nodmgspread","uncletopia"],"game_id":440,"stv_port":27016,"stv_name":"Uncletopia | Chicago | 1 | All Maps | STV","players":[{"user_id":180,"name":"Mr.Frundles","steam_id":76561198134559026,"connected_time":1464000000000,"state":"active","ping":69},{"user_id":181,"name":"I AM NOT CRAZY","steam_id":76561198799397462,"connected_time":1464000000000,"state":"active","ping":70},{"user_id":178,"name":"notatrip(mommymoding)","steam_id":76561198046109327,"connected_time":1648000000000,"state":"active","ping":61},{"user_id":195,"name":"g arry","steam_id":76561199123103642,"connected_time":942000000000,"state":"active","ping":69},{"user_id":190,"name":"DeanAdamFry","steam_id":76561198054153160,"connected_time":1264000000000,"state":"active","ping":140},{"user_id":193,"name":"mineblast99","steam_id":76561199065648954,"connected_time":1199000000000,"state":"active","ping":75},{"user_id":194,"name":"Seojer","steam_id":76561198234965408,"connected_time":1179000000000,"state":"active","ping":124},{"user_id":183,"name":"tA.CHRONIC","steam_id":76561197960760990,"connected_time":1418000000000,"state":"active","ping":66},{"user_id":146,"name":"xXx69B√º$$√ø≈†≈Ç√•√øƒôr420xXx","steam_id":76561198040668118,"connected_time":2573000000000,"state":"active","ping":70},{"user_id":192,"name":"EnergyBolt30","steam_id":76561198925178957,"connected_time":1220000000000,"state":"active","ping":74},{"user_id":185,"name":"Banks","steam_id":76561198276505537,"connected_time":1309000000000,"state":"active","ping":63},{"user_id":179,"name":"WX-78","steam_id":76561199117263527,"connected_time":1566000000000,"state":"active","ping":42},{"user_id":199,"name":"Little Linguine","steam_id":76561198816986370,"connected_time":401000000000,"state":"active","ping":102},{"user_id":177,"name":"Mooodyboi.‚ô•","steam_id":76561198132577404,"connected_time":1746000000000,"state":"active","ping":168},{"user_id":164,"name":"Hoop","steam_id":76561199124865843,"connected_time":2222000000000,"state":"active","ping":59},{"user_id":149,"name":"Stronk","steam_id":76561198314043450,"connected_time":2555000000000,"state":"active","ping":80},{"user_id":198,"name":"CHEEKY EUNUCH","steam_id":76561198990825232,"connected_time":474000000000,"state":"active","ping":61},{"user_id":129,"name":"steef","steam_id":76561199023495206,"connected_time":3610000000000,"state":"active","ping":67},{"user_id":152,"name":"beaghost","steam_id":76561197974943082,"connected_time":2479000000000,"state":"active","ping":68},{"user_id":196,"name":"Banious","steam_id":76561198833092540,"connected_time":784000000000,"state":"active","ping":88},{"user_id":187,"name":"Foreskin Reattachment service","steam_id":76561198060342804,"connected_time":1300000000000,"state":"active","ping":72},{"user_id":188,"name":"spud stealer 2000","steam_id":76561199264293695,"connected_time":1295000000000,"state":"active","ping":67},{"user_id":197,"name":"Firedrakecheerful","steam_id":76561198141166902,"connected_time":724000000000,"state":"active","ping":78},{"user_id":191,"name":"Beefboss_plays","steam_id":76561199454237265,"connected_time":1264000000000,"state":"active","ping":98}]},{"server_id":106,"name":"Uncletopia | Chicago | 2 | All Maps","name_short":"chi-2","host":"chi-1.us.uncletopia.com","port":27025,"enabled":true,"region":"us-central","cc":"us","latitude":41.881832,"longitude":-87.62318,"reserved":0,"last_update":"0001-01-01T00:00:00Z","name_a2s":"Uncletopia | Chicago | 2 | All Maps","protocol":17,"map":"pl_frontier_final","folder":"tf","game":"Team Fortress","app_id":440,"player_count":24,"max_players":24,"Bots":0,"server_type":"Dedicated","server_os":"Linux","password":true,"vac":true,"version":"7882260","steam_id":85568392924469985,"keywords":["nocrits","nodmgspread","payload","uncletopia"],"game_id":440,"stv_port":27026,"stv_name":"Uncletopia | Chicago | 2 | All Maps | STV","players":[{"user_id":8,"name":"Cobalt","steam_id":76561198063512035,"connected_time":1153000000000,"state":"active","ping":70},{"user_id":7,"name":"cokersworld","steam_id":76561198039731344,"connected_time":1634000000000,"state":"active","ping":84},{"user_id":9,"name":"night.light","steam_id":76561198014557455,"connected_time":1102000000000,"state":"active","ping":51},{"user_id":32,"name":"god","steam_id":76561199405414169,"connected_time":416000000000,"state":"active","ping":205},{"user_id":33,"name":"miko","steam_id":76561198123558279,"connected_time":400000000000,"state":"active","ping":57},{"user_id":12,"name":"INFINITE","steam_id":76561197971285557,"connected_time":854000000000,"state":"active","ping":64},{"user_id":26,"name":"Spoons","steam_id":76561198042006848,"connected_time":494000000000,"state":"active","ping":43},{"user_id":14,"name":"KŒªon","steam_id":76561198036064833,"connected_time":774000000000,"state":"active","ping":49},{"user_id":37,"name":"WatchWill","steam_id":76561198157237945,"connected_time":324000000000,"state":"active","ping":71},{"user_id":16,"name":"Mr. Sauce","steam_id":76561198055512324,"connected_time":701000000000,"state":"active","ping":61},{"user_id":17,"name":"Luigi Jackson","steam_id":76561198267877246,"connected_time":658000000000,"state":"active","ping":71},{"user_id":35,"name":"challen","steam_id":76561197961277967,"connected_time":352000000000,"state":"active","ping":75},{"user_id":19,"name":"seve","steam_id":76561197974470963,"connected_time":632000000000,"state":"active","ping":58},{"user_id":28,"name":"wolfgrey139","steam_id":76561199206554751,"connected_time":448000000000,"state":"active","ping":76},{"user_id":22,"name":"0","steam_id":76561198046055673,"connected_time":573000000000,"state":"active","ping":74},{"user_id":23,"name":"Whoops!","steam_id":76561198151315898,"connected_time":540000000000,"state":"active","ping":82},{"user_id":24,"name":"Bangushonkle","steam_id":76561198218887511,"connected_time":538000000000,"state":"active","ping":89},{"user_id":25,"name":"painting4","steam_id":76561198067554256,"connected_time":519000000000,"state":"active","ping":143},{"user_id":27,"name":"First Aid","steam_id":76561198098190660,"connected_time":488000000000,"state":"active","ping":70},{"user_id":30,"name":"„ÅÇ„Åæ„Åø„ÇÑ „Çå„Çì","steam_id":76561198165569261,"connected_time":437000000000,"state":"active","ping":49},{"user_id":31,"name":"Professional Clicker","steam_id":76561199210799428,"connected_time":436000000000,"state":"active","ping":64},{"user_id":34,"name":"P‚ô•is‚ô•n","steam_id":76561198140584050,"connected_time":376000000000,"state":"active","ping":72},{"user_id":36,"name":"sine","steam_id":76561198012038088,"connected_time":343000000000,"state":"active","ping":54},{"user_id":40,"name":"rawrski","steam_id":76561197972464020,"connected_time":125000000000,"state":"active","ping":73}]},{"server_id":402,"name":"Uncletopia | Chicago | 3 | All Maps","name_short":"chi-3","host":"chi-1.us.uncletopia.com","port":27035,"enabled":true,"region":"us-central","cc":"us","latitude":41.881832,"longitude":-87.62318,"reserved":0,"last_update":"0001-01-01T00:00:00Z","name_a2s":"Uncletopia | Chicago | 3 | All Maps","protocol":17,"map":"pl_snowycoast","folder":"tf","game":"Team Fortress","app_id":440,"player_count":0,"max_players":24,"Bots":0,"server_type":"Dedicated","server_os":"Linux","password":true,"vac":true,"version":"7882260","steam_id":85568392924515191,"keywords":["nocrits","nodmgspread","payload","uncletopia"],"game_id":440,"stv_port":27036,"stv_name":"Uncletopia | Chicago | 3 | All Maps | STV","players":null},{"server_id":403,"name":"Uncletopia | Chicago | 4 | All Maps","name_short":"chi-4","host":"chi-1.us.uncletopia.com","port":27045,"enabled":true,"region":"us-central","cc":"us","latitude":41.881832,"longitude":-87.62318,"reserved":0,"last_update":"0001-01-01T00:00:00Z","name_a2s":"Uncletopia | Chicago | 4 | All Maps","protocol":17,"map":"koth_cascade","folder":"tf","game":"Team Fortress","app_id":440,"player_count":0,"max_players":24,"Bots":0,"server_type":"Dedicated","server_os":"Linux","password":true,"vac":true,"version":"7882260","steam_id":85568392924515193,"keywords":["cp","nocrits","nodmgspread","uncletopia"],"game_id":440,"stv_port":27046,"stv_name":"Uncletopia | Chicago | 4 | All Maps | STV","players":null},{"server_id":36,"name":"Uncletopia | Chicago | 5 | All Maps","name_short":"chi-5","host":"chi-2.us.uncletopia.com","port":27015,"enabled":true,"region":"us-central","cc":"us","latitude":41.881832,"longitude":-87.62318,"reserved":0,"last_update":"0001-01-01T00:00:00Z","name_a2s":"Uncletopia | Chicago | 5 | All Maps","protocol":17,"map":"pl_badwater","folder":"tf","game":"Team Fortress","app_id":440,"player_count":24,"max_players":24,"Bots":0,"server_type":"Dedicated","server_os":"Linux","password":true,"vac":true,"version":"7882260","steam_id":85568392924866362,"keywords":["nocrits","nodmgspread","payload","uncletopia"],"game_id":440,"stv_port":27016,"stv_name":"Uncletopia | Chicago | 5 | All Maps | STV","players":[{"user_id":187,"name":"Snuffleupagus","steam_id":76561198167247280,"connected_time":296000000000,"state":"active","ping":92},{"user_id":185,"name":"Splinto","steam_id":76561198111260488,"connected_time":409000000000,"state":"active","ping":48},{"user_id":130,"name":"lycoris","steam_id":76561199113965768,"connected_time":4370000000000,"state":"active","ping":84},{"user_id":186,"name":"That one tf2 player","steam_id":76561199017747558,"connected_time":361000000000,"state":"active","ping":176},{"user_id":190,"name":"FROG SOLDIER OF HAM","steam_id":76561198328829278,"connected_time":216000000000,"state":"active","ping":61},{"user_id":180,"name":"bouncyballs.com","steam_id":76561198236166288,"connected_time":924000000000,"state":"active","ping":71},{"user_id":112,"name":"Dandelo","steam_id":76561198112487927,"connected_time":5647000000000,"state":"active","ping":88},{"user_id":182,"name":"the nuisance","steam_id":76561198396326793,"connected_time":749000000000,"state":"active","ping":93},{"user_id":181,"name":"RockyCarly","steam_id":76561198310278761,"connected_time":774000000000,"state":"active","ping":81},{"user_id":172,"name":"SlippyPunk","steam_id":76561198048551455,"connected_time":1427000000000,"state":"active","ping":83},{"user_id":139,"name":"blitzkriiegi","steam_id":76561198200944766,"connected_time":3371000000000,"state":"active","ping":45},{"user_id":151,"name":"OGeeWilliker","steam_id":76561199466028149,"connected_time":2459000000000,"state":"active","ping":69},{"user_id":191,"name":"Chosen_One_of_Arroyo","steam_id":76561199229339031,"connected_time":155000000000,"state":"active","ping":92},{"user_id":173,"name":"prospective sugar baby","steam_id":76561198081220016,"connected_time":1400000000000,"state":"active","ping":55},{"user_id":167,"name":"Mury","steam_id":76561198069743049,"connected_time":1643000000000,"state":"active","ping":109},{"user_id":183,"name":"BearAteMahoney","steam_id":76561198020439356,"connected_time":508000000000,"state":"active","ping":64},{"user_id":176,"name":".BL14","steam_id":76561198374604922,"connected_time":1341000000000,"state":"active","ping":60},{"user_id":161,"name":"Laksbi","steam_id":76561198151205759,"connected_time":2156000000000,"state":"active","ping":90},{"user_id":184,"name":"Smug Pug","steam_id":76561198059423334,"connected_time":438000000000,"state":"active","ping":60},{"user_id":189,"name":"Alexthegreat","steam_id":76561197996796222,"connected_time":286000000000,"state":"active","ping":60},{"user_id":117,"name":"bonz","steam_id":76561199445629071,"connected_time":4780000000000,"state":"active","ping":61},{"user_id":168,"name":"Bear of the Polar Variety","steam_id":76561198370330710,"connected_time":1578000000000,"state":"active","ping":48},{"user_id":177,"name":"plaguemom","steam_id":76561198319992602,"connected_time":1331000000000,"state":"active","ping":76},{"user_id":178,"name":"Wiener Hole Paper Cut","steam_id":76561198000808203,"connected_time":1313000000000,"state":"active","ping":73}]},{"server_id":37,"name":"Uncletopia | Chicago | 6 | All Maps","name_short":"chi-6","host":"chi-2.us.uncletopia.com","port":27025,"enabled":true,"region":"us-central","cc":"us","latitude":41.881832,"longitude":-87.62318,"reserved":0,"last_update":"0001-01-01T00:00:00Z","name_a2s":"Uncletopia | Chicago | 6 | All Maps","protocol":17,"map":"koth_cascade","folder":"tf","game":"Team Fortress","app_id":440,"player_count":0,"max_players":24,"Bots":0,"server_type":"Dedicated","server_os":"Linux","password":true,"vac":true,"version":"7882260","steam_id":85568392924866363,"keywords":["cp","nocrits","nodmgspread","uncletopia"],"game_id":440,"stv_port":27026,"stv_name":"Uncletopia | Chicago | 6 | All Maps | STV","players":null},{"server_id":38,"name":"Uncletopia | Chicago | 7 | Stopwatch Beta","name_short":"chi-7","host":"chi-2.us.uncletopia.com","port":27035,"enabled":true,"region":"us-central","cc":"us","latitude":41.881832,"longitude":-87.62318,"reserved":0,"last_update":"0001-01-01T00:00:00Z","name_a2s":"Uncletopia | Chicago | 7 | Stopwatch Beta","protocol":17,"map":"pl_borneo","folder":"tf","game":"Team Fortress","app_id":440,"player_count":0,"max_players":24,"Bots":0,"server_type":"Dedicated","server_os":"Linux","password":true,"vac":true,"version":"7882260","steam_id":85568392924866364,"keywords":["nocrits","nodmgspread","payload","uncletopia"],"game_id":440,"stv_port":27036,"stv_name":"Uncletopia | Chicago | 7 | Stopwatch Beta | STV","players":null},{"server_id":39,"name":"Uncletopia | Chicago | 8 | Community","name_short":"chi-8","host":"chi-2.us.uncletopia.com","port":27045,"enabled":true,"region":"us-central","cc":"us","latitude":41.881832,"longitude":-87.62318,"reserved":0,"last_update":"0001-01-01T00:00:00Z","name_a2s":"Uncletopia | Chicago | 8 | Community","protocol":17,"map":"workshop/cp_overgrown_rc7b.ugc503939302","folder":"tf","game":"Team Fortress","app_id":440,"player_count":0,"max_players":24,"Bots":0,"server_type":"Dedicated","server_os":"Linux","password":true,"vac":true,"version":"7882260","steam_id":85568392924866365,"keywords":["cp","nocrits","nodmgspread","uncletopia"],"game_id":440,"stv_port":27046,"stv_name":"Uncletopia | Chicago | 8 | Community | STV","players":null},{"server_id":8,"name":"Uncletopia | Dallas | 1 | All Maps","name_short":"dal-1","host":"dal-1.us.uncletopia.com","port":27015,"enabled":true,"region":"us-central","cc":"us","latitude":32.779167,"longitude":-96.80889,"reserved":0,"last_update":"0001-01-01T00:00:00Z","name_a2s":"Uncletopia | Dallas | 1 | All Maps","protocol":17,"map":"pl_borneo","folder":"tf","game":"Team Fortress","app_id":440,"player_count":23,"max_players":24,"Bots":0,"server_type":"Dedicated","server_os":"Linux","password":true,"vac":true,"version":"7882260","steam_id":85568392924469986,"keywords":["nocrits","nodmgspread","payload","uncletopia"],"game_id":440,"stv_port":27016,"stv_name":"Uncletopia | Dallas | 1 | All Maps | STV","players":[{"user_id":121,"name":"God","steam_id":76561198131089513,"connected_time":1729000000000,"state":"active","ping":73},{"user_id":127,"name":"APOTATO","steam_id":76561198118199858,"connected_time":722000000000,"state":"active","ping":62},{"user_id":122,"name":"mmmm","steam_id":76561198105374054,"connected_time":1728000000000,"state":"active","ping":92},{"user_id":128,"name":"Pheonix","steam_id":76561199470538309,"connected_time":664000000000,"state":"active","ping":105},{"user_id":129,"name":"Ramadan Steve","steam_id":76561198138568488,"connected_time":660000000000,"state":"active","ping":83},{"user_id":91,"name":"TheMysteryMan","steam_id":76561199229595389,"connected_time":4728000000000,"state":"active","ping":70},{"user_id":134,"name":"Queen Frau the Round","steam_id":76561197999942134,"connected_time":116000000000,"state":"active","ping":72},{"user_id":110,"name":"LtK","steam_id":76561197993180943,"connected_time":3102000000000,"state":"active","ping":36},{"user_id":116,"name":"bolainassr0","steam_id":76561199079078845,"connected_time":2288000000000,"state":"active","ping":90},{"user_id":117,"name":"Zetta","steam_id":76561198045710113,"connected_time":2170000000000,"state":"active","ping":84},{"user_id":130,"name":"NerpMC","steam_id":76561199380119436,"connected_time":655000000000,"state":"active","ping":107},{"user_id":131,"name":"Idk","steam_id":76561198971629959,"connected_time":645000000000,"state":"active","ping":135},{"user_id":24,"name":"Jimmy","steam_id":76561198857959855,"connected_time":9929000000000,"state":"active","ping":76},{"user_id":133,"name":"Chadapon Waffle$","steam_id":76561198280424107,"connected_time":580000000000,"state":"active","ping":87},{"user_id":113,"name":"Ambush","steam_id":76561199217844192,"connected_time":2611000000000,"state":"active","ping":756},{"user_id":63,"name":"Archsam","steam_id":76561198137828616,"connected_time":7573000000000,"state":"active","ping":170},{"user_id":132,"name":"heritage","steam_id":76561198108685037,"connected_time":644000000000,"state":"active","ping":69},{"user_id":83,"name":"Snickey","steam_id":76561198049469531,"connected_time":5971000000000,"state":"active","ping":104},{"user_id":112,"name":"Skyrim killable children mod","steam_id":76561198862836173,"connected_time":3039000000000,"state":"active","ping":114},{"user_id":125,"name":"agert","steam_id":76561199028751406,"connected_time":1665000000000,"state":"active","ping":115},{"user_id":123,"name":"Brochacho","steam_id":76561198302170749,"connected_time":1706000000000,"state":"active","ping":47},{"user_id":103,"name":"Eins","steam_id":76561199030343810,"connected_time":3681000000000,"state":"active","ping":65},{"user_id":105,"name":"feryae","steam_id":76561198072646165,"connected_time":3525000000000,"state":"active","ping":79}]},{"server_id":108,"name":"Uncletopia | Dallas | 2 | All Maps","name_short":"dal-2","host":"dal-1.us.uncletopia.com","port":27025,"enabled":true,"region":"us-central","cc":"us","latitude":32.779167,"longitude":-96.80889,"reserved":0,"last_update":"0001-01-01T00:00:00Z","name_a2s":"Uncletopia | Dallas | 2 | All Maps","protocol":17,"map":"pl_barnblitz","folder":"tf","game":"Team Fortress","app_id":440,"player_count":0,"max_players":24,"Bots":0,"server_type":"Dedicated","server_os":"Linux","password":true,"vac":true,"version":"7882260","steam_id":85568392924469988,"keywords":["nocrits","nodmgspread","payload","uncletopia"],"game_id":440,"stv_port":27026,"stv_name":"Uncletopia | Dallas | 2 | All Maps | STV","players":null},{"server_id":5,"name":"Uncletopia | Frankfurt | 1 | All Maps","name_short":"frk-1","host":"frk-1.de.uncletopia.com","port":27015,"enabled":true,"region":"eu","cc":"de","latitude":50.110924,"longitude":8.682127,"reserved":0,"last_update":"0001-01-01T00:00:00Z","name_a2s":"Uncletopia | Frankfurt | 1 | All Maps","protocol":17,"map":"cp_process_final","folder":"tf","game":"Team Fortress","app_id":440,"player_count":24,"max_players":24,"Bots":0,"server_type":"Dedicated","server_os":"Linux","password":true,"vac":true,"version":"7882260","steam_id":85568392924469989,"keywords":["cp","nocrits","nodmgspread","uncletopia"],"game_id":440,"stv_port":27016,"stv_name":"Uncletopia | Frankfurt | 1 | All Maps | STV","players":[{"user_id":103,"name":"The Wolf Leader","steam_id":76561198038007462,"connected_time":9299000000000,"state":"active","ping":61},{"user_id":224,"name":"3.1-tan","steam_id":76561199121690944,"connected_time":1258000000000,"state":"active","ping":67},{"user_id":215,"name":"glyph","steam_id":76561197980736364,"connected_time":1640000000000,"state":"active","ping":75},{"user_id":197,"name":"punchmypotatoes","steam_id":76561198091255731,"connected_time":3093000000000,"state":"active","ping":64},{"user_id":219,"name":"Mutsis","steam_id":76561199188905877,"connected_time":1420000000000,"state":"active","ping":79},{"user_id":195,"name":"-Boomer-","steam_id":76561197970798571,"connected_time":3337000000000,"state":"active","ping":73},{"user_id":216,"name":"Teaguy","steam_id":76561197990776598,"connected_time":1629000000000,"state":"active","ping":120},{"user_id":231,"name":"That Phlog mfer","steam_id":76561198050416948,"connected_time":227000000000,"state":"active","ping":55},{"user_id":207,"name":"Lopat","steam_id":76561198820264239,"connected_time":1831000000000,"state":"active","ping":78},{"user_id":226,"name":"united chunk","steam_id":76561199017850298,"connected_time":564000000000,"state":"active","ping":62},{"user_id":225,"name":"Tusho","steam_id":76561198115447383,"connected_time":736000000000,"state":"active","ping":87},{"user_id":222,"name":"JohnTraveltime","steam_id":76561199244281754,"connected_time":1387000000000,"state":"active","ping":66},{"user_id":214,"name":"Ennard777","steam_id":76561198965409493,"connected_time":1675000000000,"state":"active","ping":101},{"user_id":209,"name":"Kati","steam_id":76561198007231088,"connected_time":1789000000000,"state":"active","ping":59},{"user_id":201,"name":"Driver's drunkest God","steam_id":76561198969373800,"connected_time":2655000000000,"state":"active","ping":69},{"user_id":229,"name":"imboutablow","steam_id":76561198303701158,"connected_time":298000000000,"state":"active","ping":52},{"user_id":227,"name":"jona3838","steam_id":76561199097658195,"connected_time":560000000000,"state":"active","ping":104},{"user_id":233,"name":"Ecton","steam_id":76561198025103720,"connected_time":195000000000,"state":"active","ping":62},{"user_id":175,"name":"Doomsday","steam_id":76561198210559757,"connected_time":4191000000000,"state":"active","ping":77},{"user_id":232,"name":"Animatic","steam_id":76561198186421601,"connected_time":218000000000,"state":"active","ping":167},{"user_id":235,"name":"redcoat","steam_id":76561199017322894,"connected_time":69000000000,"state":"active","ping":72},{"user_id":230,"name":"dochris.2","steam_id":76561198026478625,"connected_time":234000000000,"state":"active","ping":45},{"user_id":223,"name":"no idea","steam_id":76561198242482338,"connected_time":1368000000000,"state":"active","ping":48},{"user_id":234,"name":"viddos","steam_id":76561198987190264,"connected_time":195000000000,"state":"active","ping":96}]},{"server_id":110,"name":"Uncletopia | Frankfurt | 2 | All Maps","name_short":"frk-2","host":"frk-1.de.uncletopia.com","port":27025,"enabled":true,"region":"eu","cc":"de","latitude":50.110924,"longitude":8.682127,"reserved":0,"last_update":"0001-01-01T00:00:00Z","name_a2s":"Uncletopia | Frankfurt | 2 | All Maps","protocol":17,"map":"pl_barnblitz","folder":"tf","game":"Team Fortress","app_id":440,"player_count":24,"max_players":24,"Bots":0,"server_type":"Dedicated","server_os":"Linux","password":true,"vac":true,"version":"7882260","steam_id":85568392924469990,"keywords":["nocrits","nodmgspread","payload","uncletopia"],"game_id":440,"stv_port":27026,"stv_name":"Uncletopia | Frankfurt | 2 | All Maps | STV","players":[{"user_id":333,"name":"Bricky Bob","steam_id":76561198048712030,"connected_time":259000000000,"state":"active","ping":79},{"user_id":258,"name":"fishska","steam_id":76561198051166015,"connected_time":6000000000000,"state":"active","ping":65},{"user_id":307,"name":"Ducks","steam_id":76561198145643655,"connected_time":2302000000000,"state":"active","ping":84},{"user_id":296,"name":"Corpus Christi","steam_id":76561198417999443,"connected_time":2636000000000,"state":"active","ping":102},{"user_id":335,"name":"Germanium_Ge","steam_id":76561198130561775,"connected_time":147000000000,"state":"active","ping":69},{"user_id":325,"name":"Dark Wizart","steam_id":76561198377689439,"connected_time":734000000000,"state":"active","ping":64},{"user_id":308,"name":"N0tzz","steam_id":76561198391025653,"connected_time":2278000000000,"state":"active","ping":82},{"user_id":336,"name":"Wolfy286","steam_id":76561198370364301,"connected_time":137000000000,"state":"active","ping":192},{"user_id":309,"name":"Prismoo","steam_id":76561198320524819,"connected_time":2240000000000,"state":"active","ping":55},{"user_id":334,"name":"pijuka*venomxhairs","steam_id":76561198083063005,"connected_time":202000000000,"state":"active","ping":53},{"user_id":323,"name":"Harre","steam_id":76561198354451604,"connected_time":1160000000000,"state":"active","ping":47},{"user_id":329,"name":"Buddy","steam_id":76561198050185582,"connected_time":450000000000,"state":"active","ping":69},{"user_id":338,"name":"Laylakikio","steam_id":76561198090146457,"connected_time":43000000000,"state":"active","ping":58},{"user_id":276,"name":"üå≠ Arentrir KING.LBJ.6","steam_id":76561198334126785,"connected_time":3779000000000,"state":"active","ping":77},{"user_id":322,"name":"Fr0sty","steam_id":76561198125024338,"connected_time":1209000000000,"state":"active","ping":72},{"user_id":314,"name":"miiq130","steam_id":76561198188010666,"connected_time":1794000000000,"state":"active","ping":84},{"user_id":317,"name":"bibib17","steam_id":76561198143319217,"connected_time":1545000000000,"state":"active","ping":75},{"user_id":318,"name":"Dabman","steam_id":76561199207417437,"connected_time":1530000000000,"state":"active","ping":109},{"user_id":326,"name":"spiningbirdkick","steam_id":76561199142721155,"connected_time":720000000000,"state":"active","ping":75},{"user_id":331,"name":"Rizziologist","steam_id":76561198089003514,"connected_time":373000000000,"state":"active","ping":51},{"user_id":306,"name":"Daenny","steam_id":76561198053088822,"connected_time":2398000000000,"state":"active","ping":53},{"user_id":327,"name":"radek","steam_id":76561197998883721,"connected_time":697000000000,"state":"active","ping":71},{"user_id":337,"name":"PingouinPoilu","steam_id":76561198025089253,"connected_time":93000000000,"state":"active","ping":70},{"user_id":321,"name":"AestheticalZ","steam_id":76561198269554197,"connected_time":1266000000000,"state":"active","ping":70}]},{"server_id":308,"name":"Uncletopia | Frankfurt | 3 | All Maps","name_short":"frk-3","host":"frk-1.de.uncletopia.com","port":27035,"enabled":true,"region":"eu","cc":"de","latitude":50.110924,"longitude":8.682127,"reserved":0,"last_update":"0001-01-01T00:00:00Z","name_a2s":"Uncletopia | Frankfurt | 3 | All Maps","protocol":17,"map":"pl_upward","folder":"tf","game":"Team Fortress","app_id":440,"player_count":24,"max_players":24,"Bots":0,"server_type":"Dedicated","server_os":"Linux","password":true,"vac":true,"version":"7882260","steam_id":85568392924504274,"keywords":["nocrits","nodmgspread","payload","uncletopia"],"game_id":440,"stv_port":27036,"stv_name":"Uncletopia | Frankfurt | 3 | All Maps | STV","players":[{"user_id":354,"name":"I am bad in TF2 (not bot)","steam_id":76561199214000895,"connected_time":320000000000,"state":"active","ping":131},{"user_id":343,"name":"Dommy","steam_id":76561197990864747,"connected_time":1023000000000,"state":"active","ping":53},{"user_id":357,"name":"Lyf√´","steam_id":76561197998372828,"connected_time":269000000000,"state":"active","ping":80},{"user_id":339,"name":"DiSASter147","steam_id":76561199386584536,"connected_time":1486000000000,"state":"active","ping":109},{"user_id":334,"name":"Your local defective","steam_id":76561198072950522,"connected_time":1550000000000,"state":"active","ping":73},{"user_id":350,"name":"AftiksPL","steam_id":76561198875182686,"connected_time":372000000000,"state":"active","ping":121},{"user_id":327,"name":"Ergas","steam_id":76561198860861032,"connected_time":2075000000000,"state":"active","ping":74},{"user_id":355,"name":"Doriian","steam_id":76561198071438810,"connected_time":294000000000,"state":"active","ping":78},{"user_id":307,"name":"no weed","steam_id":76561199024279010,"connected_time":3833000000000,"state":"active","ping":71},{"user_id":351,"name":"Salih","steam_id":76561198287934839,"connected_time":370000000000,"state":"active","ping":51},{"user_id":356,"name":"Glenn Quagmire","steam_id":76561199348527880,"connected_time":285000000000,"state":"active","ping":177},{"user_id":352,"name":"Yassine","steam_id":76561198140565712,"connected_time":342000000000,"state":"active","ping":59},{"user_id":346,"name":"RiX","steam_id":76561197969053733,"connected_time":930000000000,"state":"active","ping":59},{"user_id":363,"name":"mark of the outsider","steam_id":76561198309246388,"connected_time":79000000000,"state":"active","ping":45},{"user_id":361,"name":"copium addict","steam_id":76561199401665282,"connected_time":99000000000,"state":"active","ping":98},{"user_id":303,"name":"„Éï„Ç°„ÉÉ„Ç´„Éñ„É´„Éª„Éâ„É©„Ç¥","steam_id":76561198016649655,"connected_time":3927000000000,"state":"active","ping":93},{"user_id":335,"name":"[ESP] danipvp22 seek and onetap","steam_id":76561198978457114,"connected_time":1538000000000,"state":"active","ping":82},{"user_id":360,"name":"Joe","steam_id":76561197975480605,"connected_time":263000000000,"state":"active","ping":53},{"user_id":323,"name":"laza's boy","steam_id":76561199074095198,"connected_time":2688000000000,"state":"active","ping":128},{"user_id":337,"name":"KeepIT.OK?","steam_id":76561198957890584,"connected_time":1496000000000,"state":"active","ping":117},{"user_id":348,"name":"Utvar","steam_id":76561198131838460,"connected_time":893000000000,"state":"active","ping":64},{"user_id":340,"name":"Ë™∞„Åã„ÅåË¶ã„Å¶„ÅÑ„Çã","steam_id":76561198834913692,"connected_time":1455000000000,"state":"active","ping":74},{"user_id":364,"name":"le unfunny dog","steam_id":76561198415020571,"connected_time":77000000000,"state":"active","ping":75},{"user_id":359,"name":"Ryter","steam_id":76561198396279597,"connected_time":264000000000,"state":"active","ping":81}]},{"server_id":309,"name":"Uncletopia | Frankfurt | 4 | All Maps","name_short":"frk-4","host":"frk-1.de.uncletopia.com","port":27045,"enabled":true,"region":"eu","cc":"de","latitude":50.110924,"longitude":8.682127,"reserved":0,"last_update":"0001-01-01T00:00:00Z","name_a2s":"Uncletopia | Frankfurt | 4 | All Maps","protocol":17,"map":"koth_cascade","folder":"tf","game":"Team Fortress","app_id":440,"player_count":1,"max_players":24,"Bots":0,"server_type":"Dedicated","server_os":"Linux","password":true,"vac":true,"version":"7882260","steam_id":85568392924504275,"keywords":["cp","nocrits","nodmgspread","uncletopia"],"game_id":440,"stv_port":27046,"stv_name":"Uncletopia | Frankfurt | 4 | All Maps | STV","players":[{"user_id":23,"name":"Vaselineum","steam_id":76561199404585461,"connected_time":51000000000,"state":"active","ping":75}]},{"server_id":310,"name":"Uncletopia | Frankfurt | 5 | All Maps","name_short":"frk-5","host":"frk-1.de.uncletopia.com","port":27055,"enabled":true,"region":"eu","cc":"de","latitude":50.110924,"longitude":8.682127,"reserved":0,"last_update":"0001-01-01T00:00:00Z","name_a2s":"Uncletopia | Frankfurt | 5 | All Maps","protocol":17,"map":"cp_sunshine","folder":"tf","game":"Team Fortress","app_id":440,"player_count":6,"max_players":24,"Bots":0,"server_type":"Dedicated","server_os":"Linux","password":true,"vac":true,"version":"7882260","steam_id":85568392924504277,"keywords":["cp","nocrits","nodmgspread","uncletopia"],"game_id":440,"stv_port":27056,"stv_name":"Uncletopia | Frankfurt | 5 | All Maps | STV","players":[{"user_id":27,"name":"Brinier","steam_id":76561199012604288,"connected_time":25000000000,"state":"active","ping":51},{"user_id":22,"name":"LFGGGGGG","steam_id":76561199062586342,"connected_time":466000000000,"state":"active","ping":83},{"user_id":14,"name":"Microsoft PowerPoint","steam_id":76561198204290539,"connected_time":1266000000000,"state":"active","ping":72},{"user_id":17,"name":"buble with funny colors","steam_id":76561198314959808,"connected_time":841000000000,"state":"active","ping":96},{"user_id":20,"name":"Mr. Shadow | Folfie","steam_id":76561198037028507,"connected_time":628000000000,"state":"active","ping":49},{"user_id":23,"name":"The Grave Hunter","steam_id":76561198143586002,"connected_time":404000000000,"state":"active","ping":67}]},{"server_id":311,"name":"Uncletopia | Frankfurt | 6 | All Maps","name_short":"frk-6","host":"frk-1.de.uncletopia.com","port":27065,"enabled":true,"region":"eu","cc":"de","latitude":50.110924,"longitude":8.682127,"reserved":0,"last_update":"0001-01-01T00:00:00Z","name_a2s":"Uncletopia | Frankfurt | 6 | All Maps","protocol":17,"map":"pl_snowycoast","folder":"tf","game":"Team Fortress","app_id":440,"player_count":24,"max_players":24,"Bots":0,"server_type":"Dedicated","server_os":"Linux","password":true,"vac":true,"version":"7882260","steam_id":85568392924504278,"keywords":["nocrits","nodmgspread","payload","uncletopia"],"game_id":440,"stv_port":27066,"stv_name":"Uncletopia | Frankfurt | 6 | All Maps | STV","players":[{"user_id":309,"name":"Least sadistic healer main","steam_id":76561198114164702,"connected_time":1971000000000,"state":"active","ping":61},{"user_id":253,"name":"idc","steam_id":76561198322087870,"connected_time":5928000000000,"state":"active","ping":104},{"user_id":310,"name":"Juan.Razmirez 2009","steam_id":76561198111223729,"connected_time":1949000000000,"state":"active","ping":47},{"user_id":294,"name":"pummed","steam_id":76561198827108475,"connected_time":3247000000000,"state":"active","ping":80},{"user_id":283,"name":"mero","steam_id":76561198293147412,"connected_time":3526000000000,"state":"active","ping":95},{"user_id":290,"name":"TKN_Paps997","steam_id":76561198419868465,"connected_time":3339000000000,"state":"active","ping":79},{"user_id":281,"name":"Uber","steam_id":76561198036528206,"connected_time":3599000000000,"state":"active","ping":69},{"user_id":316,"name":"Old Beavis","steam_id":76561198065951617,"connected_time":1367000000000,"state":"active","ping":69},{"user_id":305,"name":"Cars","steam_id":76561198173329977,"connected_time":2188000000000,"state":"active","ping":64},{"user_id":224,"name":"Kiha","steam_id":76561198031408608,"connected_time":7752000000000,"state":"active","ping":62},{"user_id":271,"name":"lasagna ether","steam_id":76561198211967715,"connected_time":4476000000000,"state":"active","ping":93},{"user_id":312,"name":"the goon","steam_id":76561199024865713,"connected_time":1881000000000,"state":"active","ping":58},{"user_id":313,"name":"JUJU_PLAYZ_GAMEZ","steam_id":76561199194028604,"connected_time":1819000000000,"state":"active","ping":190},{"user_id":303,"name":"vurtun","steam_id":76561198857395274,"connected_time":2657000000000,"state":"active","ping":54},{"user_id":307,"name":"aolkdi","steam_id":76561198025479415,"connected_time":2064000000000,"state":"active","ping":129},{"user_id":327,"name":"GooseNeck","steam_id":76561198825795144,"connected_time":64000000000,"state":"active","ping":58},{"user_id":268,"name":"The Blue Engineer","steam_id":76561198397503718,"connected_time":4648000000000,"state":"active","ping":72},{"user_id":289,"name":"Wujek Cacek","steam_id":76561198010267943,"connected_time":3381000000000,"state":"active","ping":85},{"user_id":306,"name":"ijustsmokeandcry","steam_id":76561198044189114,"connected_time":2095000000000,"state":"active","ping":58},{"user_id":325,"name":"Oldworldjazz","steam_id":76561198184632645,"connected_time":168000000000,"state":"active","ping":101},{"user_id":270,"name":"omony","steam_id":76561197983750025,"connected_time":4597000000000,"state":"active","ping":87},{"user_id":322,"name":"CryshireWithAK","steam_id":76561198857908089,"connected_time":953000000000,"state":"active","ping":162},{"user_id":314,"name":"soofoul","steam_id":76561198285862099,"connected_time":1800000000000,"state":"active","ping":40},{"user_id":326,"name":"Matrix108","steam_id":76561198180382327,"connected_time":164000000000,"state":"active","ping":63}]},{"server_id":23,"name":"Uncletopia | Frankfurt | 7 | Stopwatch Beta","name_short":"frk-7","host":"frk-1.de.uncletopia.com","port":27075,"enabled":true,"region":"eu","cc":"de","latitude":50.110924,"longitude":8.682127,"reserved":0,"last_update":"0001-01-01T00:00:00Z","name_a2s":"Uncletopia | Frankfurt | 7 | Stopwatch Beta","protocol":17,"map":"pl_upward","folder":"tf","game":"Team Fortress","app_id":440,"player_count":0,"max_players":24,"Bots":0,"server_type":"Dedicated","server_os":"Linux","password":true,"vac":true,"version":"7882260","steam_id":85568392924742827,"keywords":["nocrits","nodmgspread","payload","uncletopia"],"game_id":440,"stv_port":27076,"stv_name":"Uncletopia | Frankfurt | 7 | Stopwatch Beta | STV","players":null},{"server_id":24,"name":"Uncletopia | Frankfurt | 8 | Community","name_short":"frk-8","host":"frk-1.de.uncletopia.com","port":27085,"enabled":true,"region":"eu","cc":"de","latitude":50.110924,"longitude":8.682127,"reserved":0,"last_update":"0001-01-01T00:00:00Z","name_a2s":"Uncletopia | Frankfurt | 8 | Community","protocol":17,"map":"workshop/koth_ramjam_rc1.ugc459778887","folder":"tf","game":"Team Fortress","app_id":440,"player_count":0,"max_players":24,"Bots":0,"server_type":"Dedicated","server_os":"Linux","password":true,"vac":true,"version":"7882260","steam_id":85568392924742828,"keywords":["cp","nocrits","nodmgspread","uncletopia"],"game_id":440,"stv_port":27086,"stv_name":"Uncletopia | Frankfurt | 8 | Community | STV","players":null},{"server_id":202,"name":"Uncletopia | Hong Kong | 1 | All Maps","name_short":"hgk-1","host":"hgk-1.hk.uncletopia.com","port":27015,"enabled":true,"region":"asia","cc":"hk","latitude":22.302711,"longitude":114.177216,"reserved":0,"last_update":"0001-01-01T00:00:00Z","name_a2s":"Uncletopia | Hong Kong | 1 | All Maps","protocol":17,"map":"pl_pier","folder":"tf","game":"Team Fortress","app_id":440,"player_count":24,"max_players":24,"Bots":0,"server_type":"Dedicated","server_os":"Linux","password":true,"vac":true,"version":"7882260","steam_id":85568392924494504,"keywords":["nocrits","nodmgspread","payload","uncletopia"],"game_id":440,"stv_port":27016,"stv_name":"Uncletopia | Hong Kong | 1 | All Maps | STV","players":[{"user_id":457,"name":"ÊàëÊòØÈ•≠Áî∞ÁöÑÂè£Ë¢ãÂåªÁîüQWQ","steam_id":76561199477709437,"connected_time":1173000000000,"state":"active","ping":140},{"user_id":442,"name":"Epicwindow+-","steam_id":76561198067219529,"connected_time":2099000000000,"state":"active","ping":50},{"user_id":434,"name":"Worst player ever","steam_id":76561199245124028,"connected_time":2580000000000,"state":"active","ping":122},{"user_id":382,"name":"ÊØç„ÅÆËÇâÂõ£Â≠ê@hao123.com","steam_id":76561198069561896,"connected_time":8658000000000,"state":"active","ping":40},{"user_id":426,"name":"Stupid B","steam_id":76561198131423270,"connected_time":3301000000000,"state":"active","ping":113},{"user_id":443,"name":"Seiko Shinohara.png","steam_id":76561198089493039,"connected_time":2041000000000,"state":"active","ping":143},{"user_id":420,"name":"Samoyed","steam_id":76561198299150410,"connected_time":4373000000000,"state":"active","ping":129},{"user_id":475,"name":"Marika","steam_id":76561198212649929,"connected_time":307000000000,"state":"active","ping":142},{"user_id":437,"name":"ouroboros","steam_id":76561198017851154,"connected_time":2426000000000,"state":"active","ping":95},{"user_id":448,"name":"screaming sniper","steam_id":76561199085568674,"connected_time":1677000000000,"state":"active","ping":69},{"user_id":450,"name":"cstr","steam_id":76561198125946388,"connected_time":1627000000000,"state":"active","ping":101},{"user_id":435,"name":"u/Plencers2","steam_id":76561198311052198,"connected_time":2536000000000,"state":"active","ping":87},{"user_id":473,"name":"joe","steam_id":76561198378829574,"connected_time":412000000000,"state":"active","ping":56},{"user_id":451,"name":"Othopeus","steam_id":76561198283534382,"connected_time":1591000000000,"state":"active","ping":70},{"user_id":468,"name":"ksvk","steam_id":76561198152588681,"connected_time":741000000000,"state":"active","ping":83},{"user_id":461,"name":"Kirinpon","steam_id":76561199020433535,"connected_time":959000000000,"state":"active","ping":101},{"user_id":469,"name":"Â∑¶ Ëæô","steam_id":76561198202460529,"connected_time":725000000000,"state":"active","ping":97},{"user_id":460,"name":"NOPE","steam_id":76561199244543572,"connected_time":1011000000000,"state":"active","ping":62},{"user_id":465,"name":"killman47","steam_id":76561198348487408,"connected_time":821000000000,"state":"active","ping":45},{"user_id":471,"name":"Grunade","steam_id":76561198115390545,"connected_time":702000000000,"state":"active","ping":146},{"user_id":391,"name":"Ïø†ÌÇ§","steam_id":76561197997220367,"connected_time":6938000000000,"state":"active","ping":57},{"user_id":474,"name":"domjni","steam_id":76561198287931508,"connected_time":386000000000,"state":"active","ping":63},{"user_id":463,"name":"_kobic","steam_id":76561199166938276,"connected_time":901000000000,"state":"active","ping":69},{"user_id":464,"name":"WhereAmai","steam_id":76561199122491157,"connected_time":898000000000,"state":"active","ping":127}]},{"server_id":1,"name":"Uncletopia | Los Angeles | 1 | All Maps","name_short":"lax-1","host":"lax-1.us.uncletopia.com","port":27015,"enabled":true,"region":"us-west","cc":"us","latitude":33.94279,"longitude":-118.41004,"reserved":0,"last_update":"0001-01-01T00:00:00Z","name_a2s":"Uncletopia | Los Angeles | 1 | All Maps","protocol":17,"map":"pl_pier","folder":"tf","game":"Team Fortress","app_id":440,"player_count":0,"max_players":24,"Bots":0,"server_type":"Dedicated","server_os":"Linux","password":true,"vac":true,"version":"7882260","steam_id":85568392924469991,"keywords":["nocrits","nodmgspread","payload","uncletopia"],"game_id":440,"stv_port":27016,"stv_name":"Uncletopia | Los Angeles | 1 | All Maps | STV","players":null},{"server_id":112,"name":"Uncletopia | Los Angeles | 2 | All Maps","name_short":"lax-2","host":"lax-1.us.uncletopia.com","port":27025,"enabled":true,"region":"us-west","cc":"us","latitude":33.94279,"longitude":-118.41004,"reserved":0,"last_update":"0001-01-01T00:00:00Z","name_a2s":"Uncletopia | Los Angeles | 2 | All Maps","protocol":17,"map":"pl_borneo","folder":"tf","game":"Team Fortress","app_id":440,"player_count":0,"max_players":24,"Bots":0,"server_type":"Dedicated","server_os":"Linux","password":true,"vac":true,"version":"7882260","steam_id":85568392924469992,"keywords":["nocrits","nodmgspread","payload","uncletopia"],"game_id":440,"stv_port":27026,"stv_name":"Uncletopia | Los Angeles | 2 | All Maps | STV","players":null},{"server_id":324,"name":"Uncletopia | Los Angeles | 3 | All Maps","name_short":"lax-3","host":"lax-1.us.uncletopia.com","port":27035,"enabled":true,"region":"us-west","cc":"us","latitude":33.94279,"longitude":-118.41004,"reserved":0,"last_update":"0001-01-01T00:00:00Z","name_a2s":"Uncletopia | Los Angeles | 3 | All Maps","protocol":17,"map":"cp_mountainlab","folder":"tf","game":"Team Fortress","app_id":440,"player_count":0,"max_players":24,"Bots":0,"server_type":"Dedicated","server_os":"Linux","password":true,"vac":true,"version":"7882260","steam_id":85568392924510198,"keywords":["cp","nocrits","nodmgspread","uncletopia"],"game_id":440,"stv_port":27036,"stv_name":"Uncletopia | Los Angeles | 3 | All Maps | STV","players":null},{"server_id":25,"name":"Uncletopia | Los Angeles | 4 | Stopwatch Beta","name_short":"lax-4","host":"lax-1.us.uncletopia.com","port":27045,"enabled":true,"region":"us-west","cc":"us","latitude":33.94279,"longitude":-118.41004,"reserved":0,"last_update":"0001-01-01T00:00:00Z","name_a2s":"Uncletopia | Los Angeles | 4 | Stopwatch Beta","protocol":17,"map":"cp_snakewater_final1","folder":"tf","game":"Team Fortress","app_id":440,"player_count":0,"max_players":24,"Bots":0,"server_type":"Dedicated","server_os":"Linux","password":true,"vac":true,"version":"7882260","steam_id":85568392924510199,"keywords":["cp","nocrits","nodmgspread","uncletopia"],"game_id":440,"stv_port":27046,"stv_name":"Uncletopia | Los Angeles | 4 | Stopwatch Beta | STV","players":null},{"server_id":11,"name":"Uncletopia | London | 1 | All Maps","name_short":"lon-1","host":"lon-1.uk.uncletopia.com","port":27015,"enabled":true,"region":"eu","cc":"gb","latitude":51.509865,"longitude":-0.118092,"reserved":0,"last_update":"0001-01-01T00:00:00Z","name_a2s":"Uncletopia | London | 1 | All Maps","protocol":17,"map":"pl_upward","folder":"tf","game":"Team Fortress","app_id":440,"player_count":24,"max_players":24,"Bots":0,"server_type":"Dedicated","server_os":"Linux","password":true,"vac":true,"version":"7882260","steam_id":85568392924367362,"keywords":["nocrits","nodmgspread","payload","uncletopia"],"game_id":440,"stv_port":27016,"stv_name":"Uncletopia | London | 1 | All Maps | STV","players":[{"user_id":376,"name":"Dr. Mike","steam_id":76561197991205793,"connected_time":6672000000000,"state":"active","ping":80},{"user_id":455,"name":"jge","steam_id":76561198123186387,"connected_time":933000000000,"state":"active","ping":60},{"user_id":470,"name":"Joji","steam_id":76561198126854747,"connected_time":149000000000,"state":"active","ping":115},{"user_id":464,"name":"Rachugh","steam_id":76561199235852578,"connected_time":364000000000,"state":"active","ping":175},{"user_id":440,"name":"Olvustin","steam_id":76561198272011453,"connected_time":1511000000000,"state":"active","ping":102},{"user_id":441,"name":"Dag!","steam_id":76561198030147941,"connected_time":1485000000000,"state":"active","ping":67},{"user_id":452,"name":"rex110","steam_id":76561198159631448,"connected_time":1379000000000,"state":"active","ping":77},{"user_id":459,"name":"Aroo","steam_id":76561198132601368,"connected_time":611000000000,"state":"active","ping":76},{"user_id":442,"name":"i am sneak","steam_id":76561199136308055,"connected_time":1478000000000,"state":"active","ping":53},{"user_id":443,"name":"Cool Wizard","steam_id":76561198290496014,"connected_time":1468000000000,"state":"active","ping":53},{"user_id":430,"name":"Hive","steam_id":76561199480966681,"connected_time":2534000000000,"state":"active","ping":71},{"user_id":435,"name":"Dr Ludwig","steam_id":76561198426522902,"connected_time":1752000000000,"state":"active","ping":55},{"user_id":445,"name":"Xydran","steam_id":76561198042397402,"connected_time":1458000000000,"state":"active","ping":71},{"user_id":446,"name":"Pinochet","steam_id":76561198194042394,"connected_time":1457000000000,"state":"active","ping":158},{"user_id":457,"name":"Smokio","steam_id":76561198069650580,"connected_time":885000000000,"state":"active","ping":76},{"user_id":448,"name":":)","steam_id":76561199268205212,"connected_time":1446000000000,"state":"active","ping":183},{"user_id":394,"name":"dnljns","steam_id":76561198085091752,"connected_time":5658000000000,"state":"active","ping":88},{"user_id":465,"name":"scott steiners strongest warrio","steam_id":76561198148888622,"connected_time":326000000000,"state":"active","ping":60},{"user_id":449,"name":"the_Qcumber","steam_id":76561199152515819,"connected_time":1440000000000,"state":"active","ping":79},{"user_id":450,"name":"Claw","steam_id":76561198060985181,"connected_time":1429000000000,"state":"active","ping":48},{"user_id":461,"name":"lactose father","steam_id":76561199408853457,"connected_time":381000000000,"state":"active","ping":93},{"user_id":396,"name":"Cafo","steam_id":76561198063795441,"connected_time":5211000000000,"state":"active","ping":71},{"user_id":462,"name":"Quiet Kid","steam_id":76561199134800446,"connected_time":376000000000,"state":"active","ping":106},{"user_id":467,"name":"elder ball forger","steam_id":76561199111976615,"connected_time":293000000000,"state":"active","ping":77}]},{"server_id":114,"name":"Uncletopia | London | 2 | All Maps","name_short":"lon-2","host":"lon-1.uk.uncletopia.com","port":27025,"enabled":true,"region":"eu","cc":"gb","latitude":51.509865,"longitude":-0.118092,"reserved":0,"last_update":"0001-01-01T00:00:00Z","name_a2s":"Uncletopia | London | 2 | All Maps","protocol":17,"map":"pl_upward","folder":"tf","game":"Team Fortress","app_id":440,"player_count":24,"max_players":24,"Bots":0,"server_type":"Dedicated","server_os":"Linux","password":true,"vac":true,"version":"7882260","steam_id":85568392924470941,"keywords":["nocrits","nodmgspread","payload","uncletopia"],"game_id":440,"stv_port":27026,"stv_name":"Uncletopia | London | 2 | All Maps | STV","players":[{"user_id":261,"name":"kevin wenstob","steam_id":76561197996149548,"connected_time":4987000000000,"state":"active","ping":45},{"user_id":309,"name":"(1)big poo","steam_id":76561198129157178,"connected_time":894000000000,"state":"active","ping":99},{"user_id":263,"name":"Mr_Pulse_","steam_id":76561198095001602,"connected_time":4607000000000,"state":"active","ping":105},{"user_id":292,"name":"hieronimus","steam_id":76561198085900150,"connected_time":2878000000000,"state":"active","ping":68},{"user_id":332,"name":"Drac","steam_id":76561198031636019,"connected_time":41000000000,"state":"active","ping":47},{"user_id":300,"name":"Scrumpy","steam_id":76561198149175302,"connected_time":1645000000000,"state":"active","ping":81},{"user_id":302,"name":"BORGETENNISCLUB","steam_id":76561198049343723,"connected_time":1594000000000,"state":"active","ping":47},{"user_id":307,"name":"ackermann","steam_id":76561199129801006,"connected_time":1388000000000,"state":"active","ping":51},{"user_id":324,"name":"I WANT BENTLEY I WANT MONEY","steam_id":76561198007575097,"connected_time":189000000000,"state":"active","ping":55},{"user_id":310,"name":"The.Real.Genesis","steam_id":76561198999652040,"connected_time":869000000000,"state":"active","ping":53},{"user_id":313,"name":"Gnarville","steam_id":76561198006373329,"connected_time":339000000000,"state":"active","ping":45},{"user_id":315,"name":"Tymoteusz stw√≥rca","steam_id":76561198132123506,"connected_time":324000000000,"state":"active","ping":83},{"user_id":296,"name":"Keittokapteeni","steam_id":76561198271579939,"connected_time":2336000000000,"state":"active","ping":75},{"user_id":299,"name":"mesŒª","steam_id":76561198324582918,"connected_time":1950000000000,"state":"active","ping":92},{"user_id":273,"name":"AproX","steam_id":76561198880652045,"connected_time":3746000000000,"state":"active","ping":84},{"user_id":286,"name":"Chef","steam_id":76561198392489772,"connected_time":3049000000000,"state":"active","ping":58},{"user_id":318,"name":"dog","steam_id":76561198063919822,"connected_time":266000000000,"state":"active","ping":35},{"user_id":333,"name":"Doggo225","steam_id":76561198166707002,"connected_time":24000000000,"state":"active","ping":26},{"user_id":265,"name":"Urfangonultasadana","steam_id":76561199389286151,"connected_time":4507000000000,"state":"active","ping":96},{"user_id":290,"name":"Mitrev","steam_id":76561198157124880,"connected_time":2944000000000,"state":"active","ping":70},{"user_id":311,"name":"kitsune miku","steam_id":76561198058432834,"connected_time":847000000000,"state":"active","ping":46},{"user_id":274,"name":"big poo","steam_id":76561199088284199,"connected_time":3628000000000,"state":"active","ping":70},{"user_id":319,"name":"Bounter","steam_id":76561198072614188,"connected_time":262000000000,"state":"active","ping":74},{"user_id":320,"name":"Toofy","steam_id":76561197989727907,"connected_time":253000000000,"state":"active","ping":38}]},{"server_id":320,"name":"Uncletopia | London | 3 | All Maps","name_short":"lon-3","host":"lon-1.uk.uncletopia.com","port":27035,"enabled":true,"region":"eu","cc":"gb","latitude":51.509865,"longitude":-0.118092,"reserved":0,"last_update":"0001-01-01T00:00:00Z","name_a2s":"Uncletopia | London | 3 | All Maps","protocol":17,"map":"pl_badwater","folder":"tf","game":"Team Fortress","app_id":440,"player_count":24,"max_players":24,"Bots":0,"server_type":"Dedicated","server_os":"Linux","password":true,"vac":true,"version":"7882260","steam_id":85568392924510192,"keywords":["nocrits","nodmgspread","payload","uncletopia"],"game_id":440,"stv_port":27036,"stv_name":"Uncletopia | London | 3 | All Maps | STV","players":[{"user_id":267,"name":"yeldad","steam_id":76561198447264153,"connected_time":314000000000,"state":"active","ping":116},{"user_id":264,"name":"midlpsyzl47","steam_id":76561199475972637,"connected_time":391000000000,"state":"active","ping":63},{"user_id":278,"name":"Mlanky","steam_id":76561198047796778,"connected_time":103000000000,"state":"active","ping":30},{"user_id":268,"name":"Concorde","steam_id":76561199141714627,"connected_time":301000000000,"state":"active","ping":70},{"user_id":269,"name":"GREEP","steam_id":76561199443547191,"connected_time":294000000000,"state":"active","ping":80},{"user_id":249,"name":"I Bleed Butter","steam_id":76561198130814770,"connected_time":1351000000000,"state":"active","ping":61},{"user_id":262,"name":"kornetov.vitalya","steam_id":76561199286034833,"connected_time":496000000000,"state":"active","ping":100},{"user_id":266,"name":"kul","steam_id":76561198065179630,"connected_time":383000000000,"state":"active","ping":55},{"user_id":246,"name":"‚òÅ Lou1smeister ‚òÅ","steam_id":76561198004032968,"connected_time":1451000000000,"state":"active","ping":62},{"user_id":258,"name":"XBOX Sturux","steam_id":76561198277644122,"connected_time":600000000000,"state":"active","ping":75},{"user_id":242,"name":"Kinnetic","steam_id":76561198161313074,"connected_time":1571000000000,"state":"active","ping":118},{"user_id":270,"name":"Gwishin","steam_id":76561198257158275,"connected_time":268000000000,"state":"active","ping":155},{"user_id":256,"name":"Aoshi","steam_id":76561198043868358,"connected_time":733000000000,"state":"active","ping":56},{"user_id":275,"name":"CrabboStabbo","steam_id":76561198105660937,"connected_time":155000000000,"state":"active","ping":51},{"user_id":227,"name":"combat collin","steam_id":76561198011450253,"connected_time":2051000000000,"state":"active","ping":47},{"user_id":228,"name":"...","steam_id":76561198969234594,"connected_time":2048000000000,"state":"active","ping":77},{"user_id":279,"name":"Captain Beefheart","steam_id":76561198031573426,"connected_time":102000000000,"state":"active","ping":72},{"user_id":276,"name":"s a i","steam_id":76561197970379754,"connected_time":142000000000,"state":"active","ping":66},{"user_id":234,"name":"Insert Text","steam_id":76561199012348370,"connected_time":1954000000000,"state":"active","ping":116},{"user_id":273,"name":"Krabs","steam_id":76561198161679477,"connected_time":208000000000,"state":"active","ping":61},{"user_id":236,"name":"ProbablyOofboi","steam_id":76561199185477421,"connected_time":1913000000000,"state":"active","ping":45},{"user_id":277,"name":"legalize nuclear bombs","steam_id":76561199481897267,"connected_time":141000000000,"state":"active","ping":51},{"user_id":274,"name":"Gubbly Bubbins","steam_id":76561198101451654,"connected_time":202000000000,"state":"active","ping":45},{"user_id":261,"name":"Yuval","steam_id":76561198241802390,"connected_time":567000000000,"state":"active","ping":111}]},{"server_id":321,"name":"Uncletopia | London | 4 | All Maps","name_short":"lon-4","host":"lon-1.uk.uncletopia.com","port":27045,"enabled":true,"region":"eu","cc":"gb","latitude":51.509865,"longitude":-0.118092,"reserved":0,"last_update":"0001-01-01T00:00:00Z","name_a2s":"Uncletopia | London | 4 | All Maps","protocol":17,"map":"koth_viaduct","folder":"tf","game":"Team Fortress","app_id":440,"player_count":0,"max_players":24,"Bots":0,"server_type":"Dedicated","server_os":"Linux","password":true,"vac":true,"version":"7882260","steam_id":85568392924510193,"keywords":["cp","nocrits","nodmgspread","uncletopia"],"game_id":440,"stv_port":27046,"stv_name":"Uncletopia | London | 4 | All Maps | STV","players":null},{"server_id":21,"name":"Uncletopia | London | 5 | All Maps","name_short":"lon-5","host":"lon-1.uk.uncletopia.com","port":27055,"enabled":true,"region":"eu","cc":"gb","latitude":51.509865,"longitude":-0.118092,"reserved":0,"last_update":"0001-01-01T00:00:00Z","name_a2s":"Uncletopia | London | 5 | All Maps","protocol":17,"map":"pl_frontier_final","folder":"tf","game":"Team Fortress","app_id":440,"player_count":0,"max_players":24,"Bots":0,"server_type":"Dedicated","server_os":"Linux","password":true,"vac":true,"version":"7882260","steam_id":85568392924742829,"keywords":["nocrits","nodmgspread","payload","uncletopia"],"game_id":440,"stv_port":27056,"stv_name":"Uncletopia | London | 5 | All Maps | STV","players":null},{"server_id":22,"name":"Uncletopia | London | 6 | All Maps","name_short":"lon-6","host":"lon-1.uk.uncletopia.com","port":27065,"enabled":true,"region":"eu","cc":"gb","latitude":51.509865,"longitude":-0.118092,"reserved":0,"last_update":"0001-01-01T00:00:00Z","name_a2s":"Uncletopia | London | 6 | All Maps","protocol":17,"map":"koth_lakeside_final","folder":"tf","game":"Team Fortress","app_id":440,"player_count":21,"max_players":24,"Bots":0,"server_type":"Dedicated","server_os":"Linux","password":true,"vac":true,"version":"7882260","steam_id":85568392924742830,"keywords":["cp","nocrits","nodmgspread","uncletopia"],"game_id":440,"stv_port":27066,"stv_name":"Uncletopia | London | 6 | All Maps | STV","players":[{"user_id":147,"name":"TheJudgeShot","steam_id":76561198105060723,"connected_time":80000000000,"state":"active","ping":55},{"user_id":148,"name":"Hong","steam_id":76561198317684125,"connected_time":73000000000,"state":"active","ping":208},{"user_id":149,"name":"penis gaming","steam_id":76561199198623988,"connected_time":60000000000,"state":"active","ping":58},{"user_id":135,"name":"Enigmus","steam_id":76561197994063627,"connected_time":721000000000,"state":"active","ping":76},{"user_id":86,"name":"gimmick","steam_id":76561198930670117,"connected_time":3604000000000,"state":"active","ping":39},{"user_id":109,"name":"Wilddagz","steam_id":76561199112468265,"connected_time":2191000000000,"state":"active","ping":60},{"user_id":85,"name":"Bulyto","steam_id":76561198043205202,"connected_time":3679000000000,"state":"active","ping":75},{"user_id":150,"name":"lucky_","steam_id":76561199055288561,"connected_time":56000000000,"state":"active","ping":69},{"user_id":151,"name":"aphextwinsucks","steam_id":76561198132185926,"connected_time":35000000000,"state":"active","ping":64},{"user_id":129,"name":"mushroom juise","steam_id":76561199177490166,"connected_time":1054000000000,"state":"active","ping":44},{"user_id":152,"name":"Snake-chan","steam_id":76561199044755854,"connected_time":21000000000,"state":"spawning","ping":76},{"user_id":110,"name":"La-Li-Lu-Le-Lo","steam_id":76561198047990600,"connected_time":2143000000000,"state":"active","ping":50},{"user_id":153,"name":"cream gravy","steam_id":76561198973069177,"connected_time":4000000000,"state":"spawning","ping":45},{"user_id":99,"name":"vadim_kotler","steam_id":76561199016634369,"connected_time":2683000000000,"state":"active","ping":116},{"user_id":154,"name":"The Shotgun","steam_id":76561198044008976,"connected_time":3000000000,"state":"spawning","ping":56},{"user_id":101,"name":"Synth","steam_id":76561198155450360,"connected_time":2653000000000,"state":"active","ping":42},{"user_id":145,"name":"dishsoap","steam_id":76561198849284832,"connected_time":219000000000,"state":"active","ping":55},{"user_id":137,"name":"il","steam_id":76561198122662610,"connected_time":713000000000,"state":"active","ping":92},{"user_id":115,"name":"robotiq","steam_id":76561198084218622,"connected_time":1868000000000,"state":"active","ping":150},{"user_id":146,"name":"Master_Spy7","steam_id":76561199227361132,"connected_time":217000000000,"state":"active","ping":141},{"user_id":81,"name":"≈†varcas","steam_id":76561198841646694,"connected_time":4355000000000,"state":"active","ping":74}]},{"server_id":40,"name":"Uncletopia | London | 7 | No Payload","name_short":"lon-7","host":"lon-1.uk.uncletopia.com","port":27075,"enabled":true,"region":"eu","cc":"gb","latitude":51.509865,"longitude":-0.118092,"reserved":0,"last_update":"0001-01-01T00:00:00Z","name_a2s":"Uncletopia | London | 7 | No Payload","protocol":17,"map":"plr_pipeline","folder":"tf","game":"Team Fortress","app_id":440,"player_count":24,"max_players":24,"Bots":0,"server_type":"Dedicated","server_os":"Linux","password":true,"vac":true,"version":"7882260","steam_id":85568392924964314,"keywords":["nocrits","nodmgspread","payload","uncletopia"],"game_id":440,"stv_port":27076,"stv_name":"Uncletopia | London | 7 | No Payload | STV","players":[{"user_id":422,"name":"PerskuleBenener","steam_id":76561198156899375,"connected_time":220000000000,"state":"active","ping":90},{"user_id":381,"name":"Tin","steam_id":76561198022201818,"connected_time":3360000000000,"state":"active","ping":46},{"user_id":403,"name":"my teammates are why i lose","steam_id":76561198306393090,"connected_time":1897000000000,"state":"active","ping":117},{"user_id":395,"name":"Cirox","steam_id":76561198383142404,"connected_time":2625000000000,"state":"active","ping":91},{"user_id":412,"name":"sumsmithy","steam_id":76561198209417741,"connected_time":1108000000000,"state":"active","ping":48},{"user_id":397,"name":"Krefa12","steam_id":76561198268375393,"connected_time":2375000000000,"state":"active","ping":111},{"user_id":406,"name":"I'm playing on controler","steam_id":76561199064956467,"connected_time":1385000000000,"state":"active","ping":99},{"user_id":375,"name":"hmscole09","steam_id":76561198811362788,"connected_time":3588000000000,"state":"active","ping":56},{"user_id":425,"name":"Skatnaset","steam_id":76561198298457353,"connected_time":15000000000,"state":"active","ping":78},{"user_id":244,"name":"Sham!","steam_id":76561198050434275,"connected_time":11503000000000,"state":"active","ping":58},{"user_id":407,"name":"Mon pote est un femboy","steam_id":76561198173218318,"connected_time":1342000000000,"state":"active","ping":48},{"user_id":418,"name":"orphan smeller","steam_id":76561198107876224,"connected_time":463000000000,"state":"active","ping":48},{"user_id":419,"name":"your favourite earthling","steam_id":76561198334042273,"connected_time":455000000000,"state":"active","ping":53},{"user_id":423,"name":"mio bomba","steam_id":76561198217364720,"connected_time":93000000000,"state":"active","ping":57},{"user_id":424,"name":"Team Fortress","steam_id":76561198058722801,"connected_time":51000000000,"state":"active","ping":49},{"user_id":387,"name":"spykerhyk","steam_id":76561198051161355,"connected_time":3120000000000,"state":"active","ping":47},{"user_id":420,"name":"Rook","steam_id":76561197995204779,"connected_time":444000000000,"state":"active","ping":43},{"user_id":391,"name":"InsectKing","steam_id":76561199013519071,"connected_time":2946000000000,"state":"active","ping":42},{"user_id":393,"name":"Na'vi Misato (by popular demand","steam_id":76561198130860698,"connected_time":2753000000000,"state":"active","ping":60},{"user_id":413,"name":"Zizman","steam_id":76561198446562910,"connected_time":974000000000,"state":"active","ping":145},{"user_id":411,"name":"FUKAYU","steam_id":76561198380484033,"connected_time":1162000000000,"state":"active","ping":53},{"user_id":343,"name":"—Ç–æ–ª—è","steam_id":76561199098518615,"connected_time":5830000000000,"state":"active","ping":85},{"user_id":415,"name":"DarthPaul8181","steam_id":76561198373050455,"connected_time":809000000000,"state":"active","ping":45},{"user_id":421,"name":"Nice One #SAVETF2","steam_id":76561197967904760,"connected_time":357000000000,"state":"active","ping":57}]},{"server_id":41,"name":"Uncletopia | London | 8 | Community","name_short":"lon-8","host":"lon-1.uk.uncletopia.com","port":27085,"enabled":true,"region":"eu","cc":"gb","latitude":51.509865,"longitude":-0.118092,"reserved":0,"last_update":"0001-01-01T00:00:00Z","name_a2s":"Uncletopia | London | 8 | Community","protocol":17,"map":"workshop/pl_boundary_final1.ugc456799153","folder":"tf","game":"Team Fortress","app_id":440,"player_count":23,"max_players":24,"Bots":0,"server_type":"Dedicated","server_os":"Linux","password":true,"vac":true,"version":"7882260","steam_id":85568392924964315,"keywords":["nocrits","nodmgspread","payload","uncletopia"],"game_id":440,"stv_port":27086,"stv_name":"Uncletopia | London | 8 | Community | STV","players":[{"user_id":80,"name":"koray","steam_id":76561198260506514,"connected_time":5207000000000,"state":"active","ping":45},{"user_id":143,"name":"Egor Pomidor","steam_id":76561199175688390,"connected_time":1634000000000,"state":"active","ping":81},{"user_id":81,"name":"Rif","steam_id":76561199137875390,"connected_time":5136000000000,"state":"active","ping":55},{"user_id":119,"name":"Simoh The Swoob","steam_id":76561198058078322,"connected_time":2654000000000,"state":"active","ping":88},{"user_id":162,"name":"Tryde","steam_id":76561198966747636,"connected_time":833000000000,"state":"active","ping":155},{"user_id":168,"name":"askulap","steam_id":76561197992018795,"connected_time":411000000000,"state":"active","ping":88},{"user_id":141,"name":"Mantra","steam_id":76561198058505094,"connected_time":1758000000000,"state":"active","ping":97},{"user_id":152,"name":"joshuaspringer66","steam_id":76561198372454421,"connected_time":1218000000000,"state":"active","ping":155},{"user_id":163,"name":"night.s","steam_id":76561198326287823,"connected_time":757000000000,"state":"active","ping":83},{"user_id":134,"name":"D0kai","steam_id":76561198389271720,"connected_time":2086000000000,"state":"active","ping":50},{"user_id":120,"name":"Miku","steam_id":76561198041717890,"connected_time":2637000000000,"state":"active","ping":90},{"user_id":100,"name":"volkiano","steam_id":76561198319802031,"connected_time":3857000000000,"state":"active","ping":46},{"user_id":150,"name":"Rafasi","steam_id":76561198292781501,"connected_time":1348000000000,"state":"active","ping":78},{"user_id":155,"name":"MILKY","steam_id":76561199261620682,"connected_time":1141000000000,"state":"active","ping":63},{"user_id":149,"name":"GTOTwinTurbo","steam_id":76561199388192411,"connected_time":1409000000000,"state":"active","ping":59},{"user_id":142,"name":"John Noob","steam_id":76561197999170026,"connected_time":1726000000000,"state":"active","ping":82},{"user_id":160,"name":"Werakzz","steam_id":76561199043947806,"connected_time":863000000000,"state":"active","ping":56},{"user_id":161,"name":"slafflow","steam_id":76561199381012350,"connected_time":860000000000,"state":"active","ping":183},{"user_id":176,"name":"dragoon","steam_id":76561198241320498,"connected_time":55000000000,"state":"active","ping":57},{"user_id":157,"name":"Jibus","steam_id":76561198043840560,"connected_time":1086000000000,"state":"active","ping":48},{"user_id":165,"name":"ifre3","steam_id":76561198052545817,"connected_time":544000000000,"state":"active","ping":128},{"user_id":177,"name":"pablo ungayest","steam_id":76561198869709721,"connected_time":9000000000,"state":"spawning","ping":116}]},{"server_id":300,"name":"Uncletopia | Montr√©al | 1 | All Maps","name_short":"mtl-1","host":"mtl-1.ca.uncletopia.com","port":27015,"enabled":true,"region":"us-east","cc":"ca","latitude":45.50889,"longitude":-73.56167,"reserved":0,"last_update":"0001-01-01T00:00:00Z","name_a2s":"Uncletopia | Montr√©al | 1 | All Maps","protocol":17,"map":"pl_snowycoast","folder":"tf","game":"Team Fortress","app_id":440,"player_count":0,"max_players":24,"Bots":0,"server_type":"Dedicated","server_os":"Linux","password":true,"vac":true,"version":"7882260","steam_id":85568392924500087,"keywords":["nocrits","nodmgspread","payload","uncletopia"],"game_id":440,"stv_port":27016,"stv_name":"Uncletopia | Montr√©al | 1 | All Maps | STV","players":null},{"server_id":301,"name":"Uncletopia | Montr√©al | 2 | All Maps","name_short":"mtl-2","host":"mtl-1.ca.uncletopia.com","port":27025,"enabled":true,"region":"us-east","cc":"ca","latitude":45.50889,"longitude":-73.56167,"reserved":0,"last_update":"0001-01-01T00:00:00Z","name_a2s":"Uncletopia | Montr√©al | 2 | All Maps","protocol":17,"map":"pl_frontier_final","folder":"tf","game":"Team Fortress","app_id":440,"player_count":0,"max_players":24,"Bots":0,"server_type":"Dedicated","server_os":"Linux","password":true,"vac":true,"version":"7882260","steam_id":85568392924500088,"keywords":["nocrits","nodmgspread","payload","uncletopia"],"game_id":440,"stv_port":27026,"stv_name":"Uncletopia | Montr√©al | 2 | All Maps | STV","players":null},{"server_id":302,"name":"Uncletopia | Montr√©al | 3 | All Maps","name_short":"mtl-3","host":"mtl-1.ca.uncletopia.com","port":27035,"enabled":true,"region":"us-east","cc":"ca","latitude":45.50889,"longitude":-73.56167,"reserved":0,"last_update":"0001-01-01T00:00:00Z","name_a2s":"Uncletopia | Montr√©al | 3 | All Maps","protocol":17,"map":"pl_borneo","folder":"tf","game":"Team Fortress","app_id":440,"player_count":0,"max_players":24,"Bots":0,"server_type":"Dedicated","server_os":"Linux","password":true,"vac":true,"version":"7882260","steam_id":85568392924500089,"keywords":["nocrits","nodmgspread","payload","uncletopia"],"game_id":440,"stv_port":27036,"stv_name":"Uncletopia | Montr√©al | 3 | All Maps | STV","players":null},{"server_id":303,"name":"Uncletopia | Montr√©al | 4 | No Payload","name_short":"mtl-4","host":"mtl-1.ca.uncletopia.com","port":27045,"enabled":true,"region":"us-east","cc":"ca","latitude":45.50889,"longitude":-73.56167,"reserved":0,"last_update":"0001-01-01T00:00:00Z","name_a2s":"Uncletopia | Montr√©al | 4 | No Payload","protocol":17,"map":"cp_altitude","folder":"tf","game":"Team Fortress","app_id":440,"player_count":0,"max_players":24,"Bots":0,"server_type":"Dedicated","server_os":"Linux","password":true,"vac":true,"version":"7882260","steam_id":85568392924500090,"keywords":["cp","nocrits","nodmgspread","uncletopia"],"game_id":440,"stv_port":27046,"stv_name":"Uncletopia | Montr√©al | 4 | No Payload | STV","players":null},{"server_id":13,"name":"Uncletopia | New York City | 1 | All Maps","name_short":"nyc-1","host":"nyc-1.us.uncletopia.com","port":27015,"enabled":true,"region":"us-east","cc":"us","latitude":40.73061,"longitude":-73.93524,"reserved":0,"last_update":"0001-01-01T00:00:00Z","name_a2s":"Uncletopia | New York City | 1 | All Maps","protocol":17,"map":"cp_process_final","folder":"tf","game":"Team Fortress","app_id":440,"player_count":0,"max_players":24,"Bots":0,"server_type":"Dedicated","server_os":"Linux","password":true,"vac":true,"version":"7882260","steam_id":85568392924469993,"keywords":["cp","nocrits","nodmgspread","uncletopia"],"game_id":440,"stv_port":27016,"stv_name":"Uncletopia | New York City | 1 | All Maps | STV","players":null},{"server_id":14,"name":"Uncletopia | New York City | 2 | All Maps","name_short":"nyc-2","host":"nyc-1.us.uncletopia.com","port":27025,"enabled":true,"region":"us-east","cc":"us","latitude":40.73061,"longitude":-73.93524,"reserved":0,"last_update":"0001-01-01T00:00:00Z","name_a2s":"Uncletopia | New York City | 2 | All Maps","protocol":17,"map":"pl_badwater","folder":"tf","game":"Team Fortress","app_id":440,"player_count":24,"max_players":24,"Bots":0,"server_type":"Dedicated","server_os":"Linux","password":true,"vac":true,"version":"7882260","steam_id":85568392924469994,"keywords":["nocrits","nodmgspread","payload","uncletopia"],"game_id":440,"stv_port":27026,"stv_name":"Uncletopia | New York City | 2 | All Maps | STV","players":[{"user_id":80,"name":"BallofBandages","steam_id":76561198089817918,"connected_time":319000000000,"state":"active","ping":59},{"user_id":62,"name":"Mopwater","steam_id":76561198113607272,"connected_time":2370000000000,"state":"active","ping":67},{"user_id":5,"name":"Gaskranx","steam_id":76561198020269547,"connected_time":5997000000000,"state":"active","ping":56},{"user_id":69,"name":"Rex Vermis","steam_id":76561198182049667,"connected_time":1841000000000,"state":"active","ping":69},{"user_id":11,"name":"glue sniffer","steam_id":76561198044689778,"connected_time":5231000000000,"state":"active","ping":45},{"user_id":72,"name":"pest","steam_id":76561198052571208,"connected_time":1536000000000,"state":"active","ping":48},{"user_id":71,"name":"Ian","steam_id":76561199078852180,"connected_time":1559000000000,"state":"active","ping":57},{"user_id":58,"name":"THE WALL","steam_id":76561199084320480,"connected_time":2521000000000,"state":"active","ping":43},{"user_id":35,"name":"abed","steam_id":76561198072856511,"connected_time":4025000000000,"state":"active","ping":75},{"user_id":23,"name":"BarrowBaron","steam_id":76561198013633236,"connected_time":4521000000000,"state":"active","ping":78},{"user_id":87,"name":"Viokik","steam_id":76561198408846602,"connected_time":76000000000,"state":"active","ping":49},{"user_id":81,"name":"Grumpy","steam_id":76561198039465859,"connected_time":316000000000,"state":"active","ping":48},{"user_id":28,"name":"meat glasses","steam_id":76561198046742645,"connected_time":4378000000000,"state":"active","ping":60},{"user_id":51,"name":"Likeia #Savetf2","steam_id":76561198005214207,"connected_time":3114000000000,"state":"active","ping":60},{"user_id":82,"name":"‚â°UGT‚â° Mr Furley","steam_id":76561198005590158,"connected_time":294000000000,"state":"active","ping":125},{"user_id":37,"name":"a baby","steam_id":76561198008662184,"connected_time":3943000000000,"state":"active","ping":67},{"user_id":83,"name":"jema","steam_id":76561198276513608,"connected_time":230000000000,"state":"active","ping":154},{"user_id":65,"name":"maximum wage earner","steam_id":76561198070380404,"connected_time":2325000000000,"state":"active","ping":45},{"user_id":84,"name":"M16A1Sauce","steam_id":76561199058049384,"connected_time":163000000000,"state":"active","ping":60},{"user_id":85,"name":"he suckin on my rick til i mort","steam_id":76561198310711692,"connected_time":159000000000,"state":"active","ping":157},{"user_id":57,"name":"itsfy_","steam_id":76561199225800917,"connected_time":2531000000000,"state":"active","ping":88},{"user_id":67,"name":"Draco6257","steam_id":76561199147322448,"connected_time":2139000000000,"state":"active","ping":28},{"user_id":86,"name":"blobb","steam_id":76561198950448488,"connected_time":128000000000,"state":"active","ping":71},{"user_id":70,"name":"wowisthatleo","steam_id":76561199020860911,"connected_time":1629000000000,"state":"active","ping":161}]},{"server_id":15,"name":"Uncletopia | New York City | 3 | Stopwatch Beta","name_short":"nyc-3","host":"nyc-1.us.uncletopia.com","port":27035,"enabled":true,"region":"us-east","cc":"us","latitude":40.73061,"longitude":-73.93524,"reserved":0,"last_update":"0001-01-01T00:00:00Z","name_a2s":"Uncletopia | New York City | 3 | Stopwatch Beta","protocol":17,"map":"koth_lakeside_final","folder":"tf","game":"Team Fortress","app_id":440,"player_count":0,"max_players":24,"Bots":0,"server_type":"Dedicated","server_os":"Linux","password":true,"vac":true,"version":"7882260","steam_id":85568392924742820,"keywords":["cp","nocrits","nodmgspread","uncletopia"],"game_id":440,"stv_port":27036,"stv_name":"Uncletopia | New York City | 3 | Stopwatch Beta | STV","players":null},{"server_id":16,"name":"Uncletopia | New York City | 4 | Community","name_short":"nyc-4","host":"nyc-1.us.uncletopia.com","port":27045,"enabled":true,"region":"us-east","cc":"us","latitude":40.73061,"longitude":-73.93524,"reserved":0,"last_update":"0001-01-01T00:00:00Z","name_a2s":"Uncletopia | New York City | 4 | Community","protocol":17,"map":"pl_badwater","folder":"tf","game":"Team Fortress","app_id":440,"player_count":0,"max_players":24,"Bots":0,"server_type":"Dedicated","server_os":"Linux","password":true,"vac":true,"version":"7882260","steam_id":85568392924742821,"keywords":["nocrits","nodmgspread","payload","uncletopia"],"game_id":440,"stv_port":27046,"stv_name":"Uncletopia | New York City | 4 | Community | STV","players":null},{"server_id":142,"name":"Uncletopia | S√£o Paulo | 1 | All Maps","name_short":"sao-1","host":"sao-1.br.uncletopia.com","port":27015,"enabled":true,"region":"sa","cc":"br","latitude":-23.533773,"longitude":-46.62529,"reserved":0,"last_update":"0001-01-01T00:00:00Z","name_a2s":"Uncletopia | S√£o Paulo | 1 | All Maps","protocol":17,"map":"pl_upward","folder":"tf","game":"Team Fortress","app_id":440,"player_count":0,"max_players":24,"Bots":0,"server_type":"Dedicated","server_os":"Linux","password":true,"vac":true,"version":"7882260","steam_id":85568392924469996,"keywords":["nocrits","nodmgspread","payload","uncletopia"],"game_id":440,"stv_port":27016,"stv_name":"Uncletopia | S√£o Paulo | 1 | All Maps | STV","players":null},{"server_id":143,"name":"Uncletopia | S√£o Paulo | 2 | All Maps","name_short":"sao-2","host":"sao-2.br.uncletopia.com","port":27015,"enabled":true,"region":"sa","cc":"br","latitude":-23.533773,"longitude":-46.62529,"reserved":0,"last_update":"0001-01-01T00:00:00Z","name_a2s":"Uncletopia | S√£o Paulo | 2 | All Maps","protocol":17,"map":"pl_borneo","folder":"tf","game":"Team Fortress","app_id":440,"player_count":0,"max_players":24,"Bots":0,"server_type":"Dedicated","server_os":"Linux","password":true,"vac":true,"version":"7882260","steam_id":85568392924485349,"keywords":["nocrits","nodmgspread","payload","uncletopia"],"game_id":440,"stv_port":27016,"stv_name":"Uncletopia | S√£o Paulo | 2 | All Maps | STV","players":null},{"server_id":7,"name":"Uncletopia | Seattle | 1 | All Maps","name_short":"sea-1","host":"sea-1.us.uncletopia.com","port":27015,"enabled":true,"region":"us-west","cc":"us","latitude":47.608013,"longitude":-122.33517,"reserved":0,"last_update":"0001-01-01T00:00:00Z","name_a2s":"Uncletopia | Seattle | 1 | All Maps","protocol":17,"map":"cp_sunshine","folder":"tf","game":"Team Fortress","app_id":440,"player_count":21,"max_players":24,"Bots":0,"server_type":"Dedicated","server_os":"Linux","password":true,"vac":true,"version":"7882260","steam_id":85568392924469997,"keywords":["cp","nocrits","nodmgspread","uncletopia"],"game_id":440,"stv_port":27016,"stv_name":"Uncletopia | Seattle | 1 | All Maps | STV","players":[{"user_id":83,"name":"Putin","steam_id":76561198973925241,"connected_time":720000000000,"state":"active","ping":53},{"user_id":82,"name":"Yosh","steam_id":76561198027078899,"connected_time":1081000000000,"state":"active","ping":80},{"user_id":86,"name":"TheCowledWiz","steam_id":76561198016735868,"connected_time":267000000000,"state":"active","ping":45},{"user_id":81,"name":"Dice_Dwarf","steam_id":76561199020454907,"connected_time":1237000000000,"state":"active","ping":34},{"user_id":9,"name":"stockhack","steam_id":76561198050220225,"connected_time":5477000000000,"state":"active","ping":110},{"user_id":76,"name":"[TC] Lag","steam_id":76561198983494186,"connected_time":2026000000000,"state":"active","ping":120},{"user_id":84,"name":"mrblub","steam_id":76561198194558786,"connected_time":584000000000,"state":"active","ping":127},{"user_id":47,"name":"Gingoguy","steam_id":76561198088931297,"connected_time":4133000000000,"state":"active","ping":108},{"user_id":48,"name":"lil uzi vert","steam_id":76561198326466375,"connected_time":4036000000000,"state":"active","ping":87},{"user_id":87,"name":"match1stick","steam_id":76561199103743083,"connected_time":249000000000,"state":"active","ping":56},{"user_id":65,"name":"Sunshine","steam_id":76561198885528098,"connected_time":2945000000000,"state":"active","ping":120},{"user_id":92,"name":"Cryonics","steam_id":76561198314197911,"connected_time":147000000000,"state":"active","ping":101},{"user_id":93,"name":"Earl","steam_id":76561198970803382,"connected_time":133000000000,"state":"active","ping":84},{"user_id":61,"name":"HAIL SATAN","steam_id":76561198085906239,"connected_time":3237000000000,"state":"active","ping":111},{"user_id":75,"name":"HaphazardHazel","steam_id":76561198316812693,"connected_time":2435000000000,"state":"active","ping":131},{"user_id":26,"name":"Monarch of Glass","steam_id":76561198165638237,"connected_time":5162000000000,"state":"active","ping":42},{"user_id":80,"name":"Burrbank","steam_id":76561198042888060,"connected_time":1290000000000,"state":"active","ping":136},{"user_id":71,"name":"Driving Cat Orange (can drive)","steam_id":76561199067771554,"connected_time":2716000000000,"state":"active","ping":123},{"user_id":58,"name":"Goose","steam_id":76561198036774894,"connected_time":3359000000000,"state":"active","ping":60},{"user_id":78,"name":"wilsonc5","steam_id":76561197983437201,"connected_time":1405000000000,"state":"active","ping":161},{"user_id":90,"name":"GibbusGod","steam_id":76561199232436690,"connected_time":211000000000,"state":"active","ping":136}]},{"server_id":119,"name":"Uncletopia | Seattle | 2 | All Maps","name_short":"sea-2","host":"sea-1.us.uncletopia.com","port":27025,"enabled":true,"region":"us-west","cc":"us","latitude":47.608013,"longitude":-122.33517,"reserved":0,"last_update":"0001-01-01T00:00:00Z","name_a2s":"Uncletopia | Seattle | 2 | All Maps","protocol":17,"map":"koth_highpass","folder":"tf","game":"Team Fortress","app_id":440,"player_count":0,"max_players":24,"Bots":0,"server_type":"Dedicated","server_os":"Linux","password":true,"vac":true,"version":"7882260","steam_id":85568392924469998,"keywords":["cp","nocrits","nodmgspread","uncletopia"],"game_id":440,"stv_port":27026,"stv_name":"Uncletopia | Seattle | 2 | All Maps | STV","players":null},{"server_id":406,"name":"Uncletopia | Seattle | 3 | Stopwatch Beta","name_short":"sea-3","host":"sea-1.us.uncletopia.com","port":27035,"enabled":true,"region":"us-west","cc":"us","latitude":47.608013,"longitude":-122.33517,"reserved":0,"last_update":"0001-01-01T00:00:00Z","name_a2s":"Uncletopia | Seattle | 3 | Stopwatch Beta","protocol":17,"map":"cp_mountainlab","folder":"tf","game":"Team Fortress","app_id":440,"player_count":0,"max_players":24,"Bots":0,"server_type":"Dedicated","server_os":"Linux","password":true,"vac":true,"version":"7882260","steam_id":85568392924515217,"keywords":["cp","nocrits","nodmgspread","uncletopia"],"game_id":440,"stv_port":27036,"stv_name":"Uncletopia | Seattle | 3 | Stopwatch Beta | STV","players":null},{"server_id":17,"name":"Uncletopia | San Francisco | 1 | All Maps","name_short":"sfo-1","host":"sfo-1.us.uncletopia.com","port":27015,"enabled":true,"region":"us-west","cc":"us","latitude":37.77397,"longitude":-122.4313,"reserved":0,"last_update":"0001-01-01T00:00:00Z","name_a2s":"Uncletopia | San Francisco | 1 | All Maps","protocol":17,"map":"cp_process_final","folder":"tf","game":"Team Fortress","app_id":440,"player_count":0,"max_players":24,"Bots":0,"server_type":"Dedicated","server_os":"Linux","password":true,"vac":true,"version":"7757534","steam_id":85568392924469999,"keywords":["cp","nocrits","nodmgspread","uncletopia"],"game_id":440,"stv_port":27016,"stv_name":"Uncletopia | San Francisco | 1 | All Maps | STV","players":null},{"server_id":18,"name":"Uncletopia | San Francisco | 2 | All Maps","name_short":"sfo-2","host":"sfo-1.us.uncletopia.com","port":27025,"enabled":true,"region":"us-west","cc":"us","latitude":37.77397,"longitude":-122.4313,"reserved":0,"last_update":"0001-01-01T00:00:00Z","name_a2s":"Uncletopia | San Francisco | 2 | All Maps","protocol":17,"map":"koth_highpass","folder":"tf","game":"Team Fortress","app_id":440,"player_count":0,"max_players":24,"Bots":0,"server_type":"Dedicated","server_os":"Linux","password":true,"vac":true,"version":"7757534","steam_id":85568392924470000,"keywords":["cp","nocrits","nodmgspread","uncletopia"],"game_id":440,"stv_port":27026,"stv_name":"Uncletopia | San Francisco | 2 | All Maps | STV","players":null},{"server_id":19,"name":"Uncletopia | San Francisco | 3 | Stopwatch Beta","name_short":"sfo-3","host":"sfo-1.us.uncletopia.com","port":27035,"enabled":true,"region":"us-west","cc":"us","latitude":37.77397,"longitude":-122.4313,"reserved":0,"last_update":"0001-01-01T00:00:00Z","name_a2s":"Uncletopia | San Francisco | 3 | Stopwatch Beta","protocol":17,"map":"koth_lakeside_final","folder":"tf","game":"Team Fortress","app_id":440,"player_count":0,"max_players":24,"Bots":0,"server_type":"Dedicated","server_os":"Linux","password":true,"vac":true,"version":"7757534","steam_id":85568392924742824,"keywords":["cp","nocrits","nodmgspread","uncletopia"],"game_id":440,"stv_port":27036,"stv_name":"Uncletopia | San Francisco | 3 | Stopwatch Beta | STV","players":null},{"server_id":20,"name":"Uncletopia | San Francisco | 4 | Community","name_short":"sfo-4","host":"sfo-1.us.uncletopia.com","port":27045,"enabled":true,"region":"us-west","cc":"us","latitude":37.77397,"longitude":-122.4313,"reserved":0,"last_update":"0001-01-01T00:00:00Z","name_a2s":"Uncletopia | San Francisco | 4 | Community","protocol":17,"map":"cp_altitude","folder":"tf","game":"Team Fortress","app_id":440,"player_count":0,"max_players":24,"Bots":0,"server_type":"Dedicated","server_os":"Linux","password":true,"vac":true,"version":"7757534","steam_id":85568392924742826,"keywords":["cp","nocrits","nodmgspread","uncletopia"],"game_id":440,"stv_port":27046,"stv_name":"Uncletopia | San Francisco | 4 | Community | STV","players":null},{"server_id":141,"name":"Uncletopia | Sydney | 1 | All Maps","name_short":"syd-1","host":"syd-1.au.uncletopia.com","port":27015,"enabled":true,"region":"au","cc":"au","latitude":-33.865143,"longitude":151.2099,"reserved":0,"last_update":"0001-01-01T00:00:00Z","name_a2s":"Uncletopia | Sydney | 1 | All Maps","protocol":17,"map":"cp_snakewater_final1","folder":"tf","game":"Team Fortress","app_id":440,"player_count":0,"max_players":24,"Bots":0,"server_type":"Dedicated","server_os":"Linux","password":true,"vac":true,"version":"7882260","steam_id":85568392924470001,"keywords":["cp","nocrits","nodmgspread","uncletopia"],"game_id":440,"stv_port":27016,"stv_name":"Uncletopia | Sydney | 1 | All Maps | STV","players":null},{"server_id":123,"name":"Uncletopia | Sydney | 2 | All Maps","name_short":"syd-2","host":"syd-1.au.uncletopia.com","port":27025,"enabled":true,"region":"au","cc":"au","latitude":-33.865143,"longitude":151.2099,"reserved":0,"last_update":"0001-01-01T00:00:00Z","name_a2s":"Uncletopia | Sydney | 2 | All Maps","protocol":17,"map":"pl_swiftwater_final1","folder":"tf","game":"Team Fortress","app_id":440,"player_count":0,"max_players":24,"Bots":0,"server_type":"Dedicated","server_os":"Linux","password":true,"vac":true,"version":"7882260","steam_id":85568392924470002,"keywords":["nocrits","nodmgspread","payload","uncletopia"],"game_id":440,"stv_port":27026,"stv_name":"Uncletopia | Sydney | 2 | All Maps | STV","players":null},{"server_id":395,"name":"Uncletopia | Sydney | 3 | All Maps","name_short":"syd-3","host":"syd-1.au.uncletopia.com","port":27035,"enabled":true,"region":"au","cc":"au","latitude":-33.865143,"longitude":151.2099,"reserved":0,"last_update":"0001-01-01T00:00:00Z","name_a2s":"Uncletopia | Sydney | 3 | All Maps","protocol":17,"map":"koth_viaduct","folder":"tf","game":"Team Fortress","app_id":440,"player_count":0,"max_players":24,"Bots":0,"server_type":"Dedicated","server_os":"Linux","password":true,"vac":true,"version":"7882260","steam_id":85568392925194467,"keywords":["cp","nocrits","nodmgspread","uncletopia"],"game_id":440,"stv_port":27036,"stv_name":"Uncletopia | Sydney | 3 | All Maps | STV","players":null},{"server_id":396,"name":"Uncletopia | Sydney | 4 | All Maps","name_short":"syd-4","host":"syd-1.au.uncletopia.com","port":27045,"enabled":true,"region":"au","cc":"au","latitude":-33.865143,"longitude":151.2099,"reserved":0,"last_update":"0001-01-01T00:00:00Z","name_a2s":"Uncletopia | Sydney | 4 | All Maps","protocol":17,"map":"pl_borneo","folder":"tf","game":"Team Fortress","app_id":440,"player_count":0,"max_players":24,"Bots":0,"server_type":"Dedicated","server_os":"Linux","password":true,"vac":true,"version":"7882260","steam_id":85568392925397958,"keywords":["nocrits","nodmgspread","payload","uncletopia"],"game_id":440,"stv_port":27046,"stv_name":"Uncletopia | Sydney | 4 | All Maps | STV","players":null},{"server_id":58,"name":"Uncletopia | Sydney | 5 | Stopwatch Beta","name_short":"syd-5","host":"syd-1.au.uncletopia.com","port":27055,"enabled":true,"region":"au","cc":"au","latitude":-33.865143,"longitude":151.2099,"reserved":0,"last_update":"0001-01-01T00:00:00Z","name_a2s":"Uncletopia | Sydney | 5 | Stopwatch Beta","protocol":17,"map":"cp_snakewater_final1","folder":"tf","game":"Team Fortress","app_id":440,"player_count":0,"max_players":24,"Bots":0,"server_type":"Dedicated","server_os":"Linux","password":true,"vac":true,"version":"7882260","steam_id":85568392925397959,"keywords":["cp","nocrits","nodmgspread","uncletopia"],"game_id":440,"stv_port":27056,"stv_name":"Uncletopia | Sydney | 5 | Stopwatch Beta | STV","players":null},{"server_id":59,"name":"Uncletopia | Sydney | 6 | Community","name_short":"syd-6","host":"syd-1.au.uncletopia.com","port":27065,"enabled":true,"region":"au","cc":"au","latitude":-33.865143,"longitude":151.2099,"reserved":0,"last_update":"0001-01-01T00:00:00Z","name_a2s":"Uncletopia | Sydney | 6 | Community","protocol":17,"map":"workshop/koth_ramjam_rc1.ugc459778887","folder":"tf","game":"Team Fortress","app_id":440,"player_count":0,"max_players":24,"Bots":0,"server_type":"Dedicated","server_os":"Linux","password":true,"vac":true,"version":"7882260","steam_id":85568392925397960,"keywords":["cp","nocrits","nodmgspread","uncletopia"],"game_id":440,"stv_port":27066,"stv_name":"Uncletopia | Sydney | 6 | Community | STV","players":null},{"server_id":49,"name":"Uncletopia | Warsaw | 1 | All Maps","name_short":"waw-1","host":"waw-1.pl.uncletopia.com","port":27015,"enabled":true,"region":"eu","cc":"pl","latitude":52.2297,"longitude":21.017532,"reserved":0,"last_update":"0001-01-01T00:00:00Z","name_a2s":"","protocol":0,"map":"","folder":"","game":"","app_id":0,"player_count":0,"max_players":0,"Bots":0,"server_type":"","server_os":"","password":false,"vac":false,"version":"","steam_id":0,"keywords":null,"game_id":0,"stv_port":0,"stv_name":"","players":null},{"server_id":50,"name":"Uncletopia | Warsaw | 2 | All Maps","name_short":"waw-2","host":"waw-1.pl.uncletopia.com","port":27025,"enabled":true,"region":"eu","cc":"pl","latitude":52.2297,"longitude":21.017532,"reserved":0,"last_update":"0001-01-01T00:00:00Z","name_a2s":"Uncletopia | Warsaw | 2 | All Maps","protocol":17,"map":"pl_upward","folder":"tf","game":"Team Fortress","app_id":440,"player_count":12,"max_players":24,"Bots":0,"server_type":"Dedicated","server_os":"Linux","password":true,"vac":true,"version":"7882260","steam_id":85568392925397851,"keywords":["nocrits","nodmgspread","payload","uncletopia"],"game_id":440,"stv_port":27026,"stv_name":"Uncletopia | Warsaw | 2 | All Maps | STV","players":[{"user_id":7,"name":"2003 Volkswagen passat 1.6 tdi","steam_id":76561199148666369,"connected_time":4260000000000,"state":"active","ping":54},{"user_id":8,"name":"band-aid copyright infringement","steam_id":76561199027095451,"connected_time":3882000000000,"state":"active","ping":63},{"user_id":27,"name":"sniorridys","steam_id":76561198402798353,"connected_time":692000000000,"state":"active","ping":110},{"user_id":10,"name":"The","steam_id":76561199028541854,"connected_time":2832000000000,"state":"active","ping":92},{"user_id":28,"name":"Wholesome","steam_id":76561198010329501,"connected_time":586000000000,"state":"active","ping":86},{"user_id":25,"name":"ferizmer","steam_id":76561198806968871,"connected_time":767000000000,"state":"active","ping":103},{"user_id":14,"name":"Danila2009","steam_id":76561199106208163,"connected_time":2168000000000,"state":"active","ping":139},{"user_id":37,"name":"saaddxb2009","steam_id":76561199102354975,"connected_time":219000000000,"state":"active","ping":170},{"user_id":31,"name":"fifrok","steam_id":76561198799267621,"connected_time":386000000000,"state":"active","ping":54},{"user_id":32,"name":"Flare Aethyr","steam_id":76561198104793402,"connected_time":319000000000,"state":"active","ping":166},{"user_id":33,"name":"Ixsus\u003c3","steam_id":76561198094756869,"connected_time":315000000000,"state":"active","ping":75},{"user_id":36,"name":"SneakyBoi","steam_id":76561198243410862,"connected_time":303000000000,"state":"active","ping":73}]},{"server_id":51,"name":"Uncletopia | Warsaw | 3 | All Maps","name_short":"waw-3","host":"waw-1.pl.uncletopia.com","port":27035,"enabled":true,"region":"eu","cc":"pl","latitude":52.2297,"longitude":21.017532,"reserved":0,"last_update":"0001-01-01T00:00:00Z","name_a2s":"Uncletopia | Warsaw | 3 | All Maps","protocol":17,"map":"pl_pier","folder":"tf","game":"Team Fortress","app_id":440,"player_count":0,"max_players":24,"Bots":0,"server_type":"Dedicated","server_os":"Linux","password":true,"vac":true,"version":"7882260","steam_id":85568392925397852,"keywords":["nocrits","nodmgspread","payload","uncletopia"],"game_id":440,"stv_port":27036,"stv_name":"Uncletopia | Warsaw | 3 | All Maps | STV","players":null},{"server_id":52,"name":"Uncletopia | Warsaw | 4 | All Maps","name_short":"waw-4","host":"waw-1.pl.uncletopia.com","port":27045,"enabled":true,"region":"eu","cc":"pl","latitude":52.2297,"longitude":21.017532,"reserved":0,"last_update":"0001-01-01T00:00:00Z","name_a2s":"Uncletopia | Warsaw | 4 | All Maps","protocol":17,"map":"koth_highpass","folder":"tf","game":"Team Fortress","app_id":440,"player_count":0,"max_players":24,"Bots":0,"server_type":"Dedicated","server_os":"Linux","password":true,"vac":true,"version":"7882260","steam_id":85568392925397853,"keywords":["cp","nocrits","nodmgspread","uncletopia"],"game_id":440,"stv_port":27046,"stv_name":"Uncletopia | Warsaw | 4 | All Maps | STV","players":null},{"server_id":53,"name":"Uncletopia | Warsaw | 5 | Stopwatch Beta","name_short":"waw-5","host":"waw-1.pl.uncletopia.com","port":27055,"enabled":true,"region":"eu","cc":"pl","latitude":52.2297,"longitude":21.017532,"reserved":0,"last_update":"0001-01-01T00:00:00Z","name_a2s":"Uncletopia | Warsaw | 5 | Stopwatch Beta","protocol":17,"map":"cp_mountainlab","folder":"tf","game":"Team Fortress","app_id":440,"player_count":0,"max_players":24,"Bots":0,"server_type":"Dedicated","server_os":"Linux","password":true,"vac":true,"version":"7882260","steam_id":85568392925397854,"keywords":["cp","nocrits","nodmgspread","uncletopia"],"game_id":440,"stv_port":27056,"stv_name":"Uncletopia | Warsaw | 5 | Stopwatch Beta | STV","players":null},{"server_id":54,"name":"Uncletopia | Warsaw | 6 | Community","name_short":"waw-6","host":"waw-1.pl.uncletopia.com","port":27065,"enabled":true,"region":"eu","cc":"pl","latitude":52.2297,"longitude":21.017532,"reserved":0,"last_update":"0001-01-01T00:00:00Z","name_a2s":"Uncletopia | Warsaw | 6 | Community","protocol":17,"map":"koth_viaduct","folder":"tf","game":"Team Fortress","app_id":440,"player_count":0,"max_players":24,"Bots":0,"server_type":"Dedicated","server_os":"Linux","password":true,"vac":true,"version":"7882260","steam_id":85568392925397856,"keywords":["cp","nocrits","nodmgspread","uncletopia"],"game_id":440,"stv_port":27066,"stv_name":"Uncletopia | Warsaw | 6 | Community | STV","players":null}]}