{"status":true,"message":"","result":[{"server_id":9,"name":"Uncletopia | Atlanta | 1 | All Maps","name_short":"atl-1","host":"atl-1.us.uncletopia.com","port":27015,"enabled":true,"region":"us-east","cc":"us","latitude":33.753746,"longitude":-84.38633,"reserved":0,"last_update":"0001-01-01T00:00:00Z","name_a2s":"Uncletopia | Atlanta | 1 | All Maps","protocol":17,"map":"koth_cascade","folder":"tf","game":"Team Fortress","app_id":440,"player_count":6,"max_players":24,"Bots":0,"server_type":"Dedicated","server_os":"Linux","password":true,"vac":true,"version":"7961495","steam_id":85568392924469982,"keywords":["cp","nocrits","nodmgspread","uncletopia"],"game_id":440,"stv_port":27016,"stv_name":"Uncletopia | Atlanta | 1 | All Maps | STV","players":null},{"server_id":104,"name":"Uncletopia | Atlanta | 2 | All Maps","name_short":"atl-2","host":"atl-1.us.uncletopia.com","port":27025,"enabled":true,"region":"us-east","cc":"us","latitude":33.753746,"longitude":-84.38633,"reserved":0,"last_update":"0001-01-01T00:00:00Z","name_a2s":"Uncletopia | Atlanta | 2 | All Maps","protocol":17,"map":"pl_swiftwater_final1","folder":"tf","game":"Team Fortress","app_id":440,"player_count":24,"max_players":24,"Bots":0,"server_type":"Dedicated","server_os":"Linux","password":true,"vac":true,"version":"7961495","steam_id":85568392924469983,"keywords":["nocrits","nodmgspread","payload","uncletopia"],"game_id":440,"stv_port":27026,"stv_name":"Uncletopia | Atlanta | 2 | All Maps | STV","players":null},{"server_id":400,"name":"Uncletopia | Atlanta | 3 | Stopwatch","name_short":"atl-3","host":"atl-1.us.uncletopia.com","port":27035,"enabled":true,"region":"us-east","cc":"us","latitude":33.753746,"longitude":-84.38633,"reserved":0,"last_update":"0001-01-01T00:00:00Z","name_a2s":"Uncletopia | Atlanta | 3 | Stopwatch","protocol":17,"map":"cp_process_final","folder":"tf","game":"Team Fortress","app_id":440,"player_count":0,"max_players":24,"Bots":0,"server_type":"Dedicated","server_os":"Linux","password":true,"vac":true,"version":"7961495","steam_id":85568392924515187,"keywords":["cp","nocrits","nodmgspread","uncletopia"],"game_id":440,"stv_port":27036,"stv_name":"Uncletopia | Atlanta | 3 | Stopwatch | STV","players":null},{"server_id":401,"name":"Uncletopia | Atlanta | 4 | Community","name_short":"atl-4","host":"atl-1.us.uncletopia.com","port":27045,"enabled":true,"region":"us-east","cc":"us","latitude":33.753746,"longitude":-84.38633,"reserved":0,"last_update":"0001-01-01T00:00:00Z","name_a2s":"Uncletopia | Atlanta | 4 | Community","protocol":17,"map":"koth_kemptown_rc1","folder":"tf","game":"Team Fortress","app_id":440,"player_count":0,"max_players":24,"Bots":0,"server_type":"Dedicated","server_os":"Linux","password":true,"vac":true,"version":"7961495","steam_id":85568392924515188,"keywords":["cp","nocrits","nodmgspread","uncletopia"],"game_id":440,"stv_port":27046,"stv_name":"Uncletopia | Atlanta | 4 | Community | STV","players":null},{"server_id":2,"name":"Uncletopia | Chicago | 1 | All Maps","name_short":"chi-1","host":"chi-1.us.uncletopia.com","port":27015,"enabled":true,"region":"us-central","cc":"us","latitude":41.881832,"longitude":-87.62318,"reserved":0,"last_update":"0001-01-01T00:00:00Z","name_a2s":"Uncletopia | Chicago | 1 | All Maps","protocol":17,"map":"cp_sunshine","folder":"tf","game":"Team Fortress","app_id":440,"player_count":0,"max_players":24,"Bots":0,"server_type":"Dedicated","server_os":"Linux","password":true,"vac":true,"version":"7961495","steam_id":85568392924469984,"keywords":["cp","nocrits","nodmgspread","uncletopia"],"game_id":440,"stv_port":27016,"stv_name":"Uncletopia | Chicago | 1 | All Maps | STV","players":null},{"server_id":106,"name":"Uncletopia | Chicago | 2 | All Maps","name_short":"chi-2","host":"chi-1.us.uncletopia.com","port":27025,"enabled":true,"region":"us-central","cc":"us","latitude":41.881832,"longitude":-87.62318,"reserved":0,"last_update":"0001-01-01T00:00:00Z","name_a2s":"Uncletopia | Chicago | 2 | All Maps","protocol":17,"map":"pl_badwater","folder":"tf","game":"Team Fortress","app_id":440,"player_count":23,"max_players":24,"Bots":0,"server_type":"Dedicated","server_os":"Linux","password":true,"vac":true,"version":"7961495","steam_id":85568392924469985,"keywords":["nocrits","nodmgspread","payload","uncletopia"],"game_id":440,"stv_port":27026,"stv_name":"Uncletopia | Chicago | 2 | All Maps | STV","players":[{"user_id":692,"name":"Kamin","steam_id":76561198255299559,"connected_time":4431000000000,"state":"active","ping":85},{"user_id":756,"name":"El Gato Paranoico","steam_id":76561198116567116,"connected_time":687000000000,"state":"active","ping":97},{"user_id":752,"name":"Fargo","steam_id":76561198044703931,"connected_time":1215000000000,"state":"active","ping":61},{"user_id":709,"name":"Brown_Dream","steam_id":76561198975766145,"connected_time":2986000000000,"state":"active","ping":78},{"user_id":765,"name":"rudy","steam_id":76561198088712799,"connected_time":109000000000,"state":"active","ping":73},{"user_id":744,"name":"jerma but crying and lesbian","steam_id":76561198110661425,"connected_time":1309000000000,"state":"active","ping":46},{"user_id":763,"name":"phantom","steam_id":76561197963860777,"connected_time":136000000000,"state":"active","ping":92},{"user_id":766,"name":"1-800-BALLIN","steam_id":76561198141900027,"connected_time":108000000000,"state":"active","ping":76},{"user_id":748,"name":"I think about worms every day","steam_id":76561199070515232,"connected_time":1287000000000,"state":"active","ping":55},{"user_id":767,"name":"Scoops M'Gooch","steam_id":76561198048423812,"connected_time":98000000000,"state":"active","ping":121},{"user_id":764,"name":"Raccoon Wizard","steam_id":76561198072562591,"connected_time":136000000000,"state":"active","ping":93},{"user_id":768,"name":"popfulmail","steam_id":76561198865971290,"connected_time":57000000000,"state":"active","ping":86},{"user_id":707,"name":"boo boo keys","steam_id":76561197999318398,"connected_time":3632000000000,"state":"active","ping":115},{"user_id":754,"name":"SilentFootba11","steam_id":76561199006570947,"connected_time":1111000000000,"state":"active","ping":70},{"user_id":750,"name":"Person","steam_id":76561198093244204,"connected_time":1278000000000,"state":"active","ping":73},{"user_id":722,"name":"Benjamin Franklin","steam_id":76561198863803062,"connected_time":2384000000000,"state":"active","ping":116},{"user_id":755,"name":"who longed my dragon","steam_id":76561198087472085,"connected_time":1067000000000,"state":"active","ping":93},{"user_id":714,"name":"Draven","steam_id":76561198074776388,"connected_time":2662000000000,"state":"active","ping":76},{"user_id":712,"name":"_cza","steam_id":76561198079793576,"connected_time":2904000000000,"state":"active","ping":93},{"user_id":762,"name":"Drapph","steam_id":76561199384213314,"connected_time":247000000000,"state":"active","ping":62},{"user_id":728,"name":"CHIKN","steam_id":76561198277792665,"connected_time":2175000000000,"state":"active","ping":105},{"user_id":729,"name":"minecraft","steam_id":76561198104345201,"connected_time":2166000000000,"state":"active","ping":65},{"user_id":759,"name":"Mocha","steam_id":76561198221986284,"connected_time":592000000000,"state":"active","ping":71}]},{"server_id":402,"name":"Uncletopia | Chicago | 3 | All Maps","name_short":"chi-3","host":"chi-1.us.uncletopia.com","port":27035,"enabled":true,"region":"us-central","cc":"us","latitude":41.881832,"longitude":-87.62318,"reserved":0,"last_update":"0001-01-01T00:00:00Z","name_a2s":"Uncletopia | Chicago | 3 | All Maps","protocol":17,"map":"pl_badwater","folder":"tf","game":"Team Fortress","app_id":440,"player_count":22,"max_players":24,"Bots":0,"server_type":"Dedicated","server_os":"Linux","password":true,"vac":true,"version":"7961495","steam_id":85568392924515191,"keywords":["nocrits","nodmgspread","payload","uncletopia"],"game_id":440,"stv_port":27036,"stv_name":"Uncletopia | Chicago | 3 | All Maps | STV","players":[{"user_id":479,"name":"TheOneZoot","steam_id":76561198121944243,"connected_time":25000000000,"state":"active","ping":85},{"user_id":460,"name":"debin","steam_id":76561198070711217,"connected_time":1025000000000,"state":"active","ping":59},{"user_id":449,"name":"Just-Some-Menace","steam_id":76561198152324397,"connected_time":2224000000000,"state":"active","ping":69},{"user_id":387,"name":"Gammaplex","steam_id":76561198981228176,"connected_time":6507000000000,"state":"active","ping":52},{"user_id":364,"name":"my friend can take 5guys anyday","steam_id":76561198144766439,"connected_time":8052000000000,"state":"active","ping":44},{"user_id":477,"name":"Ludcmorais","steam_id":76561198359217809,"connected_time":372000000000,"state":"active","ping":185},{"user_id":461,"name":"Filtershakes","steam_id":76561197990484413,"connected_time":892000000000,"state":"active","ping":82},{"user_id":465,"name":"zpalmtree","steam_id":76561198134307620,"connected_time":735000000000,"state":"active","ping":56},{"user_id":450,"name":"Phos","steam_id":76561198122339506,"connected_time":2222000000000,"state":"active","ping":69},{"user_id":463,"name":"keffers","steam_id":76561198202338796,"connected_time":825000000000,"state":"active","ping":70},{"user_id":476,"name":"Mint Jelly","steam_id":76561197991286751,"connected_time":396000000000,"state":"active","ping":44},{"user_id":474,"name":"177013","steam_id":76561198072303290,"connected_time":490000000000,"state":"active","ping":59},{"user_id":363,"name":"pookie","steam_id":76561198136642793,"connected_time":8076000000000,"state":"active","ping":69},{"user_id":467,"name":"Isles","steam_id":76561198036162511,"connected_time":645000000000,"state":"active","ping":63},{"user_id":478,"name":"corntent","steam_id":76561198824847948,"connected_time":357000000000,"state":"active","ping":44},{"user_id":468,"name":"«Dᵃʳᵏ.,,.Tᵉᵐᵖ»","steam_id":76561198018185884,"connected_time":632000000000,"state":"active","ping":91},{"user_id":469,"name":"Michaelpc1","steam_id":76561198088365519,"connected_time":594000000000,"state":"active","ping":74},{"user_id":470,"name":"HEE HOO DUSTBOWL!","steam_id":76561199389985063,"connected_time":566000000000,"state":"active","ping":98},{"user_id":432,"name":"Cooler Ye","steam_id":76561198068830312,"connected_time":3928000000000,"state":"active","ping":43},{"user_id":471,"name":"Hatter","steam_id":76561198010341986,"connected_time":561000000000,"state":"active","ping":44},{"user_id":472,"name":"Neophyte","steam_id":76561198027183394,"connected_time":550000000000,"state":"active","ping":84},{"user_id":475,"name":"GuyGoom","steam_id":76561198254522178,"connected_time":421000000000,"state":"active","ping":50}]},{"server_id":403,"name":"Uncletopia | Chicago | 4 | All Maps","name_short":"chi-4","host":"chi-1.us.uncletopia.com","port":27045,"enabled":true,"region":"us-central","cc":"us","latitude":41.881832,"longitude":-87.62318,"reserved":0,"last_update":"0001-01-01T00:00:00Z","name_a2s":"Uncletopia | Chicago | 4 | All Maps","protocol":17,"map":"pl_borneo","folder":"tf","game":"Team Fortress","app_id":440,"player_count":20,"max_players":24,"Bots":0,"server_type":"Dedicated","server_os":"Linux","password":true,"vac":true,"version":"7961495","steam_id":85568392924515193,"keywords":["nocrits","nodmgspread","payload","uncletopia"],"game_id":440,"stv_port":27046,"stv_name":"Uncletopia | Chicago | 4 | All Maps | STV","players":[{"user_id":686,"name":"kezia","steam_id":76561198059815894,"connected_time":120000000000,"state":"active","ping":45},{"user_id":677,"name":"aaron","steam_id":76561198113364714,"connected_time":991000000000,"state":"active","ping":53},{"user_id":681,"name":"frank","steam_id":76561198137777483,"connected_time":695000000000,"state":"active","ping":69},{"user_id":678,"name":"Ty;","steam_id":76561198132068284,"connected_time":986000000000,"state":"active","ping":71},{"user_id":625,"name":"Cosmic sR","steam_id":76561198081738675,"connected_time":4454000000000,"state":"active","ping":81},{"user_id":679,"name":"The Tower of Pizza","steam_id":76561198043256782,"connected_time":965000000000,"state":"active","ping":76},{"user_id":670,"name":"Shadoe","steam_id":76561198218577281,"connected_time":1360000000000,"state":"active","ping":46},{"user_id":600,"name":"Jousty","steam_id":76561199162677853,"connected_time":5839000000000,"state":"active","ping":91},{"user_id":684,"name":"Tractor Trevor #farmville","steam_id":76561198138221795,"connected_time":233000000000,"state":"active","ping":75},{"user_id":687,"name":"I have a small penis","steam_id":76561198213435803,"connected_time":62000000000,"state":"active","ping":55},{"user_id":688,"name":"FACEIT10LEVELSIGMAPROBIGBRO","steam_id":76561198365973345,"connected_time":34000000000,"state":"active","ping":172},{"user_id":662,"name":"skaska4","steam_id":76561198080606141,"connected_time":2080000000000,"state":"active","ping":70},{"user_id":643,"name":"airy","steam_id":76561198174632198,"connected_time":3604000000000,"state":"active","ping":75},{"user_id":661,"name":"Squeeshmallow","steam_id":76561199103451097,"connected_time":2091000000000,"state":"active","ping":87},{"user_id":655,"name":"Goose","steam_id":76561198245716618,"connected_time":2682000000000,"state":"active","ping":87},{"user_id":680,"name":"Rotation","steam_id":76561198865324866,"connected_time":958000000000,"state":"active","ping":75},{"user_id":607,"name":"Voodo133","steam_id":76561198042670351,"connected_time":5705000000000,"state":"active","ping":87},{"user_id":646,"name":"roddy ricch - ballin","steam_id":76561198111290441,"connected_time":3546000000000,"state":"active","ping":57},{"user_id":657,"name":"Colonel Salt","steam_id":76561198207009563,"connected_time":2592000000000,"state":"active","ping":75},{"user_id":658,"name":"clue","steam_id":76561198299379768,"connected_time":2573000000000,"state":"active","ping":85}]},{"server_id":36,"name":"Uncletopia | Chicago | 5 | All Maps","name_short":"chi-5","host":"chi-2.us.uncletopia.com","port":27015,"enabled":true,"region":"us-central","cc":"us","latitude":41.881832,"longitude":-87.62318,"reserved":0,"last_update":"0001-01-01T00:00:00Z","name_a2s":"Uncletopia | Chicago | 5 | All Maps","protocol":17,"map":"cp_mercenarypark","folder":"tf","game":"Team Fortress","app_id":440,"player_count":0,"max_players":24,"Bots":0,"server_type":"Dedicated","server_os":"Linux","password":true,"vac":true,"version":"7961495","steam_id":85568392924866362,"keywords":["cp","nocrits","nodmgspread","uncletopia"],"game_id":440,"stv_port":27016,"stv_name":"Uncletopia | Chicago | 5 | All Maps | STV","players":null},{"server_id":37,"name":"Uncletopia | Chicago | 6 | All Maps","name_short":"chi-6","host":"chi-2.us.uncletopia.com","port":27025,"enabled":true,"region":"us-central","cc":"us","latitude":41.881832,"longitude":-87.62318,"reserved":0,"last_update":"0001-01-01T00:00:00Z","name_a2s":"Uncletopia | Chicago | 6 | All Maps","protocol":17,"map":"koth_cascade","folder":"tf","game":"Team Fortress","app_id":440,"player_count":0,"max_players":24,"Bots":0,"server_type":"Dedicated","server_os":"Linux","password":true,"vac":true,"version":"7961495","steam_id":85568392924866363,"keywords":["cp","nocrits","nodmgspread","uncletopia"],"game_id":440,"stv_port":27026,"stv_name":"Uncletopia | Chicago | 6 | All Maps | STV","players":null},{"server_id":38,"name":"Uncletopia | Chicago | 7 | Stopwatch","name_short":"chi-7","host":"chi-2.us.uncletopia.com","port":27035,"enabled":true,"region":"us-central","cc":"us","latitude":41.881832,"longitude":-87.62318,"reserved":0,"last_update":"0001-01-01T00:00:00Z","name_a2s":"Uncletopia | Chicago | 7 | Stopwatch","protocol":17,"map":"workshop/pl_badwater_pro_v12.ugc2142942074","folder":"tf","game":"Team Fortress","app_id":440,"player_count":0,"max_players":24,"Bots":0,"server_type":"Dedicated","server_os":"Linux","password":true,"vac":true,"version":"7961495","steam_id":85568392924866364,"keywords":["nocrits","nodmgspread","payload","uncletopia"],"game_id":440,"stv_port":27036,"stv_name":"Uncletopia | Chicago | 7 | Stopwatch | STV","players":null},{"server_id":39,"name":"Uncletopia | Chicago | 8 | Community","name_short":"chi-8","host":"chi-2.us.uncletopia.com","port":27045,"enabled":true,"region":"us-central","cc":"us","latitude":41.881832,"longitude":-87.62318,"reserved":0,"last_update":"0001-01-01T00:00:00Z","name_a2s":"Uncletopia | Chicago | 8 | Community","protocol":17,"map":"workshop/cp_reckoner_rc6.ugc674719999","folder":"tf","game":"Team Fortress","app_id":440,"player_count":0,"max_players":24,"Bots":0,"server_type":"Dedicated","server_os":"Linux","password":true,"vac":true,"version":"7961495","steam_id":85568392924866365,"keywords":["cp","nocrits","nodmgspread","uncletopia"],"game_id":440,"stv_port":27046,"stv_name":"Uncletopia | Chicago | 8 | Community | STV","players":null},{"server_id":8,"name":"Uncletopia | Dallas | 1 | All Maps","name_short":"dal-1","host":"dal-1.us.uncletopia.com","port":27015,"enabled":true,"region":"us-central","cc":"us","latitude":32.779167,"longitude":-96.80889,"reserved":0,"last_update":"0001-01-01T00:00:00Z","name_a2s":"Uncletopia | Dallas | 1 | All Maps","protocol":17,"map":"koth_highpass","folder":"tf","game":"Team Fortress","app_id":440,"player_count":0,"max_players":24,"Bots":0,"server_type":"Dedicated","server_os":"Linux","password":true,"vac":true,"version":"7961495","steam_id":85568392924469986,"keywords":["cp","nocrits","nodmgspread","uncletopia"],"game_id":440,"stv_port":27016,"stv_name":"Uncletopia | Dallas | 1 | All Maps | STV","players":null},{"server_id":108,"name":"Uncletopia | Dallas | 2 | All Maps","name_short":"dal-2","host":"dal-1.us.uncletopia.com","port":27025,"enabled":true,"region":"us-central","cc":"us","latitude":32.779167,"longitude":-96.80889,"reserved":0,"last_update":"0001-01-01T00:00:00Z","name_a2s":"Uncletopia | Dallas | 2 | All Maps","protocol":17,"map":"ctf_2fort","folder":"tf","game":"Team Fortress","app_id":440,"player_count":0,"max_players":24,"Bots":0,"server_type":"Dedicated","server_os":"Linux","password":true,"vac":true,"version":"7961495","steam_id":85568392924469988,"keywords":["ctf","nocrits","nodmgspread","uncletopia"],"game_id":440,"stv_port":27026,"stv_name":"Uncletopia | Dallas | 2 | All Maps | STV","players":null},{"server_id":404,"name":"Uncletopia | Dallas | 3 | All Maps","name_short":"dal-3","host":"dal-1.us.uncletopia.com","port":27035,"enabled":true,"region":"us-central","cc":"us","latitude":32.779167,"longitude":-96.80889,"reserved":0,"last_update":"0001-01-01T00:00:00Z","name_a2s":"Uncletopia | Dallas | 3 | All Maps","protocol":17,"map":"koth_viaduct","folder":"tf","game":"Team Fortress","app_id":440,"player_count":0,"max_players":24,"Bots":0,"server_type":"Dedicated","server_os":"Linux","password":true,"vac":true,"version":"7961495","steam_id":85568392924515219,"keywords":["cp","nocrits","nodmgspread","uncletopia"],"game_id":440,"stv_port":27036,"stv_name":"Uncletopia | Dallas | 3 | All Maps | STV","players":null},{"server_id":405,"name":"Uncletopia | Dallas | 4 | Community","name_short":"dal-4","host":"dal-1.us.uncletopia.com","port":27045,"enabled":true,"region":"us-central","cc":"us","latitude":32.779167,"longitude":-96.80889,"reserved":0,"last_update":"0001-01-01T00:00:00Z","name_a2s":"Uncletopia | Dallas | 4 | Community","protocol":17,"map":"workshop/pl_eruption_b9a.ugc2807898013","folder":"tf","game":"Team Fortress","app_id":440,"player_count":24,"max_players":24,"Bots":0,"server_type":"Dedicated","server_os":"Linux","password":true,"vac":true,"version":"7961495","steam_id":85568392924515220,"keywords":["nocrits","nodmgspread","payload","uncletopia"],"game_id":440,"stv_port":27046,"stv_name":"Uncletopia | Dallas | 4 | Community | STV","players":[{"user_id":269,"name":"GoldtoothFour","steam_id":76561198055529332,"connected_time":390000000000,"state":"active","ping":73},{"user_id":276,"name":"womthedom","steam_id":76561198088768287,"connected_time":135000000000,"state":"active","ping":73},{"user_id":277,"name":"Tuna","steam_id":76561198129907971,"connected_time":129000000000,"state":"active","ping":90},{"user_id":185,"name":"Sableye","steam_id":76561198061247147,"connected_time":6270000000000,"state":"active","ping":75},{"user_id":254,"name":"Lavender","steam_id":76561198142770666,"connected_time":2479000000000,"state":"active","ping":105},{"user_id":278,"name":"DustIsHereツ","steam_id":76561199105602325,"connected_time":26000000000,"state":"spawning","ping":383},{"user_id":267,"name":"azucar","steam_id":76561198056543825,"connected_time":983000000000,"state":"active","ping":76},{"user_id":263,"name":"Caboose","steam_id":76561198119221840,"connected_time":1588000000000,"state":"active","ping":88},{"user_id":242,"name":"The_individual","steam_id":76561199140701808,"connected_time":3451000000000,"state":"active","ping":83},{"user_id":231,"name":"Mc.Kys","steam_id":76561198177152467,"connected_time":4044000000000,"state":"active","ping":67},{"user_id":225,"name":"Hyperion","steam_id":76561198088941339,"connected_time":4198000000000,"state":"spawning","ping":204},{"user_id":260,"name":"head in the ceiling fan","steam_id":76561198420237035,"connected_time":1709000000000,"state":"active","ping":100},{"user_id":255,"name":".-.. --- ...- . / -.-- --- ..-","steam_id":76561198002483206,"connected_time":2422000000000,"state":"active","ping":45},{"user_id":279,"name":"Ping","steam_id":76561198072947773,"connected_time":4000000000,"state":"spawning","ping":57},{"user_id":259,"name":"exploitativity","steam_id":76561198041990177,"connected_time":1964000000000,"state":"active","ping":104},{"user_id":273,"name":"brenden","steam_id":76561198120346280,"connected_time":316000000000,"state":"active","ping":64},{"user_id":266,"name":"shitass (Reaping and Sowing)","steam_id":76561198210572481,"connected_time":1385000000000,"state":"active","ping":59},{"user_id":251,"name":"Zombie hunter","steam_id":76561198328423470,"connected_time":2887000000000,"state":"active","ping":93},{"user_id":264,"name":"tsz","steam_id":76561199246231090,"connected_time":1581000000000,"state":"active","ping":74},{"user_id":261,"name":"45Amazing","steam_id":76561198303081758,"connected_time":1702000000000,"state":"active","ping":76},{"user_id":280,"name":"LennyDaLemon","steam_id":76561198855962735,"connected_time":3000000000,"state":"spawning","ping":77},{"user_id":265,"name":"Katoji","steam_id":76561199024614743,"connected_time":1577000000000,"state":"active","ping":73},{"user_id":274,"name":"Kiss Bank (Deposits Only)","steam_id":76561198306965757,"connected_time":290000000000,"state":"active","ping":84},{"user_id":275,"name":"Auwren","steam_id":76561198175321693,"connected_time":280000000000,"state":"active","ping":89}]},{"server_id":5,"name":"Uncletopia | Frankfurt | 1 | All Maps","name_short":"frk-1","host":"frk-1.de.uncletopia.com","port":27015,"enabled":true,"region":"eu","cc":"de","latitude":50.110924,"longitude":8.682127,"reserved":0,"last_update":"0001-01-01T00:00:00Z","name_a2s":"Uncletopia | Frankfurt | 1 | All Maps","protocol":17,"map":"koth_highpass","folder":"tf","game":"Team Fortress","app_id":440,"player_count":0,"max_players":24,"Bots":0,"server_type":"Dedicated","server_os":"Linux","password":true,"vac":true,"version":"7961495","steam_id":85568392924469989,"keywords":["cp","nocrits","nodmgspread","uncletopia"],"game_id":440,"stv_port":27016,"stv_name":"Uncletopia | Frankfurt | 1 | All Maps | STV","players":null},{"server_id":110,"name":"Uncletopia | Frankfurt | 2 | All Maps","name_short":"frk-2","host":"frk-1.de.uncletopia.com","port":27025,"enabled":true,"region":"eu","cc":"de","latitude":50.110924,"longitude":8.682127,"reserved":0,"last_update":"0001-01-01T00:00:00Z","name_a2s":"Uncletopia | Frankfurt | 2 | All Maps","protocol":17,"map":"cp_dustbowl","folder":"tf","game":"Team Fortress","app_id":440,"player_count":0,"max_players":24,"Bots":0,"server_type":"Dedicated","server_os":"Linux","password":true,"vac":true,"version":"7961495","steam_id":85568392924469990,"keywords":["cp","nocrits","nodmgspread","uncletopia"],"game_id":440,"stv_port":27026,"stv_name":"Uncletopia | Frankfurt | 2 | All Maps | STV","players":null},{"server_id":308,"name":"Uncletopia | Frankfurt | 3 | All Maps","name_short":"frk-3","host":"frk-1.de.uncletopia.com","port":27035,"enabled":true,"region":"eu","cc":"de","latitude":50.110924,"longitude":8.682127,"reserved":0,"last_update":"0001-01-01T00:00:00Z","name_a2s":"Uncletopia | Frankfurt | 3 | All Maps","protocol":17,"map":"pl_barnblitz","folder":"tf","game":"Team Fortress","app_id":440,"player_count":0,"max_players":24,"Bots":0,"server_type":"Dedicated","server_os":"Linux","password":true,"vac":true,"version":"7961495","steam_id":85568392924504274,"keywords":["nocrits","nodmgspread","payload","uncletopia"],"game_id":440,"stv_port":27036,"stv_name":"Uncletopia | Frankfurt | 3 | All Maps | STV","players":null},{"server_id":309,"name":"Uncletopia | Frankfurt | 4 | All Maps","name_short":"frk-4","host":"frk-1.de.uncletopia.com","port":27045,"enabled":true,"region":"eu","cc":"de","latitude":50.110924,"longitude":8.682127,"reserved":0,"last_update":"0001-01-01T00:00:00Z","name_a2s":"Uncletopia | Frankfurt | 4 | All Maps","protocol":17,"map":"koth_highpass","folder":"tf","game":"Team Fortress","app_id":440,"player_count":0,"max_players":24,"Bots":0,"server_type":"Dedicated","server_os":"Linux","password":true,"vac":true,"version":"7961495","steam_id":85568392924504275,"keywords":["cp","nocrits","nodmgspread","uncletopia"],"game_id":440,"stv_port":27046,"stv_name":"Uncletopia | Frankfurt | 4 | All Maps | STV","players":null},{"server_id":310,"name":"Uncletopia | Frankfurt | 5 | All Maps","name_short":"frk-5","host":"frk-1.de.uncletopia.com","port":27055,"enabled":true,"region":"eu","cc":"de","latitude":50.110924,"longitude":8.682127,"reserved":0,"last_update":"0001-01-01T00:00:00Z","name_a2s":"Uncletopia | Frankfurt | 5 | All Maps","protocol":17,"map":"cp_mountainlab","folder":"tf","game":"Team Fortress","app_id":440,"player_count":0,"max_players":24,"Bots":0,"server_type":"Dedicated","server_os":"Linux","password":true,"vac":true,"version":"7961495","steam_id":85568392924504277,"keywords":["cp","nocrits","nodmgspread","uncletopia"],"game_id":440,"stv_port":27056,"stv_name":"Uncletopia | Frankfurt | 5 | All Maps | STV","players":null},{"server_id":311,"name":"Uncletopia | Frankfurt | 6 | All Maps","name_short":"frk-6","host":"frk-1.de.uncletopia.com","port":27065,"enabled":true,"region":"eu","cc":"de","latitude":50.110924,"longitude":8.682127,"reserved":0,"last_update":"0001-01-01T00:00:00Z","name_a2s":"Uncletopia | Frankfurt | 6 | All Maps","protocol":17,"map":"cp_altitude","folder":"tf","game":"Team Fortress","app_id":440,"player_count":0,"max_players":24,"Bots":0,"server_type":"Dedicated","server_os":"Linux","password":true,"vac":true,"version":"7961495","steam_id":85568392924504278,"keywords":["cp","nocrits","nodmgspread","uncletopia"],"game_id":440,"stv_port":27066,"stv_name":"Uncletopia | Frankfurt | 6 | All Maps | STV","players":null},{"server_id":23,"name":"Uncletopia | Frankfurt | 7 | Stopwatch","name_short":"frk-7","host":"frk-1.de.uncletopia.com","port":27075,"enabled":true,"region":"eu","cc":"de","latitude":50.110924,"longitude":8.682127,"reserved":0,"last_update":"0001-01-01T00:00:00Z","name_a2s":"Uncletopia | Frankfurt | 7 | Stopwatch","protocol":17,"map":"pl_frontier_final","folder":"tf","game":"Team Fortress","app_id":440,"player_count":0,"max_players":24,"Bots":0,"server_type":"Dedicated","server_os":"Linux","password":true,"vac":true,"version":"7961495","steam_id":85568392924742827,"keywords":["nocrits","nodmgspread","payload","uncletopia"],"game_id":440,"stv_port":27076,"stv_name":"Uncletopia | Frankfurt | 7 | Stopwatch | STV","players":null},{"server_id":24,"name":"Uncletopia | Frankfurt | 8 | Community","name_short":"frk-8","host":"frk-1.de.uncletopia.com","port":27085,"enabled":true,"region":"eu","cc":"de","latitude":50.110924,"longitude":8.682127,"reserved":0,"last_update":"0001-01-01T00:00:00Z","name_a2s":"Uncletopia | Frankfurt | 8 | Community","protocol":17,"map":"cp_mountainlab","folder":"tf","game":"Team Fortress","app_id":440,"player_count":0,"max_players":24,"Bots":0,"server_type":"Dedicated","server_os":"Linux","password":true,"vac":true,"version":"7961495","steam_id":85568392924742828,"keywords":["cp","nocrits","nodmgspread","uncletopia"],"game_id":440,"stv_port":27086,"stv_name":"Uncletopia | Frankfurt | 8 | Community | STV","players":null},{"server_id":202,"name":"Uncletopia | Hong Kong | 1 | All Maps","name_short":"hgk-1","host":"hgk-1.hk.uncletopia.com","port":27015,"enabled":true,"region":"asia","cc":"hk","latitude":22.302711,"longitude":114.177216,"reserved":0,"last_update":"0001-01-01T00:00:00Z","name_a2s":"Uncletopia | Hong Kong | 1 | All Maps","protocol":17,"map":"pl_frontier_final","folder":"tf","game":"Team Fortress","app_id":440,"player_count":0,"max_players":24,"Bots":0,"server_type":"Dedicated","server_os":"Linux","password":true,"vac":true,"version":"7961495","steam_id":85568392924494504,"keywords":["nocrits","nodmgspread","payload","uncletopia"],"game_id":440,"stv_port":27016,"stv_name":"Uncletopia | Hong Kong | 1 | All Maps | STV","players":null},{"server_id":1,"name":"Uncletopia | Los Angeles | 1 | All Maps","name_short":"lax-1","host":"lax-1.us.uncletopia.com","port":27015,"enabled":true,"region":"us-west","cc":"us","latitude":33.94279,"longitude":-118.41004,"reserved":0,"last_update":"0001-01-01T00:00:00Z","name_a2s":"Uncletopia | Los Angeles | 1 | All Maps","protocol":17,"map":"cp_freight_final1","folder":"tf","game":"Team Fortress","app_id":440,"player_count":24,"max_players":24,"Bots":0,"server_type":"Dedicated","server_os":"Linux","password":true,"vac":true,"version":"7961495","steam_id":85568392924469991,"keywords":["cp","nocrits","nodmgspread","uncletopia"],"game_id":440,"stv_port":27016,"stv_name":"Uncletopia | Los Angeles | 1 | All Maps | STV","players":[{"user_id":318,"name":"Mocha Josie","steam_id":76561198066452726,"connected_time":5086000000000,"state":"active","ping":70},{"user_id":356,"name":"VoodooPapa","steam_id":76561199160439066,"connected_time":2536000000000,"state":"active","ping":63},{"user_id":381,"name":"Nova Academy of Salmon Action","steam_id":76561198021842526,"connected_time":253000000000,"state":"active","ping":70},{"user_id":321,"name":"TüCold","steam_id":76561198111278197,"connected_time":5082000000000,"state":"active","ping":66},{"user_id":322,"name":"werolat","steam_id":76561197960544784,"connected_time":5081000000000,"state":"active","ping":48},{"user_id":372,"name":"Anstorner","steam_id":76561198274026015,"connected_time":1021000000000,"state":"active","ping":42},{"user_id":366,"name":"Ichibanprofen","steam_id":76561199192132061,"connected_time":1355000000000,"state":"active","ping":60},{"user_id":346,"name":"Anthid","steam_id":76561198074493797,"connected_time":4232000000000,"state":"active","ping":75},{"user_id":375,"name":"Roosevelt Chadwick","steam_id":76561198278169311,"connected_time":806000000000,"state":"active","ping":67},{"user_id":326,"name":"podge","steam_id":76561198858474714,"connected_time":5015000000000,"state":"active","ping":76},{"user_id":353,"name":"GreenBlah","steam_id":76561198009178916,"connected_time":3205000000000,"state":"active","ping":76},{"user_id":377,"name":"Thunder","steam_id":76561198097721532,"connected_time":696000000000,"state":"active","ping":57},{"user_id":329,"name":"cielael","steam_id":76561198043971956,"connected_time":5001000000000,"state":"active","ping":64},{"user_id":332,"name":"Do cOck","steam_id":76561198132755619,"connected_time":4966000000000,"state":"active","ping":41},{"user_id":333,"name":"Your Favorite Fearless Hero","steam_id":76561199127590316,"connected_time":4964000000000,"state":"active","ping":61},{"user_id":334,"name":"simcye","steam_id":76561198010991761,"connected_time":4944000000000,"state":"active","ping":75},{"user_id":378,"name":"Thomas Chavira Gaming","steam_id":76561198313671617,"connected_time":672000000000,"state":"active","ping":59},{"user_id":337,"name":"the pizza","steam_id":76561198221331476,"connected_time":4886000000000,"state":"active","ping":56},{"user_id":357,"name":"nescoceo","steam_id":76561198040801160,"connected_time":2511000000000,"state":"active","ping":54},{"user_id":382,"name":"TheArachnidGamer","steam_id":76561198304986752,"connected_time":131000000000,"state":"active","ping":77},{"user_id":379,"name":"FriskyDemon","steam_id":76561198043684646,"connected_time":603000000000,"state":"active","ping":74},{"user_id":371,"name":"chubbs from happy gilmore","steam_id":76561198143538672,"connected_time":1175000000000,"state":"active","ping":78},{"user_id":380,"name":"Rain","steam_id":76561198123437878,"connected_time":598000000000,"state":"active","ping":90},{"user_id":364,"name":"Sinn","steam_id":76561199013434543,"connected_time":1785000000000,"state":"active","ping":70}]},{"server_id":112,"name":"Uncletopia | Los Angeles | 2 | All Maps","name_short":"lax-2","host":"lax-1.us.uncletopia.com","port":27025,"enabled":true,"region":"us-west","cc":"us","latitude":33.94279,"longitude":-118.41004,"reserved":0,"last_update":"0001-01-01T00:00:00Z","name_a2s":"Uncletopia | Los Angeles | 2 | All Maps","protocol":17,"map":"koth_cascade","folder":"tf","game":"Team Fortress","app_id":440,"player_count":0,"max_players":24,"Bots":0,"server_type":"Dedicated","server_os":"Linux","password":true,"vac":true,"version":"7961495","steam_id":85568392924469992,"keywords":["cp","nocrits","nodmgspread","uncletopia"],"game_id":440,"stv_port":27026,"stv_name":"Uncletopia | Los Angeles | 2 | All Maps | STV","players":null},{"server_id":324,"name":"Uncletopia | Los Angeles | 3 | All Maps","name_short":"lax-3","host":"lax-1.us.uncletopia.com","port":27035,"enabled":true,"region":"us-west","cc":"us","latitude":33.94279,"longitude":-118.41004,"reserved":0,"last_update":"0001-01-01T00:00:00Z","name_a2s":"Uncletopia | Los Angeles | 3 | All Maps","protocol":17,"map":"cp_sunshine","folder":"tf","game":"Team Fortress","app_id":440,"player_count":24,"max_players":24,"Bots":0,"server_type":"Dedicated","server_os":"Linux","password":true,"vac":true,"version":"7961495","steam_id":85568392924510198,"keywords":["cp","nocrits","nodmgspread","uncletopia"],"game_id":440,"stv_port":27036,"stv_name":"Uncletopia | Los Angeles | 3 | All Maps | STV","players":[{"user_id":315,"name":"MixelPixel","steam_id":76561198079708701,"connected_time":960000000000,"state":"active","ping":70},{"user_id":305,"name":"Nez","steam_id":76561197963109059,"connected_time":1583000000000,"state":"active","ping":64},{"user_id":323,"name":"Beepleton The 3rd","steam_id":76561198081466207,"connected_time":433000000000,"state":"active","ping":115},{"user_id":261,"name":"HOG RIDER","steam_id":76561198298589502,"connected_time":3809000000000,"state":"active","ping":49},{"user_id":316,"name":"PS2","steam_id":76561198108799902,"connected_time":893000000000,"state":"active","ping":119},{"user_id":324,"name":"armeen","steam_id":76561198168492250,"connected_time":169000000000,"state":"active","ping":47},{"user_id":303,"name":"Retrowave","steam_id":76561198061921346,"connected_time":1821000000000,"state":"active","ping":109},{"user_id":275,"name":"peanutbutter_ice1i73","steam_id":76561199129174517,"connected_time":2954000000000,"state":"active","ping":69},{"user_id":320,"name":"Pho","steam_id":76561198306515742,"connected_time":513000000000,"state":"active","ping":64},{"user_id":307,"name":"run fast fall dopwn","steam_id":76561198048925904,"connected_time":1545000000000,"state":"active","ping":60},{"user_id":292,"name":"GreekYogurt","steam_id":76561198037671890,"connected_time":2494000000000,"state":"active","ping":79},{"user_id":311,"name":"CPTforever","steam_id":76561198237767198,"connected_time":1021000000000,"state":"active","ping":52},{"user_id":314,"name":"Matisguy","steam_id":76561199020903681,"connected_time":967000000000,"state":"active","ping":92},{"user_id":321,"name":"BurritoCat","steam_id":76561198059822805,"connected_time":507000000000,"state":"active","ping":161},{"user_id":325,"name":"copper","steam_id":76561198146250533,"connected_time":48000000000,"state":"active","ping":72},{"user_id":322,"name":"small meth pouch","steam_id":76561198130412963,"connected_time":463000000000,"state":"active","ping":83},{"user_id":304,"name":"Persona404","steam_id":76561198109635077,"connected_time":1790000000000,"state":"active","ping":121},{"user_id":281,"name":"ExplosiveGamer21","steam_id":76561198132370955,"connected_time":2819000000000,"state":"active","ping":85},{"user_id":295,"name":"Silvermace","steam_id":76561198090696843,"connected_time":2278000000000,"state":"active","ping":48},{"user_id":283,"name":"alexthecaptain","steam_id":76561198072632194,"connected_time":2801000000000,"state":"active","ping":159},{"user_id":317,"name":"McDonald","steam_id":76561199028533497,"connected_time":887000000000,"state":"active","ping":49},{"user_id":318,"name":"Satori Komeiji","steam_id":76561198158211423,"connected_time":882000000000,"state":"active","ping":50},{"user_id":297,"name":"goopgrabber","steam_id":76561199029951083,"connected_time":2028000000000,"state":"active","ping":61},{"user_id":298,"name":"French Crouton","steam_id":76561198238317762,"connected_time":2005000000000,"state":"active","ping":53}]},{"server_id":25,"name":"Uncletopia | Los Angeles | 4 | Stopwatch","name_short":"lax-4","host":"lax-1.us.uncletopia.com","port":27045,"enabled":true,"region":"us-west","cc":"us","latitude":33.94279,"longitude":-118.41004,"reserved":0,"last_update":"0001-01-01T00:00:00Z","name_a2s":"Uncletopia | Los Angeles | 4 | Stopwatch","protocol":17,"map":"workshop/koth_product_final.ugc454272353","folder":"tf","game":"Team Fortress","app_id":440,"player_count":0,"max_players":24,"Bots":0,"server_type":"Dedicated","server_os":"Linux","password":true,"vac":true,"version":"7961495","steam_id":85568392924510199,"keywords":["cp","nocrits","nodmgspread","uncletopia"],"game_id":440,"stv_port":27046,"stv_name":"Uncletopia | Los Angeles | 4 | Stopwatch | STV","players":null},{"server_id":11,"name":"Uncletopia | London | 1 | All Maps","name_short":"lon-1","host":"lon-1.uk.uncletopia.com","port":27015,"enabled":true,"region":"eu","cc":"gb","latitude":51.509865,"longitude":-0.118092,"reserved":0,"last_update":"0001-01-01T00:00:00Z","name_a2s":"Uncletopia | London | 1 | All Maps","protocol":17,"map":"koth_highpass","folder":"tf","game":"Team Fortress","app_id":440,"player_count":0,"max_players":24,"Bots":0,"server_type":"Dedicated","server_os":"Linux","password":true,"vac":true,"version":"7961495","steam_id":85568392924367362,"keywords":["cp","nocrits","nodmgspread","uncletopia"],"game_id":440,"stv_port":27016,"stv_name":"Uncletopia | London | 1 | All Maps | STV","players":null},{"server_id":114,"name":"Uncletopia | London | 2 | All Maps","name_short":"lon-2","host":"lon-1.uk.uncletopia.com","port":27025,"enabled":true,"region":"eu","cc":"gb","latitude":51.509865,"longitude":-0.118092,"reserved":0,"last_update":"0001-01-01T00:00:00Z","name_a2s":"Uncletopia | London | 2 | All Maps","protocol":17,"map":"koth_lakeside_final","folder":"tf","game":"Team Fortress","app_id":440,"player_count":0,"max_players":24,"Bots":0,"server_type":"Dedicated","server_os":"Linux","password":true,"vac":true,"version":"7961495","steam_id":85568392924470941,"keywords":["cp","nocrits","nodmgspread","uncletopia"],"game_id":440,"stv_port":27026,"stv_name":"Uncletopia | London | 2 | All Maps | STV","players":null},{"server_id":320,"name":"Uncletopia | London | 3 | All Maps","name_short":"lon-3","host":"lon-1.uk.uncletopia.com","port":27035,"enabled":true,"region":"eu","cc":"gb","latitude":51.509865,"longitude":-0.118092,"reserved":0,"last_update":"0001-01-01T00:00:00Z","name_a2s":"Uncletopia | London | 3 | All Maps","protocol":17,"map":"cp_process_final","folder":"tf","game":"Team Fortress","app_id":440,"player_count":0,"max_players":24,"Bots":0,"server_type":"Dedicated","server_os":"Linux","password":true,"vac":true,"version":"7961495","steam_id":85568392924510192,"keywords":["cp","nocrits","nodmgspread","uncletopia"],"game_id":440,"stv_port":27036,"stv_name":"Uncletopia | London | 3 | All Maps | STV","players":null},{"server_id":321,"name":"Uncletopia | London | 4 | All Maps","name_short":"lon-4","host":"lon-1.uk.uncletopia.com","port":27045,"enabled":true,"region":"eu","cc":"gb","latitude":51.509865,"longitude":-0.118092,"reserved":0,"last_update":"0001-01-01T00:00:00Z","name_a2s":"Uncletopia | London | 4 | All Maps","protocol":17,"map":"koth_cascade","folder":"tf","game":"Team Fortress","app_id":440,"player_count":0,"max_players":24,"Bots":0,"server_type":"Dedicated","server_os":"Linux","password":true,"vac":true,"version":"7961495","steam_id":85568392924510193,"keywords":["cp","nocrits","nodmgspread","uncletopia"],"game_id":440,"stv_port":27046,"stv_name":"Uncletopia | London | 4 | All Maps | STV","players":null},{"server_id":21,"name":"Uncletopia | London | 5 | All Maps","name_short":"lon-5","host":"lon-1.uk.uncletopia.com","port":27055,"enabled":true,"region":"eu","cc":"gb","latitude":51.509865,"longitude":-0.118092,"reserved":0,"last_update":"0001-01-01T00:00:00Z","name_a2s":"Uncletopia | London | 5 | All Maps","protocol":17,"map":"koth_lakeside_final","folder":"tf","game":"Team Fortress","app_id":440,"player_count":0,"max_players":24,"Bots":0,"server_type":"Dedicated","server_os":"Linux","password":true,"vac":true,"version":"7961495","steam_id":85568392924742829,"keywords":["cp","nocrits","nodmgspread","uncletopia"],"game_id":440,"stv_port":27056,"stv_name":"Uncletopia | London | 5 | All Maps | STV","players":null},{"server_id":22,"name":"Uncletopia | London | 6 | All Maps","name_short":"lon-6","host":"lon-1.uk.uncletopia.com","port":27065,"enabled":true,"region":"eu","cc":"gb","latitude":51.509865,"longitude":-0.118092,"reserved":0,"last_update":"0001-01-01T00:00:00Z","name_a2s":"Uncletopia | London | 6 | All Maps","protocol":17,"map":"cp_dustbowl","folder":"tf","game":"Team Fortress","app_id":440,"player_count":0,"max_players":24,"Bots":0,"server_type":"Dedicated","server_os":"Linux","password":true,"vac":true,"version":"7961495","steam_id":85568392924742830,"keywords":["cp","nocrits","nodmgspread","uncletopia"],"game_id":440,"stv_port":27066,"stv_name":"Uncletopia | London | 6 | All Maps | STV","players":null},{"server_id":40,"name":"Uncletopia | London | 7 | Stopwatch","name_short":"lon-7","host":"lon-1.uk.uncletopia.com","port":27075,"enabled":true,"region":"eu","cc":"gb","latitude":51.509865,"longitude":-0.118092,"reserved":0,"last_update":"0001-01-01T00:00:00Z","name_a2s":"Uncletopia | London | 7 | Stopwatch","protocol":17,"map":"koth_lakeside_final","folder":"tf","game":"Team Fortress","app_id":440,"player_count":0,"max_players":24,"Bots":0,"server_type":"Dedicated","server_os":"Linux","password":true,"vac":true,"version":"7961495","steam_id":85568392924964314,"keywords":["cp","nocrits","nodmgspread","uncletopia"],"game_id":440,"stv_port":27076,"stv_name":"Uncletopia | London | 7 | Stopwatch | STV","players":null},{"server_id":41,"name":"Uncletopia | London | 8 | Community","name_short":"lon-8","host":"lon-1.uk.uncletopia.com","port":27085,"enabled":true,"region":"eu","cc":"gb","latitude":51.509865,"longitude":-0.118092,"reserved":0,"last_update":"0001-01-01T00:00:00Z","name_a2s":"Uncletopia | London | 8 | Community","protocol":17,"map":"cp_snakewater_final1","folder":"tf","game":"Team Fortress","app_id":440,"player_count":0,"max_players":24,"Bots":0,"server_type":"Dedicated","server_os":"Linux","password":true,"vac":true,"version":"7961495","steam_id":85568392924964315,"keywords":["cp","nocrits","nodmgspread","uncletopia"],"game_id":440,"stv_port":27086,"stv_name":"Uncletopia | London | 8 | Community | STV","players":null},{"server_id":300,"name":"Uncletopia | Montréal | 1 | All Maps","name_short":"mtl-1","host":"mtl-1.ca.uncletopia.com","port":27015,"enabled":true,"region":"us-east","cc":"ca","latitude":45.50889,"longitude":-73.56167,"reserved":0,"last_update":"0001-01-01T00:00:00Z","name_a2s":"","protocol":0,"map":"","folder":"","game":"","app_id":0,"player_count":0,"max_players":0,"Bots":0,"server_type":"","server_os":"","password":false,"vac":false,"version":"","steam_id":0,"keywords":null,"game_id":0,"stv_port":0,"stv_name":"","players":null},{"server_id":301,"name":"Uncletopia | Montréal | 2 | One Thousand Uncles","name_short":"mtl-2","host":"mtl-1.ca.uncletopia.com","port":27025,"enabled":true,"region":"us-east","cc":"ca","latitude":45.50889,"longitude":-73.56167,"reserved":0,"last_update":"0001-01-01T00:00:00Z","name_a2s":"","protocol":0,"map":"","folder":"","game":"","app_id":0,"player_count":6,"max_players":0,"Bots":0,"server_type":"","server_os":"","password":false,"vac":false,"version":"","steam_id":0,"keywords":null,"game_id":0,"stv_port":0,"stv_name":"","players":[{"user_id":113,"name":"sq","steam_id":76561197961279983,"connected_time":1743000000000,"state":"active","ping":129},{"user_id":130,"name":"ุ","steam_id":76561198084134025,"connected_time":1729000000000,"state":"active","ping":82},{"user_id":131,"name":"camp3r","steam_id":76561197992870439,"connected_time":1627000000000,"state":"active","ping":104},{"user_id":132,"name":"Lore","steam_id":76561198098407538,"connected_time":1622000000000,"state":"active","ping":64},{"user_id":133,"name":"mohamad","steam_id":76561199422781797,"connected_time":1175000000000,"state":"active","ping":177},{"user_id":150,"name":"Cool-Aids Man","steam_id":76561198280184641,"connected_time":382000000000,"state":"active","ping":44}]},{"server_id":13,"name":"Uncletopia | New York City | 1 | All Maps","name_short":"nyc-1","host":"nyc-1.us.uncletopia.com","port":27015,"enabled":true,"region":"us-east","cc":"us","latitude":40.73061,"longitude":-73.93524,"reserved":0,"last_update":"0001-01-01T00:00:00Z","name_a2s":"Uncletopia | New York City | 1 | All Maps","protocol":17,"map":"koth_sawmill","folder":"tf","game":"Team Fortress","app_id":440,"player_count":24,"max_players":24,"Bots":0,"server_type":"Dedicated","server_os":"Linux","password":true,"vac":true,"version":"7961495","steam_id":85568392924469993,"keywords":["cp","nocrits","nodmgspread","uncletopia"],"game_id":440,"stv_port":27016,"stv_name":"Uncletopia | New York City | 1 | All Maps | STV","players":[{"user_id":812,"name":"mothsprings","steam_id":76561198928604937,"connected_time":1505000000000,"state":"active","ping":66},{"user_id":761,"name":"SouerLuigi","steam_id":76561198261896480,"connected_time":5298000000000,"state":"active","ping":84},{"user_id":814,"name":"eatmysteel","steam_id":76561198976437527,"connected_time":1368000000000,"state":"active","ping":100},{"user_id":815,"name":"Tony hawks pro skater 2 dlc","steam_id":76561198243387974,"connected_time":1205000000000,"state":"active","ping":53},{"user_id":818,"name":"Exio","steam_id":76561198218639325,"connected_time":952000000000,"state":"active","ping":65},{"user_id":764,"name":"LambyLuigi","steam_id":76561198170456345,"connected_time":5191000000000,"state":"active","ping":84},{"user_id":817,"name":"Arrythmia","steam_id":76561198093748123,"connected_time":1086000000000,"state":"active","ping":105},{"user_id":805,"name":"Si1entSn1pa","steam_id":76561198170095479,"connected_time":2523000000000,"state":"active","ping":86},{"user_id":823,"name":"Feces","steam_id":76561198380219187,"connected_time":538000000000,"state":"active","ping":73},{"user_id":820,"name":"Hydroxianchaos","steam_id":76561198043786828,"connected_time":783000000000,"state":"active","ping":52},{"user_id":793,"name":"Athercon","steam_id":76561198071621615,"connected_time":4097000000000,"state":"active","ping":76},{"user_id":804,"name":"eMcP","steam_id":76561198382509396,"connected_time":2612000000000,"state":"active","ping":130},{"user_id":833,"name":"Rock Kickass","steam_id":76561198450510841,"connected_time":223000000000,"state":"active","ping":130},{"user_id":821,"name":"Alyx","steam_id":76561198064654326,"connected_time":765000000000,"state":"active","ping":124},{"user_id":824,"name":"linklol262","steam_id":76561198305620134,"connected_time":526000000000,"state":"active","ping":70},{"user_id":767,"name":"Jovian D. Ragon","steam_id":76561198024933412,"connected_time":5077000000000,"state":"active","ping":74},{"user_id":825,"name":"Elixir","steam_id":76561198154415647,"connected_time":496000000000,"state":"active","ping":63},{"user_id":809,"name":"Bana-kun","steam_id":76561198131344605,"connected_time":2356000000000,"state":"active","ping":93},{"user_id":835,"name":"Elm","steam_id":76561198127972568,"connected_time":205000000000,"state":"active","ping":87},{"user_id":831,"name":"H2OBourne","steam_id":76561198396293109,"connected_time":281000000000,"state":"active","ping":86},{"user_id":827,"name":"Etherhel","steam_id":76561198838449544,"connected_time":420000000000,"state":"active","ping":158},{"user_id":797,"name":"Ask Me For Random Trivia!","steam_id":76561198087065165,"connected_time":3442000000000,"state":"active","ping":59},{"user_id":828,"name":"Vesp","steam_id":76561198025445445,"connected_time":396000000000,"state":"active","ping":84},{"user_id":837,"name":"barney","steam_id":76561198166433332,"connected_time":13000000000,"state":"spawning","ping":116}]},{"server_id":14,"name":"Uncletopia | New York City | 2 | All Maps","name_short":"nyc-2","host":"nyc-1.us.uncletopia.com","port":27025,"enabled":true,"region":"us-east","cc":"us","latitude":40.73061,"longitude":-73.93524,"reserved":0,"last_update":"0001-01-01T00:00:00Z","name_a2s":"Uncletopia | New York City | 2 | All Maps","protocol":17,"map":"koth_lakeside_final","folder":"tf","game":"Team Fortress","app_id":440,"player_count":0,"max_players":24,"Bots":0,"server_type":"Dedicated","server_os":"Linux","password":true,"vac":true,"version":"7961495","steam_id":85568392924469994,"keywords":["cp","nocrits","nodmgspread","uncletopia"],"game_id":440,"stv_port":27026,"stv_name":"Uncletopia | New York City | 2 | All Maps | STV","players":null},{"server_id":15,"name":"Uncletopia | New York City | 3 | Stopwatch","name_short":"nyc-3","host":"nyc-1.us.uncletopia.com","port":27035,"enabled":true,"region":"us-east","cc":"us","latitude":40.73061,"longitude":-73.93524,"reserved":0,"last_update":"0001-01-01T00:00:00Z","name_a2s":"Uncletopia | New York City | 3 | Stopwatch","protocol":17,"map":"pl_upward","folder":"tf","game":"Team Fortress","app_id":440,"player_count":0,"max_players":24,"Bots":0,"server_type":"Dedicated","server_os":"Linux","password":true,"vac":true,"version":"7961495","steam_id":85568392924742820,"keywords":["nocrits","nodmgspread","payload","uncletopia"],"game_id":440,"stv_port":27036,"stv_name":"Uncletopia | New York City | 3 | Stopwatch | STV","players":null},{"server_id":16,"name":"Uncletopia | New York City | 4 | Community","name_short":"nyc-4","host":"nyc-1.us.uncletopia.com","port":27045,"enabled":true,"region":"us-east","cc":"us","latitude":40.73061,"longitude":-73.93524,"reserved":0,"last_update":"0001-01-01T00:00:00Z","name_a2s":"Uncletopia | New York City | 4 | Community","protocol":17,"map":"workshop/koth_product_final.ugc454272353","folder":"tf","game":"Team Fortress","app_id":440,"player_count":0,"max_players":24,"Bots":0,"server_type":"Dedicated","server_os":"Linux","password":true,"vac":true,"version":"7961495","steam_id":85568392924742821,"keywords":["cp","nocrits","nodmgspread","uncletopia"],"game_id":440,"stv_port":27046,"stv_name":"Uncletopia | New York City | 4 | Community | STV","players":null},{"server_id":142,"name":"Uncletopia | São Paulo | 1 | All Maps","name_short":"sao-1","host":"sao-1.br.uncletopia.com","port":27015,"enabled":true,"region":"sa","cc":"br","latitude":-23.533773,"longitude":-46.62529,"reserved":0,"last_update":"0001-01-01T00:00:00Z","name_a2s":"Uncletopia | São Paulo | 1 | All Maps","protocol":17,"map":"koth_lakeside_final","folder":"tf","game":"Team Fortress","app_id":440,"player_count":0,"max_players":24,"Bots":0,"server_type":"Dedicated","server_os":"Linux","password":true,"vac":true,"version":"7961495","steam_id":85568392924469996,"keywords":["cp","nocrits","nodmgspread","uncletopia"],"game_id":440,"stv_port":27016,"stv_name":"Uncletopia | São Paulo | 1 | All Maps | STV","players":null},{"server_id":143,"name":"Uncletopia | São Paulo | 2 | Community","name_short":"sao-2","host":"sao-2.br.uncletopia.com","port":27015,"enabled":true,"region":"sa","cc":"br","latitude":-23.533773,"longitude":-46.62529,"reserved":0,"last_update":"0001-01-01T00:00:00Z","name_a2s":"Uncletopia | São Paulo | 2 | Community","protocol":17,"map":"workshop/cp_reckoner_rc6.ugc674719999","folder":"tf","game":"Team Fortress","app_id":440,"player_count":0,"max_players":24,"Bots":0,"server_type":"Dedicated","server_os":"Linux","password":true,"vac":true,"version":"7961495","steam_id":85568392924485349,"keywords":["cp","nocrits","nodmgspread","uncletopia"],"game_id":440,"stv_port":27016,"stv_name":"Uncletopia | São Paulo | 2 | Community | STV","players":null},{"server_id":7,"name":"Uncletopia | Seattle | 1 | All Maps","name_short":"sea-1","host":"sea-1.us.uncletopia.com","port":27015,"enabled":true,"region":"us-west","cc":"us","latitude":47.608013,"longitude":-122.33517,"reserved":0,"last_update":"0001-01-01T00:00:00Z","name_a2s":"Uncletopia | Seattle | 1 | All Maps","protocol":17,"map":"pl_frontier_final","folder":"tf","game":"Team Fortress","app_id":440,"player_count":24,"max_players":24,"Bots":0,"server_type":"Dedicated","server_os":"Linux","password":true,"vac":true,"version":"7961495","steam_id":85568392924469997,"keywords":["nocrits","nodmgspread","payload","uncletopia"],"game_id":440,"stv_port":27016,"stv_name":"Uncletopia | Seattle | 1 | All Maps | STV","players":[{"user_id":338,"name":"mega","steam_id":76561198089520959,"connected_time":995000000000,"state":"active","ping":91},{"user_id":168,"name":"Ayayayayayahuasca","steam_id":76561199002906056,"connected_time":13189000000000,"state":"active","ping":47},{"user_id":295,"name":"sillyjack","steam_id":76561198844273999,"connected_time":4729000000000,"state":"active","ping":44},{"user_id":288,"name":"I LOVE SHOEBILLS","steam_id":76561198169755734,"connected_time":6631000000000,"state":"active","ping":66},{"user_id":335,"name":"pepe warlord","steam_id":76561198080819197,"connected_time":1449000000000,"state":"active","ping":75},{"user_id":334,"name":"slushy :))","steam_id":76561198135281802,"connected_time":1450000000000,"state":"active","ping":42},{"user_id":331,"name":"rat who can kickflip","steam_id":76561198073620027,"connected_time":1502000000000,"state":"active","ping":43},{"user_id":343,"name":"jole","steam_id":76561198037292232,"connected_time":619000000000,"state":"active","ping":121},{"user_id":322,"name":"Translucent૮₍ • ᴥ •","steam_id":76561199212057076,"connected_time":2086000000000,"state":"active","ping":76},{"user_id":282,"name":"gorlab","steam_id":76561198025089694,"connected_time":6691000000000,"state":"active","ping":60},{"user_id":337,"name":"Sacrificial Wormy ;-;","steam_id":76561198054539200,"connected_time":1008000000000,"state":"active","ping":54},{"user_id":341,"name":"oil","steam_id":76561198099980149,"connected_time":813000000000,"state":"active","ping":80},{"user_id":306,"name":"Cheezbeargur","steam_id":76561198164702899,"connected_time":3326000000000,"state":"active","ping":69},{"user_id":201,"name":"NEBULA","steam_id":76561198086878595,"connected_time":10081000000000,"state":"active","ping":72},{"user_id":293,"name":"lavender","steam_id":76561199069518286,"connected_time":4945000000000,"state":"active","ping":74},{"user_id":228,"name":"aisu","steam_id":76561198043768507,"connected_time":7715000000000,"state":"active","ping":90},{"user_id":336,"name":"Kaiga","steam_id":76561198044052046,"connected_time":1329000000000,"state":"active","ping":128},{"user_id":329,"name":"Zee✞","steam_id":76561198274550638,"connected_time":1564000000000,"state":"active","ping":105},{"user_id":325,"name":"rat gets the cheese","steam_id":76561198031234032,"connected_time":2017000000000,"state":"active","ping":103},{"user_id":312,"name":"card carrying member","steam_id":76561198043558709,"connected_time":3242000000000,"state":"active","ping":51},{"user_id":249,"name":"Atticus Barnebus","steam_id":76561198141819053,"connected_time":7413000000000,"state":"active","ping":180},{"user_id":339,"name":"jayeskae","steam_id":76561198144220801,"connected_time":982000000000,"state":"active","ping":54},{"user_id":344,"name":"jorts","steam_id":76561199041179985,"connected_time":589000000000,"state":"active","ping":57},{"user_id":319,"name":"goku super saiyan blue","steam_id":76561198271939793,"connected_time":2420000000000,"state":"active","ping":55}]},{"server_id":119,"name":"Uncletopia | Seattle | 2 | All Maps","name_short":"sea-2","host":"sea-1.us.uncletopia.com","port":27025,"enabled":true,"region":"us-west","cc":"us","latitude":47.608013,"longitude":-122.33517,"reserved":0,"last_update":"0001-01-01T00:00:00Z","name_a2s":"Uncletopia | Seattle | 2 | All Maps","protocol":17,"map":"pl_snowycoast","folder":"tf","game":"Team Fortress","app_id":440,"player_count":21,"max_players":24,"Bots":0,"server_type":"Dedicated","server_os":"Linux","password":true,"vac":true,"version":"7961495","steam_id":85568392924469998,"keywords":["nocrits","nodmgspread","payload","uncletopia"],"game_id":440,"stv_port":27026,"stv_name":"Uncletopia | Seattle | 2 | All Maps | STV","players":[{"user_id":309,"name":"OmniMoto","steam_id":76561198091298557,"connected_time":412000000000,"state":"active","ping":81},{"user_id":308,"name":"Lily Thorn","steam_id":76561198305488625,"connected_time":433000000000,"state":"active","ping":51},{"user_id":310,"name":"HanakoToast","steam_id":76561198045233131,"connected_time":376000000000,"state":"active","ping":90},{"user_id":305,"name":"AAAAAAAAAAAAAAAAAAAAAAAAAAAAAAA","steam_id":76561198125467937,"connected_time":784000000000,"state":"active","ping":74},{"user_id":300,"name":"amagicowl","steam_id":76561199060487814,"connected_time":1188000000000,"state":"active","ping":56},{"user_id":315,"name":"Beef Wellington","steam_id":76561197995635241,"connected_time":124000000000,"state":"active","ping":179},{"user_id":312,"name":"binka bonk","steam_id":76561198174751517,"connected_time":243000000000,"state":"active","ping":76},{"user_id":313,"name":"{Mbx} Luke","steam_id":76561198072441047,"connected_time":241000000000,"state":"active","ping":49},{"user_id":301,"name":"2 Point Tom","steam_id":76561198087617008,"connected_time":1068000000000,"state":"active","ping":45},{"user_id":316,"name":"Feelin' M'self","steam_id":76561198016673367,"connected_time":45000000000,"state":"active","ping":49},{"user_id":314,"name":"OzzyAkiro47","steam_id":76561199076449499,"connected_time":207000000000,"state":"active","ping":62},{"user_id":287,"name":"that's sick, that's badass","steam_id":76561198057751156,"connected_time":2159000000000,"state":"active","ping":90},{"user_id":304,"name":"the guy","steam_id":76561199350870177,"connected_time":819000000000,"state":"active","ping":118},{"user_id":267,"name":"rAnch","steam_id":76561198024562587,"connected_time":3688000000000,"state":"active","ping":86},{"user_id":269,"name":"Shitty Pilot","steam_id":76561198042723469,"connected_time":3673000000000,"state":"active","ping":102},{"user_id":298,"name":"Adawnby","steam_id":76561198103057295,"connected_time":1748000000000,"state":"active","ping":99},{"user_id":302,"name":"Chap","steam_id":76561198294226443,"connected_time":1043000000000,"state":"active","ping":73},{"user_id":306,"name":"SadFapping","steam_id":76561198076651049,"connected_time":632000000000,"state":"active","ping":46},{"user_id":307,"name":"BingoBongo","steam_id":76561198095304242,"connected_time":584000000000,"state":"active","ping":47},{"user_id":279,"name":"Optimore","steam_id":76561198047662990,"connected_time":3203000000000,"state":"active","ping":74},{"user_id":284,"name":"Big Gumbis","steam_id":76561198058517730,"connected_time":2738000000000,"state":"active","ping":75}]},{"server_id":406,"name":"Uncletopia | Seattle | 3 | Stopwatch","name_short":"sea-3","host":"sea-1.us.uncletopia.com","port":27035,"enabled":true,"region":"us-west","cc":"us","latitude":47.608013,"longitude":-122.33517,"reserved":0,"last_update":"0001-01-01T00:00:00Z","name_a2s":"Uncletopia | Seattle | 3 | Stopwatch","protocol":17,"map":"pl_swiftwater_final1","folder":"tf","game":"Team Fortress","app_id":440,"player_count":0,"max_players":24,"Bots":0,"server_type":"Dedicated","server_os":"Linux","password":true,"vac":true,"version":"7961495","steam_id":85568392924515217,"keywords":["nocrits","nodmgspread","payload","uncletopia"],"game_id":440,"stv_port":27036,"stv_name":"Uncletopia | Seattle | 3 | Stopwatch | STV","players":null},{"server_id":17,"name":"Uncletopia | San Francisco | 1 | All Maps","name_short":"sfo-1","host":"sfo-1.us.uncletopia.com","port":27015,"enabled":true,"region":"us-west","cc":"us","latitude":37.77397,"longitude":-122.4313,"reserved":0,"last_update":"0001-01-01T00:00:00Z","name_a2s":"Uncletopia | San Francisco | 1 | All Maps","protocol":17,"map":"cp_5gorge","folder":"tf","game":"Team Fortress","app_id":440,"player_count":12,"max_players":24,"Bots":0,"server_type":"Dedicated","server_os":"Linux","password":true,"vac":true,"version":"7961495","steam_id":85568392924469999,"keywords":["cp","nocrits","nodmgspread","uncletopia"],"game_id":440,"stv_port":27016,"stv_name":"Uncletopia | San Francisco | 1 | All Maps | STV","players":[{"user_id":205,"name":"Cypress [ +/- ] ✔","steam_id":76561198067164431,"connected_time":170000000000,"state":"active","ping":60},{"user_id":202,"name":"Archie","steam_id":76561198137112917,"connected_time":304000000000,"state":"active","ping":42},{"user_id":204,"name":"Wendall555","steam_id":76561198985637603,"connected_time":226000000000,"state":"active","ping":58},{"user_id":121,"name":"SQbuilder","steam_id":76561198076473375,"connected_time":7029000000000,"state":"active","ping":52},{"user_id":201,"name":"Burnsasaurous","steam_id":76561198003315964,"connected_time":359000000000,"state":"active","ping":61},{"user_id":191,"name":"ImmuneToPeas","steam_id":76561198342411594,"connected_time":1721000000000,"state":"active","ping":72},{"user_id":192,"name":"shoobs","steam_id":76561198042507255,"connected_time":1709000000000,"state":"active","ping":94},{"user_id":195,"name":"whitr","steam_id":76561198043981478,"connected_time":807000000000,"state":"active","ping":87},{"user_id":135,"name":"Marzbee115","steam_id":76561198095821025,"connected_time":6476000000000,"state":"active","ping":55},{"user_id":194,"name":"Hardcore Girlfail","steam_id":76561198140531755,"connected_time":1680000000000,"state":"active","ping":82},{"user_id":164,"name":"Noxus","steam_id":76561199009820852,"connected_time":4412000000000,"state":"active","ping":85},{"user_id":188,"name":"Siev","steam_id":76561198000518937,"connected_time":2098000000000,"state":"active","ping":58}]},{"server_id":18,"name":"Uncletopia | San Francisco | 2 | All Maps","name_short":"sfo-2","host":"sfo-1.us.uncletopia.com","port":27025,"enabled":true,"region":"us-west","cc":"us","latitude":37.77397,"longitude":-122.4313,"reserved":0,"last_update":"0001-01-01T00:00:00Z","name_a2s":"Uncletopia | San Francisco | 2 | All Maps","protocol":17,"map":"cp_altitude","folder":"tf","game":"Team Fortress","app_id":440,"player_count":0,"max_players":24,"Bots":0,"server_type":"Dedicated","server_os":"Linux","password":true,"vac":true,"version":"7961495","steam_id":85568392924470000,"keywords":["cp","nocrits","nodmgspread","uncletopia"],"game_id":440,"stv_port":27026,"stv_name":"Uncletopia | San Francisco | 2 | All Maps | STV","players":null},{"server_id":19,"name":"Uncletopia | San Francisco | 3 | Stopwatch","name_short":"sfo-3","host":"sfo-1.us.uncletopia.com","port":27035,"enabled":true,"region":"us-west","cc":"us","latitude":37.77397,"longitude":-122.4313,"reserved":0,"last_update":"0001-01-01T00:00:00Z","name_a2s":"Uncletopia | San Francisco | 3 | Stopwatch","protocol":17,"map":"workshop/koth_product_final.ugc454272353","folder":"tf","game":"Team Fortress","app_id":440,"player_count":0,"max_players":24,"Bots":0,"server_type":"Dedicated","server_os":"Linux","password":true,"vac":true,"version":"7961495","steam_id":85568392924742824,"keywords":["cp","nocrits","nodmgspread","uncletopia"],"game_id":440,"stv_port":27036,"stv_name":"Uncletopia | San Francisco | 3 | Stopwatch | STV","players":null},{"server_id":20,"name":"Uncletopia | San Francisco | 4 | Community","name_short":"sfo-4","host":"sfo-1.us.uncletopia.com","port":27045,"enabled":true,"region":"us-west","cc":"us","latitude":37.77397,"longitude":-122.4313,"reserved":0,"last_update":"0001-01-01T00:00:00Z","name_a2s":"Uncletopia | San Francisco | 4 | Community","protocol":17,"map":"workshop/cp_hazyfort_rc6.ugc1365963729","folder":"tf","game":"Team Fortress","app_id":440,"player_count":0,"max_players":24,"Bots":0,"server_type":"Dedicated","server_os":"Linux","password":true,"vac":true,"version":"7961495","steam_id":85568392924742826,"keywords":["cp","nocrits","nodmgspread","uncletopia"],"game_id":440,"stv_port":27046,"stv_name":"Uncletopia | San Francisco | 4 | Community | STV","players":null},{"server_id":141,"name":"Uncletopia | Sydney | 1 | All Maps","name_short":"syd-1","host":"syd-1.au.uncletopia.com","port":27015,"enabled":true,"region":"au","cc":"au","latitude":-33.865143,"longitude":151.2099,"reserved":0,"last_update":"0001-01-01T00:00:00Z","name_a2s":"Uncletopia | Sydney | 1 | All Maps","protocol":17,"map":"pl_barnblitz","folder":"tf","game":"Team Fortress","app_id":440,"player_count":24,"max_players":24,"Bots":0,"server_type":"Dedicated","server_os":"Linux","password":true,"vac":true,"version":"7961495","steam_id":85568392924470001,"keywords":["nocrits","nodmgspread","payload","uncletopia"],"game_id":440,"stv_port":27016,"stv_name":"Uncletopia | Sydney | 1 | All Maps | STV","players":[{"user_id":13,"name":"LeoJoeD","steam_id":76561198161848749,"connected_time":4885000000000,"state":"active","ping":42},{"user_id":30,"name":"Rodan","steam_id":76561198038401873,"connected_time":3264000000000,"state":"active","ping":89},{"user_id":58,"name":"using a laptop","steam_id":76561199445302425,"connected_time":1413000000000,"state":"active","ping":155},{"user_id":81,"name":"42","steam_id":76561198184593855,"connected_time":68000000000,"state":"active","ping":45},{"user_id":64,"name":"Owl","steam_id":76561198107786190,"connected_time":1193000000000,"state":"active","ping":88},{"user_id":18,"name":"Captain Calamity","steam_id":76561198169940182,"connected_time":4233000000000,"state":"active","ping":61},{"user_id":53,"name":"cakey","steam_id":76561198173746761,"connected_time":1690000000000,"state":"active","ping":45},{"user_id":65,"name":"[ѵƇity] it has been ages","steam_id":76561198016686295,"connected_time":1109000000000,"state":"active","ping":68},{"user_id":23,"name":"Kerryn's boyfriend","steam_id":76561199124736340,"connected_time":3762000000000,"state":"active","ping":70},{"user_id":33,"name":"frog","steam_id":76561198300661780,"connected_time":3052000000000,"state":"active","ping":43},{"user_id":26,"name":"eepy","steam_id":76561198452767008,"connected_time":3474000000000,"state":"active","ping":57},{"user_id":69,"name":"Skree'kaw","steam_id":76561199415758131,"connected_time":1030000000000,"state":"active","ping":67},{"user_id":77,"name":"koyaa","steam_id":76561198047484772,"connected_time":594000000000,"state":"active","ping":75},{"user_id":75,"name":"Nyda","steam_id":76561198152311904,"connected_time":715000000000,"state":"active","ping":68},{"user_id":36,"name":"Phibs","steam_id":76561199323730865,"connected_time":2843000000000,"state":"active","ping":40},{"user_id":66,"name":"sav","steam_id":76561198058760041,"connected_time":1107000000000,"state":"active","ping":75},{"user_id":67,"name":"alex","steam_id":76561198053382248,"connected_time":1069000000000,"state":"active","ping":45},{"user_id":68,"name":"Max","steam_id":76561198088406066,"connected_time":1046000000000,"state":"active","ping":109},{"user_id":78,"name":"laptop","steam_id":76561198104810002,"connected_time":218000000000,"state":"active","ping":30},{"user_id":45,"name":"Barry Wonderman","steam_id":76561198092291231,"connected_time":2319000000000,"state":"active","ping":56},{"user_id":76,"name":"WierdDude54","steam_id":76561199113588747,"connected_time":708000000000,"state":"active","ping":77},{"user_id":74,"name":"P","steam_id":76561198304514505,"connected_time":862000000000,"state":"active","ping":165},{"user_id":49,"name":"burfdae boi","steam_id":76561199000827969,"connected_time":2146000000000,"state":"active","ping":41},{"user_id":80,"name":"cat food xxl","steam_id":76561198042188786,"connected_time":167000000000,"state":"active","ping":60}]},{"server_id":123,"name":"Uncletopia | Sydney | 2 | All Maps","name_short":"syd-2","host":"syd-1.au.uncletopia.com","port":27025,"enabled":true,"region":"au","cc":"au","latitude":-33.865143,"longitude":151.2099,"reserved":0,"last_update":"0001-01-01T00:00:00Z","name_a2s":"Uncletopia | Sydney | 2 | All Maps","protocol":17,"map":"koth_lakeside_final","folder":"tf","game":"Team Fortress","app_id":440,"player_count":0,"max_players":24,"Bots":0,"server_type":"Dedicated","server_os":"Linux","password":true,"vac":true,"version":"7961495","steam_id":85568392924470002,"keywords":["cp","nocrits","nodmgspread","uncletopia"],"game_id":440,"stv_port":27026,"stv_name":"Uncletopia | Sydney | 2 | All Maps | STV","players":null},{"server_id":395,"name":"Uncletopia | Sydney | 3 | All Maps","name_short":"syd-3","host":"syd-1.au.uncletopia.com","port":27035,"enabled":true,"region":"au","cc":"au","latitude":-33.865143,"longitude":151.2099,"reserved":0,"last_update":"0001-01-01T00:00:00Z","name_a2s":"Uncletopia | Sydney | 3 | All Maps","protocol":17,"map":"koth_highpass","folder":"tf","game":"Team Fortress","app_id":440,"player_count":0,"max_players":24,"Bots":0,"server_type":"Dedicated","server_os":"Linux","password":true,"vac":true,"version":"7961495","steam_id":85568392925194467,"keywords":["cp","nocrits","nodmgspread","uncletopia"],"game_id":440,"stv_port":27036,"stv_name":"Uncletopia | Sydney | 3 | All Maps | STV","players":null},{"server_id":396,"name":"Uncletopia | Sydney | 4 | All Maps","name_short":"syd-4","host":"syd-1.au.uncletopia.com","port":27045,"enabled":true,"region":"au","cc":"au","latitude":-33.865143,"longitude":151.2099,"reserved":0,"last_update":"0001-01-01T00:00:00Z","name_a2s":"Uncletopia | Sydney | 4 | All Maps","protocol":17,"map":"koth_cascade","folder":"tf","game":"Team Fortress","app_id":440,"player_count":0,"max_players":24,"Bots":0,"server_type":"Dedicated","server_os":"Linux","password":true,"vac":true,"version":"7961495","steam_id":85568392925397958,"keywords":["cp","nocrits","nodmgspread","uncletopia"],"game_id":440,"stv_port":27046,"stv_name":"Uncletopia | Sydney | 4 | All Maps | STV","players":null},{"server_id":58,"name":"Uncletopia | Sydney | 5 | Stopwatch","name_short":"syd-5","host":"syd-1.au.uncletopia.com","port":27055,"enabled":true,"region":"au","cc":"au","latitude":-33.865143,"longitude":151.2099,"reserved":0,"last_update":"0001-01-01T00:00:00Z","name_a2s":"Uncletopia | Sydney | 5 | Stopwatch","protocol":17,"map":"workshop/koth_clearcut_b15.ugc2107050255","folder":"tf","game":"Team Fortress","app_id":440,"player_count":0,"max_players":24,"Bots":0,"server_type":"Dedicated","server_os":"Linux","password":true,"vac":true,"version":"7961495","steam_id":85568392925397959,"keywords":["cp","nocrits","nodmgspread","uncletopia"],"game_id":440,"stv_port":27056,"stv_name":"Uncletopia | Sydney | 5 | Stopwatch | STV","players":null},{"server_id":59,"name":"Uncletopia | Sydney | 6 | Community","name_short":"syd-6","host":"syd-1.au.uncletopia.com","port":27065,"enabled":true,"region":"au","cc":"au","latitude":-33.865143,"longitude":151.2099,"reserved":0,"last_update":"0001-01-01T00:00:00Z","name_a2s":"Uncletopia | Sydney | 6 | Community","protocol":17,"map":"cp_sunshine","folder":"tf","game":"Team Fortress","app_id":440,"player_count":0,"max_players":24,"Bots":0,"server_type":"Dedicated","server_os":"Linux","password":true,"vac":true,"version":"7961495","steam_id":85568392925397960,"keywords":["cp","nocrits","nodmgspread","uncletopia"],"game_id":440,"stv_port":27066,"stv_name":"Uncletopia | Sydney | 6 | Community | STV","players":null},{"server_id":49,"name":"Uncletopia | Warsaw | 1 | All Maps","name_short":"waw-1","host":"waw-1.pl.uncletopia.com","port":27015,"enabled":true,"region":"eu","cc":"pl","latitude":52.2297,"longitude":21.017532,"reserved":0,"last_update":"0001-01-01T00:00:00Z","name_a2s":"Uncletopia | Warsaw | 1 | All Maps","protocol":17,"map":"koth_lakeside_final","folder":"tf","game":"Team Fortress","app_id":440,"player_count":0,"max_players":24,"Bots":0,"server_type":"Dedicated","server_os":"Linux","password":true,"vac":true,"version":"7961495","steam_id":85568392925397850,"keywords":["cp","nocrits","nodmgspread","uncletopia"],"game_id":440,"stv_port":27016,"stv_name":"Uncletopia | Warsaw | 1 | All Maps | STV","players":null},{"server_id":50,"name":"Uncletopia | Warsaw | 2 | All Maps","name_short":"waw-2","host":"waw-1.pl.uncletopia.com","port":27025,"enabled":true,"region":"eu","cc":"pl","latitude":52.2297,"longitude":21.017532,"reserved":0,"last_update":"0001-01-01T00:00:00Z","name_a2s":"Uncletopia | Warsaw | 2 | All Maps","protocol":17,"map":"pl_borneo","folder":"tf","game":"Team Fortress","app_id":440,"player_count":0,"max_players":24,"Bots":0,"server_type":"Dedicated","server_os":"Linux","password":true,"vac":true,"version":"7961495","steam_id":85568392925397851,"keywords":["nocrits","nodmgspread","payload","uncletopia"],"game_id":440,"stv_port":27026,"stv_name":"Uncletopia | Warsaw | 2 | All Maps | STV","players":null},{"server_id":51,"name":"Uncletopia | Warsaw | 3 | All Maps","name_short":"waw-3","host":"waw-1.pl.uncletopia.com","port":27035,"enabled":true,"region":"eu","cc":"pl","latitude":52.2297,"longitude":21.017532,"reserved":0,"last_update":"0001-01-01T00:00:00Z","name_a2s":"Uncletopia | Warsaw | 3 | All Maps","protocol":17,"map":"pl_barnblitz","folder":"tf","game":"Team Fortress","app_id":440,"player_count":0,"max_players":24,"Bots":0,"server_type":"Dedicated","server_os":"Linux","password":true,"vac":true,"version":"7961495","steam_id":85568392925397852,"keywords":["nocrits","nodmgspread","payload","uncletopia"],"game_id":440,"stv_port":27036,"stv_name":"Uncletopia | Warsaw | 3 | All Maps | STV","players":null},{"server_id":52,"name":"Uncletopia | Warsaw | 4 | All Maps","name_short":"waw-4","host":"waw-1.pl.uncletopia.com","port":27045,"enabled":true,"region":"eu","cc":"pl","latitude":52.2297,"longitude":21.017532,"reserved":0,"last_update":"0001-01-01T00:00:00Z","name_a2s":"Uncletopia | Warsaw | 4 | All Maps","protocol":17,"map":"pl_borneo","folder":"tf","game":"Team Fortress","app_id":440,"player_count":0,"max_players":24,"Bots":0,"server_type":"Dedicated","server_os":"Linux","password":true,"vac":true,"version":"7961495","steam_id":85568392925397853,"keywords":["nocrits","nodmgspread","payload","uncletopia"],"game_id":440,"stv_port":27046,"stv_name":"Uncletopia | Warsaw | 4 | All Maps | STV","players":null},{"server_id":53,"name":"Uncletopia | Warsaw | 5 | Stopwatch","name_short":"waw-5","host":"waw-1.pl.uncletopia.com","port":27055,"enabled":true,"region":"eu","cc":"pl","latitude":52.2297,"longitude":21.017532,"reserved":0,"last_update":"0001-01-01T00:00:00Z","name_a2s":"Uncletopia | Warsaw | 5 | Stopwatch","protocol":17,"map":"pl_barnblitz","folder":"tf","game":"Team Fortress","app_id":440,"player_count":0,"max_players":24,"Bots":0,"server_type":"Dedicated","server_os":"Linux","password":true,"vac":true,"version":"7961495","steam_id":85568392925397854,"keywords":["nocrits","nodmgspread","payload","uncletopia"],"game_id":440,"stv_port":27056,"stv_name":"Uncletopia | Warsaw | 5 | Stopwatch | STV","players":null},{"server_id":54,"name":"Uncletopia | Warsaw | 6 | Community","name_short":"waw-6","host":"waw-1.pl.uncletopia.com","port":27065,"enabled":true,"region":"eu","cc":"pl","latitude":52.2297,"longitude":21.017532,"reserved":0,"last_update":"0001-01-01T00:00:00Z","name_a2s":"Uncletopia | Warsaw | 6 | Community","protocol":17,"map":"cp_altitude","folder":"tf","game":"Team Fortress","app_id":440,"player_count":0,"max_players":24,"Bots":0,"server_type":"Dedicated","server_os":"Linux","password":true,"vac":true,"version":"7961495","steam_id":85568392925397856,"keywords":["cp","nocrits","nodmgspread","uncletopia"],"game_id":440,"stv_port":27066,"stv_name":"Uncletopia | Warsaw | 6 | Community | STV","players":null}]}