{"status":true,"message":"","result":[{"server_id":9,"name":"Uncletopia | Atlanta | 1 | All Maps","name_short":"atl-1","host":"atl-1.us.uncletopia.com","port":27015,"enabled":true,"region":"us-east","cc":"us","latitude":33.753746,"longitude":-84.38633,"reserved":0,"last_update":"0001-01-01T00:00:00Z","name_a2s":"Uncletopia | Atlanta | 1 | All Maps","protocol":17,"map":"cp_snakewater_final1","folder":"tf","game":"Team Fortress","app_id":440,"player_count":1,"max_players":24,"Bots":0,"server_type":"Dedicated","server_os":"Linux","password":true,"vac":true,"version":"7961495","steam_id":85568392924469982,"keywords":["cp","nocrits","nodmgspread","uncletopia"],"game_id":440,"stv_port":27016,"stv_name":"Uncletopia | Atlanta | 1 | All Maps | STV","players":null},{"server_id":104,"name":"Uncletopia | Atlanta | 2 | All Maps","name_short":"atl-2","host":"atl-1.us.uncletopia.com","port":27025,"enabled":true,"region":"us-east","cc":"us","latitude":33.753746,"longitude":-84.38633,"reserved":0,"last_update":"0001-01-01T00:00:00Z","name_a2s":"Uncletopia | Atlanta | 2 | All Maps","protocol":17,"map":"cp_junction_final","folder":"tf","game":"Team Fortress","app_id":440,"player_count":24,"max_players":24,"Bots":0,"server_type":"Dedicated","server_os":"Linux","password":true,"vac":true,"version":"7961495","steam_id":85568392924469983,"keywords":["cp","nocrits","nodmgspread","uncletopia"],"game_id":440,"stv_port":27026,"stv_name":"Uncletopia | Atlanta | 2 | All Maps | STV","players":null},{"server_id":400,"name":"Uncletopia | Atlanta | 3 | Stopwatch","name_short":"atl-3","host":"atl-1.us.uncletopia.com","port":27035,"enabled":true,"region":"us-east","cc":"us","latitude":33.753746,"longitude":-84.38633,"reserved":0,"last_update":"0001-01-01T00:00:00Z","name_a2s":"Uncletopia | Atlanta | 3 | Stopwatch","protocol":17,"map":"pl_swiftwater_final1","folder":"tf","game":"Team Fortress","app_id":440,"player_count":0,"max_players":24,"Bots":0,"server_type":"Dedicated","server_os":"Linux","password":true,"vac":true,"version":"7961495","steam_id":85568392924515187,"keywords":["nocrits","nodmgspread","payload","uncletopia"],"game_id":440,"stv_port":27036,"stv_name":"Uncletopia | Atlanta | 3 | Stopwatch | STV","players":null},{"server_id":401,"name":"Uncletopia | Atlanta | 4 | Community","name_short":"atl-4","host":"atl-1.us.uncletopia.com","port":27045,"enabled":true,"region":"us-east","cc":"us","latitude":33.753746,"longitude":-84.38633,"reserved":0,"last_update":"0001-01-01T00:00:00Z","name_a2s":"Uncletopia | Atlanta | 4 | Community","protocol":17,"map":"cp_villa_b19","folder":"tf","game":"Team Fortress","app_id":440,"player_count":0,"max_players":24,"Bots":0,"server_type":"Dedicated","server_os":"Linux","password":true,"vac":true,"version":"7961495","steam_id":85568392924515188,"keywords":["cp","nocrits","nodmgspread","uncletopia"],"game_id":440,"stv_port":27046,"stv_name":"Uncletopia | Atlanta | 4 | Community | STV","players":null},{"server_id":2,"name":"Uncletopia | Chicago | 1 | All Maps","name_short":"chi-1","host":"chi-1.us.uncletopia.com","port":27015,"enabled":true,"region":"us-central","cc":"us","latitude":41.881832,"longitude":-87.62318,"reserved":0,"last_update":"0001-01-01T00:00:00Z","name_a2s":"Uncletopia | Chicago | 1 | All Maps","protocol":17,"map":"cp_foundry","folder":"tf","game":"Team Fortress","app_id":440,"player_count":24,"max_players":24,"Bots":0,"server_type":"Dedicated","server_os":"Linux","password":true,"vac":true,"version":"7961495","steam_id":85568392924469984,"keywords":["cp","nocrits","nodmgspread","uncletopia"],"game_id":440,"stv_port":27016,"stv_name":"Uncletopia | Chicago | 1 | All Maps | STV","players":[{"user_id":199,"name":"Dude","steam_id":76561199058616824,"connected_time":909000000000,"state":"active","ping":68},{"user_id":174,"name":"anonpain","steam_id":76561198081317092,"connected_time":3393000000000,"state":"active","ping":56},{"user_id":189,"name":"Lou","steam_id":76561198041394724,"connected_time":2073000000000,"state":"active","ping":54},{"user_id":197,"name":"Tsars","steam_id":76561198220145115,"connected_time":1087000000000,"state":"active","ping":61},{"user_id":121,"name":"krueger","steam_id":76561198268654031,"connected_time":8318000000000,"state":"active","ping":46},{"user_id":203,"name":"blob","steam_id":76561198122375328,"connected_time":20000000000,"state":"spawning","ping":51},{"user_id":202,"name":"Space","steam_id":76561198350489754,"connected_time":822000000000,"state":"active","ping":46},{"user_id":123,"name":"Spy Gaming","steam_id":76561198453295613,"connected_time":8173000000000,"state":"active","ping":115},{"user_id":141,"name":"lexi","steam_id":76561198176299759,"connected_time":6325000000000,"state":"active","ping":77},{"user_id":204,"name":"murderous deer","steam_id":76561198350832152,"connected_time":14000000000,"state":"spawning","ping":74},{"user_id":191,"name":"HarryjusttHarry","steam_id":76561198982810452,"connected_time":1727000000000,"state":"active","ping":116},{"user_id":181,"name":"Berries","steam_id":76561198109312962,"connected_time":2761000000000,"state":"active","ping":83},{"user_id":168,"name":"Draconic Ballad","steam_id":76561198027191515,"connected_time":3472000000000,"state":"active","ping":57},{"user_id":153,"name":"♥Bunny♥Slut♥","steam_id":76561198206376851,"connected_time":5512000000000,"state":"active","ping":115},{"user_id":161,"name":"The Benefactor","steam_id":76561198307247913,"connected_time":4524000000000,"state":"active","ping":105},{"user_id":194,"name":"TheOneZoot","steam_id":76561198121944243,"connected_time":1523000000000,"state":"active","ping":85},{"user_id":182,"name":"Awenova","steam_id":76561198322928940,"connected_time":2725000000000,"state":"active","ping":57},{"user_id":144,"name":"Training Arc","steam_id":76561198038832034,"connected_time":6224000000000,"state":"active","ping":105},{"user_id":177,"name":"Your Local Queer Birthday Boi","steam_id":76561198013077080,"connected_time":3136000000000,"state":"active","ping":61},{"user_id":195,"name":"Lil' Diabeetus","steam_id":76561198330119627,"connected_time":1110000000000,"state":"active","ping":75},{"user_id":193,"name":"Nibelsnarf (She/They)","steam_id":76561198137642054,"connected_time":1577000000000,"state":"active","ping":60},{"user_id":196,"name":"PKBEAST_7","steam_id":76561198177136537,"connected_time":1097000000000,"state":"active","ping":89},{"user_id":165,"name":"not a good idea","steam_id":76561198032259680,"connected_time":4477000000000,"state":"active","ping":77},{"user_id":201,"name":"CoconutRice","steam_id":76561198114909164,"connected_time":901000000000,"state":"active","ping":50}]},{"server_id":106,"name":"Uncletopia | Chicago | 2 | All Maps","name_short":"chi-2","host":"chi-1.us.uncletopia.com","port":27025,"enabled":true,"region":"us-central","cc":"us","latitude":41.881832,"longitude":-87.62318,"reserved":0,"last_update":"0001-01-01T00:00:00Z","name_a2s":"Uncletopia | Chicago | 2 | All Maps","protocol":17,"map":"koth_highpass","folder":"tf","game":"Team Fortress","app_id":440,"player_count":23,"max_players":24,"Bots":0,"server_type":"Dedicated","server_os":"Linux","password":true,"vac":true,"version":"7961495","steam_id":85568392924469985,"keywords":["cp","nocrits","nodmgspread","uncletopia"],"game_id":440,"stv_port":27026,"stv_name":"Uncletopia | Chicago | 2 | All Maps | STV","players":[{"user_id":153,"name":"thecal","steam_id":76561198307893384,"connected_time":1494000000000,"state":"active","ping":48},{"user_id":154,"name":"Placcid","steam_id":76561197996898905,"connected_time":1476000000000,"state":"active","ping":80},{"user_id":172,"name":"garbadge_person","steam_id":76561199454113593,"connected_time":727000000000,"state":"active","ping":86},{"user_id":167,"name":"AbuzzCactus","steam_id":76561198078391197,"connected_time":803000000000,"state":"active","ping":92},{"user_id":160,"name":"MONKEY | videogamer1002","steam_id":76561198157110599,"connected_time":1260000000000,"state":"active","ping":103},{"user_id":142,"name":"NotRommel","steam_id":76561199089324135,"connected_time":2548000000000,"state":"active","ping":148},{"user_id":127,"name":"PigPig","steam_id":76561198068190834,"connected_time":3896000000000,"state":"active","ping":96},{"user_id":148,"name":"kimchy101","steam_id":76561198202721584,"connected_time":1749000000000,"state":"active","ping":54},{"user_id":173,"name":"Teleporter  (Entrance, Level 3)","steam_id":76561198316927664,"connected_time":725000000000,"state":"active","ping":63},{"user_id":99,"name":"orbisg","steam_id":76561198004133638,"connected_time":5607000000000,"state":"active","ping":111},{"user_id":174,"name":"Sixteen60","steam_id":76561198296453242,"connected_time":692000000000,"state":"active","ping":95},{"user_id":110,"name":"onionman0106","steam_id":76561199067766868,"connected_time":4997000000000,"state":"active","ping":97},{"user_id":176,"name":"toastloard","steam_id":76561198368386853,"connected_time":529000000000,"state":"active","ping":63},{"user_id":177,"name":"Comfy!","steam_id":76561198008818346,"connected_time":434000000000,"state":"active","ping":63},{"user_id":157,"name":"markotrichko4238","steam_id":76561199125036759,"connected_time":1358000000000,"state":"active","ping":179},{"user_id":175,"name":"Architect","steam_id":76561198015242016,"connected_time":677000000000,"state":"active","ping":45},{"user_id":179,"name":"Fraglin","steam_id":76561198124964000,"connected_time":181000000000,"state":"active","ping":71},{"user_id":158,"name":"ZBaldTop","steam_id":76561199396318132,"connected_time":1328000000000,"state":"active","ping":52},{"user_id":114,"name":"MagicCraftMaster","steam_id":76561198179156615,"connected_time":4933000000000,"state":"active","ping":71},{"user_id":168,"name":"SugarCrash!","steam_id":76561199366929548,"connected_time":785000000000,"state":"active","ping":72},{"user_id":170,"name":"Pugzilla","steam_id":76561198108088960,"connected_time":777000000000,"state":"active","ping":61},{"user_id":121,"name":"Cyclops_672","steam_id":76561198080169497,"connected_time":4831000000000,"state":"active","ping":47},{"user_id":147,"name":"hoOmIN","steam_id":76561198334947079,"connected_time":1924000000000,"state":"active","ping":90}]},{"server_id":402,"name":"Uncletopia | Chicago | 3 | All Maps","name_short":"chi-3","host":"chi-1.us.uncletopia.com","port":27035,"enabled":true,"region":"us-central","cc":"us","latitude":41.881832,"longitude":-87.62318,"reserved":0,"last_update":"0001-01-01T00:00:00Z","name_a2s":"Uncletopia | Chicago | 3 | All Maps","protocol":17,"map":"pl_frontier_final","folder":"tf","game":"Team Fortress","app_id":440,"player_count":24,"max_players":24,"Bots":0,"server_type":"Dedicated","server_os":"Linux","password":true,"vac":true,"version":"7961495","steam_id":85568392924515191,"keywords":["nocrits","nodmgspread","payload","uncletopia"],"game_id":440,"stv_port":27036,"stv_name":"Uncletopia | Chicago | 3 | All Maps | STV","players":[{"user_id":453,"name":"TheSnipersHat","steam_id":76561198057684066,"connected_time":652000000000,"state":"active","ping":56},{"user_id":440,"name":"el wiwi","steam_id":76561198857304367,"connected_time":1288000000000,"state":"active","ping":86},{"user_id":406,"name":"Madeline the Mad","steam_id":76561198153456869,"connected_time":3442000000000,"state":"active","ping":65},{"user_id":7,"name":"CreateADebate","steam_id":76561198115760035,"connected_time":23264000000000,"state":"active","ping":62},{"user_id":442,"name":"jimmyfnaf172198yay","steam_id":76561198311446636,"connected_time":1258000000000,"state":"active","ping":59},{"user_id":386,"name":"Rex","steam_id":76561198138365053,"connected_time":4541000000000,"state":"active","ping":133},{"user_id":417,"name":"Predicta","steam_id":76561198017630616,"connected_time":2641000000000,"state":"active","ping":46},{"user_id":403,"name":"Sex Midfielder","steam_id":76561198048918192,"connected_time":3542000000000,"state":"active","ping":61},{"user_id":356,"name":"pea ttv/peabeanz","steam_id":76561198119551968,"connected_time":7408000000000,"state":"active","ping":87},{"user_id":460,"name":"WILL KRITZ FOR FOOD","steam_id":76561198321952443,"connected_time":440000000000,"state":"active","ping":149},{"user_id":454,"name":"snubcube","steam_id":76561198135880806,"connected_time":652000000000,"state":"active","ping":83},{"user_id":404,"name":"newgrounds1004","steam_id":76561199471951160,"connected_time":3457000000000,"state":"active","ping":87},{"user_id":459,"name":"PyroManiac","steam_id":76561198453038261,"connected_time":535000000000,"state":"active","ping":56},{"user_id":437,"name":"TheSecretNewbie","steam_id":76561198194671218,"connected_time":1471000000000,"state":"active","ping":45},{"user_id":447,"name":"TheGirthquake","steam_id":76561198238895056,"connected_time":1116000000000,"state":"active","ping":101},{"user_id":418,"name":"Hamz","steam_id":76561199287459211,"connected_time":2357000000000,"state":"active","ping":71},{"user_id":456,"name":"He Come Down","steam_id":76561198232500756,"connected_time":643000000000,"state":"active","ping":79},{"user_id":444,"name":"Abra","steam_id":76561198007616630,"connected_time":1237000000000,"state":"active","ping":69},{"user_id":461,"name":"Toasty","steam_id":76561198851752154,"connected_time":161000000000,"state":"active","ping":56},{"user_id":450,"name":"Scum Knight | T.I.D.K.","steam_id":76561198282444763,"connected_time":827000000000,"state":"active","ping":65},{"user_id":446,"name":"Ducter","steam_id":76561198085369908,"connected_time":1197000000000,"state":"active","ping":59},{"user_id":431,"name":"Jessicamustdie","steam_id":76561198045230921,"connected_time":1790000000000,"state":"active","ping":59},{"user_id":462,"name":"Nathan","steam_id":76561199132214008,"connected_time":44000000000,"state":"active","ping":90},{"user_id":423,"name":"benjamator67","steam_id":76561198209002860,"connected_time":2246000000000,"state":"active","ping":54}]},{"server_id":403,"name":"Uncletopia | Chicago | 4 | All Maps","name_short":"chi-4","host":"chi-1.us.uncletopia.com","port":27045,"enabled":true,"region":"us-central","cc":"us","latitude":41.881832,"longitude":-87.62318,"reserved":0,"last_update":"0001-01-01T00:00:00Z","name_a2s":"Uncletopia | Chicago | 4 | All Maps","protocol":17,"map":"cp_gorge","folder":"tf","game":"Team Fortress","app_id":440,"player_count":24,"max_players":24,"Bots":0,"server_type":"Dedicated","server_os":"Linux","password":true,"vac":true,"version":"7961495","steam_id":85568392924515193,"keywords":["cp","nocrits","nodmgspread","uncletopia"],"game_id":440,"stv_port":27046,"stv_name":"Uncletopia | Chicago | 4 | All Maps | STV","players":[{"user_id":221,"name":"lynt","steam_id":76561198988333976,"connected_time":30000000000,"state":"active","ping":58},{"user_id":216,"name":"mario.hernandez.2006","steam_id":76561198811827433,"connected_time":269000000000,"state":"active","ping":44},{"user_id":210,"name":"Shame","steam_id":76561198100490994,"connected_time":588000000000,"state":"active","ping":75},{"user_id":208,"name":"TheChickenChuck","steam_id":76561199192686708,"connected_time":610000000000,"state":"active","ping":104},{"user_id":209,"name":"Brian","steam_id":76561198144650969,"connected_time":607000000000,"state":"active","ping":89},{"user_id":129,"name":"::INVEST IN SKYNET::","steam_id":76561198144436132,"connected_time":6160000000000,"state":"active","ping":75},{"user_id":201,"name":"The Fiend","steam_id":76561199229771413,"connected_time":1629000000000,"state":"active","ping":63},{"user_id":202,"name":"rept","steam_id":76561198022100969,"connected_time":1608000000000,"state":"active","ping":47},{"user_id":164,"name":"RestingImmortal","steam_id":76561198254240564,"connected_time":4501000000000,"state":"active","ping":75},{"user_id":188,"name":"Sooper Smert","steam_id":76561198047958540,"connected_time":2426000000000,"state":"active","ping":73},{"user_id":217,"name":"☆matt hardy☆","steam_id":76561198994032319,"connected_time":269000000000,"state":"active","ping":70},{"user_id":207,"name":"adolf tickler","steam_id":76561198163120788,"connected_time":908000000000,"state":"active","ping":99},{"user_id":157,"name":"The Circle rules Your Life","steam_id":76561198072095399,"connected_time":4957000000000,"state":"active","ping":50},{"user_id":211,"name":"HanakoToast","steam_id":76561198045233131,"connected_time":569000000000,"state":"active","ping":102},{"user_id":199,"name":"Xrath","steam_id":76561198220741860,"connected_time":1652000000000,"state":"active","ping":72},{"user_id":213,"name":"Rustyorion","steam_id":76561198439186347,"connected_time":472000000000,"state":"active","ping":107},{"user_id":204,"name":"Jayne Cobb","steam_id":76561198080585050,"connected_time":1487000000000,"state":"active","ping":87},{"user_id":220,"name":"Joe Family guy","steam_id":76561198065327106,"connected_time":115000000000,"state":"active","ping":61},{"user_id":206,"name":"water","steam_id":76561199160233256,"connected_time":1123000000000,"state":"active","ping":79},{"user_id":97,"name":"Bussy Bandit","steam_id":76561198034028769,"connected_time":8743000000000,"state":"active","ping":56},{"user_id":191,"name":"CDRW Enjoyer","steam_id":76561198119393205,"connected_time":2387000000000,"state":"active","ping":75},{"user_id":215,"name":"Si1entSn1pa","steam_id":76561198170095479,"connected_time":422000000000,"state":"active","ping":92},{"user_id":192,"name":"8o8","steam_id":76561198996923332,"connected_time":2385000000000,"state":"active","ping":89},{"user_id":200,"name":"SneakyJayMLP","steam_id":76561198969565685,"connected_time":1648000000000,"state":"active","ping":86}]},{"server_id":36,"name":"Uncletopia | Chicago | 5 | All Maps","name_short":"chi-5","host":"chi-2.us.uncletopia.com","port":27015,"enabled":true,"region":"us-central","cc":"us","latitude":41.881832,"longitude":-87.62318,"reserved":0,"last_update":"0001-01-01T00:00:00Z","name_a2s":"Uncletopia | Chicago | 5 | All Maps","protocol":17,"map":"koth_viaduct","folder":"tf","game":"Team Fortress","app_id":440,"player_count":0,"max_players":24,"Bots":0,"server_type":"Dedicated","server_os":"Linux","password":true,"vac":true,"version":"7961495","steam_id":85568392924866362,"keywords":["cp","nocrits","nodmgspread","uncletopia"],"game_id":440,"stv_port":27016,"stv_name":"Uncletopia | Chicago | 5 | All Maps | STV","players":null},{"server_id":37,"name":"Uncletopia | Chicago | 6 | All Maps","name_short":"chi-6","host":"chi-2.us.uncletopia.com","port":27025,"enabled":true,"region":"us-central","cc":"us","latitude":41.881832,"longitude":-87.62318,"reserved":0,"last_update":"0001-01-01T00:00:00Z","name_a2s":"Uncletopia | Chicago | 6 | All Maps","protocol":17,"map":"pl_barnblitz","folder":"tf","game":"Team Fortress","app_id":440,"player_count":24,"max_players":24,"Bots":0,"server_type":"Dedicated","server_os":"Linux","password":true,"vac":true,"version":"7961495","steam_id":85568392924866363,"keywords":["nocrits","nodmgspread","payload","uncletopia"],"game_id":440,"stv_port":27026,"stv_name":"Uncletopia | Chicago | 6 | All Maps | STV","players":[{"user_id":275,"name":"Workplace Daydreamer","steam_id":76561199230019748,"connected_time":3634000000000,"state":"active","ping":82},{"user_id":251,"name":"FiddyFoMike","steam_id":76561198057072581,"connected_time":5635000000000,"state":"active","ping":100},{"user_id":214,"name":"Soul Garg Plushy","steam_id":76561198044480181,"connected_time":7771000000000,"state":"active","ping":50},{"user_id":312,"name":"HeavyMettleDick","steam_id":76561198001925087,"connected_time":2076000000000,"state":"active","ping":76},{"user_id":308,"name":"Allahgator","steam_id":76561198280659041,"connected_time":2275000000000,"state":"active","ping":83},{"user_id":318,"name":"boog","steam_id":76561197993699665,"connected_time":802000000000,"state":"active","ping":89},{"user_id":243,"name":"illness","steam_id":76561198881651324,"connected_time":6046000000000,"state":"active","ping":69},{"user_id":319,"name":"Xyk","steam_id":76561198023268899,"connected_time":789000000000,"state":"active","ping":68},{"user_id":264,"name":"tobrehto","steam_id":76561198097544038,"connected_time":4887000000000,"state":"active","ping":94},{"user_id":301,"name":"crankshaft","steam_id":76561197992798282,"connected_time":3258000000000,"state":"active","ping":104},{"user_id":320,"name":"Fat Kid","steam_id":76561198304180941,"connected_time":784000000000,"state":"active","ping":84},{"user_id":313,"name":"Indigolake","steam_id":76561198202215807,"connected_time":2067000000000,"state":"active","ping":91},{"user_id":317,"name":"The1douglas69","steam_id":76561199163489550,"connected_time":1255000000000,"state":"active","ping":73},{"user_id":278,"name":"Piggypot","steam_id":76561199106826976,"connected_time":3593000000000,"state":"active","ping":84},{"user_id":316,"name":"Dr. Robotniks Mean Bean Machine","steam_id":76561198047980627,"connected_time":1507000000000,"state":"active","ping":55},{"user_id":303,"name":"Cigtar","steam_id":76561198079842818,"connected_time":3247000000000,"state":"active","ping":82},{"user_id":207,"name":"Domswish","steam_id":76561198331444240,"connected_time":8506000000000,"state":"active","ping":75},{"user_id":307,"name":"Syrus","steam_id":76561198079606024,"connected_time":2606000000000,"state":"active","ping":79},{"user_id":256,"name":"Copland OS","steam_id":76561198041800378,"connected_time":5366000000000,"state":"active","ping":78},{"user_id":309,"name":"Missing Minus","steam_id":76561198120822928,"connected_time":2254000000000,"state":"active","ping":60},{"user_id":268,"name":"Jamie Hyneman","steam_id":76561199196036481,"connected_time":4480000000000,"state":"active","ping":93},{"user_id":315,"name":"Idiots against light spam","steam_id":76561199037497493,"connected_time":1815000000000,"state":"active","ping":57},{"user_id":322,"name":"kasuraq","steam_id":76561199215184828,"connected_time":756000000000,"state":"active","ping":74},{"user_id":281,"name":"jstn","steam_id":76561198845283665,"connected_time":3526000000000,"state":"active","ping":75}]},{"server_id":38,"name":"Uncletopia | Chicago | 7 | Stopwatch","name_short":"chi-7","host":"chi-2.us.uncletopia.com","port":27035,"enabled":true,"region":"us-central","cc":"us","latitude":41.881832,"longitude":-87.62318,"reserved":0,"last_update":"0001-01-01T00:00:00Z","name_a2s":"Uncletopia | Chicago | 7 | Stopwatch","protocol":17,"map":"pl_badwater","folder":"tf","game":"Team Fortress","app_id":440,"player_count":0,"max_players":24,"Bots":0,"server_type":"Dedicated","server_os":"Linux","password":true,"vac":true,"version":"7961495","steam_id":85568392924866364,"keywords":["nocrits","nodmgspread","payload","uncletopia"],"game_id":440,"stv_port":27036,"stv_name":"Uncletopia | Chicago | 7 | Stopwatch | STV","players":null},{"server_id":39,"name":"Uncletopia | Chicago | 8 | Community","name_short":"chi-8","host":"chi-2.us.uncletopia.com","port":27045,"enabled":true,"region":"us-central","cc":"us","latitude":41.881832,"longitude":-87.62318,"reserved":0,"last_update":"0001-01-01T00:00:00Z","name_a2s":"Uncletopia | Chicago | 8 | Community","protocol":17,"map":"workshop/pl_barnblitz_pro7.ugc582280235","folder":"tf","game":"Team Fortress","app_id":440,"player_count":0,"max_players":24,"Bots":0,"server_type":"Dedicated","server_os":"Linux","password":true,"vac":true,"version":"7961495","steam_id":85568392924866365,"keywords":["nocrits","nodmgspread","payload","uncletopia"],"game_id":440,"stv_port":27046,"stv_name":"Uncletopia | Chicago | 8 | Community | STV","players":null},{"server_id":8,"name":"Uncletopia | Dallas | 1 | All Maps","name_short":"dal-1","host":"dal-1.us.uncletopia.com","port":27015,"enabled":true,"region":"us-central","cc":"us","latitude":32.779167,"longitude":-96.80889,"reserved":0,"last_update":"0001-01-01T00:00:00Z","name_a2s":"Uncletopia | Dallas | 1 | All Maps","protocol":17,"map":"pl_pier","folder":"tf","game":"Team Fortress","app_id":440,"player_count":24,"max_players":24,"Bots":0,"server_type":"Dedicated","server_os":"Linux","password":true,"vac":true,"version":"7961495","steam_id":85568392924469986,"keywords":["nocrits","nodmgspread","payload","uncletopia"],"game_id":440,"stv_port":27016,"stv_name":"Uncletopia | Dallas | 1 | All Maps | STV","players":[{"user_id":298,"name":"SoundKitKiller","steam_id":76561198053535873,"connected_time":1754000000000,"state":"active","ping":107},{"user_id":305,"name":"Metbol","steam_id":76561198001362410,"connected_time":1071000000000,"state":"active","ping":57},{"user_id":317,"name":"PP","steam_id":76561198436250291,"connected_time":44000000000,"state":"active","ping":61},{"user_id":299,"name":"Blue Banana","steam_id":76561198100077411,"connected_time":1733000000000,"state":"active","ping":75},{"user_id":313,"name":"Darling","steam_id":76561198127525888,"connected_time":227000000000,"state":"active","ping":48},{"user_id":296,"name":"leesh","steam_id":76561198079603938,"connected_time":2028000000000,"state":"active","ping":62},{"user_id":318,"name":"blobb","steam_id":76561198950448488,"connected_time":22000000000,"state":"spawning","ping":86},{"user_id":307,"name":"Gordon Ramsay.","steam_id":76561199167165627,"connected_time":959000000000,"state":"active","ping":121},{"user_id":289,"name":"Peppy","steam_id":76561198866629645,"connected_time":3154000000000,"state":"active","ping":80},{"user_id":315,"name":"mu","steam_id":76561197997530228,"connected_time":201000000000,"state":"active","ping":116},{"user_id":308,"name":"imng","steam_id":76561198014988031,"connected_time":909000000000,"state":"active","ping":76},{"user_id":309,"name":"François Viète","steam_id":76561198072975518,"connected_time":903000000000,"state":"active","ping":73},{"user_id":302,"name":"papi Chulo","steam_id":76561198126274984,"connected_time":1663000000000,"state":"active","ping":99},{"user_id":310,"name":"Blade Racer","steam_id":76561198155896703,"connected_time":883000000000,"state":"active","ping":78},{"user_id":291,"name":"jayeskae","steam_id":76561198144220801,"connected_time":2674000000000,"state":"active","ping":99},{"user_id":264,"name":"Ryzema","steam_id":76561198165594229,"connected_time":7026000000000,"state":"active","ping":88},{"user_id":292,"name":"ATL1 | to4st","steam_id":76561198981009008,"connected_time":2672000000000,"state":"active","ping":85},{"user_id":312,"name":"Kng","steam_id":76561198993248203,"connected_time":804000000000,"state":"active","ping":95},{"user_id":271,"name":"Motreir","steam_id":76561198151717946,"connected_time":6365000000000,"state":"active","ping":88},{"user_id":267,"name":"eat salad","steam_id":76561198960183175,"connected_time":6713000000000,"state":"active","ping":75},{"user_id":261,"name":"evilOlive","steam_id":76561198106222025,"connected_time":7222000000000,"state":"active","ping":64},{"user_id":293,"name":"The Notorious Nutter","steam_id":76561198145058709,"connected_time":2671000000000,"state":"active","ping":58},{"user_id":287,"name":"BamBam","steam_id":76561198063110026,"connected_time":3529000000000,"state":"active","ping":79},{"user_id":303,"name":"grape","steam_id":76561199071151136,"connected_time":1660000000000,"state":"active","ping":68}]},{"server_id":108,"name":"Uncletopia | Dallas | 2 | All Maps","name_short":"dal-2","host":"dal-1.us.uncletopia.com","port":27025,"enabled":true,"region":"us-central","cc":"us","latitude":32.779167,"longitude":-96.80889,"reserved":0,"last_update":"0001-01-01T00:00:00Z","name_a2s":"Uncletopia | Dallas | 2 | All Maps","protocol":17,"map":"cp_dustbowl","folder":"tf","game":"Team Fortress","app_id":440,"player_count":24,"max_players":24,"Bots":0,"server_type":"Dedicated","server_os":"Linux","password":true,"vac":true,"version":"7961495","steam_id":85568392924469988,"keywords":["cp","nocrits","nodmgspread","uncletopia"],"game_id":440,"stv_port":27026,"stv_name":"Uncletopia | Dallas | 2 | All Maps | STV","players":[{"user_id":116,"name":"qawzse543","steam_id":76561198049425694,"connected_time":271000000000,"state":"active","ping":143},{"user_id":29,"name":"Captain Bong Rips","steam_id":76561198065946939,"connected_time":6453000000000,"state":"active","ping":101},{"user_id":80,"name":"GX thedittoguy","steam_id":76561199013129784,"connected_time":2870000000000,"state":"active","ping":66},{"user_id":79,"name":"Picard","steam_id":76561197993530161,"connected_time":2931000000000,"state":"active","ping":60},{"user_id":113,"name":"Rhutebeer","steam_id":76561198018302761,"connected_time":464000000000,"state":"active","ping":84},{"user_id":64,"name":"leopardo123atl","steam_id":76561198872648238,"connected_time":4422000000000,"state":"active","ping":77},{"user_id":87,"name":"w a o w","steam_id":76561198060769385,"connected_time":2213000000000,"state":"active","ping":95},{"user_id":27,"name":"andyiscolorless","steam_id":76561199239870921,"connected_time":6693000000000,"state":"active","ping":139},{"user_id":95,"name":"Reague","steam_id":76561199092175631,"connected_time":1607000000000,"state":"active","ping":76},{"user_id":99,"name":"YoteDab McFapDab.jpg","steam_id":76561197984870380,"connected_time":1258000000000,"state":"active","ping":91},{"user_id":73,"name":"Aerobro","steam_id":76561198033530996,"connected_time":3613000000000,"state":"active","ping":69},{"user_id":60,"name":"Grandpa","steam_id":76561198800094356,"connected_time":4775000000000,"state":"active","ping":113},{"user_id":105,"name":"thisisSteve","steam_id":76561198420882318,"connected_time":1060000000000,"state":"active","ping":90},{"user_id":76,"name":"OwningTundra2","steam_id":76561198936893224,"connected_time":3154000000000,"state":"active","ping":58},{"user_id":114,"name":"maximusbabaximus","steam_id":76561198419378913,"connected_time":416000000000,"state":"active","ping":105},{"user_id":107,"name":"Discourse","steam_id":76561198984286678,"connected_time":945000000000,"state":"active","ping":85},{"user_id":106,"name":"Arita","steam_id":76561198118601103,"connected_time":1050000000000,"state":"active","ping":56},{"user_id":85,"name":"Pvt. Dimitri Petrenko","steam_id":76561198078040091,"connected_time":2485000000000,"state":"active","ping":55},{"user_id":93,"name":"Vinny","steam_id":76561198336755046,"connected_time":1938000000000,"state":"active","ping":60},{"user_id":110,"name":"RectalExam","steam_id":76561197970502312,"connected_time":629000000000,"state":"active","ping":72},{"user_id":108,"name":"Chilis 2 for 20","steam_id":76561198121544531,"connected_time":735000000000,"state":"active","ping":72},{"user_id":98,"name":"Minlit","steam_id":76561198205832799,"connected_time":1305000000000,"state":"active","ping":55},{"user_id":111,"name":"Squids023","steam_id":76561199013031576,"connected_time":623000000000,"state":"active","ping":101},{"user_id":102,"name":"Jolyne","steam_id":76561198169960915,"connected_time":1185000000000,"state":"active","ping":58}]},{"server_id":404,"name":"Uncletopia | Dallas | 3 | All Maps","name_short":"dal-3","host":"dal-1.us.uncletopia.com","port":27035,"enabled":true,"region":"us-central","cc":"us","latitude":32.779167,"longitude":-96.80889,"reserved":0,"last_update":"0001-01-01T00:00:00Z","name_a2s":"Uncletopia | Dallas | 3 | All Maps","protocol":17,"map":"pl_snowycoast","folder":"tf","game":"Team Fortress","app_id":440,"player_count":1,"max_players":24,"Bots":0,"server_type":"Dedicated","server_os":"Linux","password":true,"vac":true,"version":"7961495","steam_id":85568392924515219,"keywords":["nocrits","nodmgspread","payload","uncletopia"],"game_id":440,"stv_port":27036,"stv_name":"Uncletopia | Dallas | 3 | All Maps | STV","players":[{"user_id":15,"name":"Dr. W0lv","steam_id":76561198129237487,"connected_time":196000000000,"state":"active","ping":54}]},{"server_id":405,"name":"Uncletopia | Dallas | 4 | Community","name_short":"dal-4","host":"dal-1.us.uncletopia.com","port":27045,"enabled":true,"region":"us-central","cc":"us","latitude":32.779167,"longitude":-96.80889,"reserved":0,"last_update":"0001-01-01T00:00:00Z","name_a2s":"Uncletopia | Dallas | 4 | Community","protocol":17,"map":"pl_pier","folder":"tf","game":"Team Fortress","app_id":440,"player_count":0,"max_players":24,"Bots":0,"server_type":"Dedicated","server_os":"Linux","password":true,"vac":true,"version":"7961495","steam_id":85568392924515220,"keywords":["nocrits","nodmgspread","payload","uncletopia"],"game_id":440,"stv_port":27046,"stv_name":"Uncletopia | Dallas | 4 | Community | STV","players":null},{"server_id":5,"name":"Uncletopia | Frankfurt | 1 | All Maps","name_short":"frk-1","host":"frk-1.de.uncletopia.com","port":27015,"enabled":true,"region":"eu","cc":"de","latitude":50.110924,"longitude":8.682127,"reserved":0,"last_update":"0001-01-01T00:00:00Z","name_a2s":"Uncletopia | Frankfurt | 1 | All Maps","protocol":17,"map":"cp_process_final","folder":"tf","game":"Team Fortress","app_id":440,"player_count":24,"max_players":24,"Bots":0,"server_type":"Dedicated","server_os":"Linux","password":true,"vac":true,"version":"7961495","steam_id":85568392924469989,"keywords":["cp","nocrits","nodmgspread","uncletopia"],"game_id":440,"stv_port":27016,"stv_name":"Uncletopia | Frankfurt | 1 | All Maps | STV","players":[{"user_id":229,"name":"ra","steam_id":76561198239927434,"connected_time":8694000000000,"state":"active","ping":90},{"user_id":338,"name":"ok","steam_id":76561198052575567,"connected_time":711000000000,"state":"active","ping":74},{"user_id":323,"name":"kipod616","steam_id":76561198431183777,"connected_time":1825000000000,"state":"active","ping":93},{"user_id":335,"name":"Floof Dog","steam_id":76561198065242175,"connected_time":972000000000,"state":"active","ping":80},{"user_id":342,"name":"Vitun vittu","steam_id":76561198110679463,"connected_time":514000000000,"state":"active","ping":76},{"user_id":325,"name":"Tá prátaí go maith","steam_id":76561198372536459,"connected_time":1772000000000,"state":"active","ping":65},{"user_id":326,"name":"i_Like_Sandwich","steam_id":76561199215996779,"connected_time":1759000000000,"state":"active","ping":64},{"user_id":343,"name":"etc","steam_id":76561197998394797,"connected_time":508000000000,"state":"active","ping":58},{"user_id":312,"name":"sex toilet","steam_id":76561198412197820,"connected_time":2785000000000,"state":"active","ping":80},{"user_id":275,"name":"Rimx","steam_id":76561198053034840,"connected_time":5327000000000,"state":"active","ping":88},{"user_id":305,"name":"kalumuna","steam_id":76561197996957462,"connected_time":3035000000000,"state":"active","ping":90},{"user_id":336,"name":"джегеми хэпкингс","steam_id":76561198131531394,"connected_time":914000000000,"state":"active","ping":90},{"user_id":284,"name":"Mozzaza","steam_id":76561198156316111,"connected_time":5063000000000,"state":"active","ping":121},{"user_id":333,"name":"Trølli","steam_id":76561198069281758,"connected_time":1115000000000,"state":"active","ping":71},{"user_id":268,"name":"His Femboy","steam_id":76561198071111501,"connected_time":5443000000000,"state":"active","ping":60},{"user_id":303,"name":"Splattted","steam_id":76561199327476294,"connected_time":3286000000000,"state":"active","ping":80},{"user_id":327,"name":"Jannisxxl","steam_id":76561198048377916,"connected_time":1746000000000,"state":"active","ping":69},{"user_id":339,"name":"Sheen (Khang)","steam_id":76561198371062974,"connected_time":711000000000,"state":"active","ping":84},{"user_id":257,"name":"Penis Contortionist","steam_id":76561198073663784,"connected_time":6784000000000,"state":"active","ping":52},{"user_id":307,"name":"Mi PRO | FIH","steam_id":76561199023108666,"connected_time":3027000000000,"state":"active","ping":105},{"user_id":313,"name":"sui","steam_id":76561198185348855,"connected_time":2783000000000,"state":"active","ping":64},{"user_id":277,"name":"Toasty5050","steam_id":76561198073540881,"connected_time":5321000000000,"state":"active","ping":48},{"user_id":330,"name":"norespectforthedevil","steam_id":76561197998922218,"connected_time":1538000000000,"state":"active","ping":110},{"user_id":340,"name":"say gex","steam_id":76561198265479349,"connected_time":697000000000,"state":"active","ping":59}]},{"server_id":110,"name":"Uncletopia | Frankfurt | 2 | All Maps","name_short":"frk-2","host":"frk-1.de.uncletopia.com","port":27025,"enabled":true,"region":"eu","cc":"de","latitude":50.110924,"longitude":8.682127,"reserved":0,"last_update":"0001-01-01T00:00:00Z","name_a2s":"Uncletopia | Frankfurt | 2 | All Maps","protocol":17,"map":"cp_altitude","folder":"tf","game":"Team Fortress","app_id":440,"player_count":0,"max_players":24,"Bots":0,"server_type":"Dedicated","server_os":"Linux","password":true,"vac":true,"version":"7961495","steam_id":85568392924469990,"keywords":["cp","nocrits","nodmgspread","uncletopia"],"game_id":440,"stv_port":27026,"stv_name":"Uncletopia | Frankfurt | 2 | All Maps | STV","players":null},{"server_id":308,"name":"Uncletopia | Frankfurt | 3 | All Maps","name_short":"frk-3","host":"frk-1.de.uncletopia.com","port":27035,"enabled":true,"region":"eu","cc":"de","latitude":50.110924,"longitude":8.682127,"reserved":0,"last_update":"0001-01-01T00:00:00Z","name_a2s":"Uncletopia | Frankfurt | 3 | All Maps","protocol":17,"map":"pl_upward","folder":"tf","game":"Team Fortress","app_id":440,"player_count":24,"max_players":24,"Bots":0,"server_type":"Dedicated","server_os":"Linux","password":true,"vac":true,"version":"7961495","steam_id":85568392924504274,"keywords":["nocrits","nodmgspread","payload","uncletopia"],"game_id":440,"stv_port":27036,"stv_name":"Uncletopia | Frankfurt | 3 | All Maps | STV","players":[{"user_id":408,"name":"DrFast","steam_id":76561198138637093,"connected_time":1111000000000,"state":"active","ping":68},{"user_id":388,"name":"Khrinde","steam_id":76561198036744526,"connected_time":2118000000000,"state":"active","ping":95},{"user_id":404,"name":"alice","steam_id":76561198269200388,"connected_time":1317000000000,"state":"active","ping":75},{"user_id":409,"name":"Qatuk","steam_id":76561198857696199,"connected_time":1087000000000,"state":"active","ping":53},{"user_id":423,"name":"killbind irl","steam_id":76561198180637374,"connected_time":522000000000,"state":"active","ping":87},{"user_id":426,"name":"QR code 78","steam_id":76561198073749509,"connected_time":349000000000,"state":"active","ping":72},{"user_id":411,"name":"Peen","steam_id":76561198124862665,"connected_time":1053000000000,"state":"active","ping":97},{"user_id":427,"name":"Buamadoir","steam_id":76561198229417388,"connected_time":206000000000,"state":"active","ping":90},{"user_id":306,"name":"Qwerty","steam_id":76561198023525894,"connected_time":7825000000000,"state":"active","ping":76},{"user_id":428,"name":"Kaek","steam_id":76561197960283484,"connected_time":97000000000,"state":"active","ping":83},{"user_id":421,"name":"Family guy try not to laugh","steam_id":76561198031455800,"connected_time":835000000000,"state":"active","ping":89},{"user_id":414,"name":"Walle","steam_id":76561197995148937,"connected_time":908000000000,"state":"active","ping":63},{"user_id":402,"name":"S. Krypt","steam_id":76561199387501738,"connected_time":1416000000000,"state":"active","ping":64},{"user_id":415,"name":"luma","steam_id":76561198081649669,"connected_time":888000000000,"state":"active","ping":63},{"user_id":424,"name":"squillisky","steam_id":76561198083569327,"connected_time":385000000000,"state":"active","ping":63},{"user_id":416,"name":"bruh","steam_id":76561198109262927,"connected_time":885000000000,"state":"active","ping":72},{"user_id":417,"name":"Alekk","steam_id":76561198093533143,"connected_time":866000000000,"state":"active","ping":70},{"user_id":422,"name":"domek","steam_id":76561198048447632,"connected_time":686000000000,"state":"active","ping":62},{"user_id":362,"name":"LemonLeCitron","steam_id":76561198215545267,"connected_time":3294000000000,"state":"active","ping":90},{"user_id":419,"name":"Axter","steam_id":76561198118747192,"connected_time":839000000000,"state":"active","ping":86},{"user_id":403,"name":"Spy Gaming","steam_id":76561198257225296,"connected_time":1411000000000,"state":"active","ping":75},{"user_id":394,"name":"SnowShot","steam_id":76561198004766638,"connected_time":1780000000000,"state":"active","ping":65},{"user_id":420,"name":"After8","steam_id":76561198090750865,"connected_time":838000000000,"state":"active","ping":73},{"user_id":425,"name":"CaptainMac","steam_id":76561198273156139,"connected_time":385000000000,"state":"active","ping":39}]},{"server_id":309,"name":"Uncletopia | Frankfurt | 4 | All Maps","name_short":"frk-4","host":"frk-1.de.uncletopia.com","port":27045,"enabled":true,"region":"eu","cc":"de","latitude":50.110924,"longitude":8.682127,"reserved":0,"last_update":"0001-01-01T00:00:00Z","name_a2s":"Uncletopia | Frankfurt | 4 | All Maps","protocol":17,"map":"cp_dustbowl","folder":"tf","game":"Team Fortress","app_id":440,"player_count":24,"max_players":24,"Bots":0,"server_type":"Dedicated","server_os":"Linux","password":true,"vac":true,"version":"7961495","steam_id":85568392924504275,"keywords":["cp","nocrits","nodmgspread","uncletopia"],"game_id":440,"stv_port":27046,"stv_name":"Uncletopia | Frankfurt | 4 | All Maps | STV","players":[{"user_id":519,"name":"Ziemniaczki z koperkiem","steam_id":76561198829123464,"connected_time":1358000000000,"state":"active","ping":78},{"user_id":462,"name":"Dark","steam_id":76561199162752036,"connected_time":4928000000000,"state":"active","ping":69},{"user_id":528,"name":"Kylul_","steam_id":76561198042981061,"connected_time":1050000000000,"state":"active","ping":45},{"user_id":506,"name":"Cheese Burger Man","steam_id":76561198269305264,"connected_time":2176000000000,"state":"active","ping":42},{"user_id":534,"name":"finbar","steam_id":76561198056812396,"connected_time":292000000000,"state":"active","ping":74},{"user_id":512,"name":"Delta Flowers ♡","steam_id":76561198434811706,"connected_time":1690000000000,"state":"active","ping":61},{"user_id":514,"name":"Hepçil","steam_id":76561199113978553,"connected_time":1549000000000,"state":"active","ping":93},{"user_id":518,"name":"Sir Sandvich","steam_id":76561198213908089,"connected_time":1379000000000,"state":"active","ping":84},{"user_id":503,"name":"Master Of Noob","steam_id":76561198217926783,"connected_time":2322000000000,"state":"active","ping":70},{"user_id":513,"name":"jShroom","steam_id":76561198833885769,"connected_time":1624000000000,"state":"active","ping":69},{"user_id":527,"name":"[T]aKer","steam_id":76561198001778013,"connected_time":1120000000000,"state":"active","ping":48},{"user_id":529,"name":"mewash","steam_id":76561198049529718,"connected_time":1025000000000,"state":"active","ping":105},{"user_id":517,"name":"TKN_Paps997","steam_id":76561198419868465,"connected_time":1469000000000,"state":"active","ping":84},{"user_id":469,"name":"Zerfesh","steam_id":76561198117534358,"connected_time":4598000000000,"state":"active","ping":80},{"user_id":533,"name":"GoatLord1","steam_id":76561198157964544,"connected_time":727000000000,"state":"active","ping":60},{"user_id":475,"name":"Richard_HUN","steam_id":76561198299050967,"connected_time":4487000000000,"state":"active","ping":90},{"user_id":504,"name":"Venenakki","steam_id":76561198311526482,"connected_time":2319000000000,"state":"active","ping":55},{"user_id":522,"name":"random guy (real)","steam_id":76561199199499453,"connected_time":1298000000000,"state":"active","ping":81},{"user_id":531,"name":"cheEse","steam_id":76561199226729354,"connected_time":953000000000,"state":"active","ping":60},{"user_id":536,"name":"Dot","steam_id":76561198047299145,"connected_time":196000000000,"state":"active","ping":77},{"user_id":532,"name":"bAdmon","steam_id":76561197961785793,"connected_time":916000000000,"state":"active","ping":60},{"user_id":537,"name":"UglyTwinYgor","steam_id":76561198132718039,"connected_time":99000000000,"state":"active","ping":76},{"user_id":535,"name":"mohemmedmokhter2005","steam_id":76561199197650506,"connected_time":269000000000,"state":"active","ping":97},{"user_id":526,"name":"Lidl penis","steam_id":76561198206787272,"connected_time":1185000000000,"state":"active","ping":75}]},{"server_id":310,"name":"Uncletopia | Frankfurt | 5 | All Maps","name_short":"frk-5","host":"frk-1.de.uncletopia.com","port":27055,"enabled":true,"region":"eu","cc":"de","latitude":50.110924,"longitude":8.682127,"reserved":0,"last_update":"0001-01-01T00:00:00Z","name_a2s":"Uncletopia | Frankfurt | 5 | All Maps","protocol":17,"map":"pl_barnblitz","folder":"tf","game":"Team Fortress","app_id":440,"player_count":24,"max_players":24,"Bots":0,"server_type":"Dedicated","server_os":"Linux","password":true,"vac":true,"version":"7961495","steam_id":85568392924504277,"keywords":["nocrits","nodmgspread","payload","uncletopia"],"game_id":440,"stv_port":27056,"stv_name":"Uncletopia | Frankfurt | 5 | All Maps | STV","players":[{"user_id":515,"name":"Archive","steam_id":76561198071255385,"connected_time":860000000000,"state":"active","ping":76},{"user_id":478,"name":"cat","steam_id":76561198837071509,"connected_time":3834000000000,"state":"active","ping":82},{"user_id":524,"name":"dirty rascal","steam_id":76561198000871038,"connected_time":384000000000,"state":"active","ping":60},{"user_id":447,"name":"eldaou2009","steam_id":76561198966358094,"connected_time":6369000000000,"state":"active","ping":66},{"user_id":497,"name":"Kfer","steam_id":76561198809708638,"connected_time":2830000000000,"state":"active","ping":80},{"user_id":519,"name":"fifrok","steam_id":76561198799267621,"connected_time":799000000000,"state":"active","ping":72},{"user_id":480,"name":"ozz-man","steam_id":76561198084676522,"connected_time":3765000000000,"state":"active","ping":99},{"user_id":514,"name":"Drazmax","steam_id":76561198116750395,"connected_time":1400000000000,"state":"active","ping":76},{"user_id":523,"name":"kelm","steam_id":76561198027166144,"connected_time":452000000000,"state":"active","ping":94},{"user_id":441,"name":"zek","steam_id":76561198862763731,"connected_time":6605000000000,"state":"active","ping":59},{"user_id":509,"name":"DJ L3G3ND","steam_id":76561198186112647,"connected_time":1576000000000,"state":"active","ping":88},{"user_id":481,"name":"Certified Hood pybro (ua)","steam_id":76561198970562699,"connected_time":3765000000000,"state":"active","ping":49},{"user_id":485,"name":"n-ski","steam_id":76561198020550849,"connected_time":3728000000000,"state":"active","ping":75},{"user_id":518,"name":"gothboiclique","steam_id":76561198870286073,"connected_time":811000000000,"state":"active","ping":61},{"user_id":510,"name":"Vitamin Weee","steam_id":76561199183937747,"connected_time":1576000000000,"state":"active","ping":84},{"user_id":520,"name":"Быдла вой","steam_id":76561198041371314,"connected_time":751000000000,"state":"active","ping":126},{"user_id":502,"name":"Silva_mlon","steam_id":76561199310242047,"connected_time":2274000000000,"state":"active","ping":74},{"user_id":511,"name":"Donki Wonki","steam_id":76561198327761273,"connected_time":1550000000000,"state":"active","ping":69},{"user_id":516,"name":"soppasetä | trade.tf","steam_id":76561198800563349,"connected_time":827000000000,"state":"active","ping":91},{"user_id":424,"name":"John Noob","steam_id":76561197999170026,"connected_time":7933000000000,"state":"active","ping":92},{"user_id":377,"name":"supercharger832","steam_id":76561198871408515,"connected_time":10321000000000,"state":"active","ping":66},{"user_id":521,"name":"Erection Man","steam_id":76561198021714542,"connected_time":728000000000,"state":"active","ping":62},{"user_id":476,"name":"MaksingTape","steam_id":76561198827103130,"connected_time":3897000000000,"state":"active","ping":60},{"user_id":513,"name":"Linkstar07","steam_id":76561199053234564,"connected_time":1422000000000,"state":"active","ping":68}]},{"server_id":311,"name":"Uncletopia | Frankfurt | 6 | All Maps","name_short":"frk-6","host":"frk-1.de.uncletopia.com","port":27065,"enabled":true,"region":"eu","cc":"de","latitude":50.110924,"longitude":8.682127,"reserved":0,"last_update":"0001-01-01T00:00:00Z","name_a2s":"Uncletopia | Frankfurt | 6 | All Maps","protocol":17,"map":"cp_sunshine","folder":"tf","game":"Team Fortress","app_id":440,"player_count":0,"max_players":24,"Bots":0,"server_type":"Dedicated","server_os":"Linux","password":true,"vac":true,"version":"7961495","steam_id":85568392924504278,"keywords":["cp","nocrits","nodmgspread","uncletopia"],"game_id":440,"stv_port":27066,"stv_name":"Uncletopia | Frankfurt | 6 | All Maps | STV","players":null},{"server_id":23,"name":"Uncletopia | Frankfurt | 7 | Stopwatch","name_short":"frk-7","host":"frk-1.de.uncletopia.com","port":27075,"enabled":true,"region":"eu","cc":"de","latitude":50.110924,"longitude":8.682127,"reserved":0,"last_update":"0001-01-01T00:00:00Z","name_a2s":"Uncletopia | Frankfurt | 7 | Stopwatch","protocol":17,"map":"koth_highpass","folder":"tf","game":"Team Fortress","app_id":440,"player_count":0,"max_players":24,"Bots":0,"server_type":"Dedicated","server_os":"Linux","password":true,"vac":true,"version":"7961495","steam_id":85568392924742827,"keywords":["cp","nocrits","nodmgspread","uncletopia"],"game_id":440,"stv_port":27076,"stv_name":"Uncletopia | Frankfurt | 7 | Stopwatch | STV","players":null},{"server_id":24,"name":"Uncletopia | Frankfurt | 8 | Community","name_short":"frk-8","host":"frk-1.de.uncletopia.com","port":27085,"enabled":true,"region":"eu","cc":"de","latitude":50.110924,"longitude":8.682127,"reserved":0,"last_update":"0001-01-01T00:00:00Z","name_a2s":"Uncletopia | Frankfurt | 8 | Community","protocol":17,"map":"workshop/pl_emerge_rc2.ugc888027758","folder":"tf","game":"Team Fortress","app_id":440,"player_count":0,"max_players":24,"Bots":0,"server_type":"Dedicated","server_os":"Linux","password":true,"vac":true,"version":"7961495","steam_id":85568392924742828,"keywords":["nocrits","nodmgspread","payload","uncletopia"],"game_id":440,"stv_port":27086,"stv_name":"Uncletopia | Frankfurt | 8 | Community | STV","players":null},{"server_id":202,"name":"Uncletopia | Hong Kong | 1 | All Maps","name_short":"hgk-1","host":"hgk-1.hk.uncletopia.com","port":27015,"enabled":true,"region":"asia","cc":"hk","latitude":22.302711,"longitude":114.177216,"reserved":0,"last_update":"0001-01-01T00:00:00Z","name_a2s":"Uncletopia | Hong Kong | 1 | All Maps","protocol":17,"map":"pl_barnblitz","folder":"tf","game":"Team Fortress","app_id":440,"player_count":0,"max_players":24,"Bots":0,"server_type":"Dedicated","server_os":"Linux","password":true,"vac":true,"version":"7961495","steam_id":85568392924494504,"keywords":["nocrits","nodmgspread","payload","uncletopia"],"game_id":440,"stv_port":27016,"stv_name":"Uncletopia | Hong Kong | 1 | All Maps | STV","players":null},{"server_id":1,"name":"Uncletopia | Los Angeles | 1 | All Maps","name_short":"lax-1","host":"lax-1.us.uncletopia.com","port":27015,"enabled":true,"region":"us-west","cc":"us","latitude":33.94279,"longitude":-118.41004,"reserved":0,"last_update":"0001-01-01T00:00:00Z","name_a2s":"Uncletopia | Los Angeles | 1 | All Maps","protocol":17,"map":"pl_snowycoast","folder":"tf","game":"Team Fortress","app_id":440,"player_count":0,"max_players":24,"Bots":0,"server_type":"Dedicated","server_os":"Linux","password":true,"vac":true,"version":"7961495","steam_id":85568392924469991,"keywords":["nocrits","nodmgspread","payload","uncletopia"],"game_id":440,"stv_port":27016,"stv_name":"Uncletopia | Los Angeles | 1 | All Maps | STV","players":null},{"server_id":112,"name":"Uncletopia | Los Angeles | 2 | All Maps","name_short":"lax-2","host":"lax-1.us.uncletopia.com","port":27025,"enabled":true,"region":"us-west","cc":"us","latitude":33.94279,"longitude":-118.41004,"reserved":0,"last_update":"0001-01-01T00:00:00Z","name_a2s":"Uncletopia | Los Angeles | 2 | All Maps","protocol":17,"map":"ctf_doublecross","folder":"tf","game":"Team Fortress","app_id":440,"player_count":24,"max_players":24,"Bots":0,"server_type":"Dedicated","server_os":"Linux","password":true,"vac":true,"version":"7961495","steam_id":85568392924469992,"keywords":["ctf","nocrits","nodmgspread","uncletopia"],"game_id":440,"stv_port":27026,"stv_name":"Uncletopia | Los Angeles | 2 | All Maps | STV","players":[{"user_id":279,"name":"Cebula33","steam_id":76561197984964095,"connected_time":1249000000000,"state":"active","ping":57},{"user_id":257,"name":"reymundo","steam_id":76561197989412830,"connected_time":4197000000000,"state":"active","ping":59},{"user_id":281,"name":"Cope","steam_id":76561198105929029,"connected_time":1171000000000,"state":"active","ping":60},{"user_id":277,"name":"jovial","steam_id":76561198297130941,"connected_time":1266000000000,"state":"active","ping":45},{"user_id":287,"name":"Hollow gamer","steam_id":76561198426798913,"connected_time":907000000000,"state":"active","ping":54},{"user_id":271,"name":"noceof","steam_id":76561198043656816,"connected_time":2618000000000,"state":"active","ping":169},{"user_id":275,"name":"Monki","steam_id":76561198964210411,"connected_time":1272000000000,"state":"active","ping":56},{"user_id":297,"name":"RIP CHICO, COCO and FRANK :(","steam_id":76561198865172720,"connected_time":229000000000,"state":"active","ping":63},{"user_id":296,"name":"roach","steam_id":76561198354811369,"connected_time":376000000000,"state":"active","ping":51},{"user_id":278,"name":"Insomniac","steam_id":76561199180653046,"connected_time":1258000000000,"state":"active","ping":162},{"user_id":292,"name":"Idk","steam_id":76561198971629959,"connected_time":845000000000,"state":"active","ping":162},{"user_id":284,"name":"ButteryJack","steam_id":76561198021691102,"connected_time":941000000000,"state":"active","ping":48},{"user_id":285,"name":"Gem","steam_id":76561198106330075,"connected_time":926000000000,"state":"active","ping":63},{"user_id":288,"name":"BirdScruff","steam_id":76561198349249196,"connected_time":904000000000,"state":"active","ping":119},{"user_id":259,"name":"CJspellsfish","steam_id":76561198277342368,"connected_time":4098000000000,"state":"active","ping":114},{"user_id":289,"name":"has not touched grass in 6 year","steam_id":76561198007867721,"connected_time":895000000000,"state":"active","ping":48},{"user_id":231,"name":"Borgor Boi","steam_id":76561199061388107,"connected_time":6519000000000,"state":"active","ping":65},{"user_id":290,"name":"Lawnmower","steam_id":76561198186680197,"connected_time":869000000000,"state":"active","ping":54},{"user_id":262,"name":"Ok then","steam_id":76561198891914787,"connected_time":3478000000000,"state":"active","ping":91},{"user_id":276,"name":"Whisper!","steam_id":76561198119609795,"connected_time":1272000000000,"state":"active","ping":52},{"user_id":295,"name":"AstronautPug","steam_id":76561198162372709,"connected_time":745000000000,"state":"active","ping":115},{"user_id":267,"name":"President Atticus","steam_id":76561198157557477,"connected_time":3377000000000,"state":"active","ping":138},{"user_id":293,"name":"Skeleop","steam_id":76561198981106464,"connected_time":836000000000,"state":"active","ping":47},{"user_id":294,"name":"MancalaMadMan","steam_id":76561198347324053,"connected_time":779000000000,"state":"active","ping":97}]},{"server_id":324,"name":"Uncletopia | Los Angeles | 3 | All Maps","name_short":"lax-3","host":"lax-1.us.uncletopia.com","port":27035,"enabled":true,"region":"us-west","cc":"us","latitude":33.94279,"longitude":-118.41004,"reserved":0,"last_update":"0001-01-01T00:00:00Z","name_a2s":"Uncletopia | Los Angeles | 3 | All Maps","protocol":17,"map":"cp_sunshine","folder":"tf","game":"Team Fortress","app_id":440,"player_count":0,"max_players":24,"Bots":0,"server_type":"Dedicated","server_os":"Linux","password":true,"vac":true,"version":"7961495","steam_id":85568392924510198,"keywords":["cp","nocrits","nodmgspread","uncletopia"],"game_id":440,"stv_port":27036,"stv_name":"Uncletopia | Los Angeles | 3 | All Maps | STV","players":null},{"server_id":25,"name":"Uncletopia | Los Angeles | 4 | Stopwatch","name_short":"lax-4","host":"lax-1.us.uncletopia.com","port":27045,"enabled":true,"region":"us-west","cc":"us","latitude":33.94279,"longitude":-118.41004,"reserved":0,"last_update":"0001-01-01T00:00:00Z","name_a2s":"Uncletopia | Los Angeles | 4 | Stopwatch","protocol":17,"map":"cp_granary","folder":"tf","game":"Team Fortress","app_id":440,"player_count":0,"max_players":24,"Bots":0,"server_type":"Dedicated","server_os":"Linux","password":true,"vac":true,"version":"7961495","steam_id":85568392924510199,"keywords":["cp","nocrits","nodmgspread","uncletopia"],"game_id":440,"stv_port":27046,"stv_name":"Uncletopia | Los Angeles | 4 | Stopwatch | STV","players":null},{"server_id":11,"name":"Uncletopia | London | 1 | All Maps","name_short":"lon-1","host":"lon-1.uk.uncletopia.com","port":27015,"enabled":true,"region":"eu","cc":"gb","latitude":51.509865,"longitude":-0.118092,"reserved":0,"last_update":"0001-01-01T00:00:00Z","name_a2s":"Uncletopia | London | 1 | All Maps","protocol":17,"map":"pl_borneo","folder":"tf","game":"Team Fortress","app_id":440,"player_count":24,"max_players":24,"Bots":0,"server_type":"Dedicated","server_os":"Linux","password":true,"vac":true,"version":"7961495","steam_id":85568392924367362,"keywords":["nocrits","nodmgspread","payload","uncletopia"],"game_id":440,"stv_port":27016,"stv_name":"Uncletopia | London | 1 | All Maps | STV","players":[{"user_id":435,"name":"Broa28","steam_id":76561199072979817,"connected_time":2250000000000,"state":"active","ping":72},{"user_id":453,"name":"natsu","steam_id":76561198089546760,"connected_time":1620000000000,"state":"active","ping":49},{"user_id":467,"name":"Grønkjær","steam_id":76561198041075280,"connected_time":574000000000,"state":"active","ping":77},{"user_id":449,"name":"NI","steam_id":76561198941142018,"connected_time":1923000000000,"state":"active","ping":149},{"user_id":450,"name":"Logern","steam_id":76561198085243794,"connected_time":1722000000000,"state":"active","ping":64},{"user_id":454,"name":"Kasper","steam_id":76561198133060222,"connected_time":1617000000000,"state":"active","ping":48},{"user_id":439,"name":"Goblineer","steam_id":76561198442888935,"connected_time":2188000000000,"state":"active","ping":50},{"user_id":459,"name":"Neo Kojiro","steam_id":76561198000967076,"connected_time":1028000000000,"state":"active","ping":134},{"user_id":448,"name":"Slifer the Acorn","steam_id":76561198062255803,"connected_time":1940000000000,"state":"active","ping":91},{"user_id":466,"name":"neo","steam_id":76561198136265838,"connected_time":697000000000,"state":"active","ping":69},{"user_id":458,"name":"Mstaic","steam_id":76561198079384498,"connected_time":1070000000000,"state":"active","ping":46},{"user_id":416,"name":"Kili","steam_id":76561198138456346,"connected_time":3052000000000,"state":"active","ping":73},{"user_id":429,"name":"Flohr","steam_id":76561198191948841,"connected_time":2685000000000,"state":"active","ping":45},{"user_id":465,"name":"Acanda","steam_id":76561198123246537,"connected_time":893000000000,"state":"active","ping":66},{"user_id":376,"name":"Max Andrew","steam_id":76561198158955194,"connected_time":4200000000000,"state":"active","ping":56},{"user_id":464,"name":"Cypher","steam_id":76561197996967254,"connected_time":926000000000,"state":"active","ping":73},{"user_id":377,"name":"[P-roc] Cmm Bert","steam_id":76561198016658674,"connected_time":4188000000000,"state":"active","ping":62},{"user_id":457,"name":"Stunner John Mode! ツ","steam_id":76561199085822219,"connected_time":1086000000000,"state":"active","ping":84},{"user_id":425,"name":"Mariofan1000","steam_id":76561199094124424,"connected_time":2791000000000,"state":"active","ping":125},{"user_id":426,"name":"Mantic Cosma","steam_id":76561198323581294,"connected_time":2778000000000,"state":"active","ping":47},{"user_id":452,"name":"CuJIA_TPAHCJIuTA","steam_id":76561198149654361,"connected_time":1645000000000,"state":"active","ping":74},{"user_id":455,"name":"Homosapien","steam_id":76561197972035953,"connected_time":1551000000000,"state":"active","ping":60},{"user_id":462,"name":"Foxtrod","steam_id":76561198127520295,"connected_time":983000000000,"state":"active","ping":142},{"user_id":463,"name":"glorpis","steam_id":76561199225333422,"connected_time":976000000000,"state":"active","ping":52}]},{"server_id":114,"name":"Uncletopia | London | 2 | All Maps","name_short":"lon-2","host":"lon-1.uk.uncletopia.com","port":27025,"enabled":true,"region":"eu","cc":"gb","latitude":51.509865,"longitude":-0.118092,"reserved":0,"last_update":"0001-01-01T00:00:00Z","name_a2s":"Uncletopia | London | 2 | All Maps","protocol":17,"map":"cp_snakewater_final1","folder":"tf","game":"Team Fortress","app_id":440,"player_count":24,"max_players":24,"Bots":0,"server_type":"Dedicated","server_os":"Linux","password":true,"vac":true,"version":"7961495","steam_id":85568392924470941,"keywords":["cp","nocrits","nodmgspread","uncletopia"],"game_id":440,"stv_port":27026,"stv_name":"Uncletopia | London | 2 | All Maps | STV","players":[{"user_id":341,"name":"Hitotsume","steam_id":76561198129157178,"connected_time":37000000000,"state":"active","ping":94},{"user_id":340,"name":"ADVANCED_CHIWAWA_96","steam_id":76561199121426406,"connected_time":47000000000,"state":"active","ping":49},{"user_id":323,"name":"SpacePig","steam_id":76561198044662873,"connected_time":454000000000,"state":"active","ping":100},{"user_id":331,"name":"B1urred","steam_id":76561198263657694,"connected_time":122000000000,"state":"active","ping":49},{"user_id":324,"name":"padillacampos","steam_id":76561198161923970,"connected_time":447000000000,"state":"active","ping":74},{"user_id":325,"name":"Von Leining","steam_id":76561198859983504,"connected_time":400000000000,"state":"active","ping":65},{"user_id":326,"name":"Ixsus\u003c3","steam_id":76561198094756869,"connected_time":397000000000,"state":"active","ping":61},{"user_id":327,"name":"David","steam_id":76561198017852330,"connected_time":366000000000,"state":"active","ping":81},{"user_id":328,"name":"Bajas","steam_id":76561198179339326,"connected_time":359000000000,"state":"active","ping":76},{"user_id":332,"name":"PyBOP","steam_id":76561198039583834,"connected_time":106000000000,"state":"active","ping":45},{"user_id":333,"name":"bitkomet","steam_id":76561198058232147,"connected_time":88000000000,"state":"active","ping":77},{"user_id":335,"name":"Blasphemy | wilgotwall.com","steam_id":76561198012250335,"connected_time":66000000000,"state":"active","ping":78},{"user_id":336,"name":"ClumsyKoala81","steam_id":76561198971737523,"connected_time":57000000000,"state":"active","ping":71},{"user_id":337,"name":"Frogger on Gameboy Color","steam_id":76561198031917404,"connected_time":56000000000,"state":"active","ping":45},{"user_id":338,"name":"JodeXtreme","steam_id":76561198044132935,"connected_time":53000000000,"state":"active","ping":95},{"user_id":339,"name":"jovi_","steam_id":76561198449280552,"connected_time":48000000000,"state":"active","ping":45},{"user_id":342,"name":"bluecheesemints","steam_id":76561199490357988,"connected_time":29000000000,"state":"active","ping":66},{"user_id":343,"name":"Mangoman","steam_id":76561199089290269,"connected_time":28000000000,"state":"active","ping":55},{"user_id":344,"name":"flr","steam_id":76561198249327786,"connected_time":28000000000,"state":"active","ping":75},{"user_id":345,"name":"pipe bomb gaming","steam_id":76561199036776540,"connected_time":20000000000,"state":"spawning","ping":45},{"user_id":346,"name":"i do hard drugs on the regular","steam_id":76561198263228457,"connected_time":19000000000,"state":"active","ping":102},{"user_id":347,"name":"Villdjack","steam_id":76561197999480096,"connected_time":17000000000,"state":"active","ping":66},{"user_id":348,"name":"heat wave","steam_id":76561198316009037,"connected_time":15000000000,"state":"spawning","ping":39},{"user_id":349,"name":"Bruhn","steam_id":76561198106133548,"connected_time":11000000000,"state":"active","ping":130}]},{"server_id":320,"name":"Uncletopia | London | 3 | All Maps","name_short":"lon-3","host":"lon-1.uk.uncletopia.com","port":27035,"enabled":true,"region":"eu","cc":"gb","latitude":51.509865,"longitude":-0.118092,"reserved":0,"last_update":"0001-01-01T00:00:00Z","name_a2s":"Uncletopia | London | 3 | All Maps","protocol":17,"map":"cp_steel","folder":"tf","game":"Team Fortress","app_id":440,"player_count":25,"max_players":24,"Bots":0,"server_type":"Dedicated","server_os":"Linux","password":true,"vac":true,"version":"7961495","steam_id":85568392924510192,"keywords":["cp","nocrits","nodmgspread","uncletopia"],"game_id":440,"stv_port":27036,"stv_name":"Uncletopia | London | 3 | All Maps | STV","players":[{"user_id":225,"name":"JoeyStorm","steam_id":76561198009271882,"connected_time":3307000000000,"state":"active","ping":59},{"user_id":176,"name":"tzlil","steam_id":76561198399916290,"connected_time":7424000000000,"state":"active","ping":103},{"user_id":280,"name":"Mébh Óg MacTíre","steam_id":76561198346399624,"connected_time":73000000000,"state":"active","ping":86},{"user_id":261,"name":"perry the platypus","steam_id":76561199379159771,"connected_time":837000000000,"state":"active","ping":158},{"user_id":273,"name":"heavy sings (real)","steam_id":76561199023804405,"connected_time":494000000000,"state":"active","ping":75},{"user_id":263,"name":"Baklava Enjoyer","steam_id":76561198990679631,"connected_time":802000000000,"state":"active","ping":86},{"user_id":262,"name":"BELADIT","steam_id":76561198011911501,"connected_time":821000000000,"state":"active","ping":75},{"user_id":245,"name":"M4 SOPMOD II Enjoyer","steam_id":76561198155176802,"connected_time":1830000000000,"state":"active","ping":129},{"user_id":264,"name":"NothingMan","steam_id":76561198051284446,"connected_time":777000000000,"state":"active","ping":39},{"user_id":226,"name":"w+m1 pyro","steam_id":76561198039097662,"connected_time":3268000000000,"state":"active","ping":80},{"user_id":278,"name":"UglyTwinYgor","steam_id":76561198132718039,"connected_time":154000000000,"state":"connecting","ping":0},{"user_id":257,"name":"Fr1Zer","steam_id":76561198357086270,"connected_time":1038000000000,"state":"active","ping":115},{"user_id":277,"name":"Flint","steam_id":76561197995920776,"connected_time":231000000000,"state":"active","ping":46},{"user_id":276,"name":"deloreg (engineer gaming)","steam_id":76561199487318962,"connected_time":364000000000,"state":"active","ping":84},{"user_id":271,"name":"Solawep","steam_id":76561198026304692,"connected_time":663000000000,"state":"active","ping":64},{"user_id":214,"name":"Hexagon","steam_id":76561198151205758,"connected_time":3843000000000,"state":"active","ping":59},{"user_id":254,"name":"♂ Animan ♂ Studios ♂","steam_id":76561198308302932,"connected_time":1272000000000,"state":"active","ping":105},{"user_id":267,"name":"Chronicles of Nornia","steam_id":76561198040509712,"connected_time":747000000000,"state":"active","ping":60},{"user_id":268,"name":"Logic Not Found","steam_id":76561198273025576,"connected_time":718000000000,"state":"active","ping":45},{"user_id":249,"name":"Spetse","steam_id":76561197990649972,"connected_time":1601000000000,"state":"active","ping":87},{"user_id":259,"name":"silicon based life form","steam_id":76561199127121346,"connected_time":953000000000,"state":"active","ping":54},{"user_id":279,"name":"blurst of times","steam_id":76561197972325640,"connected_time":148000000000,"state":"active","ping":47},{"user_id":253,"name":"your_local_penguin","steam_id":76561199224954346,"connected_time":1358000000000,"state":"active","ping":134},{"user_id":270,"name":"medic gaming","steam_id":76561198866194704,"connected_time":701000000000,"state":"active","ping":76},{"user_id":275,"name":"Mge Brother","steam_id":76561198860424456,"connected_time":406000000000,"state":"active","ping":72}]},{"server_id":321,"name":"Uncletopia | London | 4 | All Maps","name_short":"lon-4","host":"lon-1.uk.uncletopia.com","port":27045,"enabled":true,"region":"eu","cc":"gb","latitude":51.509865,"longitude":-0.118092,"reserved":0,"last_update":"0001-01-01T00:00:00Z","name_a2s":"Uncletopia | London | 4 | All Maps","protocol":17,"map":"pl_borneo","folder":"tf","game":"Team Fortress","app_id":440,"player_count":24,"max_players":24,"Bots":0,"server_type":"Dedicated","server_os":"Linux","password":true,"vac":true,"version":"7961495","steam_id":85568392924510193,"keywords":["nocrits","nodmgspread","payload","uncletopia"],"game_id":440,"stv_port":27046,"stv_name":"Uncletopia | London | 4 | All Maps | STV","players":[{"user_id":121,"name":"Telushealth","steam_id":76561199422760247,"connected_time":1540000000000,"state":"active","ping":194},{"user_id":148,"name":"Palex","steam_id":76561198093219465,"connected_time":26000000000,"state":"active","ping":41},{"user_id":108,"name":"cum","steam_id":76561198987980283,"connected_time":2185000000000,"state":"active","ping":85},{"user_id":109,"name":"Izzie","steam_id":76561198090287325,"connected_time":2044000000000,"state":"active","ping":55},{"user_id":142,"name":"Garrus","steam_id":76561198163288767,"connected_time":339000000000,"state":"active","ping":97},{"user_id":111,"name":"Even Rüüd","steam_id":76561197981144291,"connected_time":1914000000000,"state":"active","ping":71},{"user_id":127,"name":"Banana khan (F2P)","steam_id":76561198992414056,"connected_time":1267000000000,"state":"active","ping":184},{"user_id":128,"name":"Nonok","steam_id":76561199480685498,"connected_time":1263000000000,"state":"active","ping":72},{"user_id":146,"name":"SuntanPikachu","steam_id":76561198121242476,"connected_time":56000000000,"state":"spawning","ping":282},{"user_id":113,"name":"Puss in Boots","steam_id":76561198211599767,"connected_time":1882000000000,"state":"active","ping":53},{"user_id":88,"name":"Canpenbook64","steam_id":76561199195471984,"connected_time":3572000000000,"state":"active","ping":57},{"user_id":145,"name":"Chambersite","steam_id":76561198197022399,"connected_time":240000000000,"state":"active","ping":80},{"user_id":137,"name":"Boris","steam_id":76561198142939843,"connected_time":623000000000,"state":"active","ping":80},{"user_id":147,"name":"tilgep","steam_id":76561198125585734,"connected_time":45000000000,"state":"active","ping":45},{"user_id":112,"name":"Charmedelf","steam_id":76561197993611881,"connected_time":1902000000000,"state":"active","ping":55},{"user_id":130,"name":"H1DD3 gaming","steam_id":76561198855897385,"connected_time":1214000000000,"state":"active","ping":53},{"user_id":89,"name":"gronk","steam_id":76561199031539961,"connected_time":3501000000000,"state":"active","ping":56},{"user_id":114,"name":"Gubbly Bubbins","steam_id":76561198101451654,"connected_time":1870000000000,"state":"active","ping":46},{"user_id":120,"name":"im tired","steam_id":76561198812159557,"connected_time":1678000000000,"state":"active","ping":84},{"user_id":134,"name":"Vobla Shashlikov","steam_id":76561198309512489,"connected_time":1066000000000,"state":"active","ping":58},{"user_id":144,"name":"Epicdude51","steam_id":76561199496325985,"connected_time":301000000000,"state":"active","ping":84},{"user_id":133,"name":"Asdfasds","steam_id":76561198029296185,"connected_time":1076000000000,"state":"active","ping":96},{"user_id":80,"name":"Jamba Sparabo","steam_id":76561198131647600,"connected_time":3909000000000,"state":"active","ping":64},{"user_id":119,"name":"lorislk989","steam_id":76561199224251630,"connected_time":1728000000000,"state":"active","ping":86}]},{"server_id":21,"name":"Uncletopia | London | 5 | All Maps","name_short":"lon-5","host":"lon-1.uk.uncletopia.com","port":27055,"enabled":true,"region":"eu","cc":"gb","latitude":51.509865,"longitude":-0.118092,"reserved":0,"last_update":"0001-01-01T00:00:00Z","name_a2s":"Uncletopia | London | 5 | All Maps","protocol":17,"map":"pl_barnblitz","folder":"tf","game":"Team Fortress","app_id":440,"player_count":24,"max_players":24,"Bots":0,"server_type":"Dedicated","server_os":"Linux","password":true,"vac":true,"version":"7961495","steam_id":85568392924742829,"keywords":["nocrits","nodmgspread","payload","uncletopia"],"game_id":440,"stv_port":27056,"stv_name":"Uncletopia | London | 5 | All Maps | STV","players":[{"user_id":662,"name":"Fruzo","steam_id":76561197988382114,"connected_time":1744000000000,"state":"active","ping":65},{"user_id":674,"name":"Filin_Fill","steam_id":76561198044037139,"connected_time":910000000000,"state":"active","ping":96},{"user_id":675,"name":"PASTAMAN!!!","steam_id":76561198995641765,"connected_time":856000000000,"state":"active","ping":66},{"user_id":678,"name":"wheel bread","steam_id":76561199062586342,"connected_time":738000000000,"state":"active","ping":60},{"user_id":535,"name":"HaylingZar","steam_id":76561198053559897,"connected_time":9686000000000,"state":"active","ping":60},{"user_id":646,"name":"hyvakii705","steam_id":76561198086630552,"connected_time":2771000000000,"state":"active","ping":90},{"user_id":676,"name":"FoOzTV","steam_id":76561197998636728,"connected_time":855000000000,"state":"active","ping":68},{"user_id":668,"name":"HealthHazard","steam_id":76561198212549753,"connected_time":1142000000000,"state":"active","ping":57},{"user_id":690,"name":"34 Petabyte QR Code ZIP Bomb","steam_id":76561198083017384,"connected_time":104000000000,"state":"active","ping":40},{"user_id":635,"name":"Cornmac","steam_id":76561198104780569,"connected_time":3983000000000,"state":"active","ping":68},{"user_id":677,"name":"patrick","steam_id":76561198086684892,"connected_time":801000000000,"state":"active","ping":112},{"user_id":569,"name":"Largo","steam_id":76561198844368927,"connected_time":7687000000000,"state":"active","ping":68},{"user_id":671,"name":"Henry Fonda","steam_id":76561199378865926,"connected_time":1107000000000,"state":"active","ping":85},{"user_id":680,"name":"D0kai","steam_id":76561198389271720,"connected_time":647000000000,"state":"active","ping":49},{"user_id":658,"name":"lulu","steam_id":76561199147764133,"connected_time":2286000000000,"state":"active","ping":75},{"user_id":681,"name":"BreadAcres (certified goober)","steam_id":76561198098217082,"connected_time":639000000000,"state":"active","ping":67},{"user_id":605,"name":"Sybille Sirky","steam_id":76561198082407725,"connected_time":5309000000000,"state":"active","ping":53},{"user_id":682,"name":"Krefa12","steam_id":76561198268375393,"connected_time":607000000000,"state":"active","ping":100},{"user_id":683,"name":"PirateMole","steam_id":76561198071461487,"connected_time":598000000000,"state":"active","ping":55},{"user_id":684,"name":"Capitan Boba","steam_id":76561198058624532,"connected_time":574000000000,"state":"active","ping":72},{"user_id":686,"name":"Der Herr Doktor","steam_id":76561198119476089,"connected_time":559000000000,"state":"active","ping":70},{"user_id":688,"name":"rwota","steam_id":76561198385769722,"connected_time":542000000000,"state":"active","ping":119},{"user_id":491,"name":"Geoff the Oracle","steam_id":76561198053759965,"connected_time":12413000000000,"state":"active","ping":60},{"user_id":689,"name":"tomerico121","steam_id":76561198968724417,"connected_time":515000000000,"state":"active","ping":127}]},{"server_id":22,"name":"Uncletopia | London | 6 | All Maps","name_short":"lon-6","host":"lon-1.uk.uncletopia.com","port":27065,"enabled":true,"region":"eu","cc":"gb","latitude":51.509865,"longitude":-0.118092,"reserved":0,"last_update":"0001-01-01T00:00:00Z","name_a2s":"Uncletopia | London | 6 | All Maps","protocol":17,"map":"pl_upward","folder":"tf","game":"Team Fortress","app_id":440,"player_count":24,"max_players":24,"Bots":0,"server_type":"Dedicated","server_os":"Linux","password":true,"vac":true,"version":"7961495","steam_id":85568392924742830,"keywords":["nocrits","nodmgspread","payload","uncletopia"],"game_id":440,"stv_port":27066,"stv_name":"Uncletopia | London | 6 | All Maps | STV","players":[{"user_id":414,"name":"meow (they/them)","steam_id":76561198416657815,"connected_time":2543000000000,"state":"active","ping":115},{"user_id":377,"name":"night.s","steam_id":76561198326287823,"connected_time":5789000000000,"state":"active","ping":81},{"user_id":432,"name":"rets_","steam_id":76561198061551392,"connected_time":1150000000000,"state":"active","ping":67},{"user_id":387,"name":"syndenz","steam_id":76561198176063813,"connected_time":5026000000000,"state":"active","ping":70},{"user_id":398,"name":"yuck","steam_id":76561197987249568,"connected_time":4049000000000,"state":"active","ping":105},{"user_id":427,"name":"mesλ","steam_id":76561198324582918,"connected_time":1601000000000,"state":"active","ping":92},{"user_id":438,"name":"Kaziocalvice","steam_id":76561198146425583,"connected_time":337000000000,"state":"active","ping":67},{"user_id":428,"name":"Kyy","steam_id":76561198041993514,"connected_time":1456000000000,"state":"active","ping":62},{"user_id":444,"name":"smokin joe","steam_id":76561198440837262,"connected_time":118000000000,"state":"active","ping":51},{"user_id":445,"name":"JareJare","steam_id":76561199040893751,"connected_time":60000000000,"state":"active","ping":80},{"user_id":443,"name":"Professional facestab","steam_id":76561198258721056,"connected_time":276000000000,"state":"active","ping":47},{"user_id":442,"name":"Proud Jojo Fan #TF2SP","steam_id":76561198847327216,"connected_time":308000000000,"state":"active","ping":74},{"user_id":434,"name":"VibeCat22","steam_id":76561199248330295,"connected_time":823000000000,"state":"active","ping":53},{"user_id":440,"name":"gibb (official)","steam_id":76561198074097655,"connected_time":322000000000,"state":"active","ping":45},{"user_id":436,"name":"Solymr ibn Wali Barad","steam_id":76561198044008976,"connected_time":349000000000,"state":"active","ping":64},{"user_id":441,"name":"Gent","steam_id":76561198037167890,"connected_time":313000000000,"state":"active","ping":84},{"user_id":433,"name":"Laura ❤","steam_id":76561198975652501,"connected_time":1099000000000,"state":"active","ping":82},{"user_id":437,"name":"dispenser","steam_id":76561199008411791,"connected_time":349000000000,"state":"active","ping":47},{"user_id":435,"name":"iniT","steam_id":76561198019883794,"connected_time":665000000000,"state":"active","ping":47},{"user_id":426,"name":"stickurr","steam_id":76561198089536805,"connected_time":1642000000000,"state":"active","ping":46},{"user_id":370,"name":"thekoolest88","steam_id":76561199022415672,"connected_time":6848000000000,"state":"active","ping":142},{"user_id":431,"name":"Türa","steam_id":76561197993577872,"connected_time":1293000000000,"state":"active","ping":95},{"user_id":407,"name":"Potato","steam_id":76561198184310425,"connected_time":3604000000000,"state":"active","ping":114},{"user_id":423,"name":"Cookies and Bakies","steam_id":76561198017442928,"connected_time":2056000000000,"state":"active","ping":70}]},{"server_id":40,"name":"Uncletopia | London | 7 | Stopwatch","name_short":"lon-7","host":"lon-1.uk.uncletopia.com","port":27075,"enabled":true,"region":"eu","cc":"gb","latitude":51.509865,"longitude":-0.118092,"reserved":0,"last_update":"0001-01-01T00:00:00Z","name_a2s":"Uncletopia | London | 7 | Stopwatch","protocol":17,"map":"workshop/koth_bagel_rc6.ugc2514036946","folder":"tf","game":"Team Fortress","app_id":440,"player_count":5,"max_players":24,"Bots":0,"server_type":"Dedicated","server_os":"Linux","password":true,"vac":true,"version":"7961495","steam_id":85568392924964314,"keywords":["cp","nocrits","nodmgspread","uncletopia"],"game_id":440,"stv_port":27076,"stv_name":"Uncletopia | London | 7 | Stopwatch | STV","players":[{"user_id":250,"name":"niandits","steam_id":76561198419798900,"connected_time":324000000000,"state":"active","ping":124},{"user_id":251,"name":"zombie","steam_id":76561197972287320,"connected_time":282000000000,"state":"active","ping":68},{"user_id":252,"name":"Salem","steam_id":76561199099518959,"connected_time":4000000000,"state":"spawning","ping":155},{"user_id":182,"name":"63756d","steam_id":76561198808699024,"connected_time":5125000000000,"state":"active","ping":70},{"user_id":225,"name":"_Context_","steam_id":76561199163359312,"connected_time":3310000000000,"state":"active","ping":59}]},{"server_id":41,"name":"Uncletopia | London | 8 | Community","name_short":"lon-8","host":"lon-1.uk.uncletopia.com","port":27085,"enabled":true,"region":"eu","cc":"gb","latitude":51.509865,"longitude":-0.118092,"reserved":0,"last_update":"0001-01-01T00:00:00Z","name_a2s":"Uncletopia | London | 8 | Community","protocol":17,"map":"workshop/koth_synthetic_rc6a.ugc1549817316","folder":"tf","game":"Team Fortress","app_id":440,"player_count":0,"max_players":24,"Bots":0,"server_type":"Dedicated","server_os":"Linux","password":true,"vac":true,"version":"7961495","steam_id":85568392924964315,"keywords":["cp","nocrits","nodmgspread","uncletopia"],"game_id":440,"stv_port":27086,"stv_name":"Uncletopia | London | 8 | Community | STV","players":null},{"server_id":300,"name":"Uncletopia | Montréal | 1 | All Maps","name_short":"mtl-1","host":"mtl-1.ca.uncletopia.com","port":27015,"enabled":true,"region":"us-east","cc":"ca","latitude":45.50889,"longitude":-73.56167,"reserved":0,"last_update":"0001-01-01T00:00:00Z","name_a2s":"","protocol":0,"map":"","folder":"","game":"","app_id":0,"player_count":16,"max_players":0,"Bots":0,"server_type":"","server_os":"","password":false,"vac":false,"version":"","steam_id":0,"keywords":null,"game_id":0,"stv_port":0,"stv_name":"","players":[{"user_id":10,"name":"t.tv/stabslive","steam_id":76561198293116584,"connected_time":1671000000000,"state":"active","ping":77},{"user_id":30,"name":"Quilfus Scrofel","steam_id":76561198160308375,"connected_time":75000000000,"state":"active","ping":75},{"user_id":12,"name":"WorthlessPieceOfJunk2","steam_id":76561199097909603,"connected_time":1653000000000,"state":"active","ping":142},{"user_id":13,"name":"Hank","steam_id":76561199035800539,"connected_time":1650000000000,"state":"active","ping":56},{"user_id":17,"name":"jdd_50","steam_id":76561199173477085,"connected_time":1211000000000,"state":"active","ping":111},{"user_id":29,"name":"Ripheart","steam_id":76561198089661561,"connected_time":148000000000,"state":"active","ping":54},{"user_id":19,"name":"Big Iron","steam_id":76561198798937656,"connected_time":991000000000,"state":"active","ping":68},{"user_id":20,"name":"The Shit Jar","steam_id":76561199126600092,"connected_time":879000000000,"state":"active","ping":135},{"user_id":27,"name":"Chin, Bruce Lee's Relative","steam_id":76561198240105522,"connected_time":311000000000,"state":"active","ping":88},{"user_id":22,"name":"Politically Divisive Coffee","steam_id":76561198105411135,"connected_time":573000000000,"state":"active","ping":119},{"user_id":23,"name":"Cryonics","steam_id":76561198314197911,"connected_time":415000000000,"state":"active","ping":75},{"user_id":24,"name":"GoldtoothFour","steam_id":76561198055529332,"connected_time":382000000000,"state":"active","ping":52},{"user_id":25,"name":"Klip","steam_id":76561198316254429,"connected_time":357000000000,"state":"active","ping":90},{"user_id":31,"name":"DistantJragon","steam_id":76561198117563641,"connected_time":32000000000,"state":"active","ping":47},{"user_id":32,"name":"Open Mailbox","steam_id":76561198051933580,"connected_time":18000000000,"state":"spawning","ping":80},{"user_id":33,"name":"Wan Shi Tong","steam_id":76561198076441225,"connected_time":7000000000,"state":"active","ping":140}]},{"server_id":301,"name":"Uncletopia | Montréal | 2 | ???","name_short":"mtl-2","host":"mtl-1.ca.uncletopia.com","port":27025,"enabled":true,"region":"us-east","cc":"ca","latitude":45.50889,"longitude":-73.56167,"reserved":0,"last_update":"0001-01-01T00:00:00Z","name_a2s":"","protocol":0,"map":"","folder":"","game":"","app_id":0,"player_count":0,"max_players":0,"Bots":0,"server_type":"","server_os":"","password":false,"vac":false,"version":"","steam_id":0,"keywords":null,"game_id":0,"stv_port":0,"stv_name":"","players":null},{"server_id":13,"name":"Uncletopia | New York City | 1 | All Maps","name_short":"nyc-1","host":"nyc-1.us.uncletopia.com","port":27015,"enabled":true,"region":"us-east","cc":"us","latitude":40.73061,"longitude":-73.93524,"reserved":0,"last_update":"0001-01-01T00:00:00Z","name_a2s":"Uncletopia | New York City | 1 | All Maps","protocol":17,"map":"pl_borneo","folder":"tf","game":"Team Fortress","app_id":440,"player_count":24,"max_players":24,"Bots":0,"server_type":"Dedicated","server_os":"Linux","password":true,"vac":true,"version":"7961495","steam_id":85568392924469993,"keywords":["nocrits","nodmgspread","payload","uncletopia"],"game_id":440,"stv_port":27016,"stv_name":"Uncletopia | New York City | 1 | All Maps | STV","players":[{"user_id":199,"name":"Ⓑ⓪⓪ⓣⓨⓒⓐⓚⓔⓢ","steam_id":76561198088776421,"connected_time":126000000000,"state":"active","ping":72},{"user_id":182,"name":"banana weapon collector","steam_id":76561199381954163,"connected_time":1131000000000,"state":"active","ping":114},{"user_id":117,"name":"HUESO","steam_id":76561198276383681,"connected_time":4514000000000,"state":"active","ping":79},{"user_id":197,"name":"meth ape","steam_id":76561199110579692,"connected_time":224000000000,"state":"active","ping":57},{"user_id":192,"name":"Lord Philip","steam_id":76561198277097779,"connected_time":810000000000,"state":"active","ping":148},{"user_id":187,"name":"dogface","steam_id":76561198074407897,"connected_time":983000000000,"state":"active","ping":55},{"user_id":190,"name":"Peepster","steam_id":76561198297854733,"connected_time":860000000000,"state":"active","ping":84},{"user_id":183,"name":"Titonical","steam_id":76561199108558864,"connected_time":1123000000000,"state":"active","ping":125},{"user_id":165,"name":"cdn :3","steam_id":76561198862735659,"connected_time":1752000000000,"state":"active","ping":70},{"user_id":200,"name":"M249 | Spectre","steam_id":76561198118334485,"connected_time":125000000000,"state":"active","ping":70},{"user_id":124,"name":"Froyo Ding Dong","steam_id":76561198379421700,"connected_time":4359000000000,"state":"active","ping":58},{"user_id":145,"name":"Tav, Devourer of Cheeks","steam_id":76561198021688160,"connected_time":2970000000000,"state":"active","ping":67},{"user_id":201,"name":"pls watch puss in boots","steam_id":76561198046210501,"connected_time":108000000000,"state":"active","ping":142},{"user_id":202,"name":"In Soviet America","steam_id":76561197998261826,"connected_time":100000000000,"state":"active","ping":82},{"user_id":195,"name":"Gaz","steam_id":76561199112609039,"connected_time":739000000000,"state":"active","ping":57},{"user_id":198,"name":"Queso2469","steam_id":76561197993024580,"connected_time":184000000000,"state":"active","ping":50},{"user_id":191,"name":"Ziath","steam_id":76561198094009164,"connected_time":846000000000,"state":"active","ping":46},{"user_id":123,"name":"Ji-man Choi","steam_id":76561198107899101,"connected_time":4364000000000,"state":"active","ping":60},{"user_id":167,"name":"Porcupine's Revenge!","steam_id":76561199121615234,"connected_time":1726000000000,"state":"active","ping":41},{"user_id":180,"name":"Qkweasy","steam_id":76561198991666605,"connected_time":1182000000000,"state":"active","ping":61},{"user_id":193,"name":"TheVikingTheRed","steam_id":76561199221731253,"connected_time":785000000000,"state":"active","ping":129},{"user_id":185,"name":"peace dog","steam_id":76561198267988522,"connected_time":1076000000000,"state":"active","ping":66},{"user_id":186,"name":"smuffy","steam_id":76561198091459506,"connected_time":1060000000000,"state":"active","ping":48},{"user_id":166,"name":"girlbosspriella","steam_id":76561199025846154,"connected_time":1736000000000,"state":"active","ping":76}]},{"server_id":14,"name":"Uncletopia | New York City | 2 | All Maps","name_short":"nyc-2","host":"nyc-1.us.uncletopia.com","port":27025,"enabled":true,"region":"us-east","cc":"us","latitude":40.73061,"longitude":-73.93524,"reserved":0,"last_update":"0001-01-01T00:00:00Z","name_a2s":"Uncletopia | New York City | 2 | All Maps","protocol":17,"map":"koth_harvest_final","folder":"tf","game":"Team Fortress","app_id":440,"player_count":20,"max_players":24,"Bots":0,"server_type":"Dedicated","server_os":"Linux","password":true,"vac":true,"version":"7961495","steam_id":85568392924469994,"keywords":["cp","nocrits","nodmgspread","uncletopia"],"game_id":440,"stv_port":27026,"stv_name":"Uncletopia | New York City | 2 | All Maps | STV","players":[{"user_id":7,"name":"Chord","steam_id":76561198110874021,"connected_time":4027000000000,"state":"active","ping":99},{"user_id":50,"name":"MillerWhite","steam_id":76561198076060357,"connected_time":1699000000000,"state":"active","ping":63},{"user_id":59,"name":"Aware","steam_id":76561198013338167,"connected_time":1063000000000,"state":"active","ping":76},{"user_id":17,"name":"Sharkmeleon","steam_id":76561198795654187,"connected_time":2620000000000,"state":"active","ping":41},{"user_id":83,"name":"pomino","steam_id":76561198071260143,"connected_time":24000000000,"state":"active","ping":49},{"user_id":14,"name":"GaiBerd","steam_id":76561198177100634,"connected_time":3117000000000,"state":"active","ping":42},{"user_id":84,"name":"bobbymcbobington","steam_id":76561199089411172,"connected_time":2000000000,"state":"spawning","ping":87},{"user_id":22,"name":"TheWallaby","steam_id":76561198948037546,"connected_time":2419000000000,"state":"active","ping":45},{"user_id":80,"name":"BOO HAWND","steam_id":76561198141617142,"connected_time":73000000000,"state":"active","ping":71},{"user_id":75,"name":"Cervidé","steam_id":76561198098579497,"connected_time":486000000000,"state":"active","ping":63},{"user_id":65,"name":"breathingtrees","steam_id":76561198118931690,"connected_time":890000000000,"state":"active","ping":56},{"user_id":32,"name":"the_willy12","steam_id":76561199145029672,"connected_time":2147000000000,"state":"active","ping":66},{"user_id":78,"name":"chen","steam_id":76561198064872330,"connected_time":245000000000,"state":"active","ping":47},{"user_id":63,"name":"DapperBlueberries","steam_id":76561199097039587,"connected_time":947000000000,"state":"active","ping":129},{"user_id":60,"name":"big ol' buford","steam_id":76561198290675957,"connected_time":1050000000000,"state":"active","ping":65},{"user_id":72,"name":"Ninty","steam_id":76561199364725776,"connected_time":507000000000,"state":"active","ping":82},{"user_id":44,"name":"Ghille","steam_id":76561198027234838,"connected_time":1888000000000,"state":"active","ping":67},{"user_id":64,"name":"Indyee","steam_id":76561198352317274,"connected_time":926000000000,"state":"active","ping":61},{"user_id":82,"name":"Zhong Xina","steam_id":76561198048157121,"connected_time":66000000000,"state":"active","ping":166},{"user_id":74,"name":"cyberas","steam_id":76561198257092290,"connected_time":492000000000,"state":"active","ping":67}]},{"server_id":15,"name":"Uncletopia | New York City | 3 | Stopwatch","name_short":"nyc-3","host":"nyc-1.us.uncletopia.com","port":27035,"enabled":true,"region":"us-east","cc":"us","latitude":40.73061,"longitude":-73.93524,"reserved":0,"last_update":"0001-01-01T00:00:00Z","name_a2s":"Uncletopia | New York City | 3 | Stopwatch","protocol":17,"map":"workshop/koth_ashville_final.ugc2130459942","folder":"tf","game":"Team Fortress","app_id":440,"player_count":14,"max_players":24,"Bots":0,"server_type":"Dedicated","server_os":"Linux","password":true,"vac":true,"version":"7961495","steam_id":85568392924742820,"keywords":["cp","nocrits","nodmgspread","uncletopia"],"game_id":440,"stv_port":27036,"stv_name":"Uncletopia | New York City | 3 | Stopwatch | STV","players":[{"user_id":117,"name":"Mak donalds","steam_id":76561198856016840,"connected_time":1829000000000,"state":"spawning","ping":156},{"user_id":135,"name":"sartre","steam_id":76561198885376777,"connected_time":233000000000,"state":"active","ping":88},{"user_id":136,"name":"milk then cereal","steam_id":76561198047168548,"connected_time":137000000000,"state":"active","ping":154},{"user_id":126,"name":"MacAndCheese69","steam_id":76561199013464592,"connected_time":1287000000000,"state":"active","ping":57},{"user_id":139,"name":"¢нι¢кєη","steam_id":76561198435193282,"connected_time":43000000000,"state":"active","ping":42},{"user_id":31,"name":"Fresh Lychee","steam_id":76561198045399559,"connected_time":7109000000000,"state":"active","ping":125},{"user_id":138,"name":"The new day","steam_id":76561198855144603,"connected_time":48000000000,"state":"active","ping":32},{"user_id":32,"name":"The World's Softest Sandwich","steam_id":76561198015577707,"connected_time":7102000000000,"state":"active","ping":100},{"user_id":60,"name":"Sableye","steam_id":76561198061247147,"connected_time":5774000000000,"state":"active","ping":136},{"user_id":137,"name":"Onixall","steam_id":76561199376223110,"connected_time":134000000000,"state":"active","ping":77},{"user_id":132,"name":"keskin00","steam_id":76561199173723045,"connected_time":926000000000,"state":"spawning","ping":184},{"user_id":121,"name":"So fresh, So clean","steam_id":76561198127972568,"connected_time":1740000000000,"state":"active","ping":69},{"user_id":122,"name":"AXZIOM","steam_id":76561198255074952,"connected_time":1711000000000,"state":"active","ping":116},{"user_id":133,"name":"Sergeant Snowflake","steam_id":76561198041474489,"connected_time":896000000000,"state":"active","ping":70}]},{"server_id":16,"name":"Uncletopia | New York City | 4 | Community","name_short":"nyc-4","host":"nyc-1.us.uncletopia.com","port":27045,"enabled":true,"region":"us-east","cc":"us","latitude":40.73061,"longitude":-73.93524,"reserved":0,"last_update":"0001-01-01T00:00:00Z","name_a2s":"Uncletopia | New York City | 4 | Community","protocol":17,"map":"cp_altitude","folder":"tf","game":"Team Fortress","app_id":440,"player_count":0,"max_players":24,"Bots":0,"server_type":"Dedicated","server_os":"Linux","password":true,"vac":true,"version":"7961495","steam_id":85568392924742821,"keywords":["cp","nocrits","nodmgspread","uncletopia"],"game_id":440,"stv_port":27046,"stv_name":"Uncletopia | New York City | 4 | Community | STV","players":null},{"server_id":142,"name":"Uncletopia | São Paulo | 1 | All Maps","name_short":"sao-1","host":"sao-1.br.uncletopia.com","port":27015,"enabled":true,"region":"sa","cc":"br","latitude":-23.533773,"longitude":-46.62529,"reserved":0,"last_update":"0001-01-01T00:00:00Z","name_a2s":"Uncletopia | São Paulo | 1 | All Maps","protocol":17,"map":"pl_snowycoast","folder":"tf","game":"Team Fortress","app_id":440,"player_count":3,"max_players":24,"Bots":0,"server_type":"Dedicated","server_os":"Linux","password":true,"vac":true,"version":"7961495","steam_id":85568392924469996,"keywords":["nocrits","nodmgspread","payload","uncletopia"],"game_id":440,"stv_port":27016,"stv_name":"Uncletopia | São Paulo | 1 | All Maps | STV","players":[{"user_id":5,"name":"anaheisenberg","steam_id":76561198304847307,"connected_time":1568000000000,"state":"active","ping":48},{"user_id":6,"name":"vacaloca25","steam_id":76561198082683352,"connected_time":1504000000000,"state":"active","ping":60},{"user_id":8,"name":"LucasHarrio (D-4546B)","steam_id":76561198127024846,"connected_time":1168000000000,"state":"active","ping":71}]},{"server_id":143,"name":"Uncletopia | São Paulo | 2 | Community","name_short":"sao-2","host":"sao-2.br.uncletopia.com","port":27015,"enabled":true,"region":"sa","cc":"br","latitude":-23.533773,"longitude":-46.62529,"reserved":0,"last_update":"0001-01-01T00:00:00Z","name_a2s":"Uncletopia | São Paulo | 2 | Community","protocol":17,"map":"workshop/koth_synthetic_rc6a.ugc1549817316","folder":"tf","game":"Team Fortress","app_id":440,"player_count":0,"max_players":24,"Bots":0,"server_type":"Dedicated","server_os":"Linux","password":true,"vac":true,"version":"7961495","steam_id":85568392924485349,"keywords":["cp","nocrits","nodmgspread","uncletopia"],"game_id":440,"stv_port":27016,"stv_name":"Uncletopia | São Paulo | 2 | Community | STV","players":null},{"server_id":7,"name":"Uncletopia | Seattle | 1 | All Maps","name_short":"sea-1","host":"sea-1.us.uncletopia.com","port":27015,"enabled":true,"region":"us-west","cc":"us","latitude":47.608013,"longitude":-122.33517,"reserved":0,"last_update":"0001-01-01T00:00:00Z","name_a2s":"Uncletopia | Seattle | 1 | All Maps","protocol":17,"map":"pl_thundermountain","folder":"tf","game":"Team Fortress","app_id":440,"player_count":24,"max_players":24,"Bots":0,"server_type":"Dedicated","server_os":"Linux","password":true,"vac":true,"version":"7961495","steam_id":85568392924469997,"keywords":["nocrits","nodmgspread","payload","uncletopia"],"game_id":440,"stv_port":27016,"stv_name":"Uncletopia | Seattle | 1 | All Maps | STV","players":[{"user_id":81,"name":"oo","steam_id":76561198119626492,"connected_time":1073000000000,"state":"active","ping":80},{"user_id":20,"name":"Ass Blaster, Disaster Master","steam_id":76561197997774469,"connected_time":3953000000000,"state":"active","ping":72},{"user_id":89,"name":"[TTV]slendermansmoom","steam_id":76561199053946374,"connected_time":607000000000,"state":"active","ping":56},{"user_id":25,"name":"?","steam_id":76561198209880837,"connected_time":3756000000000,"state":"active","ping":45},{"user_id":63,"name":"YOU WHAT?!","steam_id":76561198418679471,"connected_time":2668000000000,"state":"active","ping":116},{"user_id":93,"name":"nøbu","steam_id":76561198100614981,"connected_time":548000000000,"state":"active","ping":53},{"user_id":96,"name":"Neptune˖⁺｡˚⋆˙♥","steam_id":76561199054203198,"connected_time":17000000000,"state":"spawning","ping":161},{"user_id":75,"name":"xplodingminion","steam_id":76561199112173549,"connected_time":1404000000000,"state":"active","ping":68},{"user_id":91,"name":"Space360","steam_id":76561198106743284,"connected_time":596000000000,"state":"active","ping":43},{"user_id":28,"name":"Reposas","steam_id":76561198058803197,"connected_time":3605000000000,"state":"active","ping":103},{"user_id":76,"name":"Xynnan","steam_id":76561198122232186,"connected_time":1395000000000,"state":"active","ping":98},{"user_id":95,"name":"Cheeses","steam_id":76561198124910662,"connected_time":213000000000,"state":"active","ping":63},{"user_id":79,"name":"Jpxfred","steam_id":76561199414783749,"connected_time":1337000000000,"state":"active","ping":70},{"user_id":66,"name":"Ocelot","steam_id":76561198002768179,"connected_time":2310000000000,"state":"active","ping":62},{"user_id":35,"name":"TinCanDim","steam_id":76561198184039682,"connected_time":3410000000000,"state":"active","ping":45},{"user_id":87,"name":"allahsdroptop","steam_id":76561198133195238,"connected_time":772000000000,"state":"active","ping":78},{"user_id":72,"name":"FaZe hyazZzZ","steam_id":76561199100342013,"connected_time":1574000000000,"state":"active","ping":77},{"user_id":70,"name":"porfer","steam_id":76561199118049168,"connected_time":1786000000000,"state":"active","ping":80},{"user_id":56,"name":"APOTATO","steam_id":76561198118199858,"connected_time":2944000000000,"state":"active","ping":90},{"user_id":92,"name":"Cresty","steam_id":76561199118643461,"connected_time":589000000000,"state":"active","ping":48},{"user_id":94,"name":"BLU3","steam_id":76561198059652670,"connected_time":228000000000,"state":"active","ping":46},{"user_id":86,"name":"EpicNGamerz","steam_id":76561198304292582,"connected_time":866000000000,"state":"active","ping":79},{"user_id":68,"name":"Terminally Online Weeb [Dexgod]","steam_id":76561198017130786,"connected_time":2275000000000,"state":"active","ping":111},{"user_id":80,"name":"EAT SPIT!","steam_id":76561198096836451,"connected_time":1307000000000,"state":"active","ping":70}]},{"server_id":119,"name":"Uncletopia | Seattle | 2 | All Maps","name_short":"sea-2","host":"sea-1.us.uncletopia.com","port":27025,"enabled":true,"region":"us-west","cc":"us","latitude":47.608013,"longitude":-122.33517,"reserved":0,"last_update":"0001-01-01T00:00:00Z","name_a2s":"Uncletopia | Seattle | 2 | All Maps","protocol":17,"map":"koth_lakeside_final","folder":"tf","game":"Team Fortress","app_id":440,"player_count":0,"max_players":24,"Bots":0,"server_type":"Dedicated","server_os":"Linux","password":true,"vac":true,"version":"7961495","steam_id":85568392924469998,"keywords":["cp","nocrits","nodmgspread","uncletopia"],"game_id":440,"stv_port":27026,"stv_name":"Uncletopia | Seattle | 2 | All Maps | STV","players":null},{"server_id":406,"name":"Uncletopia | Seattle | 3 | Stopwatch","name_short":"sea-3","host":"sea-1.us.uncletopia.com","port":27035,"enabled":true,"region":"us-west","cc":"us","latitude":47.608013,"longitude":-122.33517,"reserved":0,"last_update":"0001-01-01T00:00:00Z","name_a2s":"Uncletopia | Seattle | 3 | Stopwatch","protocol":17,"map":"koth_lakeside_final","folder":"tf","game":"Team Fortress","app_id":440,"player_count":0,"max_players":24,"Bots":0,"server_type":"Dedicated","server_os":"Linux","password":true,"vac":true,"version":"7961495","steam_id":85568392924515217,"keywords":["cp","nocrits","nodmgspread","uncletopia"],"game_id":440,"stv_port":27036,"stv_name":"Uncletopia | Seattle | 3 | Stopwatch | STV","players":null},{"server_id":17,"name":"Uncletopia | San Francisco | 1 | All Maps","name_short":"sfo-1","host":"sfo-1.us.uncletopia.com","port":27015,"enabled":true,"region":"us-west","cc":"us","latitude":37.77397,"longitude":-122.4313,"reserved":0,"last_update":"0001-01-01T00:00:00Z","name_a2s":"Uncletopia | San Francisco | 1 | All Maps","protocol":17,"map":"koth_cascade","folder":"tf","game":"Team Fortress","app_id":440,"player_count":0,"max_players":24,"Bots":0,"server_type":"Dedicated","server_os":"Linux","password":true,"vac":true,"version":"7961495","steam_id":85568392924469999,"keywords":["cp","nocrits","nodmgspread","uncletopia"],"game_id":440,"stv_port":27016,"stv_name":"Uncletopia | San Francisco | 1 | All Maps | STV","players":null},{"server_id":18,"name":"Uncletopia | San Francisco | 2 | All Maps","name_short":"sfo-2","host":"sfo-1.us.uncletopia.com","port":27025,"enabled":true,"region":"us-west","cc":"us","latitude":37.77397,"longitude":-122.4313,"reserved":0,"last_update":"0001-01-01T00:00:00Z","name_a2s":"Uncletopia | San Francisco | 2 | All Maps","protocol":17,"map":"pl_frontier_final","folder":"tf","game":"Team Fortress","app_id":440,"player_count":0,"max_players":24,"Bots":0,"server_type":"Dedicated","server_os":"Linux","password":true,"vac":true,"version":"7961495","steam_id":85568392924470000,"keywords":["nocrits","nodmgspread","payload","uncletopia"],"game_id":440,"stv_port":27026,"stv_name":"Uncletopia | San Francisco | 2 | All Maps | STV","players":null},{"server_id":19,"name":"Uncletopia | San Francisco | 3 | Stopwatch","name_short":"sfo-3","host":"sfo-1.us.uncletopia.com","port":27035,"enabled":true,"region":"us-west","cc":"us","latitude":37.77397,"longitude":-122.4313,"reserved":0,"last_update":"0001-01-01T00:00:00Z","name_a2s":"Uncletopia | San Francisco | 3 | Stopwatch","protocol":17,"map":"pl_pier","folder":"tf","game":"Team Fortress","app_id":440,"player_count":0,"max_players":24,"Bots":0,"server_type":"Dedicated","server_os":"Linux","password":true,"vac":true,"version":"7961495","steam_id":85568392924742824,"keywords":["nocrits","nodmgspread","payload","uncletopia"],"game_id":440,"stv_port":27036,"stv_name":"Uncletopia | San Francisco | 3 | Stopwatch | STV","players":null},{"server_id":20,"name":"Uncletopia | San Francisco | 4 | Community","name_short":"sfo-4","host":"sfo-1.us.uncletopia.com","port":27045,"enabled":true,"region":"us-west","cc":"us","latitude":37.77397,"longitude":-122.4313,"reserved":0,"last_update":"0001-01-01T00:00:00Z","name_a2s":"Uncletopia | San Francisco | 4 | Community","protocol":17,"map":"workshop/pl_divulgence_b4b.ugc2884808746","folder":"tf","game":"Team Fortress","app_id":440,"player_count":0,"max_players":24,"Bots":0,"server_type":"Dedicated","server_os":"Linux","password":true,"vac":true,"version":"7961495","steam_id":85568392924742826,"keywords":["nocrits","nodmgspread","payload","uncletopia"],"game_id":440,"stv_port":27046,"stv_name":"Uncletopia | San Francisco | 4 | Community | STV","players":null},{"server_id":141,"name":"Uncletopia | Sydney | 1 | All Maps","name_short":"syd-1","host":"syd-1.au.uncletopia.com","port":27015,"enabled":true,"region":"au","cc":"au","latitude":-33.865143,"longitude":151.2099,"reserved":0,"last_update":"0001-01-01T00:00:00Z","name_a2s":"Uncletopia | Sydney | 1 | All Maps","protocol":17,"map":"pl_upward","folder":"tf","game":"Team Fortress","app_id":440,"player_count":0,"max_players":24,"Bots":0,"server_type":"Dedicated","server_os":"Linux","password":true,"vac":true,"version":"7961495","steam_id":85568392924470001,"keywords":["nocrits","nodmgspread","payload","uncletopia"],"game_id":440,"stv_port":27016,"stv_name":"Uncletopia | Sydney | 1 | All Maps | STV","players":null},{"server_id":123,"name":"Uncletopia | Sydney | 2 | All Maps","name_short":"syd-2","host":"syd-1.au.uncletopia.com","port":27025,"enabled":true,"region":"au","cc":"au","latitude":-33.865143,"longitude":151.2099,"reserved":0,"last_update":"0001-01-01T00:00:00Z","name_a2s":"Uncletopia | Sydney | 2 | All Maps","protocol":17,"map":"pl_upward","folder":"tf","game":"Team Fortress","app_id":440,"player_count":0,"max_players":24,"Bots":0,"server_type":"Dedicated","server_os":"Linux","password":true,"vac":true,"version":"7961495","steam_id":85568392924470002,"keywords":["nocrits","nodmgspread","payload","uncletopia"],"game_id":440,"stv_port":27026,"stv_name":"Uncletopia | Sydney | 2 | All Maps | STV","players":null},{"server_id":395,"name":"Uncletopia | Sydney | 3 | All Maps","name_short":"syd-3","host":"syd-1.au.uncletopia.com","port":27035,"enabled":true,"region":"au","cc":"au","latitude":-33.865143,"longitude":151.2099,"reserved":0,"last_update":"0001-01-01T00:00:00Z","name_a2s":"Uncletopia | Sydney | 3 | All Maps","protocol":17,"map":"pl_barnblitz","folder":"tf","game":"Team Fortress","app_id":440,"player_count":0,"max_players":24,"Bots":0,"server_type":"Dedicated","server_os":"Linux","password":true,"vac":true,"version":"7961495","steam_id":85568392925194467,"keywords":["nocrits","nodmgspread","payload","uncletopia"],"game_id":440,"stv_port":27036,"stv_name":"Uncletopia | Sydney | 3 | All Maps | STV","players":null},{"server_id":396,"name":"Uncletopia | Sydney | 4 | All Maps","name_short":"syd-4","host":"syd-1.au.uncletopia.com","port":27045,"enabled":true,"region":"au","cc":"au","latitude":-33.865143,"longitude":151.2099,"reserved":0,"last_update":"0001-01-01T00:00:00Z","name_a2s":"Uncletopia | Sydney | 4 | All Maps","protocol":17,"map":"koth_highpass","folder":"tf","game":"Team Fortress","app_id":440,"player_count":0,"max_players":24,"Bots":0,"server_type":"Dedicated","server_os":"Linux","password":true,"vac":true,"version":"7961495","steam_id":85568392925397958,"keywords":["cp","nocrits","nodmgspread","uncletopia"],"game_id":440,"stv_port":27046,"stv_name":"Uncletopia | Sydney | 4 | All Maps | STV","players":null},{"server_id":58,"name":"Uncletopia | Sydney | 5 | Stopwatch","name_short":"syd-5","host":"syd-1.au.uncletopia.com","port":27055,"enabled":true,"region":"au","cc":"au","latitude":-33.865143,"longitude":151.2099,"reserved":0,"last_update":"0001-01-01T00:00:00Z","name_a2s":"Uncletopia | Sydney | 5 | Stopwatch","protocol":17,"map":"cp_sunshine","folder":"tf","game":"Team Fortress","app_id":440,"player_count":0,"max_players":24,"Bots":0,"server_type":"Dedicated","server_os":"Linux","password":true,"vac":true,"version":"7961495","steam_id":85568392925397959,"keywords":["cp","nocrits","nodmgspread","uncletopia"],"game_id":440,"stv_port":27056,"stv_name":"Uncletopia | Sydney | 5 | Stopwatch | STV","players":null},{"server_id":59,"name":"Uncletopia | Sydney | 6 | Community","name_short":"syd-6","host":"syd-1.au.uncletopia.com","port":27065,"enabled":true,"region":"au","cc":"au","latitude":-33.865143,"longitude":151.2099,"reserved":0,"last_update":"0001-01-01T00:00:00Z","name_a2s":"Uncletopia | Sydney | 6 | Community","protocol":17,"map":"workshop/koth_trenchfoot_b1a.ugc731436616","folder":"tf","game":"Team Fortress","app_id":440,"player_count":0,"max_players":24,"Bots":0,"server_type":"Dedicated","server_os":"Linux","password":true,"vac":true,"version":"7961495","steam_id":85568392925397960,"keywords":["cp","nocrits","nodmgspread","uncletopia"],"game_id":440,"stv_port":27066,"stv_name":"Uncletopia | Sydney | 6 | Community | STV","players":null},{"server_id":49,"name":"Uncletopia | Warsaw | 1 | All Maps","name_short":"waw-1","host":"waw-1.pl.uncletopia.com","port":27015,"enabled":true,"region":"eu","cc":"pl","latitude":52.2297,"longitude":21.017532,"reserved":0,"last_update":"0001-01-01T00:00:00Z","name_a2s":"Uncletopia | Warsaw | 1 | All Maps","protocol":17,"map":"koth_lakeside_final","folder":"tf","game":"Team Fortress","app_id":440,"player_count":0,"max_players":24,"Bots":0,"server_type":"Dedicated","server_os":"Linux","password":true,"vac":true,"version":"7961495","steam_id":85568392925397850,"keywords":["cp","nocrits","nodmgspread","uncletopia"],"game_id":440,"stv_port":27016,"stv_name":"Uncletopia | Warsaw | 1 | All Maps | STV","players":null},{"server_id":50,"name":"Uncletopia | Warsaw | 2 | All Maps","name_short":"waw-2","host":"waw-1.pl.uncletopia.com","port":27025,"enabled":true,"region":"eu","cc":"pl","latitude":52.2297,"longitude":21.017532,"reserved":0,"last_update":"0001-01-01T00:00:00Z","name_a2s":"Uncletopia | Warsaw | 2 | All Maps","protocol":17,"map":"pl_borneo","folder":"tf","game":"Team Fortress","app_id":440,"player_count":0,"max_players":24,"Bots":0,"server_type":"Dedicated","server_os":"Linux","password":true,"vac":true,"version":"7961495","steam_id":85568392925397851,"keywords":["nocrits","nodmgspread","payload","uncletopia"],"game_id":440,"stv_port":27026,"stv_name":"Uncletopia | Warsaw | 2 | All Maps | STV","players":null},{"server_id":51,"name":"Uncletopia | Warsaw | 3 | All Maps","name_short":"waw-3","host":"waw-1.pl.uncletopia.com","port":27035,"enabled":true,"region":"eu","cc":"pl","latitude":52.2297,"longitude":21.017532,"reserved":0,"last_update":"0001-01-01T00:00:00Z","name_a2s":"Uncletopia | Warsaw | 3 | All Maps","protocol":17,"map":"koth_lakeside_final","folder":"tf","game":"Team Fortress","app_id":440,"player_count":0,"max_players":24,"Bots":0,"server_type":"Dedicated","server_os":"Linux","password":true,"vac":true,"version":"7961495","steam_id":85568392925397852,"keywords":["cp","nocrits","nodmgspread","uncletopia"],"game_id":440,"stv_port":27036,"stv_name":"Uncletopia | Warsaw | 3 | All Maps | STV","players":null},{"server_id":52,"name":"Uncletopia | Warsaw | 4 | All Maps","name_short":"waw-4","host":"waw-1.pl.uncletopia.com","port":27045,"enabled":true,"region":"eu","cc":"pl","latitude":52.2297,"longitude":21.017532,"reserved":0,"last_update":"0001-01-01T00:00:00Z","name_a2s":"Uncletopia | Warsaw | 4 | All Maps","protocol":17,"map":"plr_hightower","folder":"tf","game":"Team Fortress","app_id":440,"player_count":6,"max_players":24,"Bots":0,"server_type":"Dedicated","server_os":"Linux","password":true,"vac":true,"version":"7961495","steam_id":85568392925397853,"keywords":["nocrits","nodmgspread","payload","uncletopia"],"game_id":440,"stv_port":27046,"stv_name":"Uncletopia | Warsaw | 4 | All Maps | STV","players":[{"user_id":24,"name":"stefanbejenari","steam_id":76561199466718294,"connected_time":5486000000000,"state":"active","ping":82},{"user_id":29,"name":"Джекет","steam_id":76561198327897125,"connected_time":1838000000000,"state":"active","ping":116},{"user_id":27,"name":"Puhaur","steam_id":76561198404557509,"connected_time":2017000000000,"state":"active","ping":73},{"user_id":28,"name":"BGH1009","steam_id":76561198894761820,"connected_time":2012000000000,"state":"active","ping":75},{"user_id":30,"name":"Violet","steam_id":76561198079388610,"connected_time":1295000000000,"state":"active","ping":73},{"user_id":31,"name":"Juice Box","steam_id":76561199071833454,"connected_time":819000000000,"state":"active","ping":75}]},{"server_id":53,"name":"Uncletopia | Warsaw | 5 | Stopwatch","name_short":"waw-5","host":"waw-1.pl.uncletopia.com","port":27055,"enabled":true,"region":"eu","cc":"pl","latitude":52.2297,"longitude":21.017532,"reserved":0,"last_update":"0001-01-01T00:00:00Z","name_a2s":"Uncletopia | Warsaw | 5 | Stopwatch","protocol":17,"map":"workshop/koth_ramjam_rc1.ugc459778887","folder":"tf","game":"Team Fortress","app_id":440,"player_count":0,"max_players":24,"Bots":0,"server_type":"Dedicated","server_os":"Linux","password":true,"vac":true,"version":"7961495","steam_id":85568392925397854,"keywords":["cp","nocrits","nodmgspread","uncletopia"],"game_id":440,"stv_port":27056,"stv_name":"Uncletopia | Warsaw | 5 | Stopwatch | STV","players":null},{"server_id":54,"name":"Uncletopia | Warsaw | 6 | Community","name_short":"waw-6","host":"waw-1.pl.uncletopia.com","port":27065,"enabled":true,"region":"eu","cc":"pl","latitude":52.2297,"longitude":21.017532,"reserved":0,"last_update":"0001-01-01T00:00:00Z","name_a2s":"Uncletopia | Warsaw | 6 | Community","protocol":17,"map":"workshop/koth_kemptown_rc1.ugc767410655","folder":"tf","game":"Team Fortress","app_id":440,"player_count":0,"max_players":24,"Bots":0,"server_type":"Dedicated","server_os":"Linux","password":true,"vac":true,"version":"7961495","steam_id":85568392925397856,"keywords":["cp","nocrits","nodmgspread","uncletopia"],"game_id":440,"stv_port":27066,"stv_name":"Uncletopia | Warsaw | 6 | Community | STV","players":null}]}