{"status":true,"message":"","result":[{"server_id":9,"name":"Uncletopia | Atlanta | 1 | All Maps","name_short":"atl-1","host":"atl-1.us.uncletopia.com","port":27015,"enabled":true,"region":"us-east","cc":"us","latitude":33.753746,"longitude":-84.38633,"reserved":0,"last_update":"0001-01-01T00:00:00Z","name_a2s":"Uncletopia | Atlanta | 1 | All Maps","protocol":17,"map":"pl_swiftwater_final1","folder":"tf","game":"Team Fortress","app_id":440,"player_count":24,"max_players":24,"Bots":0,"server_type":"Dedicated","server_os":"Linux","password":true,"vac":true,"version":"7961495","steam_id":85568392924469982,"keywords":["nocrits","nodmgspread","payload","uncletopia"],"game_id":440,"stv_port":27016,"stv_name":"Uncletopia | Atlanta | 1 | All Maps | STV","players":[{"user_id":287,"name":"A Chicken23","steam_id":76561198042376593,"connected_time":2033000000000,"state":"active","ping":89},{"user_id":320,"name":"morbidly a beast","steam_id":76561198061653298,"connected_time":369000000000,"state":"active","ping":72},{"user_id":319,"name":"Womanwer","steam_id":76561198194760222,"connected_time":422000000000,"state":"active","ping":93},{"user_id":299,"name":"OTKozy","steam_id":76561198043460860,"connected_time":1501000000000,"state":"active","ping":59},{"user_id":321,"name":"flaccid","steam_id":76561198299241777,"connected_time":257000000000,"state":"active","ping":87},{"user_id":249,"name":"Gaminglast","steam_id":76561198362927765,"connected_time":5332000000000,"state":"active","ping":107},{"user_id":301,"name":"DJ Chalice","steam_id":76561197974872458,"connected_time":1477000000000,"state":"active","ping":73},{"user_id":322,"name":"WolfinZ","steam_id":76561198115101024,"connected_time":253000000000,"state":"active","ping":61},{"user_id":316,"name":"Just PYE","steam_id":76561199439622967,"connected_time":559000000000,"state":"active","ping":77},{"user_id":326,"name":"Peri","steam_id":76561198255311543,"connected_time":170000000000,"state":"active","ping":104},{"user_id":288,"name":"BLOW UP NEW JERSEY","steam_id":76561198364439575,"connected_time":2030000000000,"state":"active","ping":66},{"user_id":328,"name":"marguerite","steam_id":76561198170873495,"connected_time":58000000000,"state":"active","ping":60},{"user_id":329,"name":"DropBear","steam_id":76561197964435496,"connected_time":55000000000,"state":"spawning","ping":195},{"user_id":318,"name":"Neptune˖⁺｡˚⋆˙♥","steam_id":76561199054203198,"connected_time":532000000000,"state":"active","ping":79},{"user_id":324,"name":"Strangelove","steam_id":76561198353773611,"connected_time":210000000000,"state":"active","ping":86},{"user_id":310,"name":"melvyn","steam_id":76561198113226381,"connected_time":1065000000000,"state":"active","ping":57},{"user_id":296,"name":"uzr","steam_id":76561198799343084,"connected_time":1583000000000,"state":"active","ping":108},{"user_id":308,"name":"2cats_2curious","steam_id":76561198027143149,"connected_time":1088000000000,"state":"active","ping":62},{"user_id":325,"name":"Chub Charney","steam_id":76561198013109676,"connected_time":203000000000,"state":"active","ping":70},{"user_id":305,"name":"Aesede","steam_id":76561198002024762,"connected_time":1337000000000,"state":"active","ping":100},{"user_id":237,"name":"PinkLemonade","steam_id":76561198799286228,"connected_time":5898000000000,"state":"active","ping":75},{"user_id":284,"name":"Xavibite","steam_id":76561198209380493,"connected_time":2146000000000,"state":"active","ping":60},{"user_id":306,"name":"HumFreY","steam_id":76561198076639682,"connected_time":1327000000000,"state":"active","ping":75},{"user_id":282,"name":"BadLuck","steam_id":76561198096452401,"connected_time":2584000000000,"state":"active","ping":70}]},{"server_id":104,"name":"Uncletopia | Atlanta | 2 | All Maps","name_short":"atl-2","host":"atl-1.us.uncletopia.com","port":27025,"enabled":true,"region":"us-east","cc":"us","latitude":33.753746,"longitude":-84.38633,"reserved":0,"last_update":"0001-01-01T00:00:00Z","name_a2s":"Uncletopia | Atlanta | 2 | All Maps","protocol":17,"map":"pl_borneo","folder":"tf","game":"Team Fortress","app_id":440,"player_count":25,"max_players":24,"Bots":0,"server_type":"Dedicated","server_os":"Linux","password":true,"vac":true,"version":"7961495","steam_id":85568392924469983,"keywords":["nocrits","nodmgspread","payload","uncletopia"],"game_id":440,"stv_port":27026,"stv_name":"Uncletopia | Atlanta | 2 | All Maps | STV","players":[{"user_id":127,"name":"Battle God","steam_id":76561198001913785,"connected_time":416000000000,"state":"active","ping":72},{"user_id":140,"name":"The_Epic_Conclusion","steam_id":76561198084250179,"connected_time":135000000000,"state":"active","ping":90},{"user_id":28,"name":"Really bad and a dummy","steam_id":76561198037218103,"connected_time":6010000000000,"state":"active","ping":58},{"user_id":21,"name":"CDBeans","steam_id":76561198046990367,"connected_time":6859000000000,"state":"active","ping":86},{"user_id":122,"name":"Xsaber","steam_id":76561198285273249,"connected_time":506000000000,"state":"active","ping":75},{"user_id":24,"name":"King Cotton","steam_id":76561198292444376,"connected_time":6446000000000,"state":"active","ping":85},{"user_id":89,"name":"BraverPlains","steam_id":76561198812491514,"connected_time":2248000000000,"state":"active","ping":134},{"user_id":113,"name":"Quigi","steam_id":76561198144645874,"connected_time":1389000000000,"state":"active","ping":137},{"user_id":128,"name":"rando","steam_id":76561197982325629,"connected_time":393000000000,"state":"active","ping":67},{"user_id":93,"name":"Weerk","steam_id":76561199209543551,"connected_time":2068000000000,"state":"active","ping":72},{"user_id":117,"name":"Dead_Stranger","steam_id":76561198120804563,"connected_time":1131000000000,"state":"active","ping":79},{"user_id":116,"name":"PewPew","steam_id":76561198011299099,"connected_time":1339000000000,"state":"active","ping":61},{"user_id":135,"name":"imng","steam_id":76561198014988031,"connected_time":219000000000,"state":"active","ping":56},{"user_id":121,"name":"Tony Pizza","steam_id":76561198276513608,"connected_time":601000000000,"state":"active","ping":165},{"user_id":107,"name":"PK","steam_id":76561198368722500,"connected_time":1719000000000,"state":"active","ping":79},{"user_id":129,"name":"Fart Barfunkle","steam_id":76561197983286644,"connected_time":376000000000,"state":"active","ping":84},{"user_id":134,"name":"pigswill","steam_id":76561197999081865,"connected_time":258000000000,"state":"active","ping":75},{"user_id":119,"name":"Wheely Williams","steam_id":76561198880523320,"connected_time":842000000000,"state":"active","ping":84},{"user_id":120,"name":"krusty","steam_id":76561199014848255,"connected_time":638000000000,"state":"active","ping":87},{"user_id":103,"name":"frenemy","steam_id":76561198011363677,"connected_time":1893000000000,"state":"active","ping":75},{"user_id":130,"name":"pepsibobby","steam_id":76561198853864511,"connected_time":375000000000,"state":"active","ping":72},{"user_id":131,"name":"Mr. Wilson","steam_id":76561198162289380,"connected_time":362000000000,"state":"active","ping":81},{"user_id":136,"name":"Strangelove","steam_id":76561198353773611,"connected_time":215000000000,"state":"connecting","ping":0},{"user_id":133,"name":"mild mannered mystery man","steam_id":76561198072095399,"connected_time":297000000000,"state":"active","ping":56},{"user_id":78,"name":"Clockwork0613","steam_id":76561198987121123,"connected_time":3516000000000,"state":"active","ping":128}]},{"server_id":400,"name":"Uncletopia | Atlanta | 3 | Stopwatch","name_short":"atl-3","host":"atl-1.us.uncletopia.com","port":27035,"enabled":true,"region":"us-east","cc":"us","latitude":33.753746,"longitude":-84.38633,"reserved":0,"last_update":"0001-01-01T00:00:00Z","name_a2s":"Uncletopia | Atlanta | 3 | Stopwatch","protocol":17,"map":"workshop/koth_ashville_final.ugc2130459942","folder":"tf","game":"Team Fortress","app_id":440,"player_count":0,"max_players":24,"Bots":0,"server_type":"Dedicated","server_os":"Linux","password":true,"vac":true,"version":"7961495","steam_id":85568392924515187,"keywords":["cp","nocrits","nodmgspread","uncletopia"],"game_id":440,"stv_port":27036,"stv_name":"Uncletopia | Atlanta | 3 | Stopwatch | STV","players":null},{"server_id":401,"name":"Uncletopia | Atlanta | 4 | Community","name_short":"atl-4","host":"atl-1.us.uncletopia.com","port":27045,"enabled":true,"region":"us-east","cc":"us","latitude":33.753746,"longitude":-84.38633,"reserved":0,"last_update":"0001-01-01T00:00:00Z","name_a2s":"Uncletopia | Atlanta | 4 | Community","protocol":17,"map":"cp_sunshine","folder":"tf","game":"Team Fortress","app_id":440,"player_count":0,"max_players":24,"Bots":0,"server_type":"Dedicated","server_os":"Linux","password":true,"vac":true,"version":"7961495","steam_id":85568392924515188,"keywords":["cp","nocrits","nodmgspread","uncletopia"],"game_id":440,"stv_port":27046,"stv_name":"Uncletopia | Atlanta | 4 | Community | STV","players":null},{"server_id":2,"name":"Uncletopia | Chicago | 1 | All Maps","name_short":"chi-1","host":"chi-1.us.uncletopia.com","port":27015,"enabled":true,"region":"us-central","cc":"us","latitude":41.881832,"longitude":-87.62318,"reserved":0,"last_update":"0001-01-01T00:00:00Z","name_a2s":"Uncletopia | Chicago | 1 | All Maps","protocol":17,"map":"pl_pier","folder":"tf","game":"Team Fortress","app_id":440,"player_count":24,"max_players":24,"Bots":0,"server_type":"Dedicated","server_os":"Linux","password":true,"vac":true,"version":"7961495","steam_id":85568392924469984,"keywords":["nocrits","nodmgspread","payload","uncletopia"],"game_id":440,"stv_port":27016,"stv_name":"Uncletopia | Chicago | 1 | All Maps | STV","players":[{"user_id":519,"name":"thecal","steam_id":76561198307893384,"connected_time":1674000000000,"state":"active","ping":55},{"user_id":539,"name":"pie","steam_id":76561198012945016,"connected_time":463000000000,"state":"active","ping":55},{"user_id":520,"name":"Loafus","steam_id":76561198154561111,"connected_time":1663000000000,"state":"active","ping":72},{"user_id":540,"name":"Tito","steam_id":76561198041702529,"connected_time":164000000000,"state":"active","ping":83},{"user_id":506,"name":"Amari","steam_id":76561198272446730,"connected_time":2658000000000,"state":"active","ping":58},{"user_id":533,"name":"dork","steam_id":76561198086615208,"connected_time":629000000000,"state":"active","ping":60},{"user_id":503,"name":"Timber","steam_id":76561198156746320,"connected_time":2681000000000,"state":"active","ping":47},{"user_id":534,"name":"sithreis","steam_id":76561198000564263,"connected_time":603000000000,"state":"active","ping":75},{"user_id":443,"name":"richard clock","steam_id":76561198048455671,"connected_time":5726000000000,"state":"active","ping":60},{"user_id":532,"name":"iUseDvorak","steam_id":76561198064439037,"connected_time":701000000000,"state":"active","ping":62},{"user_id":538,"name":"java","steam_id":76561198030276792,"connected_time":492000000000,"state":"active","ping":52},{"user_id":500,"name":"UrFavFemboy","steam_id":76561199140460467,"connected_time":2812000000000,"state":"active","ping":177},{"user_id":513,"name":"St4r_Str1ker","steam_id":76561198168463508,"connected_time":2372000000000,"state":"active","ping":59},{"user_id":518,"name":"your moms car","steam_id":76561199389283507,"connected_time":1681000000000,"state":"active","ping":76},{"user_id":529,"name":"Space","steam_id":76561198350489754,"connected_time":876000000000,"state":"active","ping":52},{"user_id":527,"name":"pan","steam_id":76561198093968095,"connected_time":1172000000000,"state":"active","ping":100},{"user_id":526,"name":"autism","steam_id":76561198798674360,"connected_time":1244000000000,"state":"active","ping":60},{"user_id":528,"name":"gIBBY","steam_id":76561198080099598,"connected_time":1115000000000,"state":"active","ping":59},{"user_id":535,"name":"lanoc","steam_id":76561198055415367,"connected_time":597000000000,"state":"active","ping":60},{"user_id":536,"name":"Your Local Queer Librarian","steam_id":76561198013077080,"connected_time":583000000000,"state":"active","ping":62},{"user_id":522,"name":"CyborgHexapus4","steam_id":76561198160335724,"connected_time":1630000000000,"state":"active","ping":115},{"user_id":499,"name":"nonagon infinity","steam_id":76561198397662124,"connected_time":2928000000000,"state":"active","ping":91},{"user_id":537,"name":"hoboways","steam_id":76561198168035195,"connected_time":582000000000,"state":"active","ping":89},{"user_id":357,"name":"Bond","steam_id":76561198089262776,"connected_time":11011000000000,"state":"active","ping":82}]},{"server_id":106,"name":"Uncletopia | Chicago | 2 | All Maps","name_short":"chi-2","host":"chi-1.us.uncletopia.com","port":27025,"enabled":true,"region":"us-central","cc":"us","latitude":41.881832,"longitude":-87.62318,"reserved":0,"last_update":"0001-01-01T00:00:00Z","name_a2s":"Uncletopia | Chicago | 2 | All Maps","protocol":17,"map":"pl_barnblitz","folder":"tf","game":"Team Fortress","app_id":440,"player_count":24,"max_players":24,"Bots":0,"server_type":"Dedicated","server_os":"Linux","password":true,"vac":true,"version":"7961495","steam_id":85568392924469985,"keywords":["nocrits","nodmgspread","payload","uncletopia"],"game_id":440,"stv_port":27026,"stv_name":"Uncletopia | Chicago | 2 | All Maps | STV","players":[{"user_id":466,"name":"1985 Toyota Sprinter Trueno","steam_id":76561198436383373,"connected_time":37000000000,"state":"active","ping":111},{"user_id":457,"name":"Mirari","steam_id":76561198126889358,"connected_time":1835000000000,"state":"active","ping":89},{"user_id":458,"name":"Mr Drug Addict","steam_id":76561199062081467,"connected_time":1810000000000,"state":"active","ping":77},{"user_id":462,"name":"Docc","steam_id":76561198085598022,"connected_time":878000000000,"state":"active","ping":57},{"user_id":449,"name":"joshua.theSAVAGE69","steam_id":76561198115458307,"connected_time":2215000000000,"state":"active","ping":104},{"user_id":420,"name":"Broadsword #LGM","steam_id":76561198011160411,"connected_time":4839000000000,"state":"active","ping":90},{"user_id":450,"name":"team fartpiss poo","steam_id":76561198407056645,"connected_time":2207000000000,"state":"active","ping":71},{"user_id":452,"name":"Bush.exe","steam_id":76561198124385307,"connected_time":2167000000000,"state":"active","ping":68},{"user_id":427,"name":"vareh","steam_id":76561197993190926,"connected_time":4179000000000,"state":"active","ping":105},{"user_id":459,"name":"Breadstick","steam_id":76561198799942265,"connected_time":1810000000000,"state":"active","ping":90},{"user_id":460,"name":"Pissless Pissmass Pissman","steam_id":76561198409907417,"connected_time":1716000000000,"state":"active","ping":107},{"user_id":437,"name":"dirty30","steam_id":76561198021226566,"connected_time":3908000000000,"state":"active","ping":96},{"user_id":419,"name":"Duncan","steam_id":76561198042148095,"connected_time":4855000000000,"state":"active","ping":46},{"user_id":431,"name":"boof^","steam_id":76561198087074444,"connected_time":4081000000000,"state":"active","ping":79},{"user_id":453,"name":"for the king","steam_id":76561197973488858,"connected_time":2164000000000,"state":"active","ping":60},{"user_id":467,"name":"DiegoVal12","steam_id":76561198408509079,"connected_time":31000000000,"state":"active","ping":101},{"user_id":423,"name":"jstn","steam_id":76561198845283665,"connected_time":4540000000000,"state":"active","ping":72},{"user_id":444,"name":"Six Piece Chicken McNobody","steam_id":76561198129848222,"connected_time":3191000000000,"state":"active","ping":68},{"user_id":468,"name":"noel","steam_id":76561198128280883,"connected_time":20000000000,"state":"active","ping":83},{"user_id":443,"name":"NoireThings","steam_id":76561199041728231,"connected_time":3218000000000,"state":"active","ping":61},{"user_id":389,"name":"Person","steam_id":76561198093244204,"connected_time":7831000000000,"state":"active","ping":76},{"user_id":438,"name":"DolphiN | RGL.gg","steam_id":76561198048614515,"connected_time":3883000000000,"state":"active","ping":59},{"user_id":404,"name":"Sexterminator","steam_id":76561199018767956,"connected_time":7174000000000,"state":"active","ping":49},{"user_id":454,"name":"Umbra","steam_id":76561198122650609,"connected_time":2128000000000,"state":"active","ping":85}]},{"server_id":402,"name":"Uncletopia | Chicago | 3 | All Maps","name_short":"chi-3","host":"chi-1.us.uncletopia.com","port":27035,"enabled":true,"region":"us-central","cc":"us","latitude":41.881832,"longitude":-87.62318,"reserved":0,"last_update":"0001-01-01T00:00:00Z","name_a2s":"Uncletopia | Chicago | 3 | All Maps","protocol":17,"map":"pl_pier","folder":"tf","game":"Team Fortress","app_id":440,"player_count":20,"max_players":24,"Bots":0,"server_type":"Dedicated","server_os":"Linux","password":true,"vac":true,"version":"7961495","steam_id":85568392924515191,"keywords":["nocrits","nodmgspread","payload","uncletopia"],"game_id":440,"stv_port":27036,"stv_name":"Uncletopia | Chicago | 3 | All Maps | STV","players":[{"user_id":332,"name":"IcyScrumpy","steam_id":76561198084605065,"connected_time":1802000000000,"state":"active","ping":54},{"user_id":321,"name":"carrot cake","steam_id":76561198055174915,"connected_time":2596000000000,"state":"active","ping":61},{"user_id":358,"name":"flm","steam_id":76561198144052860,"connected_time":7000000000,"state":"spawning","ping":74},{"user_id":343,"name":"midan","steam_id":76561198060486964,"connected_time":1274000000000,"state":"active","ping":96},{"user_id":265,"name":"while(1)","steam_id":76561198000876529,"connected_time":7245000000000,"state":"active","ping":57},{"user_id":354,"name":"Shooter of Walls","steam_id":76561197988105207,"connected_time":451000000000,"state":"active","ping":69},{"user_id":269,"name":"j3nga","steam_id":76561198094296283,"connected_time":7121000000000,"state":"active","ping":89},{"user_id":331,"name":"i have an rsi","steam_id":76561198020322241,"connected_time":1825000000000,"state":"active","ping":69},{"user_id":356,"name":"LittleFieryOne","steam_id":76561198107463724,"connected_time":240000000000,"state":"active","ping":58},{"user_id":324,"name":"frid","steam_id":76561198005806915,"connected_time":2525000000000,"state":"active","ping":69},{"user_id":253,"name":"hej","steam_id":76561197996366940,"connected_time":8697000000000,"state":"active","ping":57},{"user_id":325,"name":"Motreir","steam_id":76561198151717946,"connected_time":2522000000000,"state":"active","ping":77},{"user_id":279,"name":"Dim","steam_id":76561198061411324,"connected_time":5774000000000,"state":"active","ping":77},{"user_id":335,"name":"JellyParrot","steam_id":76561199190990163,"connected_time":1706000000000,"state":"active","ping":66},{"user_id":266,"name":"Mikke","steam_id":76561198170234003,"connected_time":7239000000000,"state":"active","ping":121},{"user_id":270,"name":"Swashbükler","steam_id":76561197969421355,"connected_time":7024000000000,"state":"active","ping":53},{"user_id":342,"name":"suns","steam_id":76561198079583278,"connected_time":1297000000000,"state":"active","ping":44},{"user_id":347,"name":"Hound_","steam_id":76561199389781834,"connected_time":1018000000000,"state":"active","ping":111},{"user_id":313,"name":"4 life","steam_id":76561198175961598,"connected_time":3585000000000,"state":"active","ping":117},{"user_id":286,"name":"MedRed™ #IATAH","steam_id":76561198002962970,"connected_time":5461000000000,"state":"active","ping":95}]},{"server_id":403,"name":"Uncletopia | Chicago | 4 | All Maps","name_short":"chi-4","host":"chi-1.us.uncletopia.com","port":27045,"enabled":true,"region":"us-central","cc":"us","latitude":41.881832,"longitude":-87.62318,"reserved":0,"last_update":"0001-01-01T00:00:00Z","name_a2s":"Uncletopia | Chicago | 4 | All Maps","protocol":17,"map":"pl_upward","folder":"tf","game":"Team Fortress","app_id":440,"player_count":24,"max_players":24,"Bots":0,"server_type":"Dedicated","server_os":"Linux","password":true,"vac":true,"version":"7961495","steam_id":85568392924515193,"keywords":["nocrits","nodmgspread","payload","uncletopia"],"game_id":440,"stv_port":27046,"stv_name":"Uncletopia | Chicago | 4 | All Maps | STV","players":[{"user_id":247,"name":"A.D","steam_id":76561199054940582,"connected_time":1099000000000,"state":"active","ping":60},{"user_id":234,"name":"CabezaGrande","steam_id":76561197972555502,"connected_time":1919000000000,"state":"active","ping":69},{"user_id":213,"name":"00Lemon","steam_id":76561198068014451,"connected_time":2972000000000,"state":"active","ping":76},{"user_id":252,"name":"3rooks","steam_id":76561199079002400,"connected_time":812000000000,"state":"active","ping":61},{"user_id":229,"name":"moe","steam_id":76561198929586245,"connected_time":2285000000000,"state":"active","ping":98},{"user_id":257,"name":"Pablo Sr.","steam_id":76561199139116062,"connected_time":142000000000,"state":"active","ping":111},{"user_id":239,"name":"The Creepy9","steam_id":76561198039104966,"connected_time":1533000000000,"state":"active","ping":83},{"user_id":256,"name":"MitzoAtlas","steam_id":76561198160890702,"connected_time":653000000000,"state":"active","ping":76},{"user_id":232,"name":"Neformdot","steam_id":76561198065384925,"connected_time":2078000000000,"state":"active","ping":65},{"user_id":205,"name":"membean_membean","steam_id":76561198973965925,"connected_time":3658000000000,"state":"active","ping":80},{"user_id":259,"name":"GMFD! Juustin","steam_id":76561198121922413,"connected_time":9000000000,"state":"active","ping":117},{"user_id":253,"name":"aurro","steam_id":76561198315692300,"connected_time":807000000000,"state":"active","ping":45},{"user_id":238,"name":"Nut Bustray","steam_id":76561198092403883,"connected_time":1582000000000,"state":"active","ping":104},{"user_id":219,"name":"DavidX123","steam_id":76561198219687617,"connected_time":2514000000000,"state":"active","ping":66},{"user_id":255,"name":"The Grim Heaper","steam_id":76561197987759101,"connected_time":764000000000,"state":"active","ping":112},{"user_id":246,"name":"Monty","steam_id":76561197993567253,"connected_time":1354000000000,"state":"active","ping":99},{"user_id":197,"name":"Tideflat","steam_id":76561198179850851,"connected_time":4458000000000,"state":"active","ping":104},{"user_id":233,"name":"Madrox Who?","steam_id":76561197988859134,"connected_time":2062000000000,"state":"active","ping":73},{"user_id":240,"name":"press c to crab","steam_id":76561198073269122,"connected_time":1531000000000,"state":"active","ping":74},{"user_id":243,"name":"the grit","steam_id":76561198165567310,"connected_time":1459000000000,"state":"active","ping":64},{"user_id":216,"name":"selling rice","steam_id":76561198063357023,"connected_time":2744000000000,"state":"active","ping":92},{"user_id":241,"name":"jorts","steam_id":76561199041179985,"connected_time":1485000000000,"state":"active","ping":104},{"user_id":254,"name":"Just washed","steam_id":76561199030160932,"connected_time":800000000000,"state":"active","ping":86},{"user_id":228,"name":"og biden pack cart","steam_id":76561198253731826,"connected_time":2335000000000,"state":"active","ping":64}]},{"server_id":36,"name":"Uncletopia | Chicago | 5 | All Maps","name_short":"chi-5","host":"chi-2.us.uncletopia.com","port":27015,"enabled":true,"region":"us-central","cc":"us","latitude":41.881832,"longitude":-87.62318,"reserved":0,"last_update":"0001-01-01T00:00:00Z","name_a2s":"Uncletopia | Chicago | 5 | All Maps","protocol":17,"map":"pl_barnblitz","folder":"tf","game":"Team Fortress","app_id":440,"player_count":25,"max_players":24,"Bots":0,"server_type":"Dedicated","server_os":"Linux","password":true,"vac":true,"version":"7961495","steam_id":85568392924866362,"keywords":["nocrits","nodmgspread","payload","uncletopia"],"game_id":440,"stv_port":27016,"stv_name":"Uncletopia | Chicago | 5 | All Maps | STV","players":[{"user_id":378,"name":"Connick The Hedgehog","steam_id":76561198388471011,"connected_time":3101000000000,"state":"active","ping":76},{"user_id":437,"name":"Oogle","steam_id":76561198041815877,"connected_time":0,"state":"spawning","ping":19},{"user_id":432,"name":"NateDoesThings","steam_id":76561199028820561,"connected_time":113000000000,"state":"active","ping":59},{"user_id":418,"name":"Tabby!!!!","steam_id":76561198018288153,"connected_time":365000000000,"state":"active","ping":42},{"user_id":335,"name":"Harness","steam_id":76561199031066548,"connected_time":5863000000000,"state":"active","ping":74},{"user_id":332,"name":"beats!","steam_id":76561199245717718,"connected_time":5938000000000,"state":"active","ping":57},{"user_id":405,"name":"Universe Man","steam_id":76561197997710655,"connected_time":662000000000,"state":"active","ping":89},{"user_id":376,"name":"Aster","steam_id":76561198037920420,"connected_time":3136000000000,"state":"active","ping":74},{"user_id":419,"name":"Lj3online","steam_id":76561198009960926,"connected_time":356000000000,"state":"active","ping":110},{"user_id":414,"name":"ThatGamingKiwi","steam_id":76561199170522237,"connected_time":425000000000,"state":"active","ping":85},{"user_id":400,"name":"AbbyRoads","steam_id":76561198868564212,"connected_time":741000000000,"state":"active","ping":85},{"user_id":401,"name":"6 abs","steam_id":76561198048220355,"connected_time":736000000000,"state":"active","ping":104},{"user_id":420,"name":"Yoshikage Kira","steam_id":76561198848930696,"connected_time":354000000000,"state":"active","ping":53},{"user_id":358,"name":"Synergy","steam_id":76561198098630198,"connected_time":4939000000000,"state":"active","ping":98},{"user_id":412,"name":"Mona","steam_id":76561198353338634,"connected_time":516000000000,"state":"active","ping":71},{"user_id":364,"name":"Whyamidoingthisaaaa","steam_id":76561199168837342,"connected_time":4690000000000,"state":"active","ping":71},{"user_id":406,"name":"kingd8","steam_id":76561199070867947,"connected_time":641000000000,"state":"active","ping":70},{"user_id":386,"name":"Eins Shinigami","steam_id":76561199030343810,"connected_time":3003000000000,"state":"active","ping":63},{"user_id":388,"name":"Drapph","steam_id":76561199384213314,"connected_time":1911000000000,"state":"active","ping":68},{"user_id":383,"name":"Bobbn","steam_id":76561198876124683,"connected_time":3041000000000,"state":"active","ping":72},{"user_id":396,"name":"The_Stomach_Stone_Surgeon","steam_id":76561198044643725,"connected_time":1036000000000,"state":"active","ping":69},{"user_id":408,"name":"Ghille","steam_id":76561198027234838,"connected_time":617000000000,"state":"active","ping":60},{"user_id":417,"name":"Furious George","steam_id":76561198405111646,"connected_time":386000000000,"state":"active","ping":99},{"user_id":422,"name":"hearthian","steam_id":76561198113235260,"connected_time":337000000000,"state":"active","ping":99},{"user_id":352,"name":"MechaSixVII","steam_id":76561198014927379,"connected_time":5052000000000,"state":"active","ping":72}]},{"server_id":37,"name":"Uncletopia | Chicago | 6 | All Maps","name_short":"chi-6","host":"chi-2.us.uncletopia.com","port":27025,"enabled":true,"region":"us-central","cc":"us","latitude":41.881832,"longitude":-87.62318,"reserved":0,"last_update":"0001-01-01T00:00:00Z","name_a2s":"Uncletopia | Chicago | 6 | All Maps","protocol":17,"map":"pl_badwater","folder":"tf","game":"Team Fortress","app_id":440,"player_count":24,"max_players":24,"Bots":0,"server_type":"Dedicated","server_os":"Linux","password":true,"vac":true,"version":"7961495","steam_id":85568392924866363,"keywords":["nocrits","nodmgspread","payload","uncletopia"],"game_id":440,"stv_port":27026,"stv_name":"Uncletopia | Chicago | 6 | All Maps | STV","players":[{"user_id":136,"name":"Bandit","steam_id":76561198328421159,"connected_time":870000000000,"state":"active","ping":60},{"user_id":148,"name":"sisraell","steam_id":76561198296874355,"connected_time":536000000000,"state":"active","ping":190},{"user_id":114,"name":"mr poop","steam_id":76561199195196632,"connected_time":2720000000000,"state":"active","ping":86},{"user_id":27,"name":"Dead Face","steam_id":76561198857643139,"connected_time":8381000000000,"state":"active","ping":54},{"user_id":117,"name":"hammythegreat #SaveTF2","steam_id":76561198079526946,"connected_time":2688000000000,"state":"active","ping":93},{"user_id":144,"name":"Hibeki","steam_id":76561198078053347,"connected_time":793000000000,"state":"active","ping":89},{"user_id":72,"name":"Kart","steam_id":76561198045307014,"connected_time":6176000000000,"state":"active","ping":92},{"user_id":74,"name":"Flap","steam_id":76561198078889633,"connected_time":6064000000000,"state":"active","ping":55},{"user_id":123,"name":"Krabba Festival","steam_id":76561198044606327,"connected_time":2426000000000,"state":"active","ping":141},{"user_id":115,"name":"goopyb00py","steam_id":76561198042572757,"connected_time":2703000000000,"state":"active","ping":73},{"user_id":150,"name":"child labor","steam_id":76561198982415497,"connected_time":295000000000,"state":"active","ping":96},{"user_id":130,"name":"jg125","steam_id":76561198824953530,"connected_time":1696000000000,"state":"active","ping":189},{"user_id":138,"name":"Swifgz","steam_id":76561198162875756,"connected_time":867000000000,"state":"active","ping":62},{"user_id":149,"name":"Rodiisss","steam_id":76561198931321068,"connected_time":527000000000,"state":"active","ping":101},{"user_id":142,"name":"Prometheus (Zim)","steam_id":76561198045552121,"connected_time":814000000000,"state":"active","ping":88},{"user_id":124,"name":"hamilton","steam_id":76561198034096096,"connected_time":2417000000000,"state":"active","ping":72},{"user_id":127,"name":"SpookedYa","steam_id":76561198100124291,"connected_time":1871000000000,"state":"active","ping":79},{"user_id":131,"name":"Jag","steam_id":76561198001220471,"connected_time":1691000000000,"state":"active","ping":60},{"user_id":121,"name":"asscastle 2","steam_id":76561198097330521,"connected_time":2553000000000,"state":"active","ping":152},{"user_id":132,"name":"TechnoBear2099","steam_id":76561198238863596,"connected_time":1559000000000,"state":"active","ping":74},{"user_id":143,"name":"Thebest Sourpickle","steam_id":76561199487268620,"connected_time":810000000000,"state":"active","ping":95},{"user_id":133,"name":"Frog Finance Gutter Justice","steam_id":76561198067247951,"connected_time":1386000000000,"state":"active","ping":61},{"user_id":103,"name":"Ginnunga","steam_id":76561198000320083,"connected_time":3728000000000,"state":"active","ping":107},{"user_id":147,"name":"walterg","steam_id":76561199500444784,"connected_time":623000000000,"state":"active","ping":103}]},{"server_id":38,"name":"Uncletopia | Chicago | 7 | Stopwatch","name_short":"chi-7","host":"chi-2.us.uncletopia.com","port":27035,"enabled":true,"region":"us-central","cc":"us","latitude":41.881832,"longitude":-87.62318,"reserved":0,"last_update":"0001-01-01T00:00:00Z","name_a2s":"Uncletopia | Chicago | 7 | Stopwatch","protocol":17,"map":"koth_highpass","folder":"tf","game":"Team Fortress","app_id":440,"player_count":0,"max_players":24,"Bots":0,"server_type":"Dedicated","server_os":"Linux","password":true,"vac":true,"version":"7961495","steam_id":85568392924866364,"keywords":["cp","nocrits","nodmgspread","uncletopia"],"game_id":440,"stv_port":27036,"stv_name":"Uncletopia | Chicago | 7 | Stopwatch | STV","players":null},{"server_id":39,"name":"Uncletopia | Chicago | 8 | Community","name_short":"chi-8","host":"chi-2.us.uncletopia.com","port":27045,"enabled":true,"region":"us-central","cc":"us","latitude":41.881832,"longitude":-87.62318,"reserved":0,"last_update":"0001-01-01T00:00:00Z","name_a2s":"Uncletopia | Chicago | 8 | Community","protocol":17,"map":"workshop/pl_highwood_b13.ugc1769496557","folder":"tf","game":"Team Fortress","app_id":440,"player_count":0,"max_players":24,"Bots":0,"server_type":"Dedicated","server_os":"Linux","password":true,"vac":true,"version":"7961495","steam_id":85568392924866365,"keywords":["nocrits","nodmgspread","payload","uncletopia"],"game_id":440,"stv_port":27046,"stv_name":"Uncletopia | Chicago | 8 | Community | STV","players":null},{"server_id":8,"name":"Uncletopia | Dallas | 1 | All Maps","name_short":"dal-1","host":"dal-1.us.uncletopia.com","port":27015,"enabled":true,"region":"us-central","cc":"us","latitude":32.779167,"longitude":-96.80889,"reserved":0,"last_update":"0001-01-01T00:00:00Z","name_a2s":"Uncletopia | Dallas | 1 | All Maps","protocol":17,"map":"cp_process_final","folder":"tf","game":"Team Fortress","app_id":440,"player_count":24,"max_players":24,"Bots":0,"server_type":"Dedicated","server_os":"Linux","password":true,"vac":true,"version":"7961495","steam_id":85568392924469986,"keywords":["cp","nocrits","nodmgspread","uncletopia"],"game_id":440,"stv_port":27016,"stv_name":"Uncletopia | Dallas | 1 | All Maps | STV","players":[{"user_id":354,"name":"bladees realest, saddest verse","steam_id":76561198098099826,"connected_time":224000000000,"state":"active","ping":66},{"user_id":341,"name":"➫dadsbad➫","steam_id":76561198176618461,"connected_time":1248000000000,"state":"active","ping":72},{"user_id":325,"name":"Birthday Power","steam_id":76561197978508626,"connected_time":2865000000000,"state":"active","ping":63},{"user_id":334,"name":"Poodwaddle","steam_id":76561198060384838,"connected_time":2010000000000,"state":"active","ping":82},{"user_id":337,"name":"Gelliteration","steam_id":76561198107233070,"connected_time":1840000000000,"state":"active","ping":47},{"user_id":343,"name":"laboriouslobster36","steam_id":76561198871003321,"connected_time":1115000000000,"state":"active","ping":44},{"user_id":350,"name":"OriOriOri","steam_id":76561198302640481,"connected_time":271000000000,"state":"active","ping":91},{"user_id":357,"name":"Wahaha hee","steam_id":76561198098017157,"connected_time":35000000000,"state":"active","ping":59},{"user_id":346,"name":"can this really be the borderln","steam_id":76561198132803810,"connected_time":312000000000,"state":"active","ping":61},{"user_id":342,"name":"Demise","steam_id":76561198018602688,"connected_time":1219000000000,"state":"active","ping":57},{"user_id":340,"name":"Caboose","steam_id":76561198215451935,"connected_time":1270000000000,"state":"active","ping":54},{"user_id":348,"name":"Drunken Jaeger","steam_id":76561198872856615,"connected_time":286000000000,"state":"active","ping":52},{"user_id":326,"name":"NovaSc6ut","steam_id":76561198277163301,"connected_time":2863000000000,"state":"active","ping":90},{"user_id":352,"name":"Scoops M'Gooch","steam_id":76561198048423812,"connected_time":262000000000,"state":"active","ping":97},{"user_id":356,"name":"Railnation2005","steam_id":76561198189330642,"connected_time":126000000000,"state":"active","ping":88},{"user_id":331,"name":"mold","steam_id":76561198159477619,"connected_time":2212000000000,"state":"active","ping":61},{"user_id":338,"name":"she became a fish","steam_id":76561198062263639,"connected_time":1809000000000,"state":"active","ping":57},{"user_id":328,"name":"swagaholic","steam_id":76561199014715203,"connected_time":2805000000000,"state":"active","ping":85},{"user_id":332,"name":"piebluedog","steam_id":76561198141362745,"connected_time":2025000000000,"state":"active","ping":68},{"user_id":339,"name":"Soviet Potato","steam_id":76561198068546113,"connected_time":1582000000000,"state":"active","ping":81},{"user_id":353,"name":"feenman","steam_id":76561199383834799,"connected_time":258000000000,"state":"active","ping":77},{"user_id":336,"name":"DefaultKoala","steam_id":76561198059141147,"connected_time":2006000000000,"state":"active","ping":57},{"user_id":347,"name":"schmuck","steam_id":76561198143789773,"connected_time":311000000000,"state":"active","ping":46},{"user_id":323,"name":"Sábado Gigante","steam_id":76561197994685971,"connected_time":3474000000000,"state":"active","ping":77}]},{"server_id":108,"name":"Uncletopia | Dallas | 2 | All Maps","name_short":"dal-2","host":"dal-1.us.uncletopia.com","port":27025,"enabled":true,"region":"us-central","cc":"us","latitude":32.779167,"longitude":-96.80889,"reserved":0,"last_update":"0001-01-01T00:00:00Z","name_a2s":"Uncletopia | Dallas | 2 | All Maps","protocol":17,"map":"pl_frontier_final","folder":"tf","game":"Team Fortress","app_id":440,"player_count":24,"max_players":24,"Bots":0,"server_type":"Dedicated","server_os":"Linux","password":true,"vac":true,"version":"7961495","steam_id":85568392924469988,"keywords":["nocrits","nodmgspread","payload","uncletopia"],"game_id":440,"stv_port":27026,"stv_name":"Uncletopia | Dallas | 2 | All Maps | STV","players":[{"user_id":383,"name":"Toa of Time","steam_id":76561198086867556,"connected_time":133000000000,"state":"active","ping":77},{"user_id":384,"name":"SneakySneak","steam_id":76561198064847921,"connected_time":132000000000,"state":"active","ping":76},{"user_id":385,"name":"Hylic","steam_id":76561199051314589,"connected_time":101000000000,"state":"active","ping":86},{"user_id":364,"name":"Spaceman","steam_id":76561198098025074,"connected_time":1123000000000,"state":"active","ping":79},{"user_id":379,"name":"Magma","steam_id":76561198108261173,"connected_time":496000000000,"state":"active","ping":75},{"user_id":378,"name":"Twilight_O7","steam_id":76561199169825151,"connected_time":558000000000,"state":"active","ping":62},{"user_id":386,"name":"xLeoparrd","steam_id":76561198940657194,"connected_time":82000000000,"state":"active","ping":70},{"user_id":382,"name":"Shhh The Pan","steam_id":76561198056563210,"connected_time":167000000000,"state":"active","ping":62},{"user_id":365,"name":"Levi","steam_id":76561198089832776,"connected_time":1035000000000,"state":"active","ping":52},{"user_id":308,"name":"Joe Biden","steam_id":76561198056170906,"connected_time":5066000000000,"state":"active","ping":183},{"user_id":359,"name":"ihave80hp","steam_id":76561199251621911,"connected_time":1768000000000,"state":"active","ping":67},{"user_id":381,"name":"StarryKosmic","steam_id":76561198041330642,"connected_time":212000000000,"state":"active","ping":90},{"user_id":373,"name":"Lirkz","steam_id":76561199055617525,"connected_time":854000000000,"state":"active","ping":91},{"user_id":380,"name":"Matcha","steam_id":76561198390468708,"connected_time":485000000000,"state":"active","ping":74},{"user_id":363,"name":"hforce11","steam_id":76561198087647130,"connected_time":1477000000000,"state":"active","ping":76},{"user_id":341,"name":"Reisalin Stout","steam_id":76561198272955205,"connected_time":3285000000000,"state":"active","ping":65},{"user_id":354,"name":"wrist game dumbin","steam_id":76561198247984828,"connected_time":2132000000000,"state":"active","ping":61},{"user_id":337,"name":"stuff","steam_id":76561198190770226,"connected_time":3521000000000,"state":"active","ping":105},{"user_id":263,"name":"Word To Your Mothership","steam_id":76561198034329138,"connected_time":8416000000000,"state":"active","ping":93},{"user_id":371,"name":"You Don't Nomi.","steam_id":76561197969137836,"connected_time":956000000000,"state":"active","ping":86},{"user_id":355,"name":"goon refinery","steam_id":76561198166781089,"connected_time":2126000000000,"state":"active","ping":49},{"user_id":356,"name":"Tmiracle","steam_id":76561198052375275,"connected_time":2108000000000,"state":"active","ping":76},{"user_id":388,"name":"abolish the federal reserve","steam_id":76561198047796437,"connected_time":80000000000,"state":"active","ping":82},{"user_id":389,"name":"traudinix","steam_id":76561198061363420,"connected_time":79000000000,"state":"active","ping":166}]},{"server_id":404,"name":"Uncletopia | Dallas | 3 | All Maps","name_short":"dal-3","host":"dal-1.us.uncletopia.com","port":27035,"enabled":true,"region":"us-central","cc":"us","latitude":32.779167,"longitude":-96.80889,"reserved":0,"last_update":"0001-01-01T00:00:00Z","name_a2s":"Uncletopia | Dallas | 3 | All Maps","protocol":17,"map":"cp_process_final","folder":"tf","game":"Team Fortress","app_id":440,"player_count":1,"max_players":24,"Bots":0,"server_type":"Dedicated","server_os":"Linux","password":true,"vac":true,"version":"7961495","steam_id":85568392924515219,"keywords":["cp","nocrits","nodmgspread","uncletopia"],"game_id":440,"stv_port":27036,"stv_name":"Uncletopia | Dallas | 3 | All Maps | STV","players":[{"user_id":29,"name":"PhlopyDiskette","steam_id":76561198153349473,"connected_time":367000000000,"state":"active","ping":58}]},{"server_id":405,"name":"Uncletopia | Dallas | 4 | Community","name_short":"dal-4","host":"dal-1.us.uncletopia.com","port":27045,"enabled":true,"region":"us-central","cc":"us","latitude":32.779167,"longitude":-96.80889,"reserved":0,"last_update":"0001-01-01T00:00:00Z","name_a2s":"Uncletopia | Dallas | 4 | Community","protocol":17,"map":"workshop/pl_badwater_pro_v12.ugc2142942074","folder":"tf","game":"Team Fortress","app_id":440,"player_count":0,"max_players":24,"Bots":0,"server_type":"Dedicated","server_os":"Linux","password":true,"vac":true,"version":"7961495","steam_id":85568392924515220,"keywords":["nocrits","nodmgspread","payload","uncletopia"],"game_id":440,"stv_port":27046,"stv_name":"Uncletopia | Dallas | 4 | Community | STV","players":null},{"server_id":5,"name":"Uncletopia | Frankfurt | 1 | All Maps","name_short":"frk-1","host":"frk-1.de.uncletopia.com","port":27015,"enabled":true,"region":"eu","cc":"de","latitude":50.110924,"longitude":8.682127,"reserved":0,"last_update":"0001-01-01T00:00:00Z","name_a2s":"Uncletopia | Frankfurt | 1 | All Maps","protocol":17,"map":"pl_upward","folder":"tf","game":"Team Fortress","app_id":440,"player_count":24,"max_players":24,"Bots":0,"server_type":"Dedicated","server_os":"Linux","password":true,"vac":true,"version":"7961495","steam_id":85568392924469989,"keywords":["nocrits","nodmgspread","payload","uncletopia"],"game_id":440,"stv_port":27016,"stv_name":"Uncletopia | Frankfurt | 1 | All Maps | STV","players":[{"user_id":729,"name":"silly goose","steam_id":76561198440443334,"connected_time":1557000000000,"state":"active","ping":76},{"user_id":745,"name":"frosty","steam_id":76561198094560834,"connected_time":384000000000,"state":"active","ping":59},{"user_id":748,"name":"TruckOperator47","steam_id":76561198192924663,"connected_time":367000000000,"state":"active","ping":58},{"user_id":677,"name":"Ixsus\u003c3","steam_id":76561198094756869,"connected_time":4571000000000,"state":"active","ping":59},{"user_id":717,"name":"Mr.Nannoldo","steam_id":76561198107373653,"connected_time":2580000000000,"state":"active","ping":87},{"user_id":747,"name":"tomydjoh","steam_id":76561198077421906,"connected_time":374000000000,"state":"active","ping":48},{"user_id":731,"name":"Voks_","steam_id":76561198159687785,"connected_time":1540000000000,"state":"active","ping":67},{"user_id":750,"name":"Emiza","steam_id":76561198120524962,"connected_time":329000000000,"state":"active","ping":77},{"user_id":734,"name":"MR BUBBLES","steam_id":76561198019005259,"connected_time":1461000000000,"state":"active","ping":99},{"user_id":673,"name":"Conan the Librarian","steam_id":76561198007224654,"connected_time":4869000000000,"state":"active","ping":61},{"user_id":751,"name":"Tactical Kerbal","steam_id":76561198212970205,"connected_time":324000000000,"state":"active","ping":74},{"user_id":621,"name":"Arti_Chokes","steam_id":76561199213835861,"connected_time":7858000000000,"state":"active","ping":59},{"user_id":749,"name":"vladthelad","steam_id":76561199295290233,"connected_time":365000000000,"state":"active","ping":52},{"user_id":741,"name":"M7MD3BD0","steam_id":76561199072750769,"connected_time":600000000000,"state":"active","ping":96},{"user_id":719,"name":"Sergeant Pepper","steam_id":76561198259943381,"connected_time":2390000000000,"state":"active","ping":83},{"user_id":752,"name":"ZyZ 2.0","steam_id":76561199178204775,"connected_time":43000000000,"state":"active","ping":111},{"user_id":618,"name":"BabyFoxoti","steam_id":76561198974666142,"connected_time":8100000000000,"state":"active","ping":51},{"user_id":733,"name":"개새]키야","steam_id":76561198190451031,"connected_time":1486000000000,"state":"active","ping":50},{"user_id":737,"name":"coella","steam_id":76561198442803577,"connected_time":1036000000000,"state":"active","ping":69},{"user_id":736,"name":"Watermelon","steam_id":76561198078349914,"connected_time":1425000000000,"state":"active","ping":60},{"user_id":725,"name":"The Lady","steam_id":76561198029895809,"connected_time":1782000000000,"state":"active","ping":75},{"user_id":739,"name":"Raves","steam_id":76561198021750957,"connected_time":723000000000,"state":"active","ping":55},{"user_id":746,"name":"Pats (Gifted items Collector)","steam_id":76561198418538887,"connected_time":383000000000,"state":"active","ping":91},{"user_id":695,"name":"booba","steam_id":76561198158018284,"connected_time":3920000000000,"state":"active","ping":61}]},{"server_id":110,"name":"Uncletopia | Frankfurt | 2 | All Maps","name_short":"frk-2","host":"frk-1.de.uncletopia.com","port":27025,"enabled":true,"region":"eu","cc":"de","latitude":50.110924,"longitude":8.682127,"reserved":0,"last_update":"0001-01-01T00:00:00Z","name_a2s":"Uncletopia | Frankfurt | 2 | All Maps","protocol":17,"map":"koth_cascade","folder":"tf","game":"Team Fortress","app_id":440,"player_count":0,"max_players":24,"Bots":0,"server_type":"Dedicated","server_os":"Linux","password":true,"vac":true,"version":"7961495","steam_id":85568392924469990,"keywords":["cp","nocrits","nodmgspread","uncletopia"],"game_id":440,"stv_port":27026,"stv_name":"Uncletopia | Frankfurt | 2 | All Maps | STV","players":null},{"server_id":308,"name":"Uncletopia | Frankfurt | 3 | All Maps","name_short":"frk-3","host":"frk-1.de.uncletopia.com","port":27035,"enabled":true,"region":"eu","cc":"de","latitude":50.110924,"longitude":8.682127,"reserved":0,"last_update":"0001-01-01T00:00:00Z","name_a2s":"Uncletopia | Frankfurt | 3 | All Maps","protocol":17,"map":"pl_barnblitz","folder":"tf","game":"Team Fortress","app_id":440,"player_count":23,"max_players":24,"Bots":0,"server_type":"Dedicated","server_os":"Linux","password":true,"vac":true,"version":"7961495","steam_id":85568392924504274,"keywords":["nocrits","nodmgspread","payload","uncletopia"],"game_id":440,"stv_port":27036,"stv_name":"Uncletopia | Frankfurt | 3 | All Maps | STV","players":[{"user_id":717,"name":"Mixul","steam_id":76561198342281229,"connected_time":1429000000000,"state":"active","ping":88},{"user_id":731,"name":"trum","steam_id":76561198055407861,"connected_time":306000000000,"state":"active","ping":90},{"user_id":703,"name":"Cabbch","steam_id":76561198045955679,"connected_time":3018000000000,"state":"active","ping":58},{"user_id":738,"name":"getGood","steam_id":76561198011896338,"connected_time":215000000000,"state":"active","ping":103},{"user_id":699,"name":"Ender_DragonYT... GGDROP.COM","steam_id":76561198946735113,"connected_time":3342000000000,"state":"active","ping":74},{"user_id":715,"name":"golfmastr","steam_id":76561198993144124,"connected_time":1662000000000,"state":"active","ping":66},{"user_id":701,"name":"BELADIT","steam_id":76561198011911501,"connected_time":3218000000000,"state":"active","ping":74},{"user_id":718,"name":"⸸Gelipter†","steam_id":76561198326423574,"connected_time":1301000000000,"state":"active","ping":83},{"user_id":732,"name":"Drift7114","steam_id":76561199044419505,"connected_time":287000000000,"state":"active","ping":73},{"user_id":684,"name":"Soerlssoelssöen","steam_id":76561197993060585,"connected_time":4126000000000,"state":"active","ping":67},{"user_id":663,"name":"CumbustiblePunda","steam_id":76561197974274677,"connected_time":5740000000000,"state":"active","ping":47},{"user_id":730,"name":"Proto-arc","steam_id":76561198012776747,"connected_time":568000000000,"state":"active","ping":55},{"user_id":734,"name":"hbivnm a.k.a forsen","steam_id":76561197996468677,"connected_time":246000000000,"state":"active","ping":59},{"user_id":735,"name":"ramadan tiktok challenge","steam_id":76561198054414599,"connected_time":246000000000,"state":"active","ping":90},{"user_id":740,"name":"Freddy Fazbear","steam_id":76561198299179114,"connected_time":87000000000,"state":"active","ping":65},{"user_id":741,"name":"Vyrac","steam_id":76561198135931968,"connected_time":27000000000,"state":"spawning","ping":62},{"user_id":728,"name":"Nox Equites","steam_id":76561198115438449,"connected_time":1058000000000,"state":"active","ping":98},{"user_id":729,"name":"xd","steam_id":76561199500739197,"connected_time":793000000000,"state":"active","ping":99},{"user_id":739,"name":"Baba Sraka","steam_id":76561198128292318,"connected_time":205000000000,"state":"active","ping":124},{"user_id":725,"name":"pinkddpat","steam_id":76561199081912795,"connected_time":1092000000000,"state":"active","ping":88},{"user_id":726,"name":"veem04","steam_id":76561198044546800,"connected_time":1089000000000,"state":"active","ping":77},{"user_id":727,"name":"YouR dad","steam_id":76561198044013623,"connected_time":1074000000000,"state":"active","ping":155},{"user_id":714,"name":"Marquis de Hoto","steam_id":76561198080687708,"connected_time":2305000000000,"state":"active","ping":67}]},{"server_id":309,"name":"Uncletopia | Frankfurt | 4 | All Maps","name_short":"frk-4","host":"frk-1.de.uncletopia.com","port":27045,"enabled":true,"region":"eu","cc":"de","latitude":50.110924,"longitude":8.682127,"reserved":0,"last_update":"0001-01-01T00:00:00Z","name_a2s":"Uncletopia | Frankfurt | 4 | All Maps","protocol":17,"map":"pl_snowycoast","folder":"tf","game":"Team Fortress","app_id":440,"player_count":0,"max_players":24,"Bots":0,"server_type":"Dedicated","server_os":"Linux","password":true,"vac":true,"version":"7961495","steam_id":85568392924504275,"keywords":["nocrits","nodmgspread","payload","uncletopia"],"game_id":440,"stv_port":27046,"stv_name":"Uncletopia | Frankfurt | 4 | All Maps | STV","players":null},{"server_id":310,"name":"Uncletopia | Frankfurt | 5 | All Maps","name_short":"frk-5","host":"frk-1.de.uncletopia.com","port":27055,"enabled":true,"region":"eu","cc":"de","latitude":50.110924,"longitude":8.682127,"reserved":0,"last_update":"0001-01-01T00:00:00Z","name_a2s":"Uncletopia | Frankfurt | 5 | All Maps","protocol":17,"map":"cp_metalworks","folder":"tf","game":"Team Fortress","app_id":440,"player_count":24,"max_players":24,"Bots":0,"server_type":"Dedicated","server_os":"Linux","password":true,"vac":true,"version":"7961495","steam_id":85568392924504277,"keywords":["cp","nocrits","nodmgspread","uncletopia"],"game_id":440,"stv_port":27056,"stv_name":"Uncletopia | Frankfurt | 5 | All Maps | STV","players":[{"user_id":707,"name":"☭King☭","steam_id":76561199214677088,"connected_time":793000000000,"state":"active","ping":63},{"user_id":691,"name":"The Storm That Is Approaching","steam_id":76561198982155864,"connected_time":2136000000000,"state":"active","ping":73},{"user_id":667,"name":"tiia (fool)","steam_id":76561198046196005,"connected_time":3763000000000,"state":"active","ping":44},{"user_id":704,"name":"endlesshills","steam_id":76561198081908373,"connected_time":898000000000,"state":"active","ping":51},{"user_id":694,"name":"Commander Pasta","steam_id":76561198045773077,"connected_time":1867000000000,"state":"active","ping":30},{"user_id":574,"name":"forsen tf2","steam_id":76561198125768571,"connected_time":10454000000000,"state":"active","ping":70},{"user_id":677,"name":"Tomex999","steam_id":76561198049587675,"connected_time":3062000000000,"state":"active","ping":73},{"user_id":708,"name":"Seail_M","steam_id":76561198002405605,"connected_time":774000000000,"state":"active","ping":59},{"user_id":706,"name":"Ghostler","steam_id":76561198008734235,"connected_time":833000000000,"state":"active","ping":61},{"user_id":683,"name":"goblin","steam_id":76561198170334258,"connected_time":2683000000000,"state":"active","ping":81},{"user_id":713,"name":"Rebeliondog","steam_id":76561198056815609,"connected_time":206000000000,"state":"active","ping":65},{"user_id":714,"name":"Economic crisis","steam_id":76561198063562843,"connected_time":19000000000,"state":"spawning","ping":46},{"user_id":709,"name":"Damin","steam_id":76561198288156612,"connected_time":602000000000,"state":"active","ping":39},{"user_id":684,"name":"Wildeshammer","steam_id":76561198132133702,"connected_time":2645000000000,"state":"active","ping":44},{"user_id":715,"name":"Hohz RustStake","steam_id":76561198257850715,"connected_time":9000000000,"state":"spawning","ping":91},{"user_id":650,"name":"Zirif","steam_id":76561198116200959,"connected_time":4725000000000,"state":"active","ping":65},{"user_id":712,"name":"Jånuary","steam_id":76561198272259060,"connected_time":277000000000,"state":"active","ping":56},{"user_id":716,"name":"fl1p","steam_id":76561198148565659,"connected_time":7000000000,"state":"active","ping":151},{"user_id":632,"name":"Valfezant","steam_id":76561199063983797,"connected_time":6540000000000,"state":"active","ping":55},{"user_id":686,"name":"KarlRanzeier","steam_id":76561198066281337,"connected_time":2628000000000,"state":"active","ping":45},{"user_id":696,"name":"KennyD","steam_id":76561198117763254,"connected_time":1688000000000,"state":"active","ping":83},{"user_id":717,"name":"[MN]apradella","steam_id":76561198133858963,"connected_time":7000000000,"state":"spawning","ping":54},{"user_id":701,"name":"WrathNSpeed","steam_id":76561198390944504,"connected_time":1203000000000,"state":"active","ping":77},{"user_id":703,"name":"crit hit!","steam_id":76561198112693639,"connected_time":937000000000,"state":"active","ping":53}]},{"server_id":311,"name":"Uncletopia | Frankfurt | 6 | All Maps","name_short":"frk-6","host":"frk-1.de.uncletopia.com","port":27065,"enabled":true,"region":"eu","cc":"de","latitude":50.110924,"longitude":8.682127,"reserved":0,"last_update":"0001-01-01T00:00:00Z","name_a2s":"Uncletopia | Frankfurt | 6 | All Maps","protocol":17,"map":"koth_lakeside_final","folder":"tf","game":"Team Fortress","app_id":440,"player_count":24,"max_players":24,"Bots":0,"server_type":"Dedicated","server_os":"Linux","password":true,"vac":true,"version":"7961495","steam_id":85568392924504278,"keywords":["cp","nocrits","nodmgspread","uncletopia"],"game_id":440,"stv_port":27066,"stv_name":"Uncletopia | Frankfurt | 6 | All Maps | STV","players":[{"user_id":642,"name":"Un4given","steam_id":76561198147078303,"connected_time":188000000000,"state":"active","ping":75},{"user_id":619,"name":"noquieronitengo","steam_id":76561198108020034,"connected_time":2303000000000,"state":"active","ping":72},{"user_id":568,"name":"Retz","steam_id":76561198252830166,"connected_time":5578000000000,"state":"active","ping":85},{"user_id":624,"name":"LuckyHappyGuy","steam_id":76561198353023996,"connected_time":1934000000000,"state":"active","ping":85},{"user_id":646,"name":"lillunya ♡","steam_id":76561198330418866,"connected_time":44000000000,"state":"active","ping":59},{"user_id":609,"name":"Pyep","steam_id":76561199273799263,"connected_time":2641000000000,"state":"active","ping":45},{"user_id":635,"name":"Ẋ̴̣͎͓̮̖͐̾͑̐̐̂́͘","steam_id":76561198113601852,"connected_time":797000000000,"state":"active","ping":62},{"user_id":629,"name":"MG","steam_id":76561197992591715,"connected_time":1287000000000,"state":"active","ping":65},{"user_id":623,"name":"7 7","steam_id":76561198190663138,"connected_time":2029000000000,"state":"active","ping":102},{"user_id":630,"name":"Kili","steam_id":76561198138456346,"connected_time":1277000000000,"state":"active","ping":59},{"user_id":625,"name":"_Shkoot","steam_id":76561198318170398,"connected_time":1912000000000,"state":"active","ping":57},{"user_id":577,"name":"Rodak","steam_id":76561199135986344,"connected_time":4777000000000,"state":"active","ping":57},{"user_id":628,"name":"Ju1ceD","steam_id":76561198143535264,"connected_time":1318000000000,"state":"active","ping":60},{"user_id":570,"name":"grassesmode.exe","steam_id":76561198090167960,"connected_time":5530000000000,"state":"active","ping":98},{"user_id":641,"name":"♥ ϟ Frosty ϟ ♥","steam_id":76561198048035879,"connected_time":250000000000,"state":"active","ping":60},{"user_id":640,"name":"sork","steam_id":76561198082446459,"connected_time":266000000000,"state":"active","ping":64},{"user_id":637,"name":"hunterjos","steam_id":76561198066072577,"connected_time":294000000000,"state":"active","ping":94},{"user_id":643,"name":"shadowman14","steam_id":76561198030119065,"connected_time":183000000000,"state":"active","ping":74},{"user_id":612,"name":"jalones al pecho","steam_id":76561198112986842,"connected_time":2519000000000,"state":"active","ping":60},{"user_id":571,"name":"Pjuske","steam_id":76561198013943953,"connected_time":5525000000000,"state":"active","ping":58},{"user_id":622,"name":"FJADL","steam_id":76561198237008214,"connected_time":2035000000000,"state":"active","ping":60},{"user_id":575,"name":"mertefe","steam_id":76561199237126613,"connected_time":5125000000000,"state":"active","ping":114},{"user_id":586,"name":"ViperForty","steam_id":76561198987005981,"connected_time":4179000000000,"state":"active","ping":84},{"user_id":636,"name":"WasserGurke","steam_id":76561198372482746,"connected_time":523000000000,"state":"active","ping":58}]},{"server_id":23,"name":"Uncletopia | Frankfurt | 7 | Stopwatch","name_short":"frk-7","host":"frk-1.de.uncletopia.com","port":27075,"enabled":true,"region":"eu","cc":"de","latitude":50.110924,"longitude":8.682127,"reserved":0,"last_update":"0001-01-01T00:00:00Z","name_a2s":"Uncletopia | Frankfurt | 7 | Stopwatch","protocol":17,"map":"cp_granary","folder":"tf","game":"Team Fortress","app_id":440,"player_count":0,"max_players":24,"Bots":0,"server_type":"Dedicated","server_os":"Linux","password":true,"vac":true,"version":"7961495","steam_id":85568392924742827,"keywords":["cp","nocrits","nodmgspread","uncletopia"],"game_id":440,"stv_port":27076,"stv_name":"Uncletopia | Frankfurt | 7 | Stopwatch | STV","players":null},{"server_id":24,"name":"Uncletopia | Frankfurt | 8 | Community","name_short":"frk-8","host":"frk-1.de.uncletopia.com","port":27085,"enabled":true,"region":"eu","cc":"de","latitude":50.110924,"longitude":8.682127,"reserved":0,"last_update":"0001-01-01T00:00:00Z","name_a2s":"Uncletopia | Frankfurt | 8 | Community","protocol":17,"map":"workshop/pl_highwood_b13.ugc1769496557","folder":"tf","game":"Team Fortress","app_id":440,"player_count":0,"max_players":24,"Bots":0,"server_type":"Dedicated","server_os":"Linux","password":true,"vac":true,"version":"7961495","steam_id":85568392924742828,"keywords":["nocrits","nodmgspread","payload","uncletopia"],"game_id":440,"stv_port":27086,"stv_name":"Uncletopia | Frankfurt | 8 | Community | STV","players":null},{"server_id":202,"name":"Uncletopia | Hong Kong | 1 | All Maps","name_short":"hgk-1","host":"hgk-1.hk.uncletopia.com","port":27015,"enabled":true,"region":"asia","cc":"hk","latitude":22.302711,"longitude":114.177216,"reserved":0,"last_update":"0001-01-01T00:00:00Z","name_a2s":"Uncletopia | Hong Kong | 1 | All Maps","protocol":17,"map":"pl_frontier_final","folder":"tf","game":"Team Fortress","app_id":440,"player_count":0,"max_players":24,"Bots":0,"server_type":"Dedicated","server_os":"Linux","password":true,"vac":true,"version":"7961495","steam_id":85568392924494504,"keywords":["nocrits","nodmgspread","payload","uncletopia"],"game_id":440,"stv_port":27016,"stv_name":"Uncletopia | Hong Kong | 1 | All Maps | STV","players":null},{"server_id":1,"name":"Uncletopia | Los Angeles | 1 | All Maps","name_short":"lax-1","host":"lax-1.us.uncletopia.com","port":27015,"enabled":true,"region":"us-west","cc":"us","latitude":33.94279,"longitude":-118.41004,"reserved":0,"last_update":"0001-01-01T00:00:00Z","name_a2s":"Uncletopia | Los Angeles | 1 | All Maps","protocol":17,"map":"pl_borneo","folder":"tf","game":"Team Fortress","app_id":440,"player_count":24,"max_players":24,"Bots":0,"server_type":"Dedicated","server_os":"Linux","password":true,"vac":true,"version":"7961495","steam_id":85568392924469991,"keywords":["nocrits","nodmgspread","payload","uncletopia"],"game_id":440,"stv_port":27016,"stv_name":"Uncletopia | Los Angeles | 1 | All Maps | STV","players":[{"user_id":211,"name":"nescoceo","steam_id":76561198040801160,"connected_time":4856000000000,"state":"active","ping":45},{"user_id":239,"name":"TimeForHype","steam_id":76561197996714494,"connected_time":1152000000000,"state":"active","ping":68},{"user_id":252,"name":"MistaRattle","steam_id":76561199144406643,"connected_time":461000000000,"state":"active","ping":69},{"user_id":218,"name":"triph","steam_id":76561198067196509,"connected_time":4439000000000,"state":"active","ping":31},{"user_id":230,"name":"Californian (Derogatory)","steam_id":76561198077272494,"connected_time":2747000000000,"state":"active","ping":103},{"user_id":140,"name":"unnamed","steam_id":76561198050225055,"connected_time":12271000000000,"state":"active","ping":44},{"user_id":192,"name":"lando.calrissian","steam_id":76561198145669711,"connected_time":7396000000000,"state":"active","ping":44},{"user_id":214,"name":"the pizza","steam_id":76561198221331476,"connected_time":4831000000000,"state":"active","ping":45},{"user_id":228,"name":"-rep furry femboy","steam_id":76561198065662025,"connected_time":2892000000000,"state":"active","ping":58},{"user_id":255,"name":"「Jimbo Reference」","steam_id":76561198016078541,"connected_time":387000000000,"state":"active","ping":60},{"user_id":238,"name":"Mitty","steam_id":76561198014177684,"connected_time":1166000000000,"state":"active","ping":57},{"user_id":225,"name":"Addy \u003c3","steam_id":76561198045819723,"connected_time":3486000000000,"state":"active","ping":122},{"user_id":248,"name":"deweweweewewe","steam_id":76561198391933308,"connected_time":631000000000,"state":"active","ping":58},{"user_id":249,"name":"(Speaks in Spanish)","steam_id":76561198198704538,"connected_time":623000000000,"state":"active","ping":48},{"user_id":254,"name":"havarti gaming","steam_id":76561198069895678,"connected_time":436000000000,"state":"active","ping":100},{"user_id":245,"name":"close","steam_id":76561198067058308,"connected_time":1049000000000,"state":"active","ping":56},{"user_id":247,"name":"Theotherone","steam_id":76561199010720523,"connected_time":740000000000,"state":"active","ping":84},{"user_id":241,"name":"mew","steam_id":76561198118644686,"connected_time":1141000000000,"state":"active","ping":57},{"user_id":187,"name":"birbneedsumseed","steam_id":76561198853439850,"connected_time":7919000000000,"state":"active","ping":45},{"user_id":256,"name":"Mr. Green","steam_id":76561198170628789,"connected_time":188000000000,"state":"active","ping":49},{"user_id":251,"name":"liftin'","steam_id":76561199089515791,"connected_time":587000000000,"state":"active","ping":45},{"user_id":242,"name":"Maid 'n' China","steam_id":76561198423392976,"connected_time":1141000000000,"state":"active","ping":61},{"user_id":217,"name":"Mr.Pan","steam_id":76561198069030613,"connected_time":4449000000000,"state":"active","ping":75},{"user_id":151,"name":"Boxcars","steam_id":76561198120978767,"connected_time":10971000000000,"state":"active","ping":52}]},{"server_id":112,"name":"Uncletopia | Los Angeles | 2 | All Maps","name_short":"lax-2","host":"lax-1.us.uncletopia.com","port":27025,"enabled":true,"region":"us-west","cc":"us","latitude":33.94279,"longitude":-118.41004,"reserved":0,"last_update":"0001-01-01T00:00:00Z","name_a2s":"Uncletopia | Los Angeles | 2 | All Maps","protocol":17,"map":"koth_cascade","folder":"tf","game":"Team Fortress","app_id":440,"player_count":0,"max_players":24,"Bots":0,"server_type":"Dedicated","server_os":"Linux","password":true,"vac":true,"version":"7961495","steam_id":85568392924469992,"keywords":["cp","nocrits","nodmgspread","uncletopia"],"game_id":440,"stv_port":27026,"stv_name":"Uncletopia | Los Angeles | 2 | All Maps | STV","players":null},{"server_id":324,"name":"Uncletopia | Los Angeles | 3 | All Maps","name_short":"lax-3","host":"lax-1.us.uncletopia.com","port":27035,"enabled":true,"region":"us-west","cc":"us","latitude":33.94279,"longitude":-118.41004,"reserved":0,"last_update":"0001-01-01T00:00:00Z","name_a2s":"Uncletopia | Los Angeles | 3 | All Maps","protocol":17,"map":"koth_viaduct","folder":"tf","game":"Team Fortress","app_id":440,"player_count":0,"max_players":24,"Bots":0,"server_type":"Dedicated","server_os":"Linux","password":true,"vac":true,"version":"7961495","steam_id":85568392924510198,"keywords":["cp","nocrits","nodmgspread","uncletopia"],"game_id":440,"stv_port":27036,"stv_name":"Uncletopia | Los Angeles | 3 | All Maps | STV","players":null},{"server_id":25,"name":"Uncletopia | Los Angeles | 4 | Stopwatch","name_short":"lax-4","host":"lax-1.us.uncletopia.com","port":27045,"enabled":true,"region":"us-west","cc":"us","latitude":33.94279,"longitude":-118.41004,"reserved":0,"last_update":"0001-01-01T00:00:00Z","name_a2s":"Uncletopia | Los Angeles | 4 | Stopwatch","protocol":17,"map":"workshop/koth_product_final.ugc454272353","folder":"tf","game":"Team Fortress","app_id":440,"player_count":1,"max_players":24,"Bots":0,"server_type":"Dedicated","server_os":"Linux","password":true,"vac":true,"version":"7961495","steam_id":85568392924510199,"keywords":["cp","nocrits","nodmgspread","uncletopia"],"game_id":440,"stv_port":27046,"stv_name":"Uncletopia | Los Angeles | 4 | Stopwatch | STV","players":[{"user_id":5,"name":"cielael","steam_id":76561198043971956,"connected_time":61000000000,"state":"active","ping":42}]},{"server_id":11,"name":"Uncletopia | London | 1 | All Maps","name_short":"lon-1","host":"lon-1.uk.uncletopia.com","port":27015,"enabled":true,"region":"eu","cc":"gb","latitude":51.509865,"longitude":-0.118092,"reserved":0,"last_update":"0001-01-01T00:00:00Z","name_a2s":"Uncletopia | London | 1 | All Maps","protocol":17,"map":"pl_pier","folder":"tf","game":"Team Fortress","app_id":440,"player_count":24,"max_players":24,"Bots":0,"server_type":"Dedicated","server_os":"Linux","password":true,"vac":true,"version":"7961495","steam_id":85568392924367362,"keywords":["nocrits","nodmgspread","payload","uncletopia"],"game_id":440,"stv_port":27016,"stv_name":"Uncletopia | London | 1 | All Maps | STV","players":[{"user_id":632,"name":"Bradley","steam_id":76561198984603343,"connected_time":3866000000000,"state":"active","ping":70},{"user_id":614,"name":"gibb (official)","steam_id":76561198074097655,"connected_time":5377000000000,"state":"active","ping":80},{"user_id":633,"name":"sora","steam_id":76561198096547662,"connected_time":3862000000000,"state":"active","ping":50},{"user_id":645,"name":"ghost of scrampe yet to come","steam_id":76561198851157897,"connected_time":2394000000000,"state":"active","ping":66},{"user_id":634,"name":"Dale ❤","steam_id":76561197995189004,"connected_time":3861000000000,"state":"active","ping":63},{"user_id":615,"name":"ahab","steam_id":76561198049703177,"connected_time":5364000000000,"state":"active","ping":77},{"user_id":607,"name":"dogbowcar","steam_id":76561198046597584,"connected_time":6021000000000,"state":"active","ping":39},{"user_id":613,"name":"Anri Okita's Massive Milkers","steam_id":76561199186352720,"connected_time":5401000000000,"state":"active","ping":65},{"user_id":618,"name":"legalize marijuana","steam_id":76561198988882521,"connected_time":5261000000000,"state":"active","ping":89},{"user_id":631,"name":"Purps","steam_id":76561198053886680,"connected_time":3876000000000,"state":"active","ping":44},{"user_id":570,"name":"shooer!","steam_id":76561198110531281,"connected_time":10881000000000,"state":"active","ping":63},{"user_id":650,"name":"Kahvi","steam_id":76561198723244199,"connected_time":1904000000000,"state":"active","ping":84},{"user_id":657,"name":"MrRoAndrei","steam_id":76561198205282000,"connected_time":605000000000,"state":"active","ping":75},{"user_id":653,"name":"ANEY☆ The Music Man","steam_id":76561198074404564,"connected_time":1131000000000,"state":"active","ping":75},{"user_id":638,"name":"FROG IndigoJones","steam_id":76561198050284262,"connected_time":3387000000000,"state":"active","ping":55},{"user_id":640,"name":"whimsy.","steam_id":76561198878171763,"connected_time":2859000000000,"state":"active","ping":53},{"user_id":652,"name":"Aaron","steam_id":76561197990046953,"connected_time":1668000000000,"state":"active","ping":57},{"user_id":630,"name":"cazador","steam_id":76561198123096922,"connected_time":3955000000000,"state":"active","ping":101},{"user_id":651,"name":"geroxe cruo","steam_id":76561199480942903,"connected_time":1741000000000,"state":"active","ping":75},{"user_id":656,"name":"Kanny","steam_id":76561198058810184,"connected_time":632000000000,"state":"active","ping":57},{"user_id":648,"name":"KnugenIV","steam_id":76561198127091993,"connected_time":2255000000000,"state":"active","ping":59},{"user_id":655,"name":"JujuBalu","steam_id":76561198207253071,"connected_time":755000000000,"state":"active","ping":34},{"user_id":619,"name":"teddy","steam_id":76561198007436837,"connected_time":5100000000000,"state":"active","ping":44},{"user_id":658,"name":"ayadam","steam_id":76561198161515769,"connected_time":75000000000,"state":"active","ping":110}]},{"server_id":114,"name":"Uncletopia | London | 2 | All Maps","name_short":"lon-2","host":"lon-1.uk.uncletopia.com","port":27025,"enabled":true,"region":"eu","cc":"gb","latitude":51.509865,"longitude":-0.118092,"reserved":0,"last_update":"0001-01-01T00:00:00Z","name_a2s":"Uncletopia | London | 2 | All Maps","protocol":17,"map":"koth_cascade","folder":"tf","game":"Team Fortress","app_id":440,"player_count":24,"max_players":24,"Bots":0,"server_type":"Dedicated","server_os":"Linux","password":true,"vac":true,"version":"7961495","steam_id":85568392924470941,"keywords":["cp","nocrits","nodmgspread","uncletopia"],"game_id":440,"stv_port":27026,"stv_name":"Uncletopia | London | 2 | All Maps | STV","players":[{"user_id":609,"name":"Stern","steam_id":76561198065421312,"connected_time":2863000000000,"state":"active","ping":31},{"user_id":658,"name":"Bobirulez","steam_id":76561198009125458,"connected_time":345000000000,"state":"active","ping":75},{"user_id":659,"name":"J'zargo Engineering","steam_id":76561198088898260,"connected_time":147000000000,"state":"active","ping":72},{"user_id":647,"name":"Mj12","steam_id":76561198044346572,"connected_time":707000000000,"state":"active","ping":96},{"user_id":648,"name":"Dr. Peppino Spaghetti","steam_id":76561199121285443,"connected_time":698000000000,"state":"active","ping":121},{"user_id":656,"name":"Hank J Wimbleton","steam_id":76561198408623293,"connected_time":409000000000,"state":"active","ping":67},{"user_id":646,"name":"Milk","steam_id":76561198125876588,"connected_time":735000000000,"state":"active","ping":43},{"user_id":649,"name":"Piss Man","steam_id":76561199446367874,"connected_time":685000000000,"state":"active","ping":129},{"user_id":623,"name":"lukearoonie","steam_id":76561198354480569,"connected_time":1987000000000,"state":"active","ping":69},{"user_id":624,"name":"Hurbalerb","steam_id":76561198175683646,"connected_time":1981000000000,"state":"active","ping":66},{"user_id":662,"name":"Professor Brofessor","steam_id":76561198102541181,"connected_time":57000000000,"state":"spawning","ping":40},{"user_id":651,"name":"Vershal Smershal","steam_id":76561198116223995,"connected_time":664000000000,"state":"active","ping":57},{"user_id":614,"name":"RealManiHACK","steam_id":76561198408081068,"connected_time":2366000000000,"state":"active","ping":74},{"user_id":630,"name":"ScampSixteen","steam_id":76561198021771000,"connected_time":1548000000000,"state":"active","ping":49},{"user_id":655,"name":"xavier","steam_id":76561198076494034,"connected_time":491000000000,"state":"active","ping":48},{"user_id":657,"name":"sinkuchan","steam_id":76561198054012474,"connected_time":403000000000,"state":"active","ping":45},{"user_id":660,"name":"Zerosiini","steam_id":76561198113771976,"connected_time":139000000000,"state":"active","ping":67},{"user_id":633,"name":"Pancholín","steam_id":76561198262777640,"connected_time":1512000000000,"state":"active","ping":77},{"user_id":644,"name":"Bert","steam_id":76561198070206096,"connected_time":768000000000,"state":"active","ping":51},{"user_id":652,"name":"Lithe","steam_id":76561198097130024,"connected_time":616000000000,"state":"active","ping":47},{"user_id":635,"name":"Mr. Boobmastic","steam_id":76561197975482475,"connected_time":1471000000000,"state":"active","ping":60},{"user_id":661,"name":"Silverdarlin","steam_id":76561198118540970,"connected_time":137000000000,"state":"active","ping":49},{"user_id":663,"name":"Up.Loader","steam_id":76561198040360693,"connected_time":16000000000,"state":"active","ping":98},{"user_id":654,"name":"agent youppii","steam_id":76561198055264447,"connected_time":601000000000,"state":"active","ping":57}]},{"server_id":320,"name":"Uncletopia | London | 3 | All Maps","name_short":"lon-3","host":"lon-1.uk.uncletopia.com","port":27035,"enabled":true,"region":"eu","cc":"gb","latitude":51.509865,"longitude":-0.118092,"reserved":0,"last_update":"0001-01-01T00:00:00Z","name_a2s":"Uncletopia | London | 3 | All Maps","protocol":17,"map":"pl_frontier_final","folder":"tf","game":"Team Fortress","app_id":440,"player_count":17,"max_players":24,"Bots":0,"server_type":"Dedicated","server_os":"Linux","password":true,"vac":true,"version":"7961495","steam_id":85568392924510192,"keywords":["nocrits","nodmgspread","payload","uncletopia"],"game_id":440,"stv_port":27036,"stv_name":"Uncletopia | London | 3 | All Maps | STV","players":[{"user_id":743,"name":"Proper Noun","steam_id":76561198055264269,"connected_time":6362000000000,"state":"active","ping":73},{"user_id":825,"name":"Burpman","steam_id":76561198022897937,"connected_time":222000000000,"state":"active","ping":46},{"user_id":820,"name":"ROX","steam_id":76561198272289320,"connected_time":922000000000,"state":"active","ping":63},{"user_id":827,"name":"ඞbominasus 2137  #SaveTF2","steam_id":76561198030062981,"connected_time":69000000000,"state":"active","ping":71},{"user_id":828,"name":"armadillo","steam_id":76561198324656652,"connected_time":59000000000,"state":"active","ping":47},{"user_id":829,"name":"Psychosis","steam_id":76561198078659070,"connected_time":46000000000,"state":"active","ping":138},{"user_id":822,"name":"Huskai","steam_id":76561198141512362,"connected_time":577000000000,"state":"active","ping":39},{"user_id":817,"name":"Tort","steam_id":76561198329646769,"connected_time":2001000000000,"state":"active","ping":55},{"user_id":815,"name":"Veden","steam_id":76561198122680490,"connected_time":2059000000000,"state":"active","ping":79},{"user_id":818,"name":"Yelowchy","steam_id":76561198199416121,"connected_time":1575000000000,"state":"active","ping":69},{"user_id":744,"name":"sv_MrGibbs","steam_id":76561198114071972,"connected_time":6327000000000,"state":"active","ping":44},{"user_id":823,"name":"Qwerty","steam_id":76561198023525894,"connected_time":436000000000,"state":"active","ping":91},{"user_id":813,"name":"Goblin on deez nuts","steam_id":76561199070562554,"connected_time":2135000000000,"state":"active","ping":64},{"user_id":783,"name":"Merciz","steam_id":76561197971808715,"connected_time":3926000000000,"state":"active","ping":87},{"user_id":741,"name":"flamingosaurus","steam_id":76561198051455397,"connected_time":6448000000000,"state":"active","ping":45},{"user_id":780,"name":"Trojan","steam_id":76561198034787330,"connected_time":4004000000000,"state":"active","ping":87},{"user_id":796,"name":"MeleeMeta","steam_id":76561198237963558,"connected_time":3526000000000,"state":"active","ping":61}]},{"server_id":321,"name":"Uncletopia | London | 4 | All Maps","name_short":"lon-4","host":"lon-1.uk.uncletopia.com","port":27045,"enabled":true,"region":"eu","cc":"gb","latitude":51.509865,"longitude":-0.118092,"reserved":0,"last_update":"0001-01-01T00:00:00Z","name_a2s":"Uncletopia | London | 4 | All Maps","protocol":17,"map":"cp_sunshine","folder":"tf","game":"Team Fortress","app_id":440,"player_count":22,"max_players":24,"Bots":0,"server_type":"Dedicated","server_os":"Linux","password":true,"vac":true,"version":"7961495","steam_id":85568392924510193,"keywords":["cp","nocrits","nodmgspread","uncletopia"],"game_id":440,"stv_port":27046,"stv_name":"Uncletopia | London | 4 | All Maps | STV","players":[{"user_id":75,"name":"TenGoose","steam_id":76561199498517530,"connected_time":346000000000,"state":"active","ping":70},{"user_id":79,"name":"Kryastorm","steam_id":76561198045127892,"connected_time":0,"state":"spawning","ping":0},{"user_id":59,"name":"Alpaca","steam_id":76561198029839079,"connected_time":674000000000,"state":"active","ping":47},{"user_id":74,"name":"=flashpoint=","steam_id":76561197976774456,"connected_time":370000000000,"state":"active","ping":47},{"user_id":39,"name":"Dekiz65","steam_id":76561198296082142,"connected_time":2482000000000,"state":"active","ping":108},{"user_id":76,"name":"Steen","steam_id":76561198122992510,"connected_time":293000000000,"state":"active","ping":46},{"user_id":69,"name":"Tomboy Mold","steam_id":76561198106455841,"connected_time":486000000000,"state":"active","ping":74},{"user_id":71,"name":"adam","steam_id":76561199024816404,"connected_time":458000000000,"state":"active","ping":79},{"user_id":78,"name":"Stefman","steam_id":76561199025104038,"connected_time":140000000000,"state":"active","ping":39},{"user_id":49,"name":"doomer","steam_id":76561198977420882,"connected_time":1096000000000,"state":"active","ping":39},{"user_id":25,"name":"Team Red Rocket","steam_id":76561198091064959,"connected_time":3161000000000,"state":"active","ping":33},{"user_id":44,"name":"Hrrr","steam_id":76561198106920678,"connected_time":1583000000000,"state":"active","ping":42},{"user_id":20,"name":"Spaguetti","steam_id":76561198002913092,"connected_time":3308000000000,"state":"active","ping":85},{"user_id":64,"name":"Locke","steam_id":76561198339408300,"connected_time":511000000000,"state":"active","ping":54},{"user_id":77,"name":"iGlazei","steam_id":76561199489687818,"connected_time":266000000000,"state":"active","ping":57},{"user_id":23,"name":"Birchly","steam_id":76561198140011785,"connected_time":3270000000000,"state":"active","ping":50},{"user_id":54,"name":"MozzyL","steam_id":76561198172580235,"connected_time":828000000000,"state":"active","ping":60},{"user_id":56,"name":"Cosmetic brain","steam_id":76561198055936410,"connected_time":767000000000,"state":"active","ping":81},{"user_id":45,"name":"Feelsbadman","steam_id":76561198002461001,"connected_time":1508000000000,"state":"active","ping":92},{"user_id":32,"name":"Apparently God","steam_id":76561199472680998,"connected_time":2825000000000,"state":"active","ping":60},{"user_id":73,"name":"Bolb1","steam_id":76561198153539358,"connected_time":447000000000,"state":"active","ping":64},{"user_id":68,"name":"ᛀᚩᛏ ᛖᛞᚷᚤ","steam_id":76561198842950723,"connected_time":495000000000,"state":"active","ping":71}]},{"server_id":21,"name":"Uncletopia | London | 5 | All Maps","name_short":"lon-5","host":"lon-1.uk.uncletopia.com","port":27055,"enabled":true,"region":"eu","cc":"gb","latitude":51.509865,"longitude":-0.118092,"reserved":0,"last_update":"0001-01-01T00:00:00Z","name_a2s":"Uncletopia | London | 5 | All Maps","protocol":17,"map":"koth_harvest_final","folder":"tf","game":"Team Fortress","app_id":440,"player_count":6,"max_players":24,"Bots":0,"server_type":"Dedicated","server_os":"Linux","password":true,"vac":true,"version":"7961495","steam_id":85568392924742829,"keywords":["cp","nocrits","nodmgspread","uncletopia"],"game_id":440,"stv_port":27056,"stv_name":"Uncletopia | London | 5 | All Maps | STV","players":[{"user_id":636,"name":"Mr lazy pants 72","steam_id":76561198396412589,"connected_time":61000000000,"state":"active","ping":197},{"user_id":637,"name":"SirDirtbag","steam_id":76561198091890855,"connected_time":21000000000,"state":"active","ping":79},{"user_id":630,"name":"cropping","steam_id":76561198026586456,"connected_time":1120000000000,"state":"active","ping":57},{"user_id":631,"name":"lark","steam_id":76561198091724522,"connected_time":1114000000000,"state":"active","ping":51},{"user_id":614,"name":"SenitorD","steam_id":76561198088916978,"connected_time":1843000000000,"state":"active","ping":52},{"user_id":625,"name":"Saken","steam_id":76561198049075295,"connected_time":1262000000000,"state":"active","ping":47}]},{"server_id":22,"name":"Uncletopia | London | 6 | All Maps","name_short":"lon-6","host":"lon-1.uk.uncletopia.com","port":27065,"enabled":true,"region":"eu","cc":"gb","latitude":51.509865,"longitude":-0.118092,"reserved":0,"last_update":"0001-01-01T00:00:00Z","name_a2s":"Uncletopia | London | 6 | All Maps","protocol":17,"map":"cp_altitude","folder":"tf","game":"Team Fortress","app_id":440,"player_count":4,"max_players":24,"Bots":0,"server_type":"Dedicated","server_os":"Linux","password":true,"vac":true,"version":"7961495","steam_id":85568392924742830,"keywords":["cp","nocrits","nodmgspread","uncletopia"],"game_id":440,"stv_port":27066,"stv_name":"Uncletopia | London | 6 | All Maps | STV","players":[{"user_id":240,"name":"Tx_madmash and knuckles","steam_id":76561198924656512,"connected_time":999000000000,"state":"active","ping":164},{"user_id":239,"name":"ha,burger","steam_id":76561199093584225,"connected_time":1470000000000,"state":"active","ping":59},{"user_id":242,"name":"ricardomarte0414","steam_id":76561198817744897,"connected_time":642000000000,"state":"active","ping":149},{"user_id":243,"name":"idiovic","steam_id":76561198414355727,"connected_time":431000000000,"state":"active","ping":147}]},{"server_id":40,"name":"Uncletopia | London | 7 | Stopwatch","name_short":"lon-7","host":"lon-1.uk.uncletopia.com","port":27075,"enabled":true,"region":"eu","cc":"gb","latitude":51.509865,"longitude":-0.118092,"reserved":0,"last_update":"0001-01-01T00:00:00Z","name_a2s":"Uncletopia | London | 7 | Stopwatch","protocol":17,"map":"workshop/koth_product_final.ugc454272353","folder":"tf","game":"Team Fortress","app_id":440,"player_count":0,"max_players":24,"Bots":0,"server_type":"Dedicated","server_os":"Linux","password":true,"vac":true,"version":"7961495","steam_id":85568392924964314,"keywords":["cp","nocrits","nodmgspread","uncletopia"],"game_id":440,"stv_port":27076,"stv_name":"Uncletopia | London | 7 | Stopwatch | STV","players":null},{"server_id":41,"name":"Uncletopia | London | 8 | Community","name_short":"lon-8","host":"lon-1.uk.uncletopia.com","port":27085,"enabled":true,"region":"eu","cc":"gb","latitude":51.509865,"longitude":-0.118092,"reserved":0,"last_update":"0001-01-01T00:00:00Z","name_a2s":"Uncletopia | London | 8 | Community","protocol":17,"map":"workshop/koth_ramjam_rc1.ugc459778887","folder":"tf","game":"Team Fortress","app_id":440,"player_count":0,"max_players":24,"Bots":0,"server_type":"Dedicated","server_os":"Linux","password":true,"vac":true,"version":"7961495","steam_id":85568392924964315,"keywords":["cp","nocrits","nodmgspread","uncletopia"],"game_id":440,"stv_port":27086,"stv_name":"Uncletopia | London | 8 | Community | STV","players":null},{"server_id":300,"name":"Uncletopia | Montréal | 1 | One Thousand Uncles","name_short":"mtl-1","host":"mtl-1.ca.uncletopia.com","port":27015,"enabled":true,"region":"us-east","cc":"ca","latitude":45.50889,"longitude":-73.56167,"reserved":0,"last_update":"0001-01-01T00:00:00Z","name_a2s":"","protocol":0,"map":"","folder":"","game":"","app_id":0,"player_count":0,"max_players":0,"Bots":0,"server_type":"","server_os":"","password":false,"vac":false,"version":"","steam_id":0,"keywords":null,"game_id":0,"stv_port":0,"stv_name":"","players":null},{"server_id":301,"name":"Uncletopia | Montréal | 2 | One Thousand Uncles","name_short":"mtl-2","host":"mtl-1.ca.uncletopia.com","port":27025,"enabled":true,"region":"us-east","cc":"ca","latitude":45.50889,"longitude":-73.56167,"reserved":0,"last_update":"0001-01-01T00:00:00Z","name_a2s":"","protocol":0,"map":"","folder":"","game":"","app_id":0,"player_count":3,"max_players":0,"Bots":0,"server_type":"","server_os":"","password":false,"vac":false,"version":"","steam_id":0,"keywords":null,"game_id":0,"stv_port":0,"stv_name":"","players":[{"user_id":163,"name":"(1)Target Practice","steam_id":76561198027102552,"connected_time":1143000000000,"state":"active","ping":115},{"user_id":164,"name":"AssignedGod","steam_id":76561198020928306,"connected_time":1123000000000,"state":"active","ping":47},{"user_id":181,"name":"Rhutebeer","steam_id":76561198018302761,"connected_time":374000000000,"state":"active","ping":96}]},{"server_id":302,"name":"Uncletopia | Montréal | 3 | One Thousand Uncles","name_short":"mtl-3","host":"mtl-1.ca.uncletopia.com","port":27035,"enabled":true,"region":"us-east","cc":"ca","latitude":45.50889,"longitude":-73.56167,"reserved":0,"last_update":"0001-01-01T00:00:00Z","name_a2s":"","protocol":0,"map":"","folder":"","game":"","app_id":0,"player_count":0,"max_players":0,"Bots":0,"server_type":"","server_os":"","password":false,"vac":false,"version":"","steam_id":0,"keywords":null,"game_id":0,"stv_port":0,"stv_name":"","players":null},{"server_id":13,"name":"Uncletopia | New York City | 1 | All Maps","name_short":"nyc-1","host":"nyc-1.us.uncletopia.com","port":27015,"enabled":true,"region":"us-east","cc":"us","latitude":40.73061,"longitude":-73.93524,"reserved":0,"last_update":"0001-01-01T00:00:00Z","name_a2s":"Uncletopia | New York City | 1 | All Maps","protocol":17,"map":"koth_viaduct","folder":"tf","game":"Team Fortress","app_id":440,"player_count":23,"max_players":24,"Bots":0,"server_type":"Dedicated","server_os":"Linux","password":true,"vac":true,"version":"7961495","steam_id":85568392924469993,"keywords":["cp","nocrits","nodmgspread","uncletopia"],"game_id":440,"stv_port":27016,"stv_name":"Uncletopia | New York City | 1 | All Maps | STV","players":[{"user_id":655,"name":"eryn 🗺","steam_id":76561198004433070,"connected_time":639000000000,"state":"active","ping":87},{"user_id":618,"name":"Bubbly","steam_id":76561199014095959,"connected_time":3146000000000,"state":"active","ping":53},{"user_id":623,"name":"fritzthecat","steam_id":76561199180497813,"connected_time":2963000000000,"state":"active","ping":67},{"user_id":646,"name":"Tokyo_Timeshift_","steam_id":76561198048677523,"connected_time":1919000000000,"state":"active","ping":60},{"user_id":648,"name":"hazel (she/her)","steam_id":76561198879911815,"connected_time":1511000000000,"state":"active","ping":56},{"user_id":641,"name":"Horse","steam_id":76561198332887086,"connected_time":2112000000000,"state":"active","ping":40},{"user_id":624,"name":"Lemmy","steam_id":76561199038870751,"connected_time":2928000000000,"state":"active","ping":134},{"user_id":625,"name":"Y Dough","steam_id":76561198003827633,"connected_time":2926000000000,"state":"active","ping":125},{"user_id":649,"name":"celestial","steam_id":76561198418566428,"connected_time":1437000000000,"state":"active","ping":63},{"user_id":656,"name":"CornDog","steam_id":76561198249446918,"connected_time":601000000000,"state":"active","ping":35},{"user_id":634,"name":"Peepster","steam_id":76561198297854733,"connected_time":2635000000000,"state":"active","ping":77},{"user_id":627,"name":"D.T. Katze","steam_id":76561198002280813,"connected_time":2865000000000,"state":"active","ping":109},{"user_id":628,"name":"burgergerrr rr","steam_id":76561198326620513,"connected_time":2856000000000,"state":"active","ping":54},{"user_id":629,"name":"MeKaso TropStar","steam_id":76561199109895840,"connected_time":2837000000000,"state":"active","ping":53},{"user_id":650,"name":"SouerLuigi","steam_id":76561198261896480,"connected_time":1061000000000,"state":"active","ping":85},{"user_id":653,"name":"epsilene","steam_id":76561198027468624,"connected_time":1021000000000,"state":"active","ping":37},{"user_id":654,"name":"menonamed","steam_id":76561198199564382,"connected_time":1011000000000,"state":"active","ping":54},{"user_id":643,"name":"Pancakes","steam_id":76561198129482145,"connected_time":2038000000000,"state":"active","ping":86},{"user_id":633,"name":"Fat Kid In a Dragonball T-Shirt","steam_id":76561198182589975,"connected_time":2725000000000,"state":"active","ping":58},{"user_id":638,"name":"sus bread_stain","steam_id":76561199230268075,"connected_time":2403000000000,"state":"active","ping":87},{"user_id":523,"name":"Cat_Gaben","steam_id":76561198308094558,"connected_time":12204000000000,"state":"active","ping":63},{"user_id":651,"name":"msay","steam_id":76561198170888029,"connected_time":1037000000000,"state":"active","ping":75},{"user_id":658,"name":"kid named finger","steam_id":76561199211445229,"connected_time":526000000000,"state":"active","ping":84}]},{"server_id":14,"name":"Uncletopia | New York City | 2 | All Maps","name_short":"nyc-2","host":"nyc-1.us.uncletopia.com","port":27025,"enabled":true,"region":"us-east","cc":"us","latitude":40.73061,"longitude":-73.93524,"reserved":0,"last_update":"0001-01-01T00:00:00Z","name_a2s":"Uncletopia | New York City | 2 | All Maps","protocol":17,"map":"cp_steel","folder":"tf","game":"Team Fortress","app_id":440,"player_count":22,"max_players":24,"Bots":0,"server_type":"Dedicated","server_os":"Linux","password":true,"vac":true,"version":"7961495","steam_id":85568392924469994,"keywords":["cp","nocrits","nodmgspread","uncletopia"],"game_id":440,"stv_port":27026,"stv_name":"Uncletopia | New York City | 2 | All Maps | STV","players":[{"user_id":505,"name":"king dedede","steam_id":76561198965562679,"connected_time":1098000000000,"state":"active","ping":80},{"user_id":474,"name":"marcus tillius","steam_id":76561197982832274,"connected_time":3737000000000,"state":"active","ping":67},{"user_id":515,"name":"aureli","steam_id":76561199031411031,"connected_time":535000000000,"state":"active","ping":55},{"user_id":499,"name":"BarrowBaron","steam_id":76561198013633236,"connected_time":1715000000000,"state":"active","ping":61},{"user_id":520,"name":"Mirelas","steam_id":76561198839360212,"connected_time":308000000000,"state":"active","ping":77},{"user_id":528,"name":"astrobob911","steam_id":76561199099110654,"connected_time":0,"state":"spawning","ping":18},{"user_id":502,"name":"lalman","steam_id":76561198196605887,"connected_time":1466000000000,"state":"active","ping":49},{"user_id":483,"name":"custodian","steam_id":76561198058793778,"connected_time":2515000000000,"state":"active","ping":51},{"user_id":477,"name":"Buttons :)","steam_id":76561198139478534,"connected_time":3041000000000,"state":"active","ping":105},{"user_id":468,"name":"peniblor","steam_id":76561198307923786,"connected_time":3889000000000,"state":"active","ping":114},{"user_id":519,"name":"The Stallion","steam_id":76561198005301468,"connected_time":360000000000,"state":"active","ping":85},{"user_id":518,"name":"Random Shonen Smear","steam_id":76561198397873029,"connected_time":418000000000,"state":"active","ping":61},{"user_id":527,"name":"General Lee","steam_id":76561199501497157,"connected_time":17000000000,"state":"spawning","ping":110},{"user_id":487,"name":"zabloinkus","steam_id":76561198069967245,"connected_time":2381000000000,"state":"active","ping":83},{"user_id":488,"name":"TheWallaby","steam_id":76561198948037546,"connected_time":2381000000000,"state":"active","ping":46},{"user_id":526,"name":"emerge","steam_id":76561198186882891,"connected_time":97000000000,"state":"active","ping":69},{"user_id":523,"name":"Tupac Shakur","steam_id":76561198247651486,"connected_time":265000000000,"state":"active","ping":44},{"user_id":498,"name":"AADDAAMM","steam_id":76561198068584852,"connected_time":1728000000000,"state":"active","ping":63},{"user_id":510,"name":"George Holdin' W Bush","steam_id":76561198030066204,"connected_time":1041000000000,"state":"active","ping":44},{"user_id":511,"name":"diego brando","steam_id":76561198162618469,"connected_time":1025000000000,"state":"active","ping":40},{"user_id":524,"name":"JustLooking","steam_id":76561198207877387,"connected_time":245000000000,"state":"active","ping":41},{"user_id":503,"name":"Tammy!","steam_id":76561198322969864,"connected_time":1466000000000,"state":"active","ping":71}]},{"server_id":15,"name":"Uncletopia | New York City | 3 | Stopwatch","name_short":"nyc-3","host":"nyc-1.us.uncletopia.com","port":27035,"enabled":true,"region":"us-east","cc":"us","latitude":40.73061,"longitude":-73.93524,"reserved":0,"last_update":"0001-01-01T00:00:00Z","name_a2s":"Uncletopia | New York City | 3 | Stopwatch","protocol":17,"map":"workshop/koth_product_final.ugc454272353","folder":"tf","game":"Team Fortress","app_id":440,"player_count":0,"max_players":24,"Bots":0,"server_type":"Dedicated","server_os":"Linux","password":true,"vac":true,"version":"7961495","steam_id":85568392924742820,"keywords":["cp","nocrits","nodmgspread","uncletopia"],"game_id":440,"stv_port":27036,"stv_name":"Uncletopia | New York City | 3 | Stopwatch | STV","players":null},{"server_id":16,"name":"Uncletopia | New York City | 4 | Community","name_short":"nyc-4","host":"nyc-1.us.uncletopia.com","port":27045,"enabled":true,"region":"us-east","cc":"us","latitude":40.73061,"longitude":-73.93524,"reserved":0,"last_update":"0001-01-01T00:00:00Z","name_a2s":"Uncletopia | New York City | 4 | Community","protocol":17,"map":"workshop/pl_emerge_rc2.ugc888027758","folder":"tf","game":"Team Fortress","app_id":440,"player_count":0,"max_players":24,"Bots":0,"server_type":"Dedicated","server_os":"Linux","password":true,"vac":true,"version":"7961495","steam_id":85568392924742821,"keywords":["nocrits","nodmgspread","payload","uncletopia"],"game_id":440,"stv_port":27046,"stv_name":"Uncletopia | New York City | 4 | Community | STV","players":null},{"server_id":142,"name":"Uncletopia | São Paulo | 1 | All Maps","name_short":"sao-1","host":"sao-1.br.uncletopia.com","port":27015,"enabled":true,"region":"sa","cc":"br","latitude":-23.533773,"longitude":-46.62529,"reserved":0,"last_update":"0001-01-01T00:00:00Z","name_a2s":"Uncletopia | São Paulo | 1 | All Maps","protocol":17,"map":"koth_lakeside_final","folder":"tf","game":"Team Fortress","app_id":440,"player_count":0,"max_players":24,"Bots":0,"server_type":"Dedicated","server_os":"Linux","password":true,"vac":true,"version":"7961495","steam_id":85568392924469996,"keywords":["cp","nocrits","nodmgspread","uncletopia"],"game_id":440,"stv_port":27016,"stv_name":"Uncletopia | São Paulo | 1 | All Maps | STV","players":null},{"server_id":143,"name":"Uncletopia | São Paulo | 2 | Community","name_short":"sao-2","host":"sao-2.br.uncletopia.com","port":27015,"enabled":true,"region":"sa","cc":"br","latitude":-23.533773,"longitude":-46.62529,"reserved":0,"last_update":"0001-01-01T00:00:00Z","name_a2s":"Uncletopia | São Paulo | 2 | Community","protocol":17,"map":"workshop/koth_ashville_final.ugc2130459942","folder":"tf","game":"Team Fortress","app_id":440,"player_count":0,"max_players":24,"Bots":0,"server_type":"Dedicated","server_os":"Linux","password":true,"vac":true,"version":"7961495","steam_id":85568392924485349,"keywords":["cp","nocrits","nodmgspread","uncletopia"],"game_id":440,"stv_port":27016,"stv_name":"Uncletopia | São Paulo | 2 | Community | STV","players":null},{"server_id":7,"name":"Uncletopia | Seattle | 1 | All Maps","name_short":"sea-1","host":"sea-1.us.uncletopia.com","port":27015,"enabled":true,"region":"us-west","cc":"us","latitude":47.608013,"longitude":-122.33517,"reserved":0,"last_update":"0001-01-01T00:00:00Z","name_a2s":"Uncletopia | Seattle | 1 | All Maps","protocol":17,"map":"pl_badwater","folder":"tf","game":"Team Fortress","app_id":440,"player_count":24,"max_players":24,"Bots":0,"server_type":"Dedicated","server_os":"Linux","password":true,"vac":true,"version":"7961495","steam_id":85568392924469997,"keywords":["nocrits","nodmgspread","payload","uncletopia"],"game_id":440,"stv_port":27016,"stv_name":"Uncletopia | Seattle | 1 | All Maps | STV","players":[{"user_id":417,"name":"An Old Lady","steam_id":76561198047480318,"connected_time":1586000000000,"state":"active","ping":64},{"user_id":337,"name":"Little Linguine","steam_id":76561198816986370,"connected_time":8391000000000,"state":"active","ping":44},{"user_id":408,"name":"Shabooyaroll-call","steam_id":76561198112306237,"connected_time":3197000000000,"state":"active","ping":77},{"user_id":430,"name":"MrYadaization","steam_id":76561198050770818,"connected_time":83000000000,"state":"active","ping":45},{"user_id":432,"name":"zinnk","steam_id":76561198092081825,"connected_time":46000000000,"state":"active","ping":57},{"user_id":405,"name":"theslayert4","steam_id":76561199258578780,"connected_time":3236000000000,"state":"active","ping":52},{"user_id":336,"name":"Gm_Sweet","steam_id":76561199445091548,"connected_time":8613000000000,"state":"active","ping":54},{"user_id":400,"name":"Zee✞","steam_id":76561198274550638,"connected_time":3717000000000,"state":"active","ping":106},{"user_id":413,"name":"Wheaty","steam_id":76561198003553412,"connected_time":2796000000000,"state":"active","ping":48},{"user_id":418,"name":"thats crazy","steam_id":76561198095480838,"connected_time":1477000000000,"state":"active","ping":45},{"user_id":381,"name":"Noah1k","steam_id":76561199428633514,"connected_time":4975000000000,"state":"active","ping":51},{"user_id":399,"name":"Trapilicious","steam_id":76561198061430457,"connected_time":3814000000000,"state":"active","ping":112},{"user_id":383,"name":"ArjayTheWeenie","steam_id":76561198275999294,"connected_time":4931000000000,"state":"active","ping":52},{"user_id":416,"name":"the Milky pirate","steam_id":76561198834350355,"connected_time":2209000000000,"state":"active","ping":73},{"user_id":426,"name":"Dimple","steam_id":76561198980324190,"connected_time":528000000000,"state":"active","ping":50},{"user_id":397,"name":"slushy :))","steam_id":76561198135281802,"connected_time":3833000000000,"state":"active","ping":39},{"user_id":422,"name":"Henchie!","steam_id":76561198047567464,"connected_time":702000000000,"state":"active","ping":88},{"user_id":402,"name":"owl","steam_id":76561198088403016,"connected_time":3346000000000,"state":"active","ping":154},{"user_id":406,"name":"Furry Femboy Hooters (CEO)","steam_id":76561198097745857,"connected_time":3229000000000,"state":"active","ping":51},{"user_id":415,"name":"tophawkyy","steam_id":76561199075934685,"connected_time":2479000000000,"state":"active","ping":83},{"user_id":427,"name":"Mick","steam_id":76561198972619900,"connected_time":281000000000,"state":"active","ping":90},{"user_id":419,"name":"AngryTurtle","steam_id":76561199056534728,"connected_time":1465000000000,"state":"active","ping":45},{"user_id":420,"name":"Pneumo.","steam_id":76561197987911883,"connected_time":798000000000,"state":"active","ping":59},{"user_id":428,"name":"DaddyGalaxy","steam_id":76561198139697796,"connected_time":277000000000,"state":"active","ping":58}]},{"server_id":119,"name":"Uncletopia | Seattle | 2 | All Maps","name_short":"sea-2","host":"sea-1.us.uncletopia.com","port":27025,"enabled":true,"region":"us-west","cc":"us","latitude":47.608013,"longitude":-122.33517,"reserved":0,"last_update":"0001-01-01T00:00:00Z","name_a2s":"Uncletopia | Seattle | 2 | All Maps","protocol":17,"map":"pl_pier","folder":"tf","game":"Team Fortress","app_id":440,"player_count":24,"max_players":24,"Bots":0,"server_type":"Dedicated","server_os":"Linux","password":true,"vac":true,"version":"7961495","steam_id":85568392924469998,"keywords":["nocrits","nodmgspread","payload","uncletopia"],"game_id":440,"stv_port":27026,"stv_name":"Uncletopia | Seattle | 2 | All Maps | STV","players":[{"user_id":105,"name":"sudoku_fiend","steam_id":76561198152029104,"connected_time":401000000000,"state":"active","ping":81},{"user_id":84,"name":"the juicy one","steam_id":76561198058956253,"connected_time":3054000000000,"state":"active","ping":45},{"user_id":89,"name":"Goldensliv","steam_id":76561198161673891,"connected_time":2757000000000,"state":"active","ping":62},{"user_id":90,"name":"Poundcake","steam_id":76561198042196918,"connected_time":2464000000000,"state":"active","ping":51},{"user_id":71,"name":"Cael","steam_id":76561198136789464,"connected_time":4085000000000,"state":"active","ping":57},{"user_id":97,"name":"vacachimuela","steam_id":76561198297332421,"connected_time":1471000000000,"state":"active","ping":53},{"user_id":60,"name":"vulture pupy","steam_id":76561198061963965,"connected_time":4699000000000,"state":"active","ping":51},{"user_id":56,"name":"drake on soldier","steam_id":76561198143132686,"connected_time":5294000000000,"state":"active","ping":75},{"user_id":29,"name":"ilyKittyXOXO","steam_id":76561198179569849,"connected_time":6237000000000,"state":"active","ping":86},{"user_id":102,"name":"top 10 sidewalks","steam_id":76561198844273999,"connected_time":1425000000000,"state":"active","ping":45},{"user_id":99,"name":"Sheev Palpatine","steam_id":76561198252332430,"connected_time":1455000000000,"state":"active","ping":91},{"user_id":45,"name":"Botanics","steam_id":76561198137966109,"connected_time":5652000000000,"state":"active","ping":80},{"user_id":33,"name":"McSpazatron","steam_id":76561198955942148,"connected_time":6090000000000,"state":"active","ping":46},{"user_id":91,"name":"nifty","steam_id":76561198056630017,"connected_time":2422000000000,"state":"active","ping":46},{"user_id":103,"name":"Smashy","steam_id":76561198030704307,"connected_time":1397000000000,"state":"active","ping":64},{"user_id":61,"name":"Stick","steam_id":76561198127495278,"connected_time":4685000000000,"state":"active","ping":63},{"user_id":69,"name":"wmjledger","steam_id":76561198443046861,"connected_time":4234000000000,"state":"active","ping":52},{"user_id":100,"name":"Petrivus","steam_id":76561198202152453,"connected_time":1443000000000,"state":"active","ping":52},{"user_id":72,"name":"Sprit ♥","steam_id":76561198268780781,"connected_time":4080000000000,"state":"active","ping":104},{"user_id":101,"name":"mollusk_obliteration","steam_id":76561198085388962,"connected_time":1434000000000,"state":"active","ping":114},{"user_id":52,"name":"FireQuiz","steam_id":76561198107357249,"connected_time":5409000000000,"state":"active","ping":47},{"user_id":94,"name":"Creeping Python","steam_id":76561198041636923,"connected_time":1802000000000,"state":"active","ping":56},{"user_id":104,"name":"[Industrial] A_HUMBLEBUMBLED","steam_id":76561198064771878,"connected_time":1328000000000,"state":"active","ping":32},{"user_id":78,"name":"GooseWithAGibus","steam_id":76561198131567365,"connected_time":3472000000000,"state":"active","ping":59}]},{"server_id":406,"name":"Uncletopia | Seattle | 3 | Stopwatch","name_short":"sea-3","host":"sea-1.us.uncletopia.com","port":27035,"enabled":true,"region":"us-west","cc":"us","latitude":47.608013,"longitude":-122.33517,"reserved":0,"last_update":"0001-01-01T00:00:00Z","name_a2s":"Uncletopia | Seattle | 3 | Stopwatch","protocol":17,"map":"pl_pier","folder":"tf","game":"Team Fortress","app_id":440,"player_count":0,"max_players":24,"Bots":0,"server_type":"Dedicated","server_os":"Linux","password":true,"vac":true,"version":"7961495","steam_id":85568392924515217,"keywords":["nocrits","nodmgspread","payload","uncletopia"],"game_id":440,"stv_port":27036,"stv_name":"Uncletopia | Seattle | 3 | Stopwatch | STV","players":null},{"server_id":17,"name":"Uncletopia | San Francisco | 1 | All Maps","name_short":"sfo-1","host":"sfo-1.us.uncletopia.com","port":27015,"enabled":true,"region":"us-west","cc":"us","latitude":37.77397,"longitude":-122.4313,"reserved":0,"last_update":"0001-01-01T00:00:00Z","name_a2s":"Uncletopia | San Francisco | 1 | All Maps","protocol":17,"map":"koth_cascade","folder":"tf","game":"Team Fortress","app_id":440,"player_count":0,"max_players":24,"Bots":0,"server_type":"Dedicated","server_os":"Linux","password":true,"vac":true,"version":"7961495","steam_id":85568392924469999,"keywords":["cp","nocrits","nodmgspread","uncletopia"],"game_id":440,"stv_port":27016,"stv_name":"Uncletopia | San Francisco | 1 | All Maps | STV","players":null},{"server_id":18,"name":"Uncletopia | San Francisco | 2 | All Maps","name_short":"sfo-2","host":"sfo-1.us.uncletopia.com","port":27025,"enabled":true,"region":"us-west","cc":"us","latitude":37.77397,"longitude":-122.4313,"reserved":0,"last_update":"0001-01-01T00:00:00Z","name_a2s":"Uncletopia | San Francisco | 2 | All Maps","protocol":17,"map":"cp_sunshine","folder":"tf","game":"Team Fortress","app_id":440,"player_count":0,"max_players":24,"Bots":0,"server_type":"Dedicated","server_os":"Linux","password":true,"vac":true,"version":"7961495","steam_id":85568392924470000,"keywords":["cp","nocrits","nodmgspread","uncletopia"],"game_id":440,"stv_port":27026,"stv_name":"Uncletopia | San Francisco | 2 | All Maps | STV","players":null},{"server_id":19,"name":"Uncletopia | San Francisco | 3 | Stopwatch","name_short":"sfo-3","host":"sfo-1.us.uncletopia.com","port":27035,"enabled":true,"region":"us-west","cc":"us","latitude":37.77397,"longitude":-122.4313,"reserved":0,"last_update":"0001-01-01T00:00:00Z","name_a2s":"Uncletopia | San Francisco | 3 | Stopwatch","protocol":17,"map":"workshop/koth_ramjam_rc1.ugc459778887","folder":"tf","game":"Team Fortress","app_id":440,"player_count":0,"max_players":24,"Bots":0,"server_type":"Dedicated","server_os":"Linux","password":true,"vac":true,"version":"7961495","steam_id":85568392924742824,"keywords":["cp","nocrits","nodmgspread","uncletopia"],"game_id":440,"stv_port":27036,"stv_name":"Uncletopia | San Francisco | 3 | Stopwatch | STV","players":null},{"server_id":20,"name":"Uncletopia | San Francisco | 4 | Community","name_short":"sfo-4","host":"sfo-1.us.uncletopia.com","port":27045,"enabled":true,"region":"us-west","cc":"us","latitude":37.77397,"longitude":-122.4313,"reserved":0,"last_update":"0001-01-01T00:00:00Z","name_a2s":"Uncletopia | San Francisco | 4 | Community","protocol":17,"map":"pl_pier","folder":"tf","game":"Team Fortress","app_id":440,"player_count":0,"max_players":24,"Bots":0,"server_type":"Dedicated","server_os":"Linux","password":true,"vac":true,"version":"7961495","steam_id":85568392924742826,"keywords":["nocrits","nodmgspread","payload","uncletopia"],"game_id":440,"stv_port":27046,"stv_name":"Uncletopia | San Francisco | 4 | Community | STV","players":null},{"server_id":141,"name":"Uncletopia | Sydney | 1 | All Maps","name_short":"syd-1","host":"syd-1.au.uncletopia.com","port":27015,"enabled":true,"region":"au","cc":"au","latitude":-33.865143,"longitude":151.2099,"reserved":0,"last_update":"0001-01-01T00:00:00Z","name_a2s":"Uncletopia | Sydney | 1 | All Maps","protocol":17,"map":"koth_viaduct","folder":"tf","game":"Team Fortress","app_id":440,"player_count":0,"max_players":24,"Bots":0,"server_type":"Dedicated","server_os":"Linux","password":true,"vac":true,"version":"7961495","steam_id":85568392924470001,"keywords":["cp","nocrits","nodmgspread","uncletopia"],"game_id":440,"stv_port":27016,"stv_name":"Uncletopia | Sydney | 1 | All Maps | STV","players":null},{"server_id":123,"name":"Uncletopia | Sydney | 2 | All Maps","name_short":"syd-2","host":"syd-1.au.uncletopia.com","port":27025,"enabled":true,"region":"au","cc":"au","latitude":-33.865143,"longitude":151.2099,"reserved":0,"last_update":"0001-01-01T00:00:00Z","name_a2s":"Uncletopia | Sydney | 2 | All Maps","protocol":17,"map":"koth_lakeside_final","folder":"tf","game":"Team Fortress","app_id":440,"player_count":0,"max_players":24,"Bots":0,"server_type":"Dedicated","server_os":"Linux","password":true,"vac":true,"version":"7961495","steam_id":85568392924470002,"keywords":["cp","nocrits","nodmgspread","uncletopia"],"game_id":440,"stv_port":27026,"stv_name":"Uncletopia | Sydney | 2 | All Maps | STV","players":null},{"server_id":395,"name":"Uncletopia | Sydney | 3 | All Maps","name_short":"syd-3","host":"syd-1.au.uncletopia.com","port":27035,"enabled":true,"region":"au","cc":"au","latitude":-33.865143,"longitude":151.2099,"reserved":0,"last_update":"0001-01-01T00:00:00Z","name_a2s":"Uncletopia | Sydney | 3 | All Maps","protocol":17,"map":"pl_frontier_final","folder":"tf","game":"Team Fortress","app_id":440,"player_count":0,"max_players":24,"Bots":0,"server_type":"Dedicated","server_os":"Linux","password":true,"vac":true,"version":"7961495","steam_id":85568392925194467,"keywords":["nocrits","nodmgspread","payload","uncletopia"],"game_id":440,"stv_port":27036,"stv_name":"Uncletopia | Sydney | 3 | All Maps | STV","players":null},{"server_id":396,"name":"Uncletopia | Sydney | 4 | All Maps","name_short":"syd-4","host":"syd-1.au.uncletopia.com","port":27045,"enabled":true,"region":"au","cc":"au","latitude":-33.865143,"longitude":151.2099,"reserved":0,"last_update":"0001-01-01T00:00:00Z","name_a2s":"Uncletopia | Sydney | 4 | All Maps","protocol":17,"map":"cp_process_final","folder":"tf","game":"Team Fortress","app_id":440,"player_count":0,"max_players":24,"Bots":0,"server_type":"Dedicated","server_os":"Linux","password":true,"vac":true,"version":"7961495","steam_id":85568392925397958,"keywords":["cp","nocrits","nodmgspread","uncletopia"],"game_id":440,"stv_port":27046,"stv_name":"Uncletopia | Sydney | 4 | All Maps | STV","players":null},{"server_id":58,"name":"Uncletopia | Sydney | 5 | Stopwatch","name_short":"syd-5","host":"syd-1.au.uncletopia.com","port":27055,"enabled":true,"region":"au","cc":"au","latitude":-33.865143,"longitude":151.2099,"reserved":0,"last_update":"0001-01-01T00:00:00Z","name_a2s":"Uncletopia | Sydney | 5 | Stopwatch","protocol":17,"map":"pl_frontier_final","folder":"tf","game":"Team Fortress","app_id":440,"player_count":0,"max_players":24,"Bots":0,"server_type":"Dedicated","server_os":"Linux","password":true,"vac":true,"version":"7961495","steam_id":85568392925397959,"keywords":["nocrits","nodmgspread","payload","uncletopia"],"game_id":440,"stv_port":27056,"stv_name":"Uncletopia | Sydney | 5 | Stopwatch | STV","players":null},{"server_id":59,"name":"Uncletopia | Sydney | 6 | Community","name_short":"syd-6","host":"syd-1.au.uncletopia.com","port":27065,"enabled":true,"region":"au","cc":"au","latitude":-33.865143,"longitude":151.2099,"reserved":0,"last_update":"0001-01-01T00:00:00Z","name_a2s":"Uncletopia | Sydney | 6 | Community","protocol":17,"map":"cp_sunshine","folder":"tf","game":"Team Fortress","app_id":440,"player_count":0,"max_players":24,"Bots":0,"server_type":"Dedicated","server_os":"Linux","password":true,"vac":true,"version":"7961495","steam_id":85568392925397960,"keywords":["cp","nocrits","nodmgspread","uncletopia"],"game_id":440,"stv_port":27066,"stv_name":"Uncletopia | Sydney | 6 | Community | STV","players":null},{"server_id":49,"name":"Uncletopia | Warsaw | 1 | One Thousand Uncles","name_short":"waw-1","host":"waw-1.pl.uncletopia.com","port":27015,"enabled":true,"region":"eu","cc":"pl","latitude":52.2297,"longitude":21.017532,"reserved":0,"last_update":"0001-01-01T00:00:00Z","name_a2s":"Uncletopia | Warsaw | 1 | One Thousand Uncles","protocol":17,"map":"pl_pier","folder":"tf","game":"Team Fortress","app_id":440,"player_count":25,"max_players":32,"Bots":16,"server_type":"Dedicated","server_os":"Linux","password":true,"vac":true,"version":"7961495","steam_id":85568392925397850,"keywords":["alltalk","bots","danepve","increased_maxplayers","nocrits","norespawntime","payload","uncletopia"],"game_id":440,"stv_port":0,"stv_name":"","players":[{"user_id":827,"name":"Tispy","steam_id":76561199207410049,"connected_time":4047000000000,"state":"active","ping":106},{"user_id":883,"name":"God's Drunkest Driver","steam_id":76561199174579733,"connected_time":532000000000,"state":"active","ping":150},{"user_id":836,"name":"henrique_best","steam_id":76561199317304919,"connected_time":2657000000000,"state":"active","ping":98},{"user_id":844,"name":"Max Power","steam_id":76561198019269089,"connected_time":1783000000000,"state":"active","ping":66},{"user_id":845,"name":"Darkgege22","steam_id":76561198176636583,"connected_time":1756000000000,"state":"active","ping":77},{"user_id":884,"name":"Djingis Khan","steam_id":76561197967864460,"connected_time":247000000000,"state":"active","ping":54},{"user_id":846,"name":"Boris_Bober","steam_id":76561199176831467,"connected_time":1751000000000,"state":"active","ping":68},{"user_id":797,"name":"BreadBread06","steam_id":76561198196914050,"connected_time":5710000000000,"state":"active","ping":195},{"user_id":808,"name":"Benzo Fury","steam_id":76561198025259336,"connected_time":4209000000000,"state":"active","ping":76}]},{"server_id":50,"name":"Uncletopia | Warsaw | 2 | One Thousand Uncles","name_short":"waw-2","host":"waw-1.pl.uncletopia.com","port":27025,"enabled":true,"region":"eu","cc":"pl","latitude":52.2297,"longitude":21.017532,"reserved":0,"last_update":"0001-01-01T00:00:00Z","name_a2s":"Uncletopia | Warsaw | 2 | One Thousand Uncles","protocol":17,"map":"pl_goldrush","folder":"tf","game":"Team Fortress","app_id":440,"player_count":0,"max_players":32,"Bots":0,"server_type":"Dedicated","server_os":"Linux","password":true,"vac":true,"version":"7961495","steam_id":85568392925397851,"keywords":["alltalk","danepve","increased_maxplayers","nocrits","norespawntime","payload","uncletopia"],"game_id":440,"stv_port":0,"stv_name":"","players":null},{"server_id":51,"name":"Uncletopia | Warsaw | 3 | All Maps","name_short":"waw-3","host":"waw-1.pl.uncletopia.com","port":27035,"enabled":true,"region":"eu","cc":"pl","latitude":52.2297,"longitude":21.017532,"reserved":0,"last_update":"0001-01-01T00:00:00Z","name_a2s":"Uncletopia | Warsaw | 3 | All Maps","protocol":17,"map":"pl_snowycoast","folder":"tf","game":"Team Fortress","app_id":440,"player_count":20,"max_players":24,"Bots":0,"server_type":"Dedicated","server_os":"Linux","password":true,"vac":true,"version":"7961495","steam_id":85568392925397852,"keywords":["nocrits","nodmgspread","payload","uncletopia"],"game_id":440,"stv_port":27036,"stv_name":"Uncletopia | Warsaw | 3 | All Maps | STV","players":[{"user_id":119,"name":"Burrito","steam_id":76561198023919089,"connected_time":3962000000000,"state":"active","ping":92},{"user_id":160,"name":"поиграем","steam_id":76561198151306750,"connected_time":1214000000000,"state":"active","ping":84},{"user_id":148,"name":"Sad Ancient Gear Gadget","steam_id":76561198067107185,"connected_time":2284000000000,"state":"active","ping":165},{"user_id":184,"name":"Tengen","steam_id":76561199356990346,"connected_time":7000000000,"state":"active","ping":151},{"user_id":166,"name":"The Big J","steam_id":76561198158202901,"connected_time":1056000000000,"state":"active","ping":56},{"user_id":167,"name":"mex :3","steam_id":76561198091083324,"connected_time":1043000000000,"state":"active","ping":58},{"user_id":121,"name":"Narshil","steam_id":76561198069740584,"connected_time":3891000000000,"state":"active","ping":151},{"user_id":158,"name":"Ktoooo_yaaa","steam_id":76561198325036070,"connected_time":1554000000000,"state":"active","ping":90},{"user_id":181,"name":"♥Medical student♥","steam_id":76561199119401415,"connected_time":345000000000,"state":"active","ping":134},{"user_id":178,"name":"cat aesthetics","steam_id":76561199062437546,"connected_time":491000000000,"state":"active","ping":46},{"user_id":169,"name":"rower123","steam_id":76561198265062481,"connected_time":912000000000,"state":"active","ping":52},{"user_id":171,"name":"vin","steam_id":76561198025551437,"connected_time":839000000000,"state":"active","ping":89},{"user_id":172,"name":"AshieTheVixen","steam_id":76561199061018034,"connected_time":836000000000,"state":"active","ping":57},{"user_id":174,"name":"URP0","steam_id":76561198271631421,"connected_time":736000000000,"state":"active","ping":145},{"user_id":164,"name":"Panzerwaffle","steam_id":76561198030382800,"connected_time":1121000000000,"state":"active","ping":52},{"user_id":117,"name":"Lennox","steam_id":76561198069063554,"connected_time":4158000000000,"state":"active","ping":60},{"user_id":135,"name":"ShadowRaze","steam_id":76561198322672808,"connected_time":3032000000000,"state":"active","ping":84},{"user_id":141,"name":"Harvaa","steam_id":76561198173292590,"connected_time":2530000000000,"state":"active","ping":50},{"user_id":143,"name":"Pruffle","steam_id":76561198377084417,"connected_time":2527000000000,"state":"active","ping":41},{"user_id":177,"name":"✿F l o w e r b o i✿","steam_id":76561198351447160,"connected_time":649000000000,"state":"active","ping":57}]},{"server_id":52,"name":"Uncletopia | Warsaw | 4 | All Maps","name_short":"waw-4","host":"waw-1.pl.uncletopia.com","port":27045,"enabled":true,"region":"eu","cc":"pl","latitude":52.2297,"longitude":21.017532,"reserved":0,"last_update":"0001-01-01T00:00:00Z","name_a2s":"Uncletopia | Warsaw | 4 | All Maps","protocol":17,"map":"pl_snowycoast","folder":"tf","game":"Team Fortress","app_id":440,"player_count":0,"max_players":24,"Bots":0,"server_type":"Dedicated","server_os":"Linux","password":true,"vac":true,"version":"7961495","steam_id":85568392925397853,"keywords":["nocrits","nodmgspread","payload","uncletopia"],"game_id":440,"stv_port":27046,"stv_name":"Uncletopia | Warsaw | 4 | All Maps | STV","players":null},{"server_id":53,"name":"Uncletopia | Warsaw | 5 | Stopwatch","name_short":"waw-5","host":"waw-1.pl.uncletopia.com","port":27055,"enabled":true,"region":"eu","cc":"pl","latitude":52.2297,"longitude":21.017532,"reserved":0,"last_update":"0001-01-01T00:00:00Z","name_a2s":"Uncletopia | Warsaw | 5 | Stopwatch","protocol":17,"map":"workshop/pl_barnblitz_pro7.ugc582280235","folder":"tf","game":"Team Fortress","app_id":440,"player_count":0,"max_players":24,"Bots":0,"server_type":"Dedicated","server_os":"Linux","password":true,"vac":true,"version":"7961495","steam_id":85568392925397854,"keywords":["nocrits","nodmgspread","payload","uncletopia"],"game_id":440,"stv_port":27056,"stv_name":"Uncletopia | Warsaw | 5 | Stopwatch | STV","players":null},{"server_id":54,"name":"Uncletopia | Warsaw | 6 | Community","name_short":"waw-6","host":"waw-1.pl.uncletopia.com","port":27065,"enabled":true,"region":"eu","cc":"pl","latitude":52.2297,"longitude":21.017532,"reserved":0,"last_update":"0001-01-01T00:00:00Z","name_a2s":"Uncletopia | Warsaw | 6 | Community","protocol":17,"map":"workshop/koth_synthetic_rc6a.ugc1549817316","folder":"tf","game":"Team Fortress","app_id":440,"player_count":0,"max_players":24,"Bots":0,"server_type":"Dedicated","server_os":"Linux","password":true,"vac":true,"version":"7961495","steam_id":85568392925397856,"keywords":["cp","nocrits","nodmgspread","uncletopia"],"game_id":440,"stv_port":27066,"stv_name":"Uncletopia | Warsaw | 6 | Community | STV","players":null}]}