{"status":true,"message":"","result":[{"server_id":9,"name":"Uncletopia | Atlanta | 1 | All Maps","name_short":"atl-1","host":"atl-1.us.uncletopia.com","port":27015,"enabled":true,"region":"us-east","cc":"us","latitude":33.753746,"longitude":-84.38633,"reserved":0,"last_update":"0001-01-01T00:00:00Z","name_a2s":"Uncletopia | Atlanta | 1 | All Maps","protocol":17,"map":"pl_badwater","folder":"tf","game":"Team Fortress","app_id":440,"player_count":24,"max_players":24,"Bots":0,"server_type":"Dedicated","server_os":"Linux","password":true,"vac":true,"version":"7882260","steam_id":85568392924469982,"keywords":["nocrits","nodmgspread","payload","uncletopia"],"game_id":440,"stv_port":27016,"stv_name":"Uncletopia | Atlanta | 1 | All Maps | STV","players":[{"user_id":562,"name":"cola","steam_id":76561198374390458,"connected_time":5116000000000,"state":"active","ping":60},{"user_id":543,"name":"kite","steam_id":76561198346516392,"connected_time":6640000000000,"state":"active","ping":75},{"user_id":594,"name":"thebob16","steam_id":76561199005310059,"connected_time":297000000000,"state":"active","ping":80},{"user_id":564,"name":"Sophie","steam_id":76561198170408057,"connected_time":5025000000000,"state":"active","ping":48},{"user_id":589,"name":"Toonice","steam_id":76561198402994885,"connected_time":1806000000000,"state":"active","ping":81},{"user_id":567,"name":"bogginwater","steam_id":76561198155547142,"connected_time":4653000000000,"state":"active","ping":70},{"user_id":600,"name":"That \"Spud\" Guy","steam_id":76561197997444126,"connected_time":118000000000,"state":"active","ping":107},{"user_id":596,"name":"bkiller","steam_id":76561198029265697,"connected_time":281000000000,"state":"active","ping":64},{"user_id":583,"name":"Intro Bonito","steam_id":76561198119478838,"connected_time":3324000000000,"state":"active","ping":45},{"user_id":595,"name":"ash","steam_id":76561198127890645,"connected_time":283000000000,"state":"active","ping":60},{"user_id":579,"name":"Save your wifi","steam_id":76561198286147372,"connected_time":3364000000000,"state":"active","ping":61},{"user_id":585,"name":"eish","steam_id":76561198089463603,"connected_time":2352000000000,"state":"active","ping":125},{"user_id":573,"name":"BIG HOG","steam_id":76561198079923652,"connected_time":4613000000000,"state":"active","ping":74},{"user_id":571,"name":"morphine","steam_id":76561198072124799,"connected_time":4630000000000,"state":"active","ping":93},{"user_id":590,"name":"Terror-Billy #SaveTF2","steam_id":76561198328141870,"connected_time":1731000000000,"state":"active","ping":79},{"user_id":593,"name":"who me?","steam_id":76561198381136912,"connected_time":1496000000000,"state":"active","ping":78},{"user_id":597,"name":"Pulp Free Fiction","steam_id":76561198095396514,"connected_time":280000000000,"state":"active","ping":75},{"user_id":598,"name":"porfer","steam_id":76561199118049168,"connected_time":280000000000,"state":"active","ping":110},{"user_id":560,"name":"joe","steam_id":76561198045781320,"connected_time":5370000000000,"state":"active","ping":65},{"user_id":599,"name":"Crystal Mongoose","steam_id":76561198001585325,"connected_time":276000000000,"state":"active","ping":47},{"user_id":601,"name":"Mystikkal","steam_id":76561198003949147,"connected_time":32000000000,"state":"active","ping":121},{"user_id":581,"name":"chubbbo","steam_id":76561198943598378,"connected_time":3358000000000,"state":"active","ping":47},{"user_id":586,"name":"Broken Cereal‚àö","steam_id":76561198087489795,"connected_time":2331000000000,"state":"active","ping":72},{"user_id":556,"name":"lil hog","steam_id":76561199230929836,"connected_time":5550000000000,"state":"active","ping":77}]},{"server_id":104,"name":"Uncletopia | Atlanta | 2 | All Maps","name_short":"atl-2","host":"atl-1.us.uncletopia.com","port":27025,"enabled":true,"region":"us-east","cc":"us","latitude":33.753746,"longitude":-84.38633,"reserved":0,"last_update":"0001-01-01T00:00:00Z","name_a2s":"Uncletopia | Atlanta | 2 | All Maps","protocol":17,"map":"cp_snakewater_final1","folder":"tf","game":"Team Fortress","app_id":440,"player_count":0,"max_players":24,"Bots":0,"server_type":"Dedicated","server_os":"Linux","password":true,"vac":true,"version":"7882260","steam_id":85568392924469983,"keywords":["cp","nocrits","nodmgspread","uncletopia"],"game_id":440,"stv_port":27026,"stv_name":"Uncletopia | Atlanta | 2 | All Maps | STV","players":null},{"server_id":400,"name":"Uncletopia | Atlanta | 3 | Community","name_short":"atl-3","host":"atl-1.us.uncletopia.com","port":27035,"enabled":true,"region":"us-east","cc":"us","latitude":33.753746,"longitude":-84.38633,"reserved":0,"last_update":"0001-01-01T00:00:00Z","name_a2s":"Uncletopia | Atlanta | 3 | Community","protocol":17,"map":"workshop/cp_glassworks_rc6a.ugc454118349","folder":"tf","game":"Team Fortress","app_id":440,"player_count":24,"max_players":24,"Bots":0,"server_type":"Dedicated","server_os":"Linux","password":true,"vac":true,"version":"7882260","steam_id":85568392924515187,"keywords":["cp","nocrits","nodmgspread","uncletopia"],"game_id":440,"stv_port":27036,"stv_name":"Uncletopia | Atlanta | 3 | Community | STV","players":[{"user_id":359,"name":"C'est moi la porte","steam_id":76561198096870960,"connected_time":1893000000000,"state":"active","ping":96},{"user_id":378,"name":"Lincs","steam_id":76561198049851872,"connected_time":271000000000,"state":"active","ping":65},{"user_id":316,"name":"intooblivion","steam_id":76561197964080250,"connected_time":5335000000000,"state":"active","ping":59},{"user_id":371,"name":"Boysenberry Syrup","steam_id":76561198243582986,"connected_time":1077000000000,"state":"active","ping":71},{"user_id":360,"name":"Bingus Vladimir Pingas","steam_id":76561198324417293,"connected_time":1886000000000,"state":"active","ping":97},{"user_id":330,"name":"N00ne","steam_id":76561198135767749,"connected_time":4001000000000,"state":"active","ping":97},{"user_id":372,"name":"cass","steam_id":76561198074502046,"connected_time":998000000000,"state":"active","ping":63},{"user_id":331,"name":"Phalen","steam_id":76561198111372393,"connected_time":3984000000000,"state":"active","ping":67},{"user_id":373,"name":"shootinmoney","steam_id":76561198981373753,"connected_time":902000000000,"state":"active","ping":105},{"user_id":367,"name":"Heaping_Handful","steam_id":76561198120448833,"connected_time":1641000000000,"state":"active","ping":75},{"user_id":362,"name":"Taelweaver Victorious","steam_id":76561198215568049,"connected_time":1860000000000,"state":"active","ping":64},{"user_id":379,"name":"deadman137","steam_id":76561198285362212,"connected_time":155000000000,"state":"active","ping":73},{"user_id":374,"name":"üÖúüÖîüÖîüÖöüÖ¢üÖ£üÖî\ufffd\ufffd\ufffd","steam_id":76561197999748343,"connected_time":868000000000,"state":"active","ping":57},{"user_id":350,"name":"Jerry Seinfeld","steam_id":76561199205226507,"connected_time":2494000000000,"state":"active","ping":76},{"user_id":375,"name":"s1ke","steam_id":76561198000415809,"connected_time":813000000000,"state":"active","ping":69},{"user_id":363,"name":"BoX_hEaD101","steam_id":76561198200875467,"connected_time":1860000000000,"state":"active","ping":128},{"user_id":351,"name":"TwoBit","steam_id":76561198062437559,"connected_time":2472000000000,"state":"active","ping":94},{"user_id":380,"name":"Jeeper","steam_id":76561198155583692,"connected_time":70000000000,"state":"active","ping":69},{"user_id":376,"name":"Rex","steam_id":76561198138365053,"connected_time":781000000000,"state":"active","ping":101},{"user_id":377,"name":"Japheth","steam_id":76561198012902961,"connected_time":757000000000,"state":"active","ping":62},{"user_id":334,"name":"Thermalpwn","steam_id":76561198027552989,"connected_time":3864000000000,"state":"active","ping":83},{"user_id":381,"name":"Mathatguy","steam_id":76561198225432188,"connected_time":12000000000,"state":"spawning","ping":119},{"user_id":343,"name":"SatyricalSol","steam_id":76561198104484030,"connected_time":3032000000000,"state":"active","ping":84},{"user_id":366,"name":"Simply Mystic","steam_id":76561198055495647,"connected_time":1764000000000,"state":"active","ping":76}]},{"server_id":401,"name":"Uncletopia | Atlanta | 4 | No Payload","name_short":"atl-4","host":"atl-1.us.uncletopia.com","port":27045,"enabled":true,"region":"us-east","cc":"us","latitude":33.753746,"longitude":-84.38633,"reserved":0,"last_update":"0001-01-01T00:00:00Z","name_a2s":"","protocol":0,"map":"","folder":"","game":"","app_id":0,"player_count":0,"max_players":0,"Bots":0,"server_type":"","server_os":"","password":false,"vac":false,"version":"","steam_id":0,"keywords":null,"game_id":0,"stv_port":0,"stv_name":"","players":null},{"server_id":2,"name":"Uncletopia | Chicago | 1 | All Maps","name_short":"chi-1","host":"chi-1.us.uncletopia.com","port":27015,"enabled":true,"region":"us-central","cc":"us","latitude":41.881832,"longitude":-87.62318,"reserved":0,"last_update":"0001-01-01T00:00:00Z","name_a2s":"Uncletopia | Chicago | 1 | All Maps","protocol":17,"map":"cp_dustbowl","folder":"tf","game":"Team Fortress","app_id":440,"player_count":23,"max_players":24,"Bots":0,"server_type":"Dedicated","server_os":"Linux","password":true,"vac":true,"version":"7882260","steam_id":85568392924469984,"keywords":["cp","nocrits","nodmgspread","uncletopia"],"game_id":440,"stv_port":27016,"stv_name":"Uncletopia | Chicago | 1 | All Maps | STV","players":[{"user_id":649,"name":"Takyon","steam_id":76561198172075186,"connected_time":4862000000000,"state":"active","ping":159},{"user_id":699,"name":"leaf.png","steam_id":76561198847561312,"connected_time":2051000000000,"state":"active","ping":38},{"user_id":705,"name":"Iceman10a","steam_id":76561198171922098,"connected_time":1602000000000,"state":"active","ping":121},{"user_id":727,"name":"Stick","steam_id":76561198001509374,"connected_time":232000000000,"state":"active","ping":61},{"user_id":696,"name":"Captain S. Forrest","steam_id":76561198062463029,"connected_time":2226000000000,"state":"active","ping":79},{"user_id":728,"name":"aphishyfish","steam_id":76561198070236848,"connected_time":211000000000,"state":"active","ping":65},{"user_id":637,"name":"scrotal recall","steam_id":76561198135945598,"connected_time":6695000000000,"state":"active","ping":84},{"user_id":713,"name":"portal2trollin","steam_id":76561198046869828,"connected_time":1122000000000,"state":"active","ping":83},{"user_id":682,"name":"Derwiin ;)","steam_id":76561198095513045,"connected_time":2439000000000,"state":"active","ping":162},{"user_id":706,"name":"Thundermonkey (SMOKE)","steam_id":76561198017631728,"connected_time":1558000000000,"state":"active","ping":63},{"user_id":698,"name":"eat Pant","steam_id":76561197974965536,"connected_time":2139000000000,"state":"active","ping":54},{"user_id":665,"name":"üíõMercyüíõ","steam_id":76561198147095572,"connected_time":3950000000000,"state":"active","ping":56},{"user_id":638,"name":"PKBEAST_7","steam_id":76561198177136537,"connected_time":6372000000000,"state":"active","ping":89},{"user_id":712,"name":"Jovince","steam_id":76561198128760352,"connected_time":1184000000000,"state":"active","ping":80},{"user_id":725,"name":"sono","steam_id":76561198187678698,"connected_time":561000000000,"state":"active","ping":54},{"user_id":647,"name":"sex (real)","steam_id":76561198396414319,"connected_time":5185000000000,"state":"active","ping":104},{"user_id":719,"name":"‚ô†Dr Humbult","steam_id":76561198050022166,"connected_time":804000000000,"state":"active","ping":75},{"user_id":688,"name":"DustBunny","steam_id":76561198056349047,"connected_time":2368000000000,"state":"active","ping":69},{"user_id":721,"name":"GPU based climate control","steam_id":76561198069735882,"connected_time":641000000000,"state":"active","ping":66},{"user_id":720,"name":"Minus","steam_id":76561198037887887,"connected_time":715000000000,"state":"active","ping":47},{"user_id":710,"name":"AudaCD","steam_id":76561198202775853,"connected_time":1492000000000,"state":"active","ping":46},{"user_id":723,"name":"GorrodePiza","steam_id":76561198883869359,"connected_time":591000000000,"state":"active","ping":134},{"user_id":729,"name":"CHIPS","steam_id":76561199085414584,"connected_time":27000000000,"state":"spawning","ping":67}]},{"server_id":106,"name":"Uncletopia | Chicago | 2 | All Maps","name_short":"chi-2","host":"chi-1.us.uncletopia.com","port":27025,"enabled":true,"region":"us-central","cc":"us","latitude":41.881832,"longitude":-87.62318,"reserved":0,"last_update":"0001-01-01T00:00:00Z","name_a2s":"Uncletopia | Chicago | 2 | All Maps","protocol":17,"map":"pl_badwater","folder":"tf","game":"Team Fortress","app_id":440,"player_count":24,"max_players":24,"Bots":0,"server_type":"Dedicated","server_os":"Linux","password":true,"vac":true,"version":"7882260","steam_id":85568392924469985,"keywords":["nocrits","nodmgspread","payload","uncletopia"],"game_id":440,"stv_port":27026,"stv_name":"Uncletopia | Chicago | 2 | All Maps | STV","players":[{"user_id":859,"name":"MilkMuncher","steam_id":76561198103055485,"connected_time":2178000000000,"state":"active","ping":50},{"user_id":888,"name":"ncl.dxn","steam_id":76561199278919252,"connected_time":316000000000,"state":"active","ping":80},{"user_id":883,"name":"OddSlaush","steam_id":76561198043898488,"connected_time":484000000000,"state":"active","ping":90},{"user_id":886,"name":"Pongallow","steam_id":76561198146876078,"connected_time":334000000000,"state":"active","ping":45},{"user_id":893,"name":"sunglasses","steam_id":76561198173747227,"connected_time":150000000000,"state":"active","ping":56},{"user_id":867,"name":"NataKilar","steam_id":76561198041274441,"connected_time":1967000000000,"state":"active","ping":62},{"user_id":881,"name":"hashmap","steam_id":76561198043794014,"connected_time":1175000000000,"state":"active","ping":62},{"user_id":862,"name":"Spinch","steam_id":76561198296224166,"connected_time":2116000000000,"state":"active","ping":89},{"user_id":861,"name":"PMT_Red","steam_id":76561198958863929,"connected_time":2145000000000,"state":"active","ping":90},{"user_id":887,"name":"Ojen","steam_id":76561197998414482,"connected_time":332000000000,"state":"active","ping":79},{"user_id":877,"name":"Doc_Eevee","steam_id":76561199289204820,"connected_time":1394000000000,"state":"active","ping":89},{"user_id":889,"name":"salsaa","steam_id":76561198149627108,"connected_time":277000000000,"state":"active","ping":71},{"user_id":811,"name":"Bloop","steam_id":76561198253563271,"connected_time":6321000000000,"state":"active","ping":48},{"user_id":895,"name":"Metbol","steam_id":76561198001362410,"connected_time":25000000000,"state":"active","ping":82},{"user_id":890,"name":"Angela's little bitch :)","steam_id":76561198051498778,"connected_time":270000000000,"state":"active","ping":88},{"user_id":876,"name":"White Boy Freestyle #337","steam_id":76561198880396651,"connected_time":1441000000000,"state":"active","ping":80},{"user_id":882,"name":"Mr.Frundles","steam_id":76561198134559026,"connected_time":667000000000,"state":"active","ping":73},{"user_id":847,"name":"MapleSyrup","steam_id":76561199222442855,"connected_time":4278000000000,"state":"active","ping":102},{"user_id":894,"name":"ya boy chunk","steam_id":76561198088096691,"connected_time":124000000000,"state":"active","ping":63},{"user_id":870,"name":"MasterGeek.MX","steam_id":76561198063355220,"connected_time":1931000000000,"state":"active","ping":134},{"user_id":872,"name":"Neophyte","steam_id":76561198027183394,"connected_time":1798000000000,"state":"active","ping":89},{"user_id":880,"name":"Would suck dic for $500,000","steam_id":76561198144801416,"connected_time":1209000000000,"state":"active","ping":56},{"user_id":871,"name":"Cursed Dog","steam_id":76561198090785078,"connected_time":1926000000000,"state":"active","ping":99},{"user_id":892,"name":"MonkeyNobody","steam_id":76561199451266605,"connected_time":228000000000,"state":"active","ping":116}]},{"server_id":402,"name":"Uncletopia | Chicago | 3 | All Maps","name_short":"chi-3","host":"chi-1.us.uncletopia.com","port":27035,"enabled":true,"region":"us-central","cc":"us","latitude":41.881832,"longitude":-87.62318,"reserved":0,"last_update":"0001-01-01T00:00:00Z","name_a2s":"Uncletopia | Chicago | 3 | All Maps","protocol":17,"map":"pl_barnblitz","folder":"tf","game":"Team Fortress","app_id":440,"player_count":24,"max_players":24,"Bots":0,"server_type":"Dedicated","server_os":"Linux","password":true,"vac":true,"version":"7882260","steam_id":85568392924515191,"keywords":["nocrits","nodmgspread","payload","uncletopia"],"game_id":440,"stv_port":27036,"stv_name":"Uncletopia | Chicago | 3 | All Maps | STV","players":[{"user_id":692,"name":"2L84U","steam_id":76561198079176017,"connected_time":1753000000000,"state":"active","ping":83},{"user_id":691,"name":"night.light","steam_id":76561198014557455,"connected_time":1853000000000,"state":"active","ping":69},{"user_id":637,"name":"morsetime","steam_id":76561199116362348,"connected_time":6709000000000,"state":"active","ping":114},{"user_id":636,"name":"Shampiss","steam_id":76561198169462731,"connected_time":6748000000000,"state":"active","ping":115},{"user_id":693,"name":"twin","steam_id":76561198055626638,"connected_time":1727000000000,"state":"active","ping":93},{"user_id":630,"name":"DinK","steam_id":76561198284445667,"connected_time":6797000000000,"state":"active","ping":71},{"user_id":694,"name":"hatsune miku","steam_id":76561199445009981,"connected_time":1711000000000,"state":"active","ping":99},{"user_id":708,"name":"Distou","steam_id":76561198397886545,"connected_time":720000000000,"state":"active","ping":101},{"user_id":674,"name":"Smobis","steam_id":76561198091637387,"connected_time":2989000000000,"state":"active","ping":79},{"user_id":695,"name":"chilis baby back ribs","steam_id":76561198813516435,"connected_time":1640000000000,"state":"active","ping":102},{"user_id":703,"name":"Totally","steam_id":76561198126511227,"connected_time":1361000000000,"state":"active","ping":55},{"user_id":661,"name":"GRIM GAMING","steam_id":76561198107491637,"connected_time":4617000000000,"state":"active","ping":55},{"user_id":619,"name":"Nigel","steam_id":76561198115574712,"connected_time":8286000000000,"state":"active","ping":49},{"user_id":659,"name":"Robotigan","steam_id":76561198039652254,"connected_time":4680000000000,"state":"active","ping":59},{"user_id":707,"name":"veryscaryreaper","steam_id":76561198380018244,"connected_time":735000000000,"state":"active","ping":73},{"user_id":709,"name":"warband","steam_id":76561198093229614,"connected_time":718000000000,"state":"active","ping":63},{"user_id":697,"name":"‚õßelly bell‚õß","steam_id":76561198117032513,"connected_time":1575000000000,"state":"active","ping":77},{"user_id":698,"name":"alan","steam_id":76561198281442409,"connected_time":1538000000000,"state":"active","ping":52},{"user_id":699,"name":"girlpeen supreme","steam_id":76561198031242903,"connected_time":1463000000000,"state":"active","ping":62},{"user_id":633,"name":"Thaddor","steam_id":76561198164564461,"connected_time":6783000000000,"state":"active","ping":88},{"user_id":710,"name":"Olly","steam_id":76561198054273611,"connected_time":711000000000,"state":"active","ping":65},{"user_id":706,"name":"Hezxp","steam_id":76561198312931111,"connected_time":886000000000,"state":"active","ping":75},{"user_id":711,"name":"twitch.tv/wokkyyy","steam_id":76561198265200834,"connected_time":708000000000,"state":"active","ping":82},{"user_id":704,"name":"k3nny11","steam_id":76561198182533757,"connected_time":1323000000000,"state":"active","ping":66}]},{"server_id":403,"name":"Uncletopia | Chicago | 4 | All Maps","name_short":"chi-4","host":"chi-1.us.uncletopia.com","port":27045,"enabled":true,"region":"us-central","cc":"us","latitude":41.881832,"longitude":-87.62318,"reserved":0,"last_update":"0001-01-01T00:00:00Z","name_a2s":"Uncletopia | Chicago | 4 | All Maps","protocol":17,"map":"cp_dustbowl","folder":"tf","game":"Team Fortress","app_id":440,"player_count":24,"max_players":24,"Bots":0,"server_type":"Dedicated","server_os":"Linux","password":true,"vac":true,"version":"7882260","steam_id":85568392924515193,"keywords":["cp","nocrits","nodmgspread","uncletopia"],"game_id":440,"stv_port":27046,"stv_name":"Uncletopia | Chicago | 4 | All Maps | STV","players":[{"user_id":417,"name":"Battery Acid Addict","steam_id":76561198439793697,"connected_time":145000000000,"state":"active","ping":74},{"user_id":396,"name":"Person","steam_id":76561198073885832,"connected_time":2309000000000,"state":"active","ping":121},{"user_id":407,"name":"The Foolish Samurai","steam_id":76561198094494945,"connected_time":1394000000000,"state":"active","ping":105},{"user_id":408,"name":"Genius Meme","steam_id":76561198162911254,"connected_time":1391000000000,"state":"active","ping":108},{"user_id":360,"name":"SpotterX4","steam_id":76561198172931478,"connected_time":4549000000000,"state":"active","ping":82},{"user_id":412,"name":"Spaceman","steam_id":76561198349305249,"connected_time":1115000000000,"state":"active","ping":105},{"user_id":400,"name":"FloofyChi","steam_id":76561197988314226,"connected_time":1657000000000,"state":"active","ping":84},{"user_id":401,"name":"Gorhbus","steam_id":76561198218956109,"connected_time":1647000000000,"state":"active","ping":88},{"user_id":418,"name":"Alpha Goose","steam_id":76561198038927852,"connected_time":109000000000,"state":"active","ping":72},{"user_id":413,"name":"Melhoude","steam_id":76561198272694642,"connected_time":1112000000000,"state":"active","ping":67},{"user_id":403,"name":"Booxy","steam_id":76561197999872470,"connected_time":1611000000000,"state":"active","ping":90},{"user_id":379,"name":"WatchWill","steam_id":76561198157237945,"connected_time":3648000000000,"state":"active","ping":70},{"user_id":404,"name":"ItsTanleyCrunch","steam_id":76561198037915942,"connected_time":1539000000000,"state":"active","ping":76},{"user_id":406,"name":"Hihi3000","steam_id":76561198873454667,"connected_time":1485000000000,"state":"active","ping":81},{"user_id":386,"name":"Marshmallow Supreme","steam_id":76561198057291909,"connected_time":2978000000000,"state":"active","ping":58},{"user_id":373,"name":"Zeek","steam_id":76561197987204351,"connected_time":4233000000000,"state":"active","ping":59},{"user_id":419,"name":"Fumpo","steam_id":76561198206873365,"connected_time":49000000000,"state":"active","ping":70},{"user_id":420,"name":"basmati jarate","steam_id":76561198319442494,"connected_time":38000000000,"state":"active","ping":102},{"user_id":351,"name":"Pen_name4256","steam_id":76561198844824169,"connected_time":6603000000000,"state":"active","ping":94},{"user_id":409,"name":"gyozaking","steam_id":76561197972312696,"connected_time":1381000000000,"state":"active","ping":45},{"user_id":414,"name":"Poyo Boyo","steam_id":76561198010201227,"connected_time":1048000000000,"state":"active","ping":76},{"user_id":411,"name":"Grand Piano Tuna","steam_id":76561198135137213,"connected_time":1348000000000,"state":"active","ping":45},{"user_id":369,"name":"Horrizan","steam_id":76561197965028480,"connected_time":4339000000000,"state":"active","ping":76},{"user_id":385,"name":"corntent","steam_id":76561198824847948,"connected_time":3196000000000,"state":"active","ping":59}]},{"server_id":36,"name":"Uncletopia | Chicago | 5 | All Maps","name_short":"chi-5","host":"chi-2.us.uncletopia.com","port":27015,"enabled":true,"region":"us-central","cc":"us","latitude":41.881832,"longitude":-87.62318,"reserved":0,"last_update":"0001-01-01T00:00:00Z","name_a2s":"Uncletopia | Chicago | 5 | All Maps","protocol":17,"map":"cp_sunshine","folder":"tf","game":"Team Fortress","app_id":440,"player_count":24,"max_players":24,"Bots":0,"server_type":"Dedicated","server_os":"Linux","password":true,"vac":true,"version":"7882260","steam_id":85568392924866362,"keywords":["cp","nocrits","nodmgspread","uncletopia"],"game_id":440,"stv_port":27016,"stv_name":"Uncletopia | Chicago | 5 | All Maps | STV","players":[{"user_id":391,"name":"zombiehunter888","steam_id":76561199418746878,"connected_time":1367000000000,"state":"active","ping":62},{"user_id":413,"name":"cilo","steam_id":76561198046163502,"connected_time":174000000000,"state":"active","ping":62},{"user_id":414,"name":"bladees saddest, realest verse","steam_id":76561198098099826,"connected_time":149000000000,"state":"active","ping":108},{"user_id":412,"name":"Goober","steam_id":76561198988863807,"connected_time":248000000000,"state":"active","ping":75},{"user_id":396,"name":"JelloMotion","steam_id":76561198045892038,"connected_time":1257000000000,"state":"active","ping":61},{"user_id":328,"name":"TheGuysMan","steam_id":76561198163677812,"connected_time":5534000000000,"state":"active","ping":80},{"user_id":417,"name":"Egg","steam_id":76561198070408464,"connected_time":30000000000,"state":"active","ping":95},{"user_id":367,"name":"LTG","steam_id":76561198186856187,"connected_time":3109000000000,"state":"active","ping":100},{"user_id":394,"name":"Glazed","steam_id":76561198043020404,"connected_time":1313000000000,"state":"active","ping":90},{"user_id":415,"name":"Callaway","steam_id":76561198398121644,"connected_time":76000000000,"state":"active","ping":64},{"user_id":370,"name":"Apricot","steam_id":76561198355699935,"connected_time":3054000000000,"state":"active","ping":72},{"user_id":416,"name":"trashbro","steam_id":76561199417993197,"connected_time":51000000000,"state":"active","ping":102},{"user_id":398,"name":"Whiteboy Money","steam_id":76561197997233176,"connected_time":1185000000000,"state":"active","ping":83},{"user_id":386,"name":"„Éê„Çø„Éº","steam_id":76561198307596120,"connected_time":2031000000000,"state":"active","ping":73},{"user_id":332,"name":"ChaingunnerFails","steam_id":76561198963075967,"connected_time":5514000000000,"state":"active","ping":104},{"user_id":399,"name":"XCellent","steam_id":76561198805514323,"connected_time":1158000000000,"state":"active","ping":89},{"user_id":400,"name":"genuine reaction","steam_id":76561199007703661,"connected_time":1149000000000,"state":"active","ping":76},{"user_id":409,"name":"DonoC","steam_id":76561198274473338,"connected_time":757000000000,"state":"active","ping":87},{"user_id":402,"name":"MaDeuce","steam_id":76561198110732835,"connected_time":1087000000000,"state":"active","ping":133},{"user_id":407,"name":"luh shmunky","steam_id":76561198853506210,"connected_time":1030000000000,"state":"active","ping":107},{"user_id":404,"name":"pigswill","steam_id":76561197999081865,"connected_time":1068000000000,"state":"active","ping":88},{"user_id":418,"name":"Spicy Chicken","steam_id":76561198074209737,"connected_time":25000000000,"state":"active","ping":61},{"user_id":320,"name":"DonJam√≥n","steam_id":76561198319090131,"connected_time":6168000000000,"state":"active","ping":74},{"user_id":406,"name":"Slashes","steam_id":76561197968573499,"connected_time":1043000000000,"state":"active","ping":59}]},{"server_id":37,"name":"Uncletopia | Chicago | 6 | All Maps","name_short":"chi-6","host":"chi-2.us.uncletopia.com","port":27025,"enabled":true,"region":"us-central","cc":"us","latitude":41.881832,"longitude":-87.62318,"reserved":0,"last_update":"0001-01-01T00:00:00Z","name_a2s":"Uncletopia | Chicago | 6 | All Maps","protocol":17,"map":"cp_snakewater_final1","folder":"tf","game":"Team Fortress","app_id":440,"player_count":8,"max_players":24,"Bots":0,"server_type":"Dedicated","server_os":"Linux","password":true,"vac":true,"version":"7882260","steam_id":85568392924866363,"keywords":["cp","nocrits","nodmgspread","uncletopia"],"game_id":440,"stv_port":27026,"stv_name":"Uncletopia | Chicago | 6 | All Maps | STV","players":[{"user_id":438,"name":"JiffyJelly","steam_id":76561198407800887,"connected_time":22000000000,"state":"active","ping":73},{"user_id":414,"name":"DroidFreak36","steam_id":76561198028681032,"connected_time":2343000000000,"state":"active","ping":54},{"user_id":377,"name":"CheeseLikeSubstance","steam_id":76561197977170646,"connected_time":4462000000000,"state":"active","ping":50},{"user_id":387,"name":"Trash Rummager","steam_id":76561198085388962,"connected_time":3687000000000,"state":"active","ping":36},{"user_id":431,"name":"threethree","steam_id":76561198177354155,"connected_time":817000000000,"state":"active","ping":61},{"user_id":433,"name":"Brother Pudge","steam_id":76561198247815090,"connected_time":602000000000,"state":"active","ping":51},{"user_id":415,"name":"Superman123389","steam_id":76561198267472539,"connected_time":2274000000000,"state":"active","ping":115},{"user_id":437,"name":"SetMeOnFire","steam_id":76561198286285026,"connected_time":319000000000,"state":"active","ping":107}]},{"server_id":38,"name":"Uncletopia | Chicago | 7 | Stopwatch Beta","name_short":"chi-7","host":"chi-2.us.uncletopia.com","port":27035,"enabled":true,"region":"us-central","cc":"us","latitude":41.881832,"longitude":-87.62318,"reserved":0,"last_update":"0001-01-01T00:00:00Z","name_a2s":"Uncletopia | Chicago | 7 | Stopwatch Beta","protocol":17,"map":"workshop/cp_process_f12.ugc2302948105","folder":"tf","game":"Team Fortress","app_id":440,"player_count":4,"max_players":24,"Bots":0,"server_type":"Dedicated","server_os":"Linux","password":true,"vac":true,"version":"7882260","steam_id":85568392924866364,"keywords":["cp","nocrits","nodmgspread","uncletopia"],"game_id":440,"stv_port":27036,"stv_name":"Uncletopia | Chicago | 7 | Stopwatch Beta | STV","players":[{"user_id":290,"name":"beerinabox","steam_id":76561198070614450,"connected_time":750000000000,"state":"active","ping":71},{"user_id":283,"name":"themadlad67","steam_id":76561199309554436,"connected_time":1830000000000,"state":"active","ping":105},{"user_id":285,"name":"Elodas","steam_id":76561198133443477,"connected_time":1747000000000,"state":"active","ping":103},{"user_id":286,"name":"mispelotas","steam_id":76561198982440356,"connected_time":1701000000000,"state":"active","ping":102}]},{"server_id":39,"name":"Uncletopia | Chicago | 8 | Community","name_short":"chi-8","host":"chi-2.us.uncletopia.com","port":27045,"enabled":true,"region":"us-central","cc":"us","latitude":41.881832,"longitude":-87.62318,"reserved":0,"last_update":"0001-01-01T00:00:00Z","name_a2s":"Uncletopia | Chicago | 8 | Community","protocol":17,"map":"workshop/pl_badwater_pro_v12.ugc2142942074","folder":"tf","game":"Team Fortress","app_id":440,"player_count":21,"max_players":24,"Bots":0,"server_type":"Dedicated","server_os":"Linux","password":true,"vac":true,"version":"7882260","steam_id":85568392924866365,"keywords":["nocrits","nodmgspread","payload","uncletopia"],"game_id":440,"stv_port":27046,"stv_name":"Uncletopia | Chicago | 8 | Community | STV","players":[{"user_id":226,"name":"your mom calls me princess too","steam_id":76561198020400899,"connected_time":5586000000000,"state":"active","ping":62},{"user_id":298,"name":"Mighty","steam_id":76561198096569755,"connected_time":405000000000,"state":"active","ping":92},{"user_id":300,"name":"mcjuice","steam_id":76561198087730829,"connected_time":106000000000,"state":"active","ping":65},{"user_id":299,"name":"Puke Skyfucker","steam_id":76561198012846213,"connected_time":354000000000,"state":"active","ping":71},{"user_id":217,"name":"Ozzyrockin","steam_id":76561198094899868,"connected_time":6049000000000,"state":"active","ping":60},{"user_id":280,"name":"yo dude wtf thats crazy wow","steam_id":76561198077324655,"connected_time":2349000000000,"state":"active","ping":52},{"user_id":258,"name":"[SOTR]DEV1ATE","steam_id":76561198004960097,"connected_time":3391000000000,"state":"active","ping":63},{"user_id":301,"name":"BasedBoozer","steam_id":76561198086382694,"connected_time":90000000000,"state":"active","ping":96},{"user_id":253,"name":"SPYChicken427","steam_id":76561198072308602,"connected_time":3674000000000,"state":"active","ping":59},{"user_id":290,"name":"Scorpianswag","steam_id":76561198260651036,"connected_time":1169000000000,"state":"active","ping":90},{"user_id":283,"name":"kbsfnk","steam_id":76561198036884600,"connected_time":1998000000000,"state":"active","ping":65},{"user_id":287,"name":"vanta","steam_id":76561198084317504,"connected_time":1560000000000,"state":"active","ping":47},{"user_id":288,"name":"chuunyu","steam_id":76561198055623250,"connected_time":1421000000000,"state":"active","ping":100},{"user_id":302,"name":"bruh","steam_id":76561198062763756,"connected_time":0,"state":"spawning","ping":0},{"user_id":227,"name":"Poopie Babie","steam_id":76561198047500494,"connected_time":5578000000000,"state":"active","ping":64},{"user_id":291,"name":"Burny Sanders","steam_id":76561197961879048,"connected_time":1117000000000,"state":"active","ping":60},{"user_id":255,"name":"I GOT LAID AT SHEN YUN 2023","steam_id":76561198844003641,"connected_time":3671000000000,"state":"active","ping":126},{"user_id":293,"name":"cheese toes","steam_id":76561198000564263,"connected_time":685000000000,"state":"active","ping":84},{"user_id":281,"name":"corncakecoolcat","steam_id":76561198090716968,"connected_time":2263000000000,"state":"active","ping":68},{"user_id":277,"name":"lanoc","steam_id":76561198055415367,"connected_time":2478000000000,"state":"active","ping":74},{"user_id":278,"name":"java","steam_id":76561198030276792,"connected_time":2477000000000,"state":"active","ping":59}]},{"server_id":8,"name":"Uncletopia | Dallas | 1 | All Maps","name_short":"dal-1","host":"dal-1.us.uncletopia.com","port":27015,"enabled":true,"region":"us-central","cc":"us","latitude":32.779167,"longitude":-96.80889,"reserved":0,"last_update":"0001-01-01T00:00:00Z","name_a2s":"Uncletopia | Dallas | 1 | All Maps","protocol":17,"map":"koth_lakeside_final","folder":"tf","game":"Team Fortress","app_id":440,"player_count":24,"max_players":24,"Bots":0,"server_type":"Dedicated","server_os":"Linux","password":true,"vac":true,"version":"7882260","steam_id":85568392924469986,"keywords":["cp","nocrits","nodmgspread","uncletopia"],"game_id":440,"stv_port":27016,"stv_name":"Uncletopia | Dallas | 1 | All Maps | STV","players":[{"user_id":624,"name":"Mythical Lag","steam_id":76561198347031281,"connected_time":8207000000000,"state":"active","ping":47},{"user_id":733,"name":"Kirbothebrony","steam_id":76561198971911330,"connected_time":71000000000,"state":"active","ping":69},{"user_id":699,"name":"BocchiTheRock From BocchiTheRoc","steam_id":76561198986388085,"connected_time":1970000000000,"state":"active","ping":105},{"user_id":717,"name":"Shook","steam_id":76561198054064995,"connected_time":1280000000000,"state":"active","ping":73},{"user_id":665,"name":"errant","steam_id":76561197961758410,"connected_time":4689000000000,"state":"active","ping":33},{"user_id":718,"name":"EvilPigglet","steam_id":76561197987243470,"connected_time":1186000000000,"state":"active","ping":75},{"user_id":713,"name":"Ferguson","steam_id":76561198121349387,"connected_time":1617000000000,"state":"active","ping":62},{"user_id":698,"name":"mighig","steam_id":76561198046025784,"connected_time":2010000000000,"state":"active","ping":45},{"user_id":706,"name":"PerliousFalcon","steam_id":76561198124801907,"connected_time":1760000000000,"state":"active","ping":106},{"user_id":732,"name":"The Doctor","steam_id":76561199126035758,"connected_time":85000000000,"state":"active","ping":84},{"user_id":727,"name":"Jello","steam_id":76561198890633732,"connected_time":365000000000,"state":"active","ping":70},{"user_id":622,"name":"Bill from L4D","steam_id":76561198821762699,"connected_time":8246000000000,"state":"active","ping":85},{"user_id":728,"name":"craxyt","steam_id":76561198050192689,"connected_time":362000000000,"state":"active","ping":163},{"user_id":716,"name":"ShyGuyLink","steam_id":76561198078487562,"connected_time":1361000000000,"state":"active","ping":56},{"user_id":730,"name":"Pope","steam_id":76561198053768137,"connected_time":124000000000,"state":"active","ping":49},{"user_id":734,"name":"Ferguzt","steam_id":76561198428353797,"connected_time":69000000000,"state":"active","ping":76},{"user_id":720,"name":"Mando","steam_id":76561198139662905,"connected_time":902000000000,"state":"active","ping":67},{"user_id":710,"name":"dave","steam_id":76561199108915133,"connected_time":1689000000000,"state":"active","ping":73},{"user_id":721,"name":"Phosu","steam_id":76561198180162801,"connected_time":757000000000,"state":"active","ping":64},{"user_id":714,"name":"Feel The Pressure","steam_id":76561199105386998,"connected_time":1522000000000,"state":"active","ping":53},{"user_id":735,"name":"makeshift_burrito","steam_id":76561198042510825,"connected_time":63000000000,"state":"active","ping":94},{"user_id":736,"name":"the charges, officer?","steam_id":76561197965022076,"connected_time":14000000000,"state":"active","ping":80},{"user_id":680,"name":"tin can","steam_id":76561199094103473,"connected_time":3935000000000,"state":"active","ping":99},{"user_id":719,"name":"Insizhen","steam_id":76561198051352605,"connected_time":978000000000,"state":"active","ping":55}]},{"server_id":108,"name":"Uncletopia | Dallas | 2 | All Maps","name_short":"dal-2","host":"dal-1.us.uncletopia.com","port":27025,"enabled":true,"region":"us-central","cc":"us","latitude":32.779167,"longitude":-96.80889,"reserved":0,"last_update":"0001-01-01T00:00:00Z","name_a2s":"Uncletopia | Dallas | 2 | All Maps","protocol":17,"map":"pl_badwater","folder":"tf","game":"Team Fortress","app_id":440,"player_count":24,"max_players":24,"Bots":0,"server_type":"Dedicated","server_os":"Linux","password":true,"vac":true,"version":"7882260","steam_id":85568392924469988,"keywords":["nocrits","nodmgspread","payload","uncletopia"],"game_id":440,"stv_port":27026,"stv_name":"Uncletopia | Dallas | 2 | All Maps | STV","players":[{"user_id":761,"name":"xZackAttack27x","steam_id":76561198035446639,"connected_time":694000000000,"state":"active","ping":29},{"user_id":765,"name":"Biolegend","steam_id":76561198269384617,"connected_time":503000000000,"state":"active","ping":83},{"user_id":741,"name":"local shower shitter","steam_id":76561198140627349,"connected_time":2467000000000,"state":"active","ping":98},{"user_id":766,"name":"Autumnvoir","steam_id":76561198821328722,"connected_time":451000000000,"state":"active","ping":56},{"user_id":767,"name":"SliceO'Fish","steam_id":76561198290695237,"connected_time":450000000000,"state":"active","ping":76},{"user_id":753,"name":"Cool Cat","steam_id":76561198883590919,"connected_time":2044000000000,"state":"active","ping":58},{"user_id":745,"name":"ChottoAMinute","steam_id":76561198873157775,"connected_time":2266000000000,"state":"active","ping":41},{"user_id":749,"name":"cesartele3000","steam_id":76561198142149479,"connected_time":2154000000000,"state":"active","ping":95},{"user_id":768,"name":"Call Me Ishmael","steam_id":76561198030696516,"connected_time":423000000000,"state":"active","ping":104},{"user_id":756,"name":"Kelpy G","steam_id":76561198105330587,"connected_time":1841000000000,"state":"active","ping":58},{"user_id":718,"name":"2 for $3.50 McChickens","steam_id":76561198089908660,"connected_time":3744000000000,"state":"active","ping":71},{"user_id":757,"name":"Fart.","steam_id":76561198066403448,"connected_time":1327000000000,"state":"active","ping":75},{"user_id":759,"name":"dweaver","steam_id":76561198119610135,"connected_time":1212000000000,"state":"active","ping":68},{"user_id":764,"name":"Taco","steam_id":76561198158621392,"connected_time":511000000000,"state":"active","ping":90},{"user_id":769,"name":"(Œª) Kmart Howitzer","steam_id":76561197982142933,"connected_time":417000000000,"state":"active","ping":85},{"user_id":758,"name":"PlugFromBehind","steam_id":76561198143283800,"connected_time":1292000000000,"state":"active","ping":57},{"user_id":735,"name":"GatorAIDS","steam_id":76561198043220092,"connected_time":2668000000000,"state":"active","ping":54},{"user_id":770,"name":"STAR!","steam_id":76561198271612664,"connected_time":401000000000,"state":"active","ping":72},{"user_id":752,"name":"Not A Rapper","steam_id":76561198077523537,"connected_time":2073000000000,"state":"active","ping":102},{"user_id":737,"name":"wm1","steam_id":76561198265522923,"connected_time":2591000000000,"state":"active","ping":46},{"user_id":738,"name":"wlfgng","steam_id":76561198316639499,"connected_time":2557000000000,"state":"active","ping":77},{"user_id":771,"name":"(Œ©) Matthias Manholecover","steam_id":76561198072049378,"connected_time":365000000000,"state":"active","ping":82},{"user_id":772,"name":"Drapph","steam_id":76561199384213314,"connected_time":357000000000,"state":"active","ping":91},{"user_id":744,"name":"smino","steam_id":76561198937717599,"connected_time":2290000000000,"state":"active","ping":46}]},{"server_id":5,"name":"Uncletopia | Frankfurt | 1 | All Maps","name_short":"frk-1","host":"frk-1.de.uncletopia.com","port":27015,"enabled":true,"region":"eu","cc":"de","latitude":50.110924,"longitude":8.682127,"reserved":0,"last_update":"0001-01-01T00:00:00Z","name_a2s":"Uncletopia | Frankfurt | 1 | All Maps","protocol":17,"map":"cp_process_final","folder":"tf","game":"Team Fortress","app_id":440,"player_count":0,"max_players":24,"Bots":0,"server_type":"Dedicated","server_os":"Linux","password":true,"vac":true,"version":"7882260","steam_id":85568392924469989,"keywords":["cp","nocrits","nodmgspread","uncletopia"],"game_id":440,"stv_port":27016,"stv_name":"Uncletopia | Frankfurt | 1 | All Maps | STV","players":null},{"server_id":110,"name":"Uncletopia | Frankfurt | 2 | All Maps","name_short":"frk-2","host":"frk-1.de.uncletopia.com","port":27025,"enabled":true,"region":"eu","cc":"de","latitude":50.110924,"longitude":8.682127,"reserved":0,"last_update":"0001-01-01T00:00:00Z","name_a2s":"Uncletopia | Frankfurt | 2 | All Maps","protocol":17,"map":"pl_swiftwater_final1","folder":"tf","game":"Team Fortress","app_id":440,"player_count":0,"max_players":24,"Bots":0,"server_type":"Dedicated","server_os":"Linux","password":true,"vac":true,"version":"7882260","steam_id":85568392924469990,"keywords":["nocrits","nodmgspread","payload","uncletopia"],"game_id":440,"stv_port":27026,"stv_name":"Uncletopia | Frankfurt | 2 | All Maps | STV","players":null},{"server_id":308,"name":"Uncletopia | Frankfurt | 3 | All Maps","name_short":"frk-3","host":"frk-1.de.uncletopia.com","port":27035,"enabled":true,"region":"eu","cc":"de","latitude":50.110924,"longitude":8.682127,"reserved":0,"last_update":"0001-01-01T00:00:00Z","name_a2s":"Uncletopia | Frankfurt | 3 | All Maps","protocol":17,"map":"pl_snowycoast","folder":"tf","game":"Team Fortress","app_id":440,"player_count":0,"max_players":24,"Bots":0,"server_type":"Dedicated","server_os":"Linux","password":true,"vac":true,"version":"7882260","steam_id":85568392924504274,"keywords":["nocrits","nodmgspread","payload","uncletopia"],"game_id":440,"stv_port":27036,"stv_name":"Uncletopia | Frankfurt | 3 | All Maps | STV","players":null},{"server_id":309,"name":"Uncletopia | Frankfurt | 4 | All Maps","name_short":"frk-4","host":"frk-1.de.uncletopia.com","port":27045,"enabled":true,"region":"eu","cc":"de","latitude":50.110924,"longitude":8.682127,"reserved":0,"last_update":"0001-01-01T00:00:00Z","name_a2s":"Uncletopia | Frankfurt | 4 | All Maps","protocol":17,"map":"pl_badwater","folder":"tf","game":"Team Fortress","app_id":440,"player_count":1,"max_players":24,"Bots":0,"server_type":"Dedicated","server_os":"Linux","password":true,"vac":true,"version":"7882260","steam_id":85568392924504275,"keywords":["nocrits","nodmgspread","payload","uncletopia"],"game_id":440,"stv_port":27046,"stv_name":"Uncletopia | Frankfurt | 4 | All Maps | STV","players":[{"user_id":3,"name":"Banana Hoovy 2 9 0","steam_id":76561199167881489,"connected_time":32000000000,"state":"active","ping":95}]},{"server_id":310,"name":"Uncletopia | Frankfurt | 5 | All Maps","name_short":"frk-5","host":"frk-1.de.uncletopia.com","port":27055,"enabled":true,"region":"eu","cc":"de","latitude":50.110924,"longitude":8.682127,"reserved":0,"last_update":"0001-01-01T00:00:00Z","name_a2s":"Uncletopia | Frankfurt | 5 | All Maps","protocol":17,"map":"cp_mountainlab","folder":"tf","game":"Team Fortress","app_id":440,"player_count":0,"max_players":24,"Bots":0,"server_type":"Dedicated","server_os":"Linux","password":true,"vac":true,"version":"7882260","steam_id":85568392924504277,"keywords":["cp","nocrits","nodmgspread","uncletopia"],"game_id":440,"stv_port":27056,"stv_name":"Uncletopia | Frankfurt | 5 | All Maps | STV","players":null},{"server_id":311,"name":"Uncletopia | Frankfurt | 6 | All Maps","name_short":"frk-6","host":"frk-1.de.uncletopia.com","port":27065,"enabled":true,"region":"eu","cc":"de","latitude":50.110924,"longitude":8.682127,"reserved":0,"last_update":"0001-01-01T00:00:00Z","name_a2s":"Uncletopia | Frankfurt | 6 | All Maps","protocol":17,"map":"pl_badwater","folder":"tf","game":"Team Fortress","app_id":440,"player_count":0,"max_players":24,"Bots":0,"server_type":"Dedicated","server_os":"Linux","password":true,"vac":true,"version":"7882260","steam_id":85568392924504278,"keywords":["nocrits","nodmgspread","payload","uncletopia"],"game_id":440,"stv_port":27066,"stv_name":"Uncletopia | Frankfurt | 6 | All Maps | STV","players":null},{"server_id":23,"name":"Uncletopia | Frankfurt | 7 | Stopwatch Beta","name_short":"frk-7","host":"frk-1.de.uncletopia.com","port":27075,"enabled":true,"region":"eu","cc":"de","latitude":50.110924,"longitude":8.682127,"reserved":0,"last_update":"0001-01-01T00:00:00Z","name_a2s":"Uncletopia | Frankfurt | 7 | Stopwatch Beta","protocol":17,"map":"cp_dustbowl","folder":"tf","game":"Team Fortress","app_id":440,"player_count":0,"max_players":24,"Bots":0,"server_type":"Dedicated","server_os":"Linux","password":true,"vac":true,"version":"7882260","steam_id":85568392924742827,"keywords":["cp","nocrits","nodmgspread","uncletopia"],"game_id":440,"stv_port":27076,"stv_name":"Uncletopia | Frankfurt | 7 | Stopwatch Beta | STV","players":null},{"server_id":24,"name":"Uncletopia | Frankfurt | 8 | Community","name_short":"frk-8","host":"frk-1.de.uncletopia.com","port":27085,"enabled":true,"region":"eu","cc":"de","latitude":50.110924,"longitude":8.682127,"reserved":0,"last_update":"0001-01-01T00:00:00Z","name_a2s":"Uncletopia | Frankfurt | 8 | Community","protocol":17,"map":"koth_cascade","folder":"tf","game":"Team Fortress","app_id":440,"player_count":0,"max_players":24,"Bots":0,"server_type":"Dedicated","server_os":"Linux","password":true,"vac":true,"version":"7882260","steam_id":85568392924742828,"keywords":["cp","nocrits","nodmgspread","uncletopia"],"game_id":440,"stv_port":27086,"stv_name":"Uncletopia | Frankfurt | 8 | Community | STV","players":null},{"server_id":202,"name":"Uncletopia | Hong Kong | 1 | All Maps","name_short":"hgk-1","host":"hgk-1.hk.uncletopia.com","port":27015,"enabled":true,"region":"asia","cc":"hk","latitude":22.302711,"longitude":114.177216,"reserved":0,"last_update":"0001-01-01T00:00:00Z","name_a2s":"Uncletopia | Hong Kong | 1 | All Maps","protocol":17,"map":"koth_cascade","folder":"tf","game":"Team Fortress","app_id":440,"player_count":0,"max_players":24,"Bots":0,"server_type":"Dedicated","server_os":"Linux","password":true,"vac":true,"version":"7882260","steam_id":85568392924494504,"keywords":["cp","nocrits","nodmgspread","uncletopia"],"game_id":440,"stv_port":27016,"stv_name":"Uncletopia | Hong Kong | 1 | All Maps | STV","players":null},{"server_id":1,"name":"Uncletopia | Los Angeles | 1 | All Maps","name_short":"lax-1","host":"lax-1.us.uncletopia.com","port":27015,"enabled":true,"region":"us-west","cc":"us","latitude":33.94279,"longitude":-118.41004,"reserved":0,"last_update":"0001-01-01T00:00:00Z","name_a2s":"Uncletopia | Los Angeles | 1 | All Maps","protocol":17,"map":"pl_borneo","folder":"tf","game":"Team Fortress","app_id":440,"player_count":21,"max_players":24,"Bots":0,"server_type":"Dedicated","server_os":"Linux","password":true,"vac":true,"version":"7882260","steam_id":85568392924469991,"keywords":["nocrits","nodmgspread","payload","uncletopia"],"game_id":440,"stv_port":27016,"stv_name":"Uncletopia | Los Angeles | 1 | All Maps | STV","players":[{"user_id":822,"name":"Timewaves","steam_id":76561198000186054,"connected_time":364000000000,"state":"active","ping":52},{"user_id":830,"name":"Jam Jams","steam_id":76561198128811267,"connected_time":88000000000,"state":"active","ping":93},{"user_id":787,"name":"TheRealChizz","steam_id":76561198016055769,"connected_time":2000000000000,"state":"active","ping":68},{"user_id":811,"name":"PocketTieAMPLFY","steam_id":76561199080485881,"connected_time":589000000000,"state":"active","ping":159},{"user_id":812,"name":"Good Vibes","steam_id":76561197985206513,"connected_time":580000000000,"state":"active","ping":125},{"user_id":775,"name":"Apprentice Pybro","steam_id":76561197996353534,"connected_time":3178000000000,"state":"active","ping":45},{"user_id":819,"name":"bballbhuddababyboy","steam_id":76561198079516052,"connected_time":433000000000,"state":"active","ping":41},{"user_id":813,"name":"Samercam","steam_id":76561198189403190,"connected_time":559000000000,"state":"active","ping":104},{"user_id":814,"name":"Eggregis-Thumbs","steam_id":76561198310566277,"connected_time":554000000000,"state":"active","ping":114},{"user_id":777,"name":"HunterTW","steam_id":76561198124141856,"connected_time":3170000000000,"state":"active","ping":61},{"user_id":817,"name":"Serene Salamander","steam_id":76561198001094770,"connected_time":492000000000,"state":"active","ping":56},{"user_id":818,"name":"huiei","steam_id":76561198073763735,"connected_time":477000000000,"state":"active","ping":63},{"user_id":808,"name":"Lumen","steam_id":76561198072783266,"connected_time":800000000000,"state":"active","ping":53},{"user_id":798,"name":"a cat plushie","steam_id":76561198080046542,"connected_time":1742000000000,"state":"active","ping":66},{"user_id":825,"name":"Sarbanes-Oxley","steam_id":76561197975898479,"connected_time":286000000000,"state":"active","ping":99},{"user_id":786,"name":"luigiclub","steam_id":76561198180548194,"connected_time":2227000000000,"state":"active","ping":77},{"user_id":661,"name":"riSygneD","steam_id":76561198331618687,"connected_time":12033000000000,"state":"active","ping":32},{"user_id":806,"name":"Gruf4us","steam_id":76561197994154727,"connected_time":824000000000,"state":"active","ping":69},{"user_id":801,"name":"The Unfriendly Friendly","steam_id":76561199216559937,"connected_time":1308000000000,"state":"active","ping":75},{"user_id":809,"name":"MonkeyMage101","steam_id":76561198354192200,"connected_time":762000000000,"state":"active","ping":66},{"user_id":770,"name":"Power Jake","steam_id":76561198051510260,"connected_time":3856000000000,"state":"active","ping":70}]},{"server_id":112,"name":"Uncletopia | Los Angeles | 2 | All Maps","name_short":"lax-2","host":"lax-1.us.uncletopia.com","port":27025,"enabled":true,"region":"us-west","cc":"us","latitude":33.94279,"longitude":-118.41004,"reserved":0,"last_update":"0001-01-01T00:00:00Z","name_a2s":"Uncletopia | Los Angeles | 2 | All Maps","protocol":17,"map":"pl_badwater","folder":"tf","game":"Team Fortress","app_id":440,"player_count":24,"max_players":24,"Bots":0,"server_type":"Dedicated","server_os":"Linux","password":true,"vac":true,"version":"7882260","steam_id":85568392924469992,"keywords":["nocrits","nodmgspread","payload","uncletopia"],"game_id":440,"stv_port":27026,"stv_name":"Uncletopia | Los Angeles | 2 | All Maps | STV","players":[{"user_id":357,"name":"Grand","steam_id":76561198290143399,"connected_time":6214000000000,"state":"active","ping":75},{"user_id":409,"name":"Rusty","steam_id":76561198055585129,"connected_time":1416000000000,"state":"active","ping":67},{"user_id":421,"name":"JonBoy","steam_id":76561198082052480,"connected_time":71000000000,"state":"active","ping":88},{"user_id":420,"name":"LovingKindn32z","steam_id":76561199064932372,"connected_time":277000000000,"state":"active","ping":45},{"user_id":396,"name":"viciousbeatmaker","steam_id":76561198086876652,"connected_time":2121000000000,"state":"active","ping":63},{"user_id":339,"name":"Overmeme","steam_id":76561199455124144,"connected_time":7769000000000,"state":"active","ping":88},{"user_id":405,"name":"Dare","steam_id":76561198280653662,"connected_time":1666000000000,"state":"active","ping":101},{"user_id":377,"name":"Camaleon","steam_id":76561198041329791,"connected_time":4194000000000,"state":"active","ping":53},{"user_id":411,"name":"Grungus","steam_id":76561198047700230,"connected_time":1063000000000,"state":"active","ping":61},{"user_id":417,"name":"Joe Biden (Deceased)","steam_id":76561198170427507,"connected_time":709000000000,"state":"active","ping":84},{"user_id":386,"name":"SneekiCheekiQbone","steam_id":76561198045077980,"connected_time":3385000000000,"state":"active","ping":43},{"user_id":418,"name":"Ghworg","steam_id":76561198324891401,"connected_time":438000000000,"state":"active","ping":102},{"user_id":355,"name":"Truffles","steam_id":76561198095868800,"connected_time":6356000000000,"state":"active","ping":115},{"user_id":403,"name":"stboncho","steam_id":76561198172275301,"connected_time":1728000000000,"state":"active","ping":67},{"user_id":414,"name":"ronald","steam_id":76561197960691622,"connected_time":914000000000,"state":"active","ping":62},{"user_id":392,"name":"smeasly","steam_id":76561198028718812,"connected_time":2366000000000,"state":"active","ping":75},{"user_id":408,"name":"cheetaz","steam_id":76561198224614084,"connected_time":1464000000000,"state":"active","ping":105},{"user_id":402,"name":"FROYO b4nny","steam_id":76561197970669109,"connected_time":1749000000000,"state":"active","ping":40},{"user_id":390,"name":"John Wick's puppy","steam_id":76561198064662875,"connected_time":3269000000000,"state":"active","ping":60},{"user_id":406,"name":"LogicalFurret","steam_id":76561198350604657,"connected_time":1528000000000,"state":"active","ping":75},{"user_id":422,"name":"Igrium","steam_id":76561198119549811,"connected_time":60000000000,"state":"active","ping":57},{"user_id":366,"name":"Courier711","steam_id":76561198053232343,"connected_time":5419000000000,"state":"active","ping":55},{"user_id":361,"name":"Thunder","steam_id":76561198097721532,"connected_time":5650000000000,"state":"active","ping":47},{"user_id":423,"name":"Probably Still a Furry","steam_id":76561198816076211,"connected_time":21000000000,"state":"active","ping":62}]},{"server_id":324,"name":"Uncletopia | Los Angeles | 3 | All Maps","name_short":"lax-3","host":"lax-1.us.uncletopia.com","port":27035,"enabled":true,"region":"us-west","cc":"us","latitude":33.94279,"longitude":-118.41004,"reserved":0,"last_update":"0001-01-01T00:00:00Z","name_a2s":"Uncletopia | Los Angeles | 3 | All Maps","protocol":17,"map":"cp_dustbowl","folder":"tf","game":"Team Fortress","app_id":440,"player_count":18,"max_players":24,"Bots":0,"server_type":"Dedicated","server_os":"Linux","password":true,"vac":true,"version":"7882260","steam_id":85568392924510198,"keywords":["cp","nocrits","nodmgspread","uncletopia"],"game_id":440,"stv_port":27036,"stv_name":"Uncletopia | Los Angeles | 3 | All Maps | STV","players":[{"user_id":110,"name":"The Dick Drainer","steam_id":76561198887041407,"connected_time":422000000000,"state":"active","ping":98},{"user_id":114,"name":"Herdez Hot Salsa","steam_id":76561197991740906,"connected_time":146000000000,"state":"active","ping":124},{"user_id":106,"name":"fish gaming","steam_id":76561198067029049,"connected_time":1171000000000,"state":"active","ping":53},{"user_id":111,"name":"|404|bh-OD","steam_id":76561198067464803,"connected_time":234000000000,"state":"active","ping":57},{"user_id":58,"name":"RagingRoosevelt","steam_id":76561197985483153,"connected_time":4416000000000,"state":"active","ping":74},{"user_id":112,"name":"Crafty","steam_id":76561199217624073,"connected_time":189000000000,"state":"active","ping":32},{"user_id":59,"name":"kr1tsurf3r","steam_id":76561198076402476,"connected_time":4409000000000,"state":"active","ping":62},{"user_id":89,"name":"Yoinkinator","steam_id":76561198011366624,"connected_time":2094000000000,"state":"active","ping":53},{"user_id":98,"name":"thumb","steam_id":76561198353762582,"connected_time":1394000000000,"state":"active","ping":69},{"user_id":108,"name":"[S]Mr. X [No Monitor]","steam_id":76561197963746035,"connected_time":570000000000,"state":"active","ping":109},{"user_id":107,"name":"sodo","steam_id":76561198858474714,"connected_time":897000000000,"state":"active","ping":80},{"user_id":102,"name":"blindmin","steam_id":76561198062345131,"connected_time":1249000000000,"state":"active","ping":125},{"user_id":61,"name":"Major_Pippy","steam_id":76561198004482878,"connected_time":4392000000000,"state":"active","ping":75},{"user_id":103,"name":"vvitch","steam_id":76561198279661941,"connected_time":1231000000000,"state":"active","ping":43},{"user_id":63,"name":"mrthugpug1732","steam_id":76561198881200768,"connected_time":4359000000000,"state":"active","ping":69},{"user_id":104,"name":"i cant aim","steam_id":76561198065873462,"connected_time":1207000000000,"state":"active","ping":45},{"user_id":92,"name":"Nobody","steam_id":76561199352089107,"connected_time":1810000000000,"state":"active","ping":52},{"user_id":105,"name":"Spare(8)Ball","steam_id":76561197982432995,"connected_time":1205000000000,"state":"active","ping":60}]},{"server_id":25,"name":"Uncletopia | Los Angeles | 4 | Stopwatch Beta","name_short":"lax-4","host":"lax-1.us.uncletopia.com","port":27045,"enabled":true,"region":"us-west","cc":"us","latitude":33.94279,"longitude":-118.41004,"reserved":0,"last_update":"0001-01-01T00:00:00Z","name_a2s":"Uncletopia | Los Angeles | 4 | Stopwatch Beta","protocol":17,"map":"workshop/koth_clearcut_b15.ugc2107050255","folder":"tf","game":"Team Fortress","app_id":440,"player_count":0,"max_players":24,"Bots":0,"server_type":"Dedicated","server_os":"Linux","password":true,"vac":true,"version":"7882260","steam_id":85568392924510199,"keywords":["cp","nocrits","nodmgspread","uncletopia"],"game_id":440,"stv_port":27046,"stv_name":"Uncletopia | Los Angeles | 4 | Stopwatch Beta | STV","players":null},{"server_id":11,"name":"Uncletopia | London | 1 | All Maps","name_short":"lon-1","host":"lon-1.uk.uncletopia.com","port":27015,"enabled":true,"region":"eu","cc":"gb","latitude":51.509865,"longitude":-0.118092,"reserved":0,"last_update":"0001-01-01T00:00:00Z","name_a2s":"Uncletopia | London | 1 | All Maps","protocol":17,"map":"koth_lakeside_final","folder":"tf","game":"Team Fortress","app_id":440,"player_count":0,"max_players":24,"Bots":0,"server_type":"Dedicated","server_os":"Linux","password":true,"vac":true,"version":"7882260","steam_id":85568392924367362,"keywords":["cp","nocrits","nodmgspread","uncletopia"],"game_id":440,"stv_port":27016,"stv_name":"Uncletopia | London | 1 | All Maps | STV","players":null},{"server_id":114,"name":"Uncletopia | London | 2 | All Maps","name_short":"lon-2","host":"lon-1.uk.uncletopia.com","port":27025,"enabled":true,"region":"eu","cc":"gb","latitude":51.509865,"longitude":-0.118092,"reserved":0,"last_update":"0001-01-01T00:00:00Z","name_a2s":"Uncletopia | London | 2 | All Maps","protocol":17,"map":"cp_process_final","folder":"tf","game":"Team Fortress","app_id":440,"player_count":0,"max_players":24,"Bots":0,"server_type":"Dedicated","server_os":"Linux","password":true,"vac":true,"version":"7882260","steam_id":85568392924470941,"keywords":["cp","nocrits","nodmgspread","uncletopia"],"game_id":440,"stv_port":27026,"stv_name":"Uncletopia | London | 2 | All Maps | STV","players":null},{"server_id":320,"name":"Uncletopia | London | 3 | All Maps","name_short":"lon-3","host":"lon-1.uk.uncletopia.com","port":27035,"enabled":true,"region":"eu","cc":"gb","latitude":51.509865,"longitude":-0.118092,"reserved":0,"last_update":"0001-01-01T00:00:00Z","name_a2s":"Uncletopia | London | 3 | All Maps","protocol":17,"map":"pl_upward","folder":"tf","game":"Team Fortress","app_id":440,"player_count":20,"max_players":24,"Bots":0,"server_type":"Dedicated","server_os":"Linux","password":true,"vac":true,"version":"7882260","steam_id":85568392924510192,"keywords":["nocrits","nodmgspread","payload","uncletopia"],"game_id":440,"stv_port":27036,"stv_name":"Uncletopia | London | 3 | All Maps | STV","players":[{"user_id":528,"name":"Neimon","steam_id":76561198343485710,"connected_time":5312000000000,"state":"active","ping":133},{"user_id":568,"name":"Fus in Boots","steam_id":76561198053897722,"connected_time":1854000000000,"state":"active","ping":46},{"user_id":582,"name":"Tam","steam_id":76561199481134450,"connected_time":114000000000,"state":"active","ping":128},{"user_id":583,"name":"Qxillum","steam_id":76561198037201297,"connected_time":101000000000,"state":"active","ping":46},{"user_id":579,"name":"ender45","steam_id":76561198840955715,"connected_time":470000000000,"state":"active","ping":31},{"user_id":571,"name":"Outer","steam_id":76561199121781498,"connected_time":1628000000000,"state":"active","ping":178},{"user_id":576,"name":"PenisEnis","steam_id":76561199157417343,"connected_time":1059000000000,"state":"active","ping":113},{"user_id":556,"name":"Riordan the Armpit Inspector","steam_id":76561198001346236,"connected_time":3576000000000,"state":"active","ping":76},{"user_id":564,"name":"tanyathsus","steam_id":76561198089522447,"connected_time":2236000000000,"state":"active","ping":60},{"user_id":573,"name":"frozenslade","steam_id":76561198979145974,"connected_time":1220000000000,"state":"active","ping":151},{"user_id":574,"name":"Hobo Lord","steam_id":76561198074857364,"connected_time":1183000000000,"state":"active","ping":60},{"user_id":520,"name":"Just_Chilling","steam_id":76561198036712229,"connected_time":6224000000000,"state":"active","ping":60},{"user_id":575,"name":"wide appreciator","steam_id":76561198083286511,"connected_time":1116000000000,"state":"active","ping":32},{"user_id":577,"name":"üÉî Nugg1t(she/they)","steam_id":76561198065652251,"connected_time":785000000000,"state":"active","ping":52},{"user_id":584,"name":"OddBread","steam_id":76561198339301792,"connected_time":89000000000,"state":"active","ping":120},{"user_id":563,"name":"spxcy","steam_id":76561198080296853,"connected_time":2354000000000,"state":"active","ping":95},{"user_id":565,"name":"goofster","steam_id":76561199052275857,"connected_time":2233000000000,"state":"active","ping":119},{"user_id":566,"name":"dorak","steam_id":76561198818037965,"connected_time":2174000000000,"state":"active","ping":103},{"user_id":580,"name":"tqla","steam_id":76561198073092585,"connected_time":390000000000,"state":"active","ping":102},{"user_id":581,"name":"0","steam_id":76561199084809092,"connected_time":250000000000,"state":"active","ping":100}]},{"server_id":321,"name":"Uncletopia | London | 4 | All Maps","name_short":"lon-4","host":"lon-1.uk.uncletopia.com","port":27045,"enabled":true,"region":"eu","cc":"gb","latitude":51.509865,"longitude":-0.118092,"reserved":0,"last_update":"0001-01-01T00:00:00Z","name_a2s":"Uncletopia | London | 4 | All Maps","protocol":17,"map":"pl_snowycoast","folder":"tf","game":"Team Fortress","app_id":440,"player_count":0,"max_players":24,"Bots":0,"server_type":"Dedicated","server_os":"Linux","password":true,"vac":true,"version":"7882260","steam_id":85568392924510193,"keywords":["nocrits","nodmgspread","payload","uncletopia"],"game_id":440,"stv_port":27046,"stv_name":"Uncletopia | London | 4 | All Maps | STV","players":null},{"server_id":21,"name":"Uncletopia | London | 5 | All Maps","name_short":"lon-5","host":"lon-1.uk.uncletopia.com","port":27055,"enabled":true,"region":"eu","cc":"gb","latitude":51.509865,"longitude":-0.118092,"reserved":0,"last_update":"0001-01-01T00:00:00Z","name_a2s":"Uncletopia | London | 5 | All Maps","protocol":17,"map":"koth_viaduct","folder":"tf","game":"Team Fortress","app_id":440,"player_count":0,"max_players":24,"Bots":0,"server_type":"Dedicated","server_os":"Linux","password":true,"vac":true,"version":"7882260","steam_id":85568392924742829,"keywords":["cp","nocrits","nodmgspread","uncletopia"],"game_id":440,"stv_port":27056,"stv_name":"Uncletopia | London | 5 | All Maps | STV","players":null},{"server_id":22,"name":"Uncletopia | London | 6 | All Maps","name_short":"lon-6","host":"lon-1.uk.uncletopia.com","port":27065,"enabled":true,"region":"eu","cc":"gb","latitude":51.509865,"longitude":-0.118092,"reserved":0,"last_update":"0001-01-01T00:00:00Z","name_a2s":"Uncletopia | London | 6 | All Maps","protocol":17,"map":"pl_pier","folder":"tf","game":"Team Fortress","app_id":440,"player_count":0,"max_players":24,"Bots":0,"server_type":"Dedicated","server_os":"Linux","password":true,"vac":true,"version":"7882260","steam_id":85568392924742830,"keywords":["nocrits","nodmgspread","payload","uncletopia"],"game_id":440,"stv_port":27066,"stv_name":"Uncletopia | London | 6 | All Maps | STV","players":null},{"server_id":40,"name":"Uncletopia | London | 7 | No Payload","name_short":"lon-7","host":"lon-1.uk.uncletopia.com","port":27075,"enabled":true,"region":"eu","cc":"gb","latitude":51.509865,"longitude":-0.118092,"reserved":0,"last_update":"0001-01-01T00:00:00Z","name_a2s":"Uncletopia | London | 7 | No Payload","protocol":17,"map":"cp_freight_final1","folder":"tf","game":"Team Fortress","app_id":440,"player_count":0,"max_players":24,"Bots":0,"server_type":"Dedicated","server_os":"Linux","password":true,"vac":true,"version":"7882260","steam_id":85568392924964314,"keywords":["cp","nocrits","nodmgspread","uncletopia"],"game_id":440,"stv_port":27076,"stv_name":"Uncletopia | London | 7 | No Payload | STV","players":null},{"server_id":41,"name":"Uncletopia | London | 8 | Community","name_short":"lon-8","host":"lon-1.uk.uncletopia.com","port":27085,"enabled":true,"region":"eu","cc":"gb","latitude":51.509865,"longitude":-0.118092,"reserved":0,"last_update":"0001-01-01T00:00:00Z","name_a2s":"Uncletopia | London | 8 | Community","protocol":17,"map":"workshop/koth_ramjam_rc1.ugc459778887","folder":"tf","game":"Team Fortress","app_id":440,"player_count":0,"max_players":24,"Bots":0,"server_type":"Dedicated","server_os":"Linux","password":true,"vac":true,"version":"7882260","steam_id":85568392924964315,"keywords":["cp","nocrits","nodmgspread","uncletopia"],"game_id":440,"stv_port":27086,"stv_name":"Uncletopia | London | 8 | Community | STV","players":null},{"server_id":300,"name":"Uncletopia | Montr√©al | 1 | All Maps","name_short":"mtl-1","host":"mtl-1.ca.uncletopia.com","port":27015,"enabled":true,"region":"us-east","cc":"ca","latitude":45.50889,"longitude":-73.56167,"reserved":0,"last_update":"0001-01-01T00:00:00Z","name_a2s":"Uncletopia | Montr√©al | 1 | All Maps","protocol":17,"map":"cp_gorge","folder":"tf","game":"Team Fortress","app_id":440,"player_count":24,"max_players":24,"Bots":0,"server_type":"Dedicated","server_os":"Linux","password":true,"vac":true,"version":"7882260","steam_id":85568392924500087,"keywords":["cp","nocrits","nodmgspread","uncletopia"],"game_id":440,"stv_port":27016,"stv_name":"Uncletopia | Montr√©al | 1 | All Maps | STV","players":[{"user_id":172,"name":"Dr. Cactus","steam_id":76561198034861398,"connected_time":47000000000,"state":"active","ping":56},{"user_id":140,"name":"Crystal Toa","steam_id":76561198033861221,"connected_time":3054000000000,"state":"active","ping":131},{"user_id":164,"name":"Jerry Kool-Aid","steam_id":76561198030281560,"connected_time":781000000000,"state":"active","ping":107},{"user_id":159,"name":"dawiid","steam_id":76561198040433854,"connected_time":1577000000000,"state":"active","ping":58},{"user_id":147,"name":"stoner gaming","steam_id":76561198327390236,"connected_time":2446000000000,"state":"active","ping":120},{"user_id":148,"name":"Paint Huffing","steam_id":76561198206229467,"connected_time":2330000000000,"state":"active","ping":73},{"user_id":165,"name":"tesagi","steam_id":76561198026664629,"connected_time":623000000000,"state":"active","ping":49},{"user_id":166,"name":"all the frogs are turning gay","steam_id":76561199215798445,"connected_time":492000000000,"state":"active","ping":69},{"user_id":61,"name":"Zigadox","steam_id":76561198079813479,"connected_time":9759000000000,"state":"active","ping":88},{"user_id":110,"name":"Snowbolt","steam_id":76561197974085095,"connected_time":5876000000000,"state":"active","ping":44},{"user_id":83,"name":"3xtr3m3rWbyFan2901025","steam_id":76561198042286766,"connected_time":7998000000000,"state":"active","ping":94},{"user_id":134,"name":"Shifty Louie","steam_id":76561197990872608,"connected_time":4149000000000,"state":"active","ping":144},{"user_id":112,"name":"Feathers","steam_id":76561198045424567,"connected_time":5861000000000,"state":"active","ping":60},{"user_id":113,"name":"Bryguy","steam_id":76561198092096120,"connected_time":5839000000000,"state":"active","ping":57},{"user_id":173,"name":"PigThing","steam_id":76561198404374251,"connected_time":35000000000,"state":"active","ping":192},{"user_id":137,"name":"PizzaThot","steam_id":76561198278237289,"connected_time":3281000000000,"state":"active","ping":102},{"user_id":150,"name":"cass","steam_id":76561198047617227,"connected_time":2316000000000,"state":"active","ping":115},{"user_id":174,"name":"All 24 Pok√©mon movies at once","steam_id":76561198164738311,"connected_time":11000000000,"state":"spawning","ping":81},{"user_id":171,"name":"DO NOT call me BART SIMPSON!!","steam_id":76561198069113375,"connected_time":232000000000,"state":"active","ping":51},{"user_id":152,"name":"Falk","steam_id":76561198117024236,"connected_time":2160000000000,"state":"active","ping":53},{"user_id":163,"name":"1001NinjaDucks","steam_id":76561198058169660,"connected_time":1029000000000,"state":"active","ping":47},{"user_id":160,"name":"Jeff the 19th","steam_id":76561198189315491,"connected_time":1505000000000,"state":"active","ping":81},{"user_id":161,"name":"Nicko","steam_id":76561198328490503,"connected_time":1478000000000,"state":"active","ping":149}]},{"server_id":301,"name":"Uncletopia | Montr√©al | 2 | All Maps","name_short":"mtl-2","host":"mtl-1.ca.uncletopia.com","port":27025,"enabled":true,"region":"us-east","cc":"ca","latitude":45.50889,"longitude":-73.56167,"reserved":0,"last_update":"0001-01-01T00:00:00Z","name_a2s":"Uncletopia | Montr√©al | 2 | All Maps","protocol":17,"map":"cp_snakewater_final1","folder":"tf","game":"Team Fortress","app_id":440,"player_count":0,"max_players":24,"Bots":0,"server_type":"Dedicated","server_os":"Linux","password":true,"vac":true,"version":"7882260","steam_id":85568392924500088,"keywords":["cp","nocrits","nodmgspread","uncletopia"],"game_id":440,"stv_port":27026,"stv_name":"Uncletopia | Montr√©al | 2 | All Maps | STV","players":null},{"server_id":302,"name":"Uncletopia | Montr√©al | 3 | All Maps","name_short":"mtl-3","host":"mtl-1.ca.uncletopia.com","port":27035,"enabled":true,"region":"us-east","cc":"ca","latitude":45.50889,"longitude":-73.56167,"reserved":0,"last_update":"0001-01-01T00:00:00Z","name_a2s":"Uncletopia | Montr√©al | 3 | All Maps","protocol":17,"map":"cp_dustbowl","folder":"tf","game":"Team Fortress","app_id":440,"player_count":3,"max_players":24,"Bots":0,"server_type":"Dedicated","server_os":"Linux","password":true,"vac":true,"version":"7882260","steam_id":85568392924500089,"keywords":["cp","nocrits","nodmgspread","uncletopia"],"game_id":440,"stv_port":27036,"stv_name":"Uncletopia | Montr√©al | 3 | All Maps | STV","players":[{"user_id":204,"name":"Michaelpc1","steam_id":76561198088365519,"connected_time":425000000000,"state":"active","ping":68},{"user_id":205,"name":"Chrits","steam_id":76561198072082596,"connected_time":409000000000,"state":"active","ping":86},{"user_id":206,"name":"HEE HOO DUSTBOWL!","steam_id":76561199389985063,"connected_time":359000000000,"state":"active","ping":109}]},{"server_id":303,"name":"Uncletopia | Montr√©al | 4 | No Payload","name_short":"mtl-4","host":"mtl-1.ca.uncletopia.com","port":27045,"enabled":true,"region":"us-east","cc":"ca","latitude":45.50889,"longitude":-73.56167,"reserved":0,"last_update":"0001-01-01T00:00:00Z","name_a2s":"Uncletopia | Montr√©al | 4 | No Payload","protocol":17,"map":"plr_nightfall_final","folder":"tf","game":"Team Fortress","app_id":440,"player_count":0,"max_players":24,"Bots":0,"server_type":"Dedicated","server_os":"Linux","password":true,"vac":true,"version":"7882260","steam_id":85568392924500090,"keywords":["nocrits","nodmgspread","payload","uncletopia"],"game_id":440,"stv_port":27046,"stv_name":"Uncletopia | Montr√©al | 4 | No Payload | STV","players":null},{"server_id":13,"name":"Uncletopia | New York City | 1 | All Maps","name_short":"nyc-1","host":"nyc-1.us.uncletopia.com","port":27015,"enabled":true,"region":"us-east","cc":"us","latitude":40.73061,"longitude":-73.93524,"reserved":0,"last_update":"0001-01-01T00:00:00Z","name_a2s":"Uncletopia | New York City | 1 | All Maps","protocol":17,"map":"koth_harvest_final","folder":"tf","game":"Team Fortress","app_id":440,"player_count":20,"max_players":24,"Bots":0,"server_type":"Dedicated","server_os":"Linux","password":true,"vac":true,"version":"7882260","steam_id":85568392924469993,"keywords":["cp","nocrits","nodmgspread","uncletopia"],"game_id":440,"stv_port":27016,"stv_name":"Uncletopia | New York City | 1 | All Maps | STV","players":[{"user_id":571,"name":"r kellys cousin","steam_id":76561198249387140,"connected_time":871000000000,"state":"active","ping":85},{"user_id":572,"name":"Reggie is Veggie","steam_id":76561198112304843,"connected_time":862000000000,"state":"active","ping":58},{"user_id":580,"name":"ballsackfondler9000","steam_id":76561198332667074,"connected_time":93000000000,"state":"active","ping":63},{"user_id":576,"name":"tf2 enjoyer","steam_id":76561198172732375,"connected_time":671000000000,"state":"active","ping":42},{"user_id":544,"name":"Constellar Nova","steam_id":76561198868215392,"connected_time":2567000000000,"state":"active","ping":55},{"user_id":558,"name":"The Electric Bronco","steam_id":76561198040820295,"connected_time":2022000000000,"state":"active","ping":150},{"user_id":556,"name":"Arceus","steam_id":76561199146716278,"connected_time":2204000000000,"state":"active","ping":50},{"user_id":314,"name":"Gentoo Linux Gaming","steam_id":76561197999657118,"connected_time":18616000000000,"state":"active","ping":62},{"user_id":567,"name":"Pixel","steam_id":76561198129243055,"connected_time":1142000000000,"state":"active","ping":59},{"user_id":549,"name":"chikimoco","steam_id":76561198145320480,"connected_time":2392000000000,"state":"active","ping":101},{"user_id":497,"name":"Bocchi the Cock","steam_id":76561198152455316,"connected_time":6147000000000,"state":"active","ping":151},{"user_id":560,"name":"nothing burger eater","steam_id":76561198046201690,"connected_time":1847000000000,"state":"active","ping":118},{"user_id":575,"name":"Protato","steam_id":76561198061182563,"connected_time":798000000000,"state":"active","ping":64},{"user_id":578,"name":"gabaghoulio","steam_id":76561198013650292,"connected_time":418000000000,"state":"active","ping":104},{"user_id":562,"name":"glquantum","steam_id":76561198057553971,"connected_time":1808000000000,"state":"active","ping":77},{"user_id":561,"name":"batasy","steam_id":76561198044767185,"connected_time":1823000000000,"state":"active","ping":65},{"user_id":574,"name":"MILF Gaming","steam_id":76561198155378170,"connected_time":802000000000,"state":"active","ping":41},{"user_id":533,"name":"Hak","steam_id":76561198279180399,"connected_time":3899000000000,"state":"active","ping":83},{"user_id":555,"name":"scarecrow (evil)","steam_id":76561198082979347,"connected_time":2260000000000,"state":"active","ping":54},{"user_id":579,"name":"09robcraft2","steam_id":76561199073189184,"connected_time":322000000000,"state":"active","ping":75}]},{"server_id":14,"name":"Uncletopia | New York City | 2 | All Maps","name_short":"nyc-2","host":"nyc-1.us.uncletopia.com","port":27025,"enabled":true,"region":"us-east","cc":"us","latitude":40.73061,"longitude":-73.93524,"reserved":0,"last_update":"0001-01-01T00:00:00Z","name_a2s":"Uncletopia | New York City | 2 | All Maps","protocol":17,"map":"pl_barnblitz","folder":"tf","game":"Team Fortress","app_id":440,"player_count":24,"max_players":24,"Bots":0,"server_type":"Dedicated","server_os":"Linux","password":true,"vac":true,"version":"7882260","steam_id":85568392924469994,"keywords":["nocrits","nodmgspread","payload","uncletopia"],"game_id":440,"stv_port":27026,"stv_name":"Uncletopia | New York City | 2 | All Maps | STV","players":[{"user_id":369,"name":"fisherman","steam_id":76561198157435832,"connected_time":2829000000000,"state":"active","ping":82},{"user_id":400,"name":"Punkin","steam_id":76561198334301755,"connected_time":310000000000,"state":"active","ping":58},{"user_id":375,"name":"DividedZero","steam_id":76561198013253002,"connected_time":2635000000000,"state":"active","ping":99},{"user_id":387,"name":"gardener","steam_id":76561199032446839,"connected_time":1714000000000,"state":"active","ping":85},{"user_id":401,"name":"Long of Neck","steam_id":76561198038997485,"connected_time":193000000000,"state":"active","ping":53},{"user_id":402,"name":"Flashtasm","steam_id":76561198026635660,"connected_time":185000000000,"state":"active","ping":71},{"user_id":392,"name":"not jeff bezos","steam_id":76561198018177887,"connected_time":1043000000000,"state":"active","ping":112},{"user_id":403,"name":"MAXIMUS","steam_id":76561198085809453,"connected_time":73000000000,"state":"active","ping":84},{"user_id":407,"name":"code","steam_id":76561199221385501,"connected_time":29000000000,"state":"active","ping":159},{"user_id":405,"name":"PaD_Ding","steam_id":76561198831202965,"connected_time":64000000000,"state":"active","ping":356},{"user_id":382,"name":"Jiggie","steam_id":76561198018134884,"connected_time":2212000000000,"state":"active","ping":147},{"user_id":362,"name":"SnareString","steam_id":76561199082119457,"connected_time":3118000000000,"state":"active","ping":123},{"user_id":397,"name":"Loquacious Lasagna","steam_id":76561198046665186,"connected_time":987000000000,"state":"active","ping":83},{"user_id":374,"name":"Manrage","steam_id":76561198043798397,"connected_time":2646000000000,"state":"active","ping":82},{"user_id":406,"name":"Luckypants","steam_id":76561198088390783,"connected_time":56000000000,"state":"active","ping":117},{"user_id":372,"name":"TI-83 Plus","steam_id":76561198316134443,"connected_time":2755000000000,"state":"active","ping":81},{"user_id":390,"name":"DiscoTraveler","steam_id":76561199240168088,"connected_time":1126000000000,"state":"active","ping":50},{"user_id":376,"name":"Yattas? for ye dog??","steam_id":76561198066450438,"connected_time":2613000000000,"state":"active","ping":75},{"user_id":389,"name":"OpenDown","steam_id":76561198064132688,"connected_time":1441000000000,"state":"active","ping":70},{"user_id":377,"name":"kiaan","steam_id":76561198060819695,"connected_time":2584000000000,"state":"active","ping":64},{"user_id":367,"name":"loldewdz","steam_id":76561198067562811,"connected_time":2859000000000,"state":"active","ping":67},{"user_id":378,"name":"NeoN","steam_id":76561198117608366,"connected_time":2532000000000,"state":"active","ping":36},{"user_id":383,"name":"Shun Rosen","steam_id":76561198012823909,"connected_time":2212000000000,"state":"active","ping":64},{"user_id":381,"name":"*","steam_id":76561198173047169,"connected_time":2513000000000,"state":"active","ping":47}]},{"server_id":15,"name":"Uncletopia | New York City | 3 | Stopwatch Beta","name_short":"nyc-3","host":"nyc-1.us.uncletopia.com","port":27035,"enabled":true,"region":"us-east","cc":"us","latitude":40.73061,"longitude":-73.93524,"reserved":0,"last_update":"0001-01-01T00:00:00Z","name_a2s":"Uncletopia | New York City | 3 | Stopwatch Beta","protocol":17,"map":"pl_borneo","folder":"tf","game":"Team Fortress","app_id":440,"player_count":0,"max_players":24,"Bots":0,"server_type":"Dedicated","server_os":"Linux","password":true,"vac":true,"version":"7882260","steam_id":85568392924742820,"keywords":["nocrits","nodmgspread","payload","uncletopia"],"game_id":440,"stv_port":27036,"stv_name":"Uncletopia | New York City | 3 | Stopwatch Beta | STV","players":null},{"server_id":16,"name":"Uncletopia | New York City | 4 | Community","name_short":"nyc-4","host":"nyc-1.us.uncletopia.com","port":27045,"enabled":true,"region":"us-east","cc":"us","latitude":40.73061,"longitude":-73.93524,"reserved":0,"last_update":"0001-01-01T00:00:00Z","name_a2s":"Uncletopia | New York City | 4 | Community","protocol":17,"map":"workshop/cp_logjam_rc12.ugc454812035","folder":"tf","game":"Team Fortress","app_id":440,"player_count":0,"max_players":24,"Bots":0,"server_type":"Dedicated","server_os":"Linux","password":true,"vac":true,"version":"7882260","steam_id":85568392924742821,"keywords":["cp","nocrits","nodmgspread","uncletopia"],"game_id":440,"stv_port":27046,"stv_name":"Uncletopia | New York City | 4 | Community | STV","players":null},{"server_id":142,"name":"Uncletopia | S√£o Paulo | 1 | All Maps","name_short":"sao-1","host":"sao-1.br.uncletopia.com","port":27015,"enabled":true,"region":"sa","cc":"br","latitude":-23.533773,"longitude":-46.62529,"reserved":0,"last_update":"0001-01-01T00:00:00Z","name_a2s":"Uncletopia | S√£o Paulo | 1 | All Maps","protocol":17,"map":"pl_upward","folder":"tf","game":"Team Fortress","app_id":440,"player_count":0,"max_players":24,"Bots":0,"server_type":"Dedicated","server_os":"Linux","password":true,"vac":true,"version":"7882260","steam_id":85568392924469996,"keywords":["nocrits","nodmgspread","payload","uncletopia"],"game_id":440,"stv_port":27016,"stv_name":"Uncletopia | S√£o Paulo | 1 | All Maps | STV","players":null},{"server_id":143,"name":"Uncletopia | S√£o Paulo | 2 | All Maps","name_short":"sao-2","host":"sao-2.br.uncletopia.com","port":27015,"enabled":true,"region":"sa","cc":"br","latitude":-23.533773,"longitude":-46.62529,"reserved":0,"last_update":"0001-01-01T00:00:00Z","name_a2s":"Uncletopia | S√£o Paulo | 2 | All Maps","protocol":17,"map":"cp_altitude","folder":"tf","game":"Team Fortress","app_id":440,"player_count":0,"max_players":24,"Bots":0,"server_type":"Dedicated","server_os":"Linux","password":true,"vac":true,"version":"7882260","steam_id":85568392924485349,"keywords":["cp","nocrits","nodmgspread","uncletopia"],"game_id":440,"stv_port":27016,"stv_name":"Uncletopia | S√£o Paulo | 2 | All Maps | STV","players":null},{"server_id":7,"name":"Uncletopia | Seattle | 1 | All Maps","name_short":"sea-1","host":"sea-1.us.uncletopia.com","port":27015,"enabled":true,"region":"us-west","cc":"us","latitude":47.608013,"longitude":-122.33517,"reserved":0,"last_update":"0001-01-01T00:00:00Z","name_a2s":"Uncletopia | Seattle | 1 | All Maps","protocol":17,"map":"pl_thundermountain","folder":"tf","game":"Team Fortress","app_id":440,"player_count":24,"max_players":24,"Bots":0,"server_type":"Dedicated","server_os":"Linux","password":true,"vac":true,"version":"7882260","steam_id":85568392924469997,"keywords":["nocrits","nodmgspread","payload","uncletopia"],"game_id":440,"stv_port":27016,"stv_name":"Uncletopia | Seattle | 1 | All Maps | STV","players":[{"user_id":483,"name":"doopsies","steam_id":76561198083000867,"connected_time":6446000000000,"state":"active","ping":49},{"user_id":528,"name":"al-Kohol","steam_id":76561197998530400,"connected_time":2827000000000,"state":"active","ping":75},{"user_id":529,"name":"BatJet","steam_id":76561198147738441,"connected_time":2826000000000,"state":"active","ping":105},{"user_id":536,"name":"AtomSQRRL","steam_id":76561199151951364,"connected_time":1384000000000,"state":"active","ping":62},{"user_id":538,"name":"TheCowledWiz","steam_id":76561198016735868,"connected_time":1371000000000,"state":"active","ping":55},{"user_id":517,"name":"Mr. Ravioli","steam_id":76561197996625649,"connected_time":3840000000000,"state":"active","ping":52},{"user_id":510,"name":"General Fisticuffs","steam_id":76561198255721392,"connected_time":4227000000000,"state":"active","ping":115},{"user_id":402,"name":"how do i control my guy?","steam_id":76561198158855211,"connected_time":12581000000000,"state":"active","ping":48},{"user_id":535,"name":"Arsonist Goose","steam_id":76561198147441830,"connected_time":1793000000000,"state":"active","ping":69},{"user_id":539,"name":"toes","steam_id":76561198221151676,"connected_time":1360000000000,"state":"active","ping":54},{"user_id":530,"name":"Vincent Van Bro","steam_id":76561197966919802,"connected_time":2558000000000,"state":"active","ping":58},{"user_id":540,"name":"Planck Length Fuse","steam_id":76561198841001801,"connected_time":1150000000000,"state":"active","ping":53},{"user_id":481,"name":"cobala nomala dd24","steam_id":76561198213385439,"connected_time":6575000000000,"state":"active","ping":84},{"user_id":544,"name":"Laxoloni","steam_id":76561199197045700,"connected_time":749000000000,"state":"active","ping":87},{"user_id":526,"name":"strbry","steam_id":76561198155133601,"connected_time":2891000000000,"state":"active","ping":57},{"user_id":521,"name":"o o o o o o o o o","steam_id":76561197993757506,"connected_time":3208000000000,"state":"active","ping":71},{"user_id":523,"name":"Res Ipsa","steam_id":76561198041349210,"connected_time":2897000000000,"state":"active","ping":76},{"user_id":546,"name":"Nightlygalad","steam_id":76561198170693990,"connected_time":111000000000,"state":"active","ping":80},{"user_id":541,"name":"Agent Mania","steam_id":76561198029741272,"connected_time":876000000000,"state":"active","ping":80},{"user_id":542,"name":"Alpdhuez [‚úö]","steam_id":76561198013808837,"connected_time":835000000000,"state":"active","ping":66},{"user_id":520,"name":"‚ô•haunti","steam_id":76561199235580556,"connected_time":3506000000000,"state":"active","ping":48},{"user_id":514,"name":"SolarusD","steam_id":76561198029279861,"connected_time":4049000000000,"state":"active","ping":72},{"user_id":545,"name":"William P. Ennis","steam_id":76561198073464877,"connected_time":315000000000,"state":"active","ping":98},{"user_id":548,"name":"Spooky","steam_id":76561198030817605,"connected_time":80000000000,"state":"active","ping":35}]},{"server_id":119,"name":"Uncletopia | Seattle | 2 | All Maps","name_short":"sea-2","host":"sea-1.us.uncletopia.com","port":27025,"enabled":true,"region":"us-west","cc":"us","latitude":47.608013,"longitude":-122.33517,"reserved":0,"last_update":"0001-01-01T00:00:00Z","name_a2s":"Uncletopia | Seattle | 2 | All Maps","protocol":17,"map":"cp_dustbowl","folder":"tf","game":"Team Fortress","app_id":440,"player_count":24,"max_players":24,"Bots":0,"server_type":"Dedicated","server_os":"Linux","password":true,"vac":true,"version":"7882260","steam_id":85568392924469998,"keywords":["cp","nocrits","nodmgspread","uncletopia"],"game_id":440,"stv_port":27026,"stv_name":"Uncletopia | Seattle | 2 | All Maps | STV","players":[{"user_id":524,"name":"ursa","steam_id":76561198025394298,"connected_time":1715000000000,"state":"active","ping":96},{"user_id":528,"name":"mub","steam_id":76561197961943948,"connected_time":991000000000,"state":"active","ping":45},{"user_id":520,"name":"butfuqit","steam_id":76561198415245374,"connected_time":1884000000000,"state":"active","ping":84},{"user_id":531,"name":"Scrack","steam_id":76561198010484665,"connected_time":859000000000,"state":"active","ping":104},{"user_id":540,"name":"Psychromaniac","steam_id":76561198012215214,"connected_time":645000000000,"state":"active","ping":60},{"user_id":532,"name":"Lentil Soup","steam_id":76561198051834684,"connected_time":843000000000,"state":"active","ping":73},{"user_id":541,"name":"Chad","steam_id":76561198222313772,"connected_time":641000000000,"state":"active","ping":128},{"user_id":515,"name":"Raccoon Gaming","steam_id":76561198065662025,"connected_time":2893000000000,"state":"active","ping":70},{"user_id":499,"name":"Thanks Ants","steam_id":76561197966221018,"connected_time":4020000000000,"state":"active","ping":54},{"user_id":511,"name":"Asphodel","steam_id":76561198750101819,"connected_time":3083000000000,"state":"active","ping":97},{"user_id":496,"name":"Melancholy Clown","steam_id":76561198110605813,"connected_time":4077000000000,"state":"active","ping":62},{"user_id":519,"name":"Snippykeegan","steam_id":76561198274529343,"connected_time":1903000000000,"state":"active","ping":64},{"user_id":538,"name":"plague doctor","steam_id":76561198348387126,"connected_time":761000000000,"state":"active","ping":87},{"user_id":455,"name":"Cinnifox","steam_id":76561198068773971,"connected_time":7700000000000,"state":"active","ping":79},{"user_id":527,"name":"Solidus Joe","steam_id":76561198452540197,"connected_time":1371000000000,"state":"active","ping":61},{"user_id":536,"name":"abc","steam_id":76561198318423349,"connected_time":781000000000,"state":"active","ping":84},{"user_id":529,"name":"Finkly","steam_id":76561198049828110,"connected_time":899000000000,"state":"active","ping":46},{"user_id":537,"name":"Ena","steam_id":76561198066986108,"connected_time":774000000000,"state":"active","ping":63},{"user_id":501,"name":"Re-Crix","steam_id":76561198351895601,"connected_time":3791000000000,"state":"active","ping":87},{"user_id":457,"name":"The King of Piss World","steam_id":76561198082806956,"connected_time":7570000000000,"state":"active","ping":128},{"user_id":130,"name":"VerminKing","steam_id":76561198060887391,"connected_time":27948000000000,"state":"active","ping":60},{"user_id":464,"name":"hosewater","steam_id":76561198023383126,"connected_time":7027000000000,"state":"active","ping":59},{"user_id":543,"name":"h","steam_id":76561198868164815,"connected_time":483000000000,"state":"active","ping":57},{"user_id":545,"name":"Fire_box41238","steam_id":76561199185673650,"connected_time":43000000000,"state":"spawning","ping":83}]},{"server_id":406,"name":"Uncletopia | Seattle | 3 | Stopwatch Beta","name_short":"sea-3","host":"sea-1.us.uncletopia.com","port":27035,"enabled":true,"region":"us-west","cc":"us","latitude":47.608013,"longitude":-122.33517,"reserved":0,"last_update":"0001-01-01T00:00:00Z","name_a2s":"Uncletopia | Seattle | 3 | Stopwatch Beta","protocol":17,"map":"cp_gullywash_final1","folder":"tf","game":"Team Fortress","app_id":440,"player_count":24,"max_players":24,"Bots":0,"server_type":"Dedicated","server_os":"Linux","password":true,"vac":true,"version":"7882260","steam_id":85568392924515217,"keywords":["cp","nocrits","nodmgspread","uncletopia"],"game_id":440,"stv_port":27036,"stv_name":"Uncletopia | Seattle | 3 | Stopwatch Beta | STV","players":[{"user_id":301,"name":"Sleempreem","steam_id":76561198131987251,"connected_time":1573000000000,"state":"active","ping":60},{"user_id":280,"name":"laggy mcstab","steam_id":76561198106379962,"connected_time":2797000000000,"state":"active","ping":60},{"user_id":313,"name":"worker","steam_id":76561198039608940,"connected_time":979000000000,"state":"active","ping":58},{"user_id":268,"name":"Dongus","steam_id":76561197979056451,"connected_time":3991000000000,"state":"active","ping":46},{"user_id":297,"name":"Frank D Azar","steam_id":76561198225910596,"connected_time":2003000000000,"state":"active","ping":80},{"user_id":303,"name":"soy aguas poderosas","steam_id":76561198308814447,"connected_time":1552000000000,"state":"active","ping":48},{"user_id":274,"name":"St. Michael","steam_id":76561198037611052,"connected_time":3704000000000,"state":"active","ping":88},{"user_id":327,"name":"Yosh","steam_id":76561198027078899,"connected_time":1000000000,"state":"spawning","ping":60},{"user_id":276,"name":"Phlogging Solly","steam_id":76561198020580071,"connected_time":3556000000000,"state":"active","ping":104},{"user_id":319,"name":"OminousNoises","steam_id":76561198263320321,"connected_time":383000000000,"state":"active","ping":94},{"user_id":296,"name":"Tom Cr√∫aich","steam_id":76561197999439911,"connected_time":2122000000000,"state":"active","ping":63},{"user_id":283,"name":"PinguEnjoyer6","steam_id":76561199186723516,"connected_time":2670000000000,"state":"active","ping":68},{"user_id":320,"name":"Nightwalker","steam_id":76561198078672640,"connected_time":309000000000,"state":"active","ping":81},{"user_id":306,"name":"Piro_agua","steam_id":76561199041880779,"connected_time":1516000000000,"state":"active","ping":48},{"user_id":318,"name":"gunnarrevel","steam_id":76561198842854582,"connected_time":540000000000,"state":"active","ping":62},{"user_id":321,"name":"Puzzlers100 - #SaveTF2","steam_id":76561198232701144,"connected_time":262000000000,"state":"active","ping":59},{"user_id":322,"name":"One Horned Bitch Destroyer","steam_id":76561198045810191,"connected_time":176000000000,"state":"active","ping":42},{"user_id":323,"name":"Jovo","steam_id":76561197993265970,"connected_time":165000000000,"state":"active","ping":40},{"user_id":324,"name":"ùïÆùñÜùñíùñäùñóùñîùñì \ufffd\ufffd","steam_id":76561198045826628,"connected_time":95000000000,"state":"active","ping":78},{"user_id":325,"name":"toastoboi","steam_id":76561199259799042,"connected_time":81000000000,"state":"active","ping":124},{"user_id":326,"name":"RoyalGuineas","steam_id":76561197991415954,"connected_time":34000000000,"state":"active","ping":89},{"user_id":311,"name":"deej","steam_id":76561198127030699,"connected_time":1316000000000,"state":"active","ping":74},{"user_id":294,"name":"ShredMaan","steam_id":76561198429982138,"connected_time":2187000000000,"state":"active","ping":83},{"user_id":317,"name":"shay.wilson","steam_id":76561198005776463,"connected_time":731000000000,"state":"active","ping":98}]},{"server_id":17,"name":"Uncletopia | San Francisco | 1 | All Maps","name_short":"sfo-1","host":"sfo-1.us.uncletopia.com","port":27015,"enabled":true,"region":"us-west","cc":"us","latitude":37.77397,"longitude":-122.4313,"reserved":0,"last_update":"0001-01-01T00:00:00Z","name_a2s":"Uncletopia | San Francisco | 1 | All Maps","protocol":17,"map":"cp_process_final","folder":"tf","game":"Team Fortress","app_id":440,"player_count":0,"max_players":24,"Bots":0,"server_type":"Dedicated","server_os":"Linux","password":true,"vac":true,"version":"7757534","steam_id":85568392924469999,"keywords":["cp","nocrits","nodmgspread","uncletopia"],"game_id":440,"stv_port":27016,"stv_name":"Uncletopia | San Francisco | 1 | All Maps | STV","players":null},{"server_id":18,"name":"Uncletopia | San Francisco | 2 | All Maps","name_short":"sfo-2","host":"sfo-1.us.uncletopia.com","port":27025,"enabled":true,"region":"us-west","cc":"us","latitude":37.77397,"longitude":-122.4313,"reserved":0,"last_update":"0001-01-01T00:00:00Z","name_a2s":"Uncletopia | San Francisco | 2 | All Maps","protocol":17,"map":"koth_highpass","folder":"tf","game":"Team Fortress","app_id":440,"player_count":0,"max_players":24,"Bots":0,"server_type":"Dedicated","server_os":"Linux","password":true,"vac":true,"version":"7757534","steam_id":85568392924470000,"keywords":["cp","nocrits","nodmgspread","uncletopia"],"game_id":440,"stv_port":27026,"stv_name":"Uncletopia | San Francisco | 2 | All Maps | STV","players":null},{"server_id":19,"name":"Uncletopia | San Francisco | 3 | Stopwatch Beta","name_short":"sfo-3","host":"sfo-1.us.uncletopia.com","port":27035,"enabled":true,"region":"us-west","cc":"us","latitude":37.77397,"longitude":-122.4313,"reserved":0,"last_update":"0001-01-01T00:00:00Z","name_a2s":"Uncletopia | San Francisco | 3 | Stopwatch Beta","protocol":17,"map":"koth_lakeside_final","folder":"tf","game":"Team Fortress","app_id":440,"player_count":0,"max_players":24,"Bots":0,"server_type":"Dedicated","server_os":"Linux","password":true,"vac":true,"version":"7757534","steam_id":85568392924742824,"keywords":["cp","nocrits","nodmgspread","uncletopia"],"game_id":440,"stv_port":27036,"stv_name":"Uncletopia | San Francisco | 3 | Stopwatch Beta | STV","players":null},{"server_id":20,"name":"Uncletopia | San Francisco | 4 | Community","name_short":"sfo-4","host":"sfo-1.us.uncletopia.com","port":27045,"enabled":true,"region":"us-west","cc":"us","latitude":37.77397,"longitude":-122.4313,"reserved":0,"last_update":"0001-01-01T00:00:00Z","name_a2s":"Uncletopia | San Francisco | 4 | Community","protocol":17,"map":"cp_altitude","folder":"tf","game":"Team Fortress","app_id":440,"player_count":0,"max_players":24,"Bots":0,"server_type":"Dedicated","server_os":"Linux","password":true,"vac":true,"version":"7757534","steam_id":85568392924742826,"keywords":["cp","nocrits","nodmgspread","uncletopia"],"game_id":440,"stv_port":27046,"stv_name":"Uncletopia | San Francisco | 4 | Community | STV","players":null},{"server_id":141,"name":"Uncletopia | Sydney | 1 | All Maps","name_short":"syd-1","host":"syd-1.au.uncletopia.com","port":27015,"enabled":true,"region":"au","cc":"au","latitude":-33.865143,"longitude":151.2099,"reserved":0,"last_update":"0001-01-01T00:00:00Z","name_a2s":"Uncletopia | Sydney | 1 | All Maps","protocol":17,"map":"pl_frontier_final","folder":"tf","game":"Team Fortress","app_id":440,"player_count":24,"max_players":24,"Bots":0,"server_type":"Dedicated","server_os":"Linux","password":true,"vac":true,"version":"7882260","steam_id":85568392924470001,"keywords":["nocrits","nodmgspread","payload","uncletopia"],"game_id":440,"stv_port":27016,"stv_name":"Uncletopia | Sydney | 1 | All Maps | STV","players":[{"user_id":143,"name":"Meerkat","steam_id":76561198298662979,"connected_time":2314000000000,"state":"active","ping":44},{"user_id":97,"name":"Sentry Gun (EpicGuy4227)","steam_id":76561198094132328,"connected_time":5764000000000,"state":"active","ping":51},{"user_id":166,"name":"Birb","steam_id":76561198032752815,"connected_time":908000000000,"state":"active","ping":74},{"user_id":164,"name":"Yeat","steam_id":76561198202555552,"connected_time":1054000000000,"state":"active","ping":44},{"user_id":137,"name":"Captain Courageous","steam_id":76561198031293430,"connected_time":2795000000000,"state":"active","ping":86},{"user_id":115,"name":"WaifuThatGiveMeBloodPressure","steam_id":76561199090343752,"connected_time":4275000000000,"state":"active","ping":165},{"user_id":152,"name":"haydos","steam_id":76561198078310429,"connected_time":1821000000000,"state":"active","ping":38},{"user_id":42,"name":"Muffin","steam_id":76561198075391119,"connected_time":9123000000000,"state":"active","ping":54},{"user_id":124,"name":"Zieria","steam_id":76561199261811388,"connected_time":3969000000000,"state":"active","ping":42},{"user_id":162,"name":"MrMist","steam_id":76561199382679347,"connected_time":1204000000000,"state":"active","ping":81},{"user_id":151,"name":"Jodelk√∂nig Franzl Lang","steam_id":76561198007667830,"connected_time":1869000000000,"state":"active","ping":54},{"user_id":169,"name":"Skidallion","steam_id":76561198083922206,"connected_time":357000000000,"state":"active","ping":69},{"user_id":136,"name":"thrax","steam_id":76561197992385270,"connected_time":2843000000000,"state":"active","ping":42},{"user_id":167,"name":"tism","steam_id":76561197993246009,"connected_time":875000000000,"state":"active","ping":66},{"user_id":147,"name":"TheCloraxLorax","steam_id":76561198061344330,"connected_time":2287000000000,"state":"active","ping":60},{"user_id":153,"name":"Pug","steam_id":76561198136794372,"connected_time":1764000000000,"state":"active","ping":52},{"user_id":173,"name":"Snowy","steam_id":76561198255720598,"connected_time":235000000000,"state":"active","ping":46},{"user_id":171,"name":"FatScout","steam_id":76561198013870201,"connected_time":317000000000,"state":"active","ping":66},{"user_id":156,"name":"send me ur Gerrards","steam_id":76561198301282416,"connected_time":1653000000000,"state":"active","ping":53},{"user_id":170,"name":"itsnothenry","steam_id":76561197966455767,"connected_time":353000000000,"state":"active","ping":60},{"user_id":161,"name":"Peashooter","steam_id":76561198157250318,"connected_time":1255000000000,"state":"active","ping":60},{"user_id":172,"name":"Empol√©","steam_id":76561198363939040,"connected_time":284000000000,"state":"active","ping":76},{"user_id":168,"name":"justaguy","steam_id":76561199367021192,"connected_time":616000000000,"state":"active","ping":89},{"user_id":175,"name":"Alphandiscobean","steam_id":76561198025845937,"connected_time":37000000000,"state":"active","ping":60}]},{"server_id":123,"name":"Uncletopia | Sydney | 2 | All Maps","name_short":"syd-2","host":"syd-1.au.uncletopia.com","port":27025,"enabled":true,"region":"au","cc":"au","latitude":-33.865143,"longitude":151.2099,"reserved":0,"last_update":"0001-01-01T00:00:00Z","name_a2s":"Uncletopia | Sydney | 2 | All Maps","protocol":17,"map":"pl_swiftwater_final1","folder":"tf","game":"Team Fortress","app_id":440,"player_count":0,"max_players":24,"Bots":0,"server_type":"Dedicated","server_os":"Linux","password":true,"vac":true,"version":"7882260","steam_id":85568392924470002,"keywords":["nocrits","nodmgspread","payload","uncletopia"],"game_id":440,"stv_port":27026,"stv_name":"Uncletopia | Sydney | 2 | All Maps | STV","players":null},{"server_id":395,"name":"Uncletopia | Sydney | 3 | All Maps","name_short":"syd-3","host":"syd-1.au.uncletopia.com","port":27035,"enabled":true,"region":"au","cc":"au","latitude":-33.865143,"longitude":151.2099,"reserved":0,"last_update":"0001-01-01T00:00:00Z","name_a2s":"Uncletopia | Sydney | 3 | All Maps","protocol":17,"map":"pl_pier","folder":"tf","game":"Team Fortress","app_id":440,"player_count":0,"max_players":24,"Bots":0,"server_type":"Dedicated","server_os":"Linux","password":true,"vac":true,"version":"7882260","steam_id":85568392925194467,"keywords":["nocrits","nodmgspread","payload","uncletopia"],"game_id":440,"stv_port":27036,"stv_name":"Uncletopia | Sydney | 3 | All Maps | STV","players":null},{"server_id":396,"name":"Uncletopia | Sydney | 4 | All Maps","name_short":"syd-4","host":"syd-1.au.uncletopia.com","port":27045,"enabled":true,"region":"au","cc":"au","latitude":-33.865143,"longitude":151.2099,"reserved":0,"last_update":"0001-01-01T00:00:00Z","name_a2s":"Uncletopia | Sydney | 4 | All Maps","protocol":17,"map":"pl_frontier_final","folder":"tf","game":"Team Fortress","app_id":440,"player_count":0,"max_players":24,"Bots":0,"server_type":"Dedicated","server_os":"Linux","password":true,"vac":true,"version":"7882260","steam_id":85568392925397958,"keywords":["nocrits","nodmgspread","payload","uncletopia"],"game_id":440,"stv_port":27046,"stv_name":"Uncletopia | Sydney | 4 | All Maps | STV","players":null},{"server_id":58,"name":"Uncletopia | Sydney | 5 | Stopwatch Beta","name_short":"syd-5","host":"syd-1.au.uncletopia.com","port":27055,"enabled":true,"region":"au","cc":"au","latitude":-33.865143,"longitude":151.2099,"reserved":0,"last_update":"0001-01-01T00:00:00Z","name_a2s":"Uncletopia | Sydney | 5 | Stopwatch Beta","protocol":17,"map":"pl_swiftwater_final1","folder":"tf","game":"Team Fortress","app_id":440,"player_count":0,"max_players":24,"Bots":0,"server_type":"Dedicated","server_os":"Linux","password":true,"vac":true,"version":"7882260","steam_id":85568392925397959,"keywords":["nocrits","nodmgspread","payload","uncletopia"],"game_id":440,"stv_port":27056,"stv_name":"Uncletopia | Sydney | 5 | Stopwatch Beta | STV","players":null},{"server_id":59,"name":"Uncletopia | Sydney | 6 | Community","name_short":"syd-6","host":"syd-1.au.uncletopia.com","port":27065,"enabled":true,"region":"au","cc":"au","latitude":-33.865143,"longitude":151.2099,"reserved":0,"last_update":"0001-01-01T00:00:00Z","name_a2s":"Uncletopia | Sydney | 6 | Community","protocol":17,"map":"pl_snowycoast","folder":"tf","game":"Team Fortress","app_id":440,"player_count":0,"max_players":24,"Bots":0,"server_type":"Dedicated","server_os":"Linux","password":true,"vac":true,"version":"7882260","steam_id":85568392925397960,"keywords":["nocrits","nodmgspread","payload","uncletopia"],"game_id":440,"stv_port":27066,"stv_name":"Uncletopia | Sydney | 6 | Community | STV","players":null},{"server_id":49,"name":"Uncletopia | Warsaw | 1 | All Maps","name_short":"waw-1","host":"waw-1.pl.uncletopia.com","port":27015,"enabled":true,"region":"eu","cc":"pl","latitude":52.2297,"longitude":21.017532,"reserved":0,"last_update":"0001-01-01T00:00:00Z","name_a2s":"","protocol":0,"map":"","folder":"","game":"","app_id":0,"player_count":0,"max_players":0,"Bots":0,"server_type":"","server_os":"","password":false,"vac":false,"version":"","steam_id":0,"keywords":null,"game_id":0,"stv_port":0,"stv_name":"","players":null},{"server_id":50,"name":"Uncletopia | Warsaw | 2 | All Maps","name_short":"waw-2","host":"waw-1.pl.uncletopia.com","port":27025,"enabled":true,"region":"eu","cc":"pl","latitude":52.2297,"longitude":21.017532,"reserved":0,"last_update":"0001-01-01T00:00:00Z","name_a2s":"Uncletopia | Warsaw | 2 | All Maps","protocol":17,"map":"pl_swiftwater_final1","folder":"tf","game":"Team Fortress","app_id":440,"player_count":0,"max_players":24,"Bots":0,"server_type":"Dedicated","server_os":"Linux","password":true,"vac":true,"version":"7882260","steam_id":85568392925397851,"keywords":["nocrits","nodmgspread","payload","uncletopia"],"game_id":440,"stv_port":27026,"stv_name":"Uncletopia | Warsaw | 2 | All Maps | STV","players":null},{"server_id":51,"name":"Uncletopia | Warsaw | 3 | All Maps","name_short":"waw-3","host":"waw-1.pl.uncletopia.com","port":27035,"enabled":true,"region":"eu","cc":"pl","latitude":52.2297,"longitude":21.017532,"reserved":0,"last_update":"0001-01-01T00:00:00Z","name_a2s":"Uncletopia | Warsaw | 3 | All Maps","protocol":17,"map":"koth_viaduct","folder":"tf","game":"Team Fortress","app_id":440,"player_count":0,"max_players":24,"Bots":0,"server_type":"Dedicated","server_os":"Linux","password":true,"vac":true,"version":"7882260","steam_id":85568392925397852,"keywords":["cp","nocrits","nodmgspread","uncletopia"],"game_id":440,"stv_port":27036,"stv_name":"Uncletopia | Warsaw | 3 | All Maps | STV","players":null},{"server_id":52,"name":"Uncletopia | Warsaw | 4 | All Maps","name_short":"waw-4","host":"waw-1.pl.uncletopia.com","port":27045,"enabled":true,"region":"eu","cc":"pl","latitude":52.2297,"longitude":21.017532,"reserved":0,"last_update":"0001-01-01T00:00:00Z","name_a2s":"Uncletopia | Warsaw | 4 | All Maps","protocol":17,"map":"koth_highpass","folder":"tf","game":"Team Fortress","app_id":440,"player_count":0,"max_players":24,"Bots":0,"server_type":"Dedicated","server_os":"Linux","password":true,"vac":true,"version":"7882260","steam_id":85568392925397853,"keywords":["cp","nocrits","nodmgspread","uncletopia"],"game_id":440,"stv_port":27046,"stv_name":"Uncletopia | Warsaw | 4 | All Maps | STV","players":null},{"server_id":53,"name":"Uncletopia | Warsaw | 5 | Stopwatch Beta","name_short":"waw-5","host":"waw-1.pl.uncletopia.com","port":27055,"enabled":true,"region":"eu","cc":"pl","latitude":52.2297,"longitude":21.017532,"reserved":0,"last_update":"0001-01-01T00:00:00Z","name_a2s":"Uncletopia | Warsaw | 5 | Stopwatch Beta","protocol":17,"map":"cp_mountainlab","folder":"tf","game":"Team Fortress","app_id":440,"player_count":0,"max_players":24,"Bots":0,"server_type":"Dedicated","server_os":"Linux","password":true,"vac":true,"version":"7882260","steam_id":85568392925397854,"keywords":["cp","nocrits","nodmgspread","uncletopia"],"game_id":440,"stv_port":27056,"stv_name":"Uncletopia | Warsaw | 5 | Stopwatch Beta | STV","players":null},{"server_id":54,"name":"Uncletopia | Warsaw | 6 | Community","name_short":"waw-6","host":"waw-1.pl.uncletopia.com","port":27065,"enabled":true,"region":"eu","cc":"pl","latitude":52.2297,"longitude":21.017532,"reserved":0,"last_update":"0001-01-01T00:00:00Z","name_a2s":"Uncletopia | Warsaw | 6 | Community","protocol":17,"map":"koth_viaduct","folder":"tf","game":"Team Fortress","app_id":440,"player_count":0,"max_players":24,"Bots":0,"server_type":"Dedicated","server_os":"Linux","password":true,"vac":true,"version":"7882260","steam_id":85568392925397856,"keywords":["cp","nocrits","nodmgspread","uncletopia"],"game_id":440,"stv_port":27066,"stv_name":"Uncletopia | Warsaw | 6 | Community | STV","players":null}]}