{"status":true,"message":"","result":[{"server_id":9,"name":"Uncletopia | Atlanta | 1 | All Maps","name_short":"atl-1","host":"atl-1.us.uncletopia.com","port":27015,"enabled":true,"region":"us-east","cc":"us","latitude":33.753746,"longitude":-84.38633,"reserved":0,"last_update":"0001-01-01T00:00:00Z","name_a2s":"Uncletopia | Atlanta | 1 | All Maps","protocol":17,"map":"cp_altitude","folder":"tf","game":"Team Fortress","app_id":440,"player_count":0,"max_players":24,"Bots":0,"server_type":"Dedicated","server_os":"Linux","password":true,"vac":true,"version":"7961495","steam_id":85568392924469982,"keywords":["cp","nocrits","nodmgspread","uncletopia"],"game_id":440,"stv_port":27016,"stv_name":"Uncletopia | Atlanta | 1 | All Maps | STV","players":null},{"server_id":104,"name":"Uncletopia | Atlanta | 2 | All Maps","name_short":"atl-2","host":"atl-1.us.uncletopia.com","port":27025,"enabled":true,"region":"us-east","cc":"us","latitude":33.753746,"longitude":-84.38633,"reserved":0,"last_update":"0001-01-01T00:00:00Z","name_a2s":"Uncletopia | Atlanta | 2 | All Maps","protocol":17,"map":"pl_borneo","folder":"tf","game":"Team Fortress","app_id":440,"player_count":0,"max_players":24,"Bots":0,"server_type":"Dedicated","server_os":"Linux","password":true,"vac":true,"version":"7961495","steam_id":85568392924469983,"keywords":["nocrits","nodmgspread","payload","uncletopia"],"game_id":440,"stv_port":27026,"stv_name":"Uncletopia | Atlanta | 2 | All Maps | STV","players":null},{"server_id":400,"name":"Uncletopia | Atlanta | 3 | Stopwatch","name_short":"atl-3","host":"atl-1.us.uncletopia.com","port":27035,"enabled":true,"region":"us-east","cc":"us","latitude":33.753746,"longitude":-84.38633,"reserved":0,"last_update":"0001-01-01T00:00:00Z","name_a2s":"Uncletopia | Atlanta | 3 | Stopwatch","protocol":17,"map":"koth_highpass","folder":"tf","game":"Team Fortress","app_id":440,"player_count":0,"max_players":24,"Bots":0,"server_type":"Dedicated","server_os":"Linux","password":true,"vac":true,"version":"7961495","steam_id":85568392924515187,"keywords":["cp","nocrits","nodmgspread","uncletopia"],"game_id":440,"stv_port":27036,"stv_name":"Uncletopia | Atlanta | 3 | Stopwatch | STV","players":null},{"server_id":401,"name":"Uncletopia | Atlanta | 4 | Community","name_short":"atl-4","host":"atl-1.us.uncletopia.com","port":27045,"enabled":true,"region":"us-east","cc":"us","latitude":33.753746,"longitude":-84.38633,"reserved":0,"last_update":"0001-01-01T00:00:00Z","name_a2s":"Uncletopia | Atlanta | 4 | Community","protocol":17,"map":"koth_product_final","folder":"tf","game":"Team Fortress","app_id":440,"player_count":0,"max_players":24,"Bots":0,"server_type":"Dedicated","server_os":"Linux","password":true,"vac":true,"version":"7961495","steam_id":85568392924515188,"keywords":["cp","nocrits","nodmgspread","uncletopia"],"game_id":440,"stv_port":27046,"stv_name":"Uncletopia | Atlanta | 4 | Community | STV","players":null},{"server_id":2,"name":"Uncletopia | Chicago | 1 | All Maps","name_short":"chi-1","host":"chi-1.us.uncletopia.com","port":27015,"enabled":true,"region":"us-central","cc":"us","latitude":41.881832,"longitude":-87.62318,"reserved":0,"last_update":"0001-01-01T00:00:00Z","name_a2s":"Uncletopia | Chicago | 1 | All Maps","protocol":17,"map":"koth_viaduct","folder":"tf","game":"Team Fortress","app_id":440,"player_count":0,"max_players":24,"Bots":0,"server_type":"Dedicated","server_os":"Linux","password":true,"vac":true,"version":"7961495","steam_id":85568392924469984,"keywords":["cp","nocrits","nodmgspread","uncletopia"],"game_id":440,"stv_port":27016,"stv_name":"Uncletopia | Chicago | 1 | All Maps | STV","players":null},{"server_id":106,"name":"Uncletopia | Chicago | 2 | All Maps","name_short":"chi-2","host":"chi-1.us.uncletopia.com","port":27025,"enabled":true,"region":"us-central","cc":"us","latitude":41.881832,"longitude":-87.62318,"reserved":0,"last_update":"0001-01-01T00:00:00Z","name_a2s":"Uncletopia | Chicago | 2 | All Maps","protocol":17,"map":"koth_cascade","folder":"tf","game":"Team Fortress","app_id":440,"player_count":0,"max_players":24,"Bots":0,"server_type":"Dedicated","server_os":"Linux","password":true,"vac":true,"version":"7961495","steam_id":85568392924469985,"keywords":["cp","nocrits","nodmgspread","uncletopia"],"game_id":440,"stv_port":27026,"stv_name":"Uncletopia | Chicago | 2 | All Maps | STV","players":null},{"server_id":402,"name":"Uncletopia | Chicago | 3 | All Maps","name_short":"chi-3","host":"chi-1.us.uncletopia.com","port":27035,"enabled":true,"region":"us-central","cc":"us","latitude":41.881832,"longitude":-87.62318,"reserved":0,"last_update":"0001-01-01T00:00:00Z","name_a2s":"Uncletopia | Chicago | 3 | All Maps","protocol":17,"map":"cp_sunshine","folder":"tf","game":"Team Fortress","app_id":440,"player_count":0,"max_players":24,"Bots":0,"server_type":"Dedicated","server_os":"Linux","password":true,"vac":true,"version":"7961495","steam_id":85568392924515191,"keywords":["cp","nocrits","nodmgspread","uncletopia"],"game_id":440,"stv_port":27036,"stv_name":"Uncletopia | Chicago | 3 | All Maps | STV","players":null},{"server_id":403,"name":"Uncletopia | Chicago | 4 | All Maps","name_short":"chi-4","host":"chi-1.us.uncletopia.com","port":27045,"enabled":true,"region":"us-central","cc":"us","latitude":41.881832,"longitude":-87.62318,"reserved":0,"last_update":"0001-01-01T00:00:00Z","name_a2s":"Uncletopia | Chicago | 4 | All Maps","protocol":17,"map":"pl_snowycoast","folder":"tf","game":"Team Fortress","app_id":440,"player_count":0,"max_players":24,"Bots":0,"server_type":"Dedicated","server_os":"Linux","password":true,"vac":true,"version":"7961495","steam_id":85568392924515193,"keywords":["nocrits","nodmgspread","payload","uncletopia"],"game_id":440,"stv_port":27046,"stv_name":"Uncletopia | Chicago | 4 | All Maps | STV","players":null},{"server_id":36,"name":"Uncletopia | Chicago | 5 | All Maps","name_short":"chi-5","host":"chi-2.us.uncletopia.com","port":27015,"enabled":true,"region":"us-central","cc":"us","latitude":41.881832,"longitude":-87.62318,"reserved":0,"last_update":"0001-01-01T00:00:00Z","name_a2s":"Uncletopia | Chicago | 5 | All Maps","protocol":17,"map":"pl_upward","folder":"tf","game":"Team Fortress","app_id":440,"player_count":16,"max_players":24,"Bots":0,"server_type":"Dedicated","server_os":"Linux","password":true,"vac":true,"version":"7961495","steam_id":85568392924866362,"keywords":["nocrits","nodmgspread","payload","uncletopia"],"game_id":440,"stv_port":27016,"stv_name":"Uncletopia | Chicago | 5 | All Maps | STV","players":[{"user_id":552,"name":"ilovejameskeenan","steam_id":76561198138917834,"connected_time":323000000000,"state":"active","ping":160},{"user_id":482,"name":"sant1ska","steam_id":76561199159509242,"connected_time":5760000000000,"state":"active","ping":169},{"user_id":557,"name":"AmySuneku","steam_id":76561198205051269,"connected_time":33000000000,"state":"active","ping":63},{"user_id":556,"name":"METAVERSE LUIGI","steam_id":76561198042259533,"connected_time":64000000000,"state":"active","ping":67},{"user_id":553,"name":"Ninjoth","steam_id":76561198038611753,"connected_time":322000000000,"state":"active","ping":83},{"user_id":550,"name":"really average person","steam_id":76561199029504635,"connected_time":685000000000,"state":"active","ping":183},{"user_id":544,"name":"Ryan Lewis truther","steam_id":76561198050505826,"connected_time":955000000000,"state":"active","ping":74},{"user_id":504,"name":"skaska4","steam_id":76561198080606141,"connected_time":4321000000000,"state":"active","ping":61},{"user_id":528,"name":"Saikou!!!","steam_id":76561198044045406,"connected_time":2691000000000,"state":"active","ping":75},{"user_id":461,"name":"Goober","steam_id":76561198988863807,"connected_time":8408000000000,"state":"active","ping":75},{"user_id":538,"name":"Whatsapp Spy","steam_id":76561198085410969,"connected_time":1717000000000,"state":"active","ping":53},{"user_id":539,"name":"MrLonelySlayer","steam_id":76561198061793470,"connected_time":1590000000000,"state":"active","ping":56},{"user_id":514,"name":"Twig","steam_id":76561198144111736,"connected_time":3435000000000,"state":"active","ping":57},{"user_id":479,"name":"frank","steam_id":76561198137777483,"connected_time":6462000000000,"state":"active","ping":65},{"user_id":477,"name":"‚ô• mastercoms ‚ô•","steam_id":76561198046110893,"connected_time":7286000000000,"state":"active","ping":56},{"user_id":524,"name":"Cosmic sR","steam_id":76561198081738675,"connected_time":3016000000000,"state":"active","ping":81}]},{"server_id":37,"name":"Uncletopia | Chicago | 6 | All Maps","name_short":"chi-6","host":"chi-2.us.uncletopia.com","port":27025,"enabled":true,"region":"us-central","cc":"us","latitude":41.881832,"longitude":-87.62318,"reserved":0,"last_update":"0001-01-01T00:00:00Z","name_a2s":"Uncletopia | Chicago | 6 | All Maps","protocol":17,"map":"koth_cascade","folder":"tf","game":"Team Fortress","app_id":440,"player_count":0,"max_players":24,"Bots":0,"server_type":"Dedicated","server_os":"Linux","password":true,"vac":true,"version":"7961495","steam_id":85568392924866363,"keywords":["cp","nocrits","nodmgspread","uncletopia"],"game_id":440,"stv_port":27026,"stv_name":"Uncletopia | Chicago | 6 | All Maps | STV","players":null},{"server_id":38,"name":"Uncletopia | Chicago | 7 | Stopwatch","name_short":"chi-7","host":"chi-2.us.uncletopia.com","port":27035,"enabled":true,"region":"us-central","cc":"us","latitude":41.881832,"longitude":-87.62318,"reserved":0,"last_update":"0001-01-01T00:00:00Z","name_a2s":"Uncletopia | Chicago | 7 | Stopwatch","protocol":17,"map":"koth_highpass","folder":"tf","game":"Team Fortress","app_id":440,"player_count":0,"max_players":24,"Bots":0,"server_type":"Dedicated","server_os":"Linux","password":true,"vac":true,"version":"7961495","steam_id":85568392924866364,"keywords":["cp","nocrits","nodmgspread","uncletopia"],"game_id":440,"stv_port":27036,"stv_name":"Uncletopia | Chicago | 7 | Stopwatch | STV","players":null},{"server_id":39,"name":"Uncletopia | Chicago | 8 | Community","name_short":"chi-8","host":"chi-2.us.uncletopia.com","port":27045,"enabled":true,"region":"us-central","cc":"us","latitude":41.881832,"longitude":-87.62318,"reserved":0,"last_update":"0001-01-01T00:00:00Z","name_a2s":"Uncletopia | Chicago | 8 | Community","protocol":17,"map":"workshop/pl_fifthcurve_rc1.ugc648227046","folder":"tf","game":"Team Fortress","app_id":440,"player_count":0,"max_players":24,"Bots":0,"server_type":"Dedicated","server_os":"Linux","password":true,"vac":true,"version":"7961495","steam_id":85568392924866365,"keywords":["nocrits","nodmgspread","payload","uncletopia"],"game_id":440,"stv_port":27046,"stv_name":"Uncletopia | Chicago | 8 | Community | STV","players":null},{"server_id":8,"name":"Uncletopia | Dallas | 1 | All Maps","name_short":"dal-1","host":"dal-1.us.uncletopia.com","port":27015,"enabled":true,"region":"us-central","cc":"us","latitude":32.779167,"longitude":-96.80889,"reserved":0,"last_update":"0001-01-01T00:00:00Z","name_a2s":"Uncletopia | Dallas | 1 | All Maps","protocol":17,"map":"pl_badwater","folder":"tf","game":"Team Fortress","app_id":440,"player_count":24,"max_players":24,"Bots":0,"server_type":"Dedicated","server_os":"Linux","password":true,"vac":true,"version":"7961495","steam_id":85568392924469986,"keywords":["nocrits","nodmgspread","payload","uncletopia"],"game_id":440,"stv_port":27016,"stv_name":"Uncletopia | Dallas | 1 | All Maps | STV","players":[{"user_id":880,"name":"manz","steam_id":76561198059065906,"connected_time":288000000000,"state":"active","ping":78},{"user_id":870,"name":"Pig Benis","steam_id":76561198131697020,"connected_time":1739000000000,"state":"active","ping":92},{"user_id":884,"name":"njokuani","steam_id":76561199061380038,"connected_time":16000000000,"state":"active","ping":70},{"user_id":876,"name":"Bean Marrow","steam_id":76561198116650223,"connected_time":1109000000000,"state":"active","ping":72},{"user_id":867,"name":"Vivi","steam_id":76561198141001353,"connected_time":1904000000000,"state":"active","ping":58},{"user_id":881,"name":"b-dot","steam_id":76561198160786631,"connected_time":264000000000,"state":"active","ping":71},{"user_id":855,"name":"MithStyck","steam_id":76561198071538489,"connected_time":3160000000000,"state":"active","ping":53},{"user_id":836,"name":"Tommy Provolone","steam_id":76561198170062377,"connected_time":4756000000000,"state":"active","ping":68},{"user_id":737,"name":"drinking a soda","steam_id":76561197979921291,"connected_time":16688000000000,"state":"active","ping":47},{"user_id":874,"name":"Irony is pretty cringy","steam_id":76561198120391460,"connected_time":1469000000000,"state":"active","ping":75},{"user_id":868,"name":"Muelas De Gang","steam_id":76561198083952982,"connected_time":1871000000000,"state":"active","ping":89},{"user_id":785,"name":"jameson drinking daddy's girl","steam_id":76561198025706300,"connected_time":9754000000000,"state":"active","ping":108},{"user_id":860,"name":"CreateADebate","steam_id":76561198115760035,"connected_time":2696000000000,"state":"active","ping":62},{"user_id":882,"name":"nude barber","steam_id":76561198254968823,"connected_time":253000000000,"state":"active","ping":58},{"user_id":877,"name":"LewdestLoli","steam_id":76561197967842240,"connected_time":1034000000000,"state":"active","ping":56},{"user_id":858,"name":"Arrythmia","steam_id":76561198093748123,"connected_time":3099000000000,"state":"active","ping":101},{"user_id":864,"name":"Lucil3 on Bandcamp","steam_id":76561198149063013,"connected_time":2520000000000,"state":"active","ping":56},{"user_id":883,"name":"Chap","steam_id":76561198294226443,"connected_time":226000000000,"state":"active","ping":85},{"user_id":859,"name":"dweamy","steam_id":76561198119181880,"connected_time":2998000000000,"state":"active","ping":65},{"user_id":878,"name":"loser","steam_id":76561198259380127,"connected_time":666000000000,"state":"active","ping":75},{"user_id":813,"name":"{ST} Oxythemoron","steam_id":76561198060089965,"connected_time":7491000000000,"state":"active","ping":51},{"user_id":825,"name":"Shiverin' Niblets","steam_id":76561198038162216,"connected_time":5898000000000,"state":"active","ping":103},{"user_id":861,"name":"ratboy","steam_id":76561198329865329,"connected_time":2664000000000,"state":"active","ping":84},{"user_id":885,"name":"pudl","steam_id":76561198043726592,"connected_time":15000000000,"state":"active","ping":50}]},{"server_id":108,"name":"Uncletopia | Dallas | 2 | All Maps","name_short":"dal-2","host":"dal-1.us.uncletopia.com","port":27025,"enabled":true,"region":"us-central","cc":"us","latitude":32.779167,"longitude":-96.80889,"reserved":0,"last_update":"0001-01-01T00:00:00Z","name_a2s":"Uncletopia | Dallas | 2 | All Maps","protocol":17,"map":"pl_pier","folder":"tf","game":"Team Fortress","app_id":440,"player_count":23,"max_players":24,"Bots":0,"server_type":"Dedicated","server_os":"Linux","password":true,"vac":true,"version":"7961495","steam_id":85568392924469988,"keywords":["nocrits","nodmgspread","payload","uncletopia"],"game_id":440,"stv_port":27026,"stv_name":"Uncletopia | Dallas | 2 | All Maps | STV","players":[{"user_id":702,"name":"Rohigi","steam_id":76561198261890023,"connected_time":190000000000,"state":"active","ping":92},{"user_id":682,"name":"Hey","steam_id":76561198447517893,"connected_time":1686000000000,"state":"active","ping":73},{"user_id":687,"name":"Rally","steam_id":76561198004485218,"connected_time":1023000000000,"state":"active","ping":89},{"user_id":703,"name":"dabeed","steam_id":76561198140596499,"connected_time":183000000000,"state":"active","ping":101},{"user_id":660,"name":"the master of cats","steam_id":76561198819255576,"connected_time":3510000000000,"state":"active","ping":70},{"user_id":704,"name":"dominix","steam_id":76561199045061504,"connected_time":143000000000,"state":"active","ping":133},{"user_id":694,"name":"Harufloofer","steam_id":76561199084506827,"connected_time":582000000000,"state":"active","ping":35},{"user_id":705,"name":"Star_Mann_Jr.","steam_id":76561198071148924,"connected_time":140000000000,"state":"active","ping":87},{"user_id":613,"name":"conner","steam_id":76561198052911241,"connected_time":7055000000000,"state":"active","ping":91},{"user_id":706,"name":"MarioManz","steam_id":76561198123454475,"connected_time":22000000000,"state":"active","ping":48},{"user_id":683,"name":"Burny Sanders","steam_id":76561197961879048,"connected_time":1642000000000,"state":"active","ping":43},{"user_id":707,"name":"Glim Glam","steam_id":76561198043111286,"connected_time":16000000000,"state":"spawning","ping":64},{"user_id":695,"name":"League Of Legends","steam_id":76561198316583118,"connected_time":577000000000,"state":"active","ping":74},{"user_id":689,"name":"Drapph","steam_id":76561199384213314,"connected_time":845000000000,"state":"active","ping":96},{"user_id":622,"name":"Biscipline","steam_id":76561198019206178,"connected_time":6656000000000,"state":"active","ping":77},{"user_id":700,"name":"Marble","steam_id":76561198001672973,"connected_time":305000000000,"state":"active","ping":56},{"user_id":670,"name":"benny worm","steam_id":76561198163238434,"connected_time":2564000000000,"state":"active","ping":91},{"user_id":693,"name":"Kasimir","steam_id":76561198013840333,"connected_time":703000000000,"state":"active","ping":61},{"user_id":678,"name":"small meth pouch","steam_id":76561198130412963,"connected_time":2140000000000,"state":"active","ping":71},{"user_id":679,"name":"Neo Kojiro","steam_id":76561198000967076,"connected_time":2105000000000,"state":"active","ping":106},{"user_id":632,"name":"fitotutus","steam_id":76561197974993253,"connected_time":5641000000000,"state":"active","ping":135},{"user_id":697,"name":"Melody","steam_id":76561198407789232,"connected_time":550000000000,"state":"active","ping":114},{"user_id":698,"name":"chanoc","steam_id":76561198026734746,"connected_time":527000000000,"state":"active","ping":84}]},{"server_id":404,"name":"Uncletopia | Dallas | 3 | All Maps","name_short":"dal-3","host":"dal-1.us.uncletopia.com","port":27035,"enabled":true,"region":"us-central","cc":"us","latitude":32.779167,"longitude":-96.80889,"reserved":0,"last_update":"0001-01-01T00:00:00Z","name_a2s":"Uncletopia | Dallas | 3 | All Maps","protocol":17,"map":"koth_lakeside_final","folder":"tf","game":"Team Fortress","app_id":440,"player_count":0,"max_players":24,"Bots":0,"server_type":"Dedicated","server_os":"Linux","password":true,"vac":true,"version":"7961495","steam_id":85568392924515219,"keywords":["cp","nocrits","nodmgspread","uncletopia"],"game_id":440,"stv_port":27036,"stv_name":"Uncletopia | Dallas | 3 | All Maps | STV","players":null},{"server_id":405,"name":"Uncletopia | Dallas | 4 | Community","name_short":"dal-4","host":"dal-1.us.uncletopia.com","port":27045,"enabled":true,"region":"us-central","cc":"us","latitude":32.779167,"longitude":-96.80889,"reserved":0,"last_update":"0001-01-01T00:00:00Z","name_a2s":"Uncletopia | Dallas | 4 | Community","protocol":17,"map":"workshop/cp_overgrown_rc8.ugc503939302","folder":"tf","game":"Team Fortress","app_id":440,"player_count":0,"max_players":24,"Bots":0,"server_type":"Dedicated","server_os":"Linux","password":true,"vac":true,"version":"7961495","steam_id":85568392924515220,"keywords":["cp","nocrits","nodmgspread","uncletopia"],"game_id":440,"stv_port":27046,"stv_name":"Uncletopia | Dallas | 4 | Community | STV","players":null},{"server_id":5,"name":"Uncletopia | Frankfurt | 1 | All Maps","name_short":"frk-1","host":"frk-1.de.uncletopia.com","port":27015,"enabled":true,"region":"eu","cc":"de","latitude":50.110924,"longitude":8.682127,"reserved":0,"last_update":"0001-01-01T00:00:00Z","name_a2s":"Uncletopia | Frankfurt | 1 | All Maps","protocol":17,"map":"koth_highpass","folder":"tf","game":"Team Fortress","app_id":440,"player_count":0,"max_players":24,"Bots":0,"server_type":"Dedicated","server_os":"Linux","password":true,"vac":true,"version":"7961495","steam_id":85568392924469989,"keywords":["cp","nocrits","nodmgspread","uncletopia"],"game_id":440,"stv_port":27016,"stv_name":"Uncletopia | Frankfurt | 1 | All Maps | STV","players":null},{"server_id":110,"name":"Uncletopia | Frankfurt | 2 | All Maps","name_short":"frk-2","host":"frk-1.de.uncletopia.com","port":27025,"enabled":true,"region":"eu","cc":"de","latitude":50.110924,"longitude":8.682127,"reserved":0,"last_update":"0001-01-01T00:00:00Z","name_a2s":"Uncletopia | Frankfurt | 2 | All Maps","protocol":17,"map":"cp_dustbowl","folder":"tf","game":"Team Fortress","app_id":440,"player_count":0,"max_players":24,"Bots":0,"server_type":"Dedicated","server_os":"Linux","password":true,"vac":true,"version":"7961495","steam_id":85568392924469990,"keywords":["cp","nocrits","nodmgspread","uncletopia"],"game_id":440,"stv_port":27026,"stv_name":"Uncletopia | Frankfurt | 2 | All Maps | STV","players":null},{"server_id":308,"name":"Uncletopia | Frankfurt | 3 | All Maps","name_short":"frk-3","host":"frk-1.de.uncletopia.com","port":27035,"enabled":true,"region":"eu","cc":"de","latitude":50.110924,"longitude":8.682127,"reserved":0,"last_update":"0001-01-01T00:00:00Z","name_a2s":"Uncletopia | Frankfurt | 3 | All Maps","protocol":17,"map":"pl_badwater","folder":"tf","game":"Team Fortress","app_id":440,"player_count":22,"max_players":24,"Bots":0,"server_type":"Dedicated","server_os":"Linux","password":true,"vac":true,"version":"7961495","steam_id":85568392924504274,"keywords":["nocrits","nodmgspread","payload","uncletopia"],"game_id":440,"stv_port":27036,"stv_name":"Uncletopia | Frankfurt | 3 | All Maps | STV","players":[{"user_id":50,"name":"i have a micropenis","steam_id":76561199009805208,"connected_time":1188000000000,"state":"active","ping":103},{"user_id":4,"name":"godzillaturkmen","steam_id":76561198399184483,"connected_time":4537000000000,"state":"active","ping":98},{"user_id":53,"name":"nefariousevilsorcerermoonGrass","steam_id":76561198799519725,"connected_time":813000000000,"state":"active","ping":104},{"user_id":56,"name":"eggy","steam_id":76561198255623584,"connected_time":703000000000,"state":"active","ping":63},{"user_id":57,"name":"M√©bh √ìg MacT√≠re","steam_id":76561198346399624,"connected_time":525000000000,"state":"active","ping":69},{"user_id":51,"name":"Duxxy","steam_id":76561198086796116,"connected_time":1046000000000,"state":"active","ping":76},{"user_id":64,"name":"Gordon","steam_id":76561198303652059,"connected_time":89000000000,"state":"active","ping":70},{"user_id":54,"name":"[V.G.T.41] Seva the Gnome","steam_id":76561198951268072,"connected_time":806000000000,"state":"active","ping":90},{"user_id":33,"name":"Laryssa","steam_id":76561198271084076,"connected_time":2369000000000,"state":"active","ping":73},{"user_id":55,"name":"leadsquid","steam_id":76561198071544109,"connected_time":743000000000,"state":"active","ping":128},{"user_id":35,"name":"Arthur","steam_id":76561198066109166,"connected_time":2335000000000,"state":"active","ping":77},{"user_id":62,"name":"narlee","steam_id":76561198058084646,"connected_time":275000000000,"state":"active","ping":75},{"user_id":63,"name":"[Thrall891]","steam_id":76561198136402128,"connected_time":243000000000,"state":"active","ping":89},{"user_id":65,"name":"HatMann","steam_id":76561198821664938,"connected_time":77000000000,"state":"active","ping":83},{"user_id":21,"name":"real videogamer (real)","steam_id":76561198053929269,"connected_time":2859000000000,"state":"active","ping":81},{"user_id":49,"name":"qwarksss","steam_id":76561199117223246,"connected_time":1296000000000,"state":"active","ping":84},{"user_id":24,"name":"Farfhal","steam_id":76561199495593538,"connected_time":2721000000000,"state":"active","ping":43},{"user_id":44,"name":"Max","steam_id":76561198080956366,"connected_time":1687000000000,"state":"active","ping":84},{"user_id":28,"name":"m909","steam_id":76561198279621400,"connected_time":2558000000000,"state":"active","ping":90},{"user_id":41,"name":"Qin Shi Huangdi","steam_id":76561198119398919,"connected_time":1888000000000,"state":"active","ping":63},{"user_id":30,"name":"Collin","steam_id":76561198067030681,"connected_time":2558000000000,"state":"active","ping":59},{"user_id":45,"name":"Mitra132","steam_id":76561198326263157,"connected_time":1604000000000,"state":"active","ping":63}]},{"server_id":309,"name":"Uncletopia | Frankfurt | 4 | All Maps","name_short":"frk-4","host":"frk-1.de.uncletopia.com","port":27045,"enabled":true,"region":"eu","cc":"de","latitude":50.110924,"longitude":8.682127,"reserved":0,"last_update":"0001-01-01T00:00:00Z","name_a2s":"Uncletopia | Frankfurt | 4 | All Maps","protocol":17,"map":"koth_highpass","folder":"tf","game":"Team Fortress","app_id":440,"player_count":0,"max_players":24,"Bots":0,"server_type":"Dedicated","server_os":"Linux","password":true,"vac":true,"version":"7961495","steam_id":85568392924504275,"keywords":["cp","nocrits","nodmgspread","uncletopia"],"game_id":440,"stv_port":27046,"stv_name":"Uncletopia | Frankfurt | 4 | All Maps | STV","players":null},{"server_id":310,"name":"Uncletopia | Frankfurt | 5 | All Maps","name_short":"frk-5","host":"frk-1.de.uncletopia.com","port":27055,"enabled":true,"region":"eu","cc":"de","latitude":50.110924,"longitude":8.682127,"reserved":0,"last_update":"0001-01-01T00:00:00Z","name_a2s":"Uncletopia | Frankfurt | 5 | All Maps","protocol":17,"map":"pl_badwater","folder":"tf","game":"Team Fortress","app_id":440,"player_count":0,"max_players":24,"Bots":0,"server_type":"Dedicated","server_os":"Linux","password":true,"vac":true,"version":"7961495","steam_id":85568392924504277,"keywords":["nocrits","nodmgspread","payload","uncletopia"],"game_id":440,"stv_port":27056,"stv_name":"Uncletopia | Frankfurt | 5 | All Maps | STV","players":null},{"server_id":311,"name":"Uncletopia | Frankfurt | 6 | All Maps","name_short":"frk-6","host":"frk-1.de.uncletopia.com","port":27065,"enabled":true,"region":"eu","cc":"de","latitude":50.110924,"longitude":8.682127,"reserved":0,"last_update":"0001-01-01T00:00:00Z","name_a2s":"Uncletopia | Frankfurt | 6 | All Maps","protocol":17,"map":"cp_altitude","folder":"tf","game":"Team Fortress","app_id":440,"player_count":0,"max_players":24,"Bots":0,"server_type":"Dedicated","server_os":"Linux","password":true,"vac":true,"version":"7961495","steam_id":85568392924504278,"keywords":["cp","nocrits","nodmgspread","uncletopia"],"game_id":440,"stv_port":27066,"stv_name":"Uncletopia | Frankfurt | 6 | All Maps | STV","players":null},{"server_id":23,"name":"Uncletopia | Frankfurt | 7 | Stopwatch","name_short":"frk-7","host":"frk-1.de.uncletopia.com","port":27075,"enabled":true,"region":"eu","cc":"de","latitude":50.110924,"longitude":8.682127,"reserved":0,"last_update":"0001-01-01T00:00:00Z","name_a2s":"Uncletopia | Frankfurt | 7 | Stopwatch","protocol":17,"map":"pl_frontier_final","folder":"tf","game":"Team Fortress","app_id":440,"player_count":0,"max_players":24,"Bots":0,"server_type":"Dedicated","server_os":"Linux","password":true,"vac":true,"version":"7961495","steam_id":85568392924742827,"keywords":["nocrits","nodmgspread","payload","uncletopia"],"game_id":440,"stv_port":27076,"stv_name":"Uncletopia | Frankfurt | 7 | Stopwatch | STV","players":null},{"server_id":24,"name":"Uncletopia | Frankfurt | 8 | Community","name_short":"frk-8","host":"frk-1.de.uncletopia.com","port":27085,"enabled":true,"region":"eu","cc":"de","latitude":50.110924,"longitude":8.682127,"reserved":0,"last_update":"0001-01-01T00:00:00Z","name_a2s":"Uncletopia | Frankfurt | 8 | Community","protocol":17,"map":"cp_mountainlab","folder":"tf","game":"Team Fortress","app_id":440,"player_count":0,"max_players":24,"Bots":0,"server_type":"Dedicated","server_os":"Linux","password":true,"vac":true,"version":"7961495","steam_id":85568392924742828,"keywords":["cp","nocrits","nodmgspread","uncletopia"],"game_id":440,"stv_port":27086,"stv_name":"Uncletopia | Frankfurt | 8 | Community | STV","players":null},{"server_id":202,"name":"Uncletopia | Hong Kong | 1 | All Maps","name_short":"hgk-1","host":"hgk-1.hk.uncletopia.com","port":27015,"enabled":true,"region":"asia","cc":"hk","latitude":22.302711,"longitude":114.177216,"reserved":0,"last_update":"0001-01-01T00:00:00Z","name_a2s":"Uncletopia | Hong Kong | 1 | All Maps","protocol":17,"map":"pl_snowycoast","folder":"tf","game":"Team Fortress","app_id":440,"player_count":4,"max_players":24,"Bots":0,"server_type":"Dedicated","server_os":"Linux","password":true,"vac":true,"version":"7961495","steam_id":85568392924494504,"keywords":["nocrits","nodmgspread","payload","uncletopia"],"game_id":440,"stv_port":27016,"stv_name":"Uncletopia | Hong Kong | 1 | All Maps | STV","players":[{"user_id":15,"name":"hotgamerth","steam_id":76561199026418153,"connected_time":1563000000000,"state":"active","ping":87},{"user_id":18,"name":"Hatred eyes","steam_id":76561199162652759,"connected_time":1450000000000,"state":"active","ping":61},{"user_id":17,"name":"Vigna Gaming","steam_id":76561199472833139,"connected_time":1524000000000,"state":"active","ping":75},{"user_id":21,"name":"Myrtos.","steam_id":76561198121563829,"connected_time":1003000000000,"state":"active","ping":88}]},{"server_id":1,"name":"Uncletopia | Los Angeles | 1 | All Maps","name_short":"lax-1","host":"lax-1.us.uncletopia.com","port":27015,"enabled":true,"region":"us-west","cc":"us","latitude":33.94279,"longitude":-118.41004,"reserved":0,"last_update":"0001-01-01T00:00:00Z","name_a2s":"Uncletopia | Los Angeles | 1 | All Maps","protocol":17,"map":"koth_lakeside_final","folder":"tf","game":"Team Fortress","app_id":440,"player_count":21,"max_players":24,"Bots":0,"server_type":"Dedicated","server_os":"Linux","password":true,"vac":true,"version":"7961495","steam_id":85568392924469991,"keywords":["cp","nocrits","nodmgspread","uncletopia"],"game_id":440,"stv_port":27016,"stv_name":"Uncletopia | Los Angeles | 1 | All Maps | STV","players":[{"user_id":726,"name":"êÇÉêÇÉêÇÉêÇÉ","steam_id":76561198106201225,"connected_time":582000000000,"state":"active","ping":68},{"user_id":721,"name":"Stag","steam_id":76561198058537502,"connected_time":1341000000000,"state":"active","ping":64},{"user_id":728,"name":"ARZIAC","steam_id":76561198285109227,"connected_time":435000000000,"state":"active","ping":62},{"user_id":708,"name":"SmilingShadows","steam_id":76561198170675835,"connected_time":2653000000000,"state":"active","ping":94},{"user_id":695,"name":"cjetson","steam_id":76561198074482272,"connected_time":3745000000000,"state":"active","ping":57},{"user_id":709,"name":"sobaka","steam_id":76561198116008934,"connected_time":2616000000000,"state":"active","ping":64},{"user_id":676,"name":"retro 7","steam_id":76561198285265582,"connected_time":5223000000000,"state":"active","ping":43},{"user_id":733,"name":"get some bitches","steam_id":76561198087439612,"connected_time":103000000000,"state":"active","ping":111},{"user_id":729,"name":"GIGAHAXX","steam_id":76561197993714726,"connected_time":318000000000,"state":"active","ping":60},{"user_id":713,"name":"yellow ·óúÀ¨·óú","steam_id":76561198366474647,"connected_time":2122000000000,"state":"active","ping":41},{"user_id":697,"name":"gerg","steam_id":76561197997127387,"connected_time":3648000000000,"state":"active","ping":60},{"user_id":649,"name":"Zykron","steam_id":76561199056400800,"connected_time":6646000000000,"state":"active","ping":49},{"user_id":712,"name":"a chicken","steam_id":76561198313121580,"connected_time":2127000000000,"state":"active","ping":45},{"user_id":730,"name":"abel","steam_id":76561199491612327,"connected_time":285000000000,"state":"active","ping":68},{"user_id":699,"name":"social distance warrior","steam_id":76561198128992994,"connected_time":3643000000000,"state":"active","ping":75},{"user_id":715,"name":"jovial","steam_id":76561198297130941,"connected_time":2038000000000,"state":"active","ping":45},{"user_id":703,"name":"Karg","steam_id":76561198091387866,"connected_time":3447000000000,"state":"active","ping":67},{"user_id":711,"name":"dewey","steam_id":76561198132791511,"connected_time":2493000000000,"state":"active","ping":56},{"user_id":716,"name":"Mr. Carfox","steam_id":76561198041664428,"connected_time":2025000000000,"state":"active","ping":57},{"user_id":731,"name":"Mister Maze","steam_id":76561197970949652,"connected_time":244000000000,"state":"active","ping":86},{"user_id":718,"name":"SOGGY DOGGY","steam_id":76561199158847498,"connected_time":1923000000000,"state":"active","ping":64}]},{"server_id":112,"name":"Uncletopia | Los Angeles | 2 | All Maps","name_short":"lax-2","host":"lax-1.us.uncletopia.com","port":27025,"enabled":true,"region":"us-west","cc":"us","latitude":33.94279,"longitude":-118.41004,"reserved":0,"last_update":"0001-01-01T00:00:00Z","name_a2s":"Uncletopia | Los Angeles | 2 | All Maps","protocol":17,"map":"koth_lakeside_final","folder":"tf","game":"Team Fortress","app_id":440,"player_count":0,"max_players":24,"Bots":0,"server_type":"Dedicated","server_os":"Linux","password":true,"vac":true,"version":"7961495","steam_id":85568392924469992,"keywords":["cp","nocrits","nodmgspread","uncletopia"],"game_id":440,"stv_port":27026,"stv_name":"Uncletopia | Los Angeles | 2 | All Maps | STV","players":null},{"server_id":324,"name":"Uncletopia | Los Angeles | 3 | All Maps","name_short":"lax-3","host":"lax-1.us.uncletopia.com","port":27035,"enabled":true,"region":"us-west","cc":"us","latitude":33.94279,"longitude":-118.41004,"reserved":0,"last_update":"0001-01-01T00:00:00Z","name_a2s":"Uncletopia | Los Angeles | 3 | All Maps","protocol":17,"map":"cp_sunshine","folder":"tf","game":"Team Fortress","app_id":440,"player_count":0,"max_players":24,"Bots":0,"server_type":"Dedicated","server_os":"Linux","password":true,"vac":true,"version":"7961495","steam_id":85568392924510198,"keywords":["cp","nocrits","nodmgspread","uncletopia"],"game_id":440,"stv_port":27036,"stv_name":"Uncletopia | Los Angeles | 3 | All Maps | STV","players":null},{"server_id":25,"name":"Uncletopia | Los Angeles | 4 | Stopwatch","name_short":"lax-4","host":"lax-1.us.uncletopia.com","port":27045,"enabled":true,"region":"us-west","cc":"us","latitude":33.94279,"longitude":-118.41004,"reserved":0,"last_update":"0001-01-01T00:00:00Z","name_a2s":"Uncletopia | Los Angeles | 4 | Stopwatch","protocol":17,"map":"workshop/koth_ashville_final.ugc2130459942","folder":"tf","game":"Team Fortress","app_id":440,"player_count":0,"max_players":24,"Bots":0,"server_type":"Dedicated","server_os":"Linux","password":true,"vac":true,"version":"7961495","steam_id":85568392924510199,"keywords":["cp","nocrits","nodmgspread","uncletopia"],"game_id":440,"stv_port":27046,"stv_name":"Uncletopia | Los Angeles | 4 | Stopwatch | STV","players":null},{"server_id":11,"name":"Uncletopia | London | 1 | All Maps","name_short":"lon-1","host":"lon-1.uk.uncletopia.com","port":27015,"enabled":true,"region":"eu","cc":"gb","latitude":51.509865,"longitude":-0.118092,"reserved":0,"last_update":"0001-01-01T00:00:00Z","name_a2s":"Uncletopia | London | 1 | All Maps","protocol":17,"map":"cp_process_final","folder":"tf","game":"Team Fortress","app_id":440,"player_count":23,"max_players":24,"Bots":0,"server_type":"Dedicated","server_os":"Linux","password":true,"vac":true,"version":"7961495","steam_id":85568392924367362,"keywords":["cp","nocrits","nodmgspread","uncletopia"],"game_id":440,"stv_port":27016,"stv_name":"Uncletopia | London | 1 | All Maps | STV","players":[{"user_id":114,"name":"im tired","steam_id":76561198812159557,"connected_time":1573000000000,"state":"active","ping":80},{"user_id":112,"name":"GMsU | Rebikas","steam_id":76561198077053764,"connected_time":1600000000000,"state":"active","ping":51},{"user_id":60,"name":"build","steam_id":76561198818037965,"connected_time":6275000000000,"state":"active","ping":106},{"user_id":113,"name":"Asmodeus","steam_id":76561198283156425,"connected_time":1597000000000,"state":"active","ping":78},{"user_id":24,"name":"marvi444","steam_id":76561198431534139,"connected_time":8897000000000,"state":"active","ping":52},{"user_id":106,"name":"HIGH CULTIST VARNU","steam_id":76561198104896547,"connected_time":2934000000000,"state":"active","ping":78},{"user_id":115,"name":"yuno appreciator","steam_id":76561198083286511,"connected_time":1562000000000,"state":"active","ping":43},{"user_id":120,"name":"brachi","steam_id":76561198080981191,"connected_time":442000000000,"state":"active","ping":70},{"user_id":70,"name":"MANCO FETT","steam_id":76561198107128889,"connected_time":5163000000000,"state":"active","ping":166},{"user_id":48,"name":"Sakari","steam_id":76561197997811299,"connected_time":7045000000000,"state":"active","ping":60},{"user_id":96,"name":"pharmacist","steam_id":76561198274424248,"connected_time":3747000000000,"state":"active","ping":104},{"user_id":117,"name":"Rillegin","steam_id":76561198000376638,"connected_time":1239000000000,"state":"active","ping":75},{"user_id":100,"name":"Umme","steam_id":76561198053809566,"connected_time":2978000000000,"state":"active","ping":85},{"user_id":77,"name":"miomy","steam_id":76561198056258600,"connected_time":4968000000000,"state":"active","ping":137},{"user_id":118,"name":"Geese Goose","steam_id":76561198070903248,"connected_time":1057000000000,"state":"active","ping":59},{"user_id":122,"name":"Intruder","steam_id":76561198156128173,"connected_time":407000000000,"state":"active","ping":74},{"user_id":116,"name":"Gabe Howard","steam_id":76561198331677788,"connected_time":1410000000000,"state":"active","ping":84},{"user_id":111,"name":"LizCul","steam_id":76561198024436969,"connected_time":1923000000000,"state":"active","ping":61},{"user_id":105,"name":"Can't outsmart bullet","steam_id":76561199239168617,"connected_time":2960000000000,"state":"active","ping":67},{"user_id":123,"name":"DarkWra1th","steam_id":76561199081266709,"connected_time":287000000000,"state":"active","ping":77},{"user_id":59,"name":"Rin-Nakaret","steam_id":76561197971051188,"connected_time":6292000000000,"state":"active","ping":61},{"user_id":94,"name":"Air","steam_id":76561198271025518,"connected_time":3884000000000,"state":"active","ping":106},{"user_id":124,"name":"–≤–≤–µ—Ä—Ö","steam_id":76561198209609147,"connected_time":286000000000,"state":"active","ping":104}]},{"server_id":114,"name":"Uncletopia | London | 2 | All Maps","name_short":"lon-2","host":"lon-1.uk.uncletopia.com","port":27025,"enabled":true,"region":"eu","cc":"gb","latitude":51.509865,"longitude":-0.118092,"reserved":0,"last_update":"0001-01-01T00:00:00Z","name_a2s":"Uncletopia | London | 2 | All Maps","protocol":17,"map":"koth_lakeside_final","folder":"tf","game":"Team Fortress","app_id":440,"player_count":0,"max_players":24,"Bots":0,"server_type":"Dedicated","server_os":"Linux","password":true,"vac":true,"version":"7961495","steam_id":85568392924470941,"keywords":["cp","nocrits","nodmgspread","uncletopia"],"game_id":440,"stv_port":27026,"stv_name":"Uncletopia | London | 2 | All Maps | STV","players":null},{"server_id":320,"name":"Uncletopia | London | 3 | All Maps","name_short":"lon-3","host":"lon-1.uk.uncletopia.com","port":27035,"enabled":true,"region":"eu","cc":"gb","latitude":51.509865,"longitude":-0.118092,"reserved":0,"last_update":"0001-01-01T00:00:00Z","name_a2s":"Uncletopia | London | 3 | All Maps","protocol":17,"map":"cp_process_final","folder":"tf","game":"Team Fortress","app_id":440,"player_count":0,"max_players":24,"Bots":0,"server_type":"Dedicated","server_os":"Linux","password":true,"vac":true,"version":"7961495","steam_id":85568392924510192,"keywords":["cp","nocrits","nodmgspread","uncletopia"],"game_id":440,"stv_port":27036,"stv_name":"Uncletopia | London | 3 | All Maps | STV","players":null},{"server_id":321,"name":"Uncletopia | London | 4 | All Maps","name_short":"lon-4","host":"lon-1.uk.uncletopia.com","port":27045,"enabled":true,"region":"eu","cc":"gb","latitude":51.509865,"longitude":-0.118092,"reserved":0,"last_update":"0001-01-01T00:00:00Z","name_a2s":"Uncletopia | London | 4 | All Maps","protocol":17,"map":"koth_cascade","folder":"tf","game":"Team Fortress","app_id":440,"player_count":0,"max_players":24,"Bots":0,"server_type":"Dedicated","server_os":"Linux","password":true,"vac":true,"version":"7961495","steam_id":85568392924510193,"keywords":["cp","nocrits","nodmgspread","uncletopia"],"game_id":440,"stv_port":27046,"stv_name":"Uncletopia | London | 4 | All Maps | STV","players":null},{"server_id":21,"name":"Uncletopia | London | 5 | All Maps","name_short":"lon-5","host":"lon-1.uk.uncletopia.com","port":27055,"enabled":true,"region":"eu","cc":"gb","latitude":51.509865,"longitude":-0.118092,"reserved":0,"last_update":"0001-01-01T00:00:00Z","name_a2s":"Uncletopia | London | 5 | All Maps","protocol":17,"map":"koth_lakeside_final","folder":"tf","game":"Team Fortress","app_id":440,"player_count":0,"max_players":24,"Bots":0,"server_type":"Dedicated","server_os":"Linux","password":true,"vac":true,"version":"7961495","steam_id":85568392924742829,"keywords":["cp","nocrits","nodmgspread","uncletopia"],"game_id":440,"stv_port":27056,"stv_name":"Uncletopia | London | 5 | All Maps | STV","players":null},{"server_id":22,"name":"Uncletopia | London | 6 | All Maps","name_short":"lon-6","host":"lon-1.uk.uncletopia.com","port":27065,"enabled":true,"region":"eu","cc":"gb","latitude":51.509865,"longitude":-0.118092,"reserved":0,"last_update":"0001-01-01T00:00:00Z","name_a2s":"Uncletopia | London | 6 | All Maps","protocol":17,"map":"cp_dustbowl","folder":"tf","game":"Team Fortress","app_id":440,"player_count":0,"max_players":24,"Bots":0,"server_type":"Dedicated","server_os":"Linux","password":true,"vac":true,"version":"7961495","steam_id":85568392924742830,"keywords":["cp","nocrits","nodmgspread","uncletopia"],"game_id":440,"stv_port":27066,"stv_name":"Uncletopia | London | 6 | All Maps | STV","players":null},{"server_id":40,"name":"Uncletopia | London | 7 | Stopwatch","name_short":"lon-7","host":"lon-1.uk.uncletopia.com","port":27075,"enabled":true,"region":"eu","cc":"gb","latitude":51.509865,"longitude":-0.118092,"reserved":0,"last_update":"0001-01-01T00:00:00Z","name_a2s":"Uncletopia | London | 7 | Stopwatch","protocol":17,"map":"koth_lakeside_final","folder":"tf","game":"Team Fortress","app_id":440,"player_count":0,"max_players":24,"Bots":0,"server_type":"Dedicated","server_os":"Linux","password":true,"vac":true,"version":"7961495","steam_id":85568392924964314,"keywords":["cp","nocrits","nodmgspread","uncletopia"],"game_id":440,"stv_port":27076,"stv_name":"Uncletopia | London | 7 | Stopwatch | STV","players":null},{"server_id":41,"name":"Uncletopia | London | 8 | Community","name_short":"lon-8","host":"lon-1.uk.uncletopia.com","port":27085,"enabled":true,"region":"eu","cc":"gb","latitude":51.509865,"longitude":-0.118092,"reserved":0,"last_update":"0001-01-01T00:00:00Z","name_a2s":"Uncletopia | London | 8 | Community","protocol":17,"map":"workshop/cp_alloy_rc3.ugc592805587","folder":"tf","game":"Team Fortress","app_id":440,"player_count":0,"max_players":24,"Bots":0,"server_type":"Dedicated","server_os":"Linux","password":true,"vac":true,"version":"7961495","steam_id":85568392924964315,"keywords":["cp","nocrits","nodmgspread","uncletopia"],"game_id":440,"stv_port":27086,"stv_name":"Uncletopia | London | 8 | Community | STV","players":null},{"server_id":300,"name":"Uncletopia | Montr√©al | 1 | All Maps","name_short":"mtl-1","host":"mtl-1.ca.uncletopia.com","port":27015,"enabled":true,"region":"us-east","cc":"ca","latitude":45.50889,"longitude":-73.56167,"reserved":0,"last_update":"0001-01-01T00:00:00Z","name_a2s":"","protocol":0,"map":"","folder":"","game":"","app_id":0,"player_count":0,"max_players":0,"Bots":0,"server_type":"","server_os":"","password":false,"vac":false,"version":"","steam_id":0,"keywords":null,"game_id":0,"stv_port":0,"stv_name":"","players":null},{"server_id":301,"name":"Uncletopia | Montr√©al | 2 | ???","name_short":"mtl-2","host":"mtl-1.ca.uncletopia.com","port":27025,"enabled":true,"region":"us-east","cc":"ca","latitude":45.50889,"longitude":-73.56167,"reserved":0,"last_update":"0001-01-01T00:00:00Z","name_a2s":"","protocol":0,"map":"","folder":"","game":"","app_id":0,"player_count":0,"max_players":0,"Bots":0,"server_type":"","server_os":"","password":false,"vac":false,"version":"","steam_id":0,"keywords":null,"game_id":0,"stv_port":0,"stv_name":"","players":null},{"server_id":13,"name":"Uncletopia | New York City | 1 | All Maps","name_short":"nyc-1","host":"nyc-1.us.uncletopia.com","port":27015,"enabled":true,"region":"us-east","cc":"us","latitude":40.73061,"longitude":-73.93524,"reserved":0,"last_update":"0001-01-01T00:00:00Z","name_a2s":"Uncletopia | New York City | 1 | All Maps","protocol":17,"map":"koth_cascade","folder":"tf","game":"Team Fortress","app_id":440,"player_count":0,"max_players":24,"Bots":0,"server_type":"Dedicated","server_os":"Linux","password":true,"vac":true,"version":"7961495","steam_id":85568392924469993,"keywords":["cp","nocrits","nodmgspread","uncletopia"],"game_id":440,"stv_port":27016,"stv_name":"Uncletopia | New York City | 1 | All Maps | STV","players":null},{"server_id":14,"name":"Uncletopia | New York City | 2 | All Maps","name_short":"nyc-2","host":"nyc-1.us.uncletopia.com","port":27025,"enabled":true,"region":"us-east","cc":"us","latitude":40.73061,"longitude":-73.93524,"reserved":0,"last_update":"0001-01-01T00:00:00Z","name_a2s":"Uncletopia | New York City | 2 | All Maps","protocol":17,"map":"cp_dustbowl","folder":"tf","game":"Team Fortress","app_id":440,"player_count":22,"max_players":24,"Bots":0,"server_type":"Dedicated","server_os":"Linux","password":true,"vac":true,"version":"7961495","steam_id":85568392924469994,"keywords":["cp","nocrits","nodmgspread","uncletopia"],"game_id":440,"stv_port":27026,"stv_name":"Uncletopia | New York City | 2 | All Maps | STV","players":[{"user_id":869,"name":"Lumi","steam_id":76561198089978036,"connected_time":1439000000000,"state":"active","ping":58},{"user_id":811,"name":"Mr. Sauce","steam_id":76561198055512324,"connected_time":5544000000000,"state":"active","ping":57},{"user_id":881,"name":"juan.gonzales.2010","steam_id":76561199383650165,"connected_time":641000000000,"state":"active","ping":168},{"user_id":871,"name":"josh","steam_id":76561198110063909,"connected_time":1340000000000,"state":"active","ping":76},{"user_id":887,"name":"Not Slavoj ≈Ωi≈æek","steam_id":76561198004619616,"connected_time":318000000000,"state":"active","ping":142},{"user_id":823,"name":"Dzhoshua","steam_id":76561198071915251,"connected_time":5108000000000,"state":"active","ping":84},{"user_id":870,"name":"CHIKN","steam_id":76561198277792665,"connected_time":1378000000000,"state":"active","ping":107},{"user_id":855,"name":"Ujin","steam_id":76561197995386642,"connected_time":3138000000000,"state":"active","ping":157},{"user_id":886,"name":"purplecan","steam_id":76561199208283508,"connected_time":363000000000,"state":"active","ping":136},{"user_id":851,"name":"Sabrina Linguine","steam_id":76561198236638708,"connected_time":3286000000000,"state":"active","ping":50},{"user_id":846,"name":"lilchicky","steam_id":76561198951121530,"connected_time":3709000000000,"state":"active","ping":82},{"user_id":825,"name":"Gutline1","steam_id":76561198106256217,"connected_time":5030000000000,"state":"active","ping":82},{"user_id":873,"name":"Eio","steam_id":76561198965089789,"connected_time":1263000000000,"state":"active","ping":195},{"user_id":884,"name":"moomin","steam_id":76561198336244269,"connected_time":495000000000,"state":"active","ping":132},{"user_id":863,"name":"Mobius","steam_id":76561199121973450,"connected_time":2441000000000,"state":"active","ping":84},{"user_id":875,"name":"JokingJayquanda","steam_id":76561198055867599,"connected_time":1080000000000,"state":"active","ping":75},{"user_id":852,"name":"Vinny Linguine","steam_id":76561198157980386,"connected_time":3273000000000,"state":"active","ping":59},{"user_id":878,"name":"Blankfield","steam_id":76561199013167718,"connected_time":884000000000,"state":"active","ping":57},{"user_id":883,"name":"dgnfatihdurmaz","steam_id":76561199485876512,"connected_time":624000000000,"state":"active","ping":169},{"user_id":858,"name":"Bsantini","steam_id":76561198156242552,"connected_time":2991000000000,"state":"active","ping":109},{"user_id":888,"name":"Impusle_","steam_id":76561199001634963,"connected_time":63000000000,"state":"active","ping":110},{"user_id":859,"name":"Cool-Aids Man","steam_id":76561198280184641,"connected_time":2985000000000,"state":"active","ping":59}]},{"server_id":15,"name":"Uncletopia | New York City | 3 | Stopwatch","name_short":"nyc-3","host":"nyc-1.us.uncletopia.com","port":27035,"enabled":true,"region":"us-east","cc":"us","latitude":40.73061,"longitude":-73.93524,"reserved":0,"last_update":"0001-01-01T00:00:00Z","name_a2s":"Uncletopia | New York City | 3 | Stopwatch","protocol":17,"map":"workshop/koth_bagel_rc6.ugc2514036946","folder":"tf","game":"Team Fortress","app_id":440,"player_count":0,"max_players":24,"Bots":0,"server_type":"Dedicated","server_os":"Linux","password":true,"vac":true,"version":"7961495","steam_id":85568392924742820,"keywords":["cp","nocrits","nodmgspread","uncletopia"],"game_id":440,"stv_port":27036,"stv_name":"Uncletopia | New York City | 3 | Stopwatch | STV","players":null},{"server_id":16,"name":"Uncletopia | New York City | 4 | Community","name_short":"nyc-4","host":"nyc-1.us.uncletopia.com","port":27045,"enabled":true,"region":"us-east","cc":"us","latitude":40.73061,"longitude":-73.93524,"reserved":0,"last_update":"0001-01-01T00:00:00Z","name_a2s":"Uncletopia | New York City | 4 | Community","protocol":17,"map":"workshop/cp_indulge.ugc528106646","folder":"tf","game":"Team Fortress","app_id":440,"player_count":0,"max_players":24,"Bots":0,"server_type":"Dedicated","server_os":"Linux","password":true,"vac":true,"version":"7961495","steam_id":85568392924742821,"keywords":["cp","nocrits","nodmgspread","uncletopia"],"game_id":440,"stv_port":27046,"stv_name":"Uncletopia | New York City | 4 | Community | STV","players":null},{"server_id":142,"name":"Uncletopia | S√£o Paulo | 1 | All Maps","name_short":"sao-1","host":"sao-1.br.uncletopia.com","port":27015,"enabled":true,"region":"sa","cc":"br","latitude":-23.533773,"longitude":-46.62529,"reserved":0,"last_update":"0001-01-01T00:00:00Z","name_a2s":"Uncletopia | S√£o Paulo | 1 | All Maps","protocol":17,"map":"pl_pier","folder":"tf","game":"Team Fortress","app_id":440,"player_count":0,"max_players":24,"Bots":0,"server_type":"Dedicated","server_os":"Linux","password":true,"vac":true,"version":"7961495","steam_id":85568392924469996,"keywords":["nocrits","nodmgspread","payload","uncletopia"],"game_id":440,"stv_port":27016,"stv_name":"Uncletopia | S√£o Paulo | 1 | All Maps | STV","players":null},{"server_id":143,"name":"Uncletopia | S√£o Paulo | 2 | Community","name_short":"sao-2","host":"sao-2.br.uncletopia.com","port":27015,"enabled":true,"region":"sa","cc":"br","latitude":-23.533773,"longitude":-46.62529,"reserved":0,"last_update":"0001-01-01T00:00:00Z","name_a2s":"Uncletopia | S√£o Paulo | 2 | Community","protocol":17,"map":"workshop/koth_product_final.ugc454272353","folder":"tf","game":"Team Fortress","app_id":440,"player_count":0,"max_players":24,"Bots":0,"server_type":"Dedicated","server_os":"Linux","password":true,"vac":true,"version":"7961495","steam_id":85568392924485349,"keywords":["cp","nocrits","nodmgspread","uncletopia"],"game_id":440,"stv_port":27016,"stv_name":"Uncletopia | S√£o Paulo | 2 | Community | STV","players":null},{"server_id":7,"name":"Uncletopia | Seattle | 1 | All Maps","name_short":"sea-1","host":"sea-1.us.uncletopia.com","port":27015,"enabled":true,"region":"us-west","cc":"us","latitude":47.608013,"longitude":-122.33517,"reserved":0,"last_update":"0001-01-01T00:00:00Z","name_a2s":"Uncletopia | Seattle | 1 | All Maps","protocol":17,"map":"plr_hightower","folder":"tf","game":"Team Fortress","app_id":440,"player_count":19,"max_players":24,"Bots":0,"server_type":"Dedicated","server_os":"Linux","password":true,"vac":true,"version":"7961495","steam_id":85568392924469997,"keywords":["nocrits","nodmgspread","payload","uncletopia"],"game_id":440,"stv_port":27016,"stv_name":"Uncletopia | Seattle | 1 | All Maps | STV","players":[{"user_id":787,"name":"dust | it/she","steam_id":76561198045218909,"connected_time":8425000000000,"state":"active","ping":43},{"user_id":857,"name":"Mk","steam_id":76561198139790822,"connected_time":1358000000000,"state":"active","ping":116},{"user_id":846,"name":"SHADOW WIZARD MONEY GANG","steam_id":76561198097178599,"connected_time":2426000000000,"state":"active","ping":46},{"user_id":852,"name":"Uplifting TF2 Moment","steam_id":76561198119032676,"connected_time":1934000000000,"state":"active","ping":84},{"user_id":871,"name":"MisterT","steam_id":76561198079868873,"connected_time":167000000000,"state":"active","ping":68},{"user_id":868,"name":"JavaScript Frappuccino","steam_id":76561198111620153,"connected_time":438000000000,"state":"active","ping":33},{"user_id":843,"name":"rat gets the cheese","steam_id":76561198031234032,"connected_time":3192000000000,"state":"active","ping":101},{"user_id":855,"name":"Thequirka (regular trackpad use","steam_id":76561198968058652,"connected_time":1587000000000,"state":"active","ping":49},{"user_id":864,"name":"CPTforever","steam_id":76561198237767198,"connected_time":815000000000,"state":"active","ping":60},{"user_id":869,"name":"thebrenden08","steam_id":76561198218163460,"connected_time":364000000000,"state":"active","ping":79},{"user_id":794,"name":"Gm_Trash","steam_id":76561199445091548,"connected_time":7845000000000,"state":"active","ping":51},{"user_id":870,"name":"Fgtfv567","steam_id":76561198071022525,"connected_time":217000000000,"state":"active","ping":58},{"user_id":872,"name":"Dimov","steam_id":76561198106046056,"connected_time":152000000000,"state":"active","ping":70},{"user_id":841,"name":"Villchip","steam_id":76561198198599982,"connected_time":3351000000000,"state":"active","ping":52},{"user_id":866,"name":"simcye","steam_id":76561198010991761,"connected_time":705000000000,"state":"active","ping":45},{"user_id":863,"name":"Xexat","steam_id":76561198041668498,"connected_time":901000000000,"state":"active","ping":72},{"user_id":873,"name":"Rigby Regula Show","steam_id":76561198150699160,"connected_time":108000000000,"state":"active","ping":72},{"user_id":874,"name":"jadeite","steam_id":76561198022298676,"connected_time":28000000000,"state":"active","ping":32},{"user_id":842,"name":"Melly","steam_id":76561198045867175,"connected_time":3290000000000,"state":"active","ping":76}]},{"server_id":119,"name":"Uncletopia | Seattle | 2 | All Maps","name_short":"sea-2","host":"sea-1.us.uncletopia.com","port":27025,"enabled":true,"region":"us-west","cc":"us","latitude":47.608013,"longitude":-122.33517,"reserved":0,"last_update":"0001-01-01T00:00:00Z","name_a2s":"Uncletopia | Seattle | 2 | All Maps","protocol":17,"map":"pl_pier","folder":"tf","game":"Team Fortress","app_id":440,"player_count":24,"max_players":24,"Bots":0,"server_type":"Dedicated","server_os":"Linux","password":true,"vac":true,"version":"7961495","steam_id":85568392924469998,"keywords":["nocrits","nodmgspread","payload","uncletopia"],"game_id":440,"stv_port":27026,"stv_name":"Uncletopia | Seattle | 2 | All Maps | STV","players":[{"user_id":651,"name":"Sly Marbo","steam_id":76561198135271741,"connected_time":725000000000,"state":"active","ping":52},{"user_id":658,"name":"NEBULA","steam_id":76561198086878595,"connected_time":472000000000,"state":"active","ping":71},{"user_id":663,"name":"rice white","steam_id":76561198320732910,"connected_time":334000000000,"state":"active","ping":121},{"user_id":631,"name":"exephur","steam_id":76561198135763234,"connected_time":2409000000000,"state":"active","ping":62},{"user_id":654,"name":"JonBoy","steam_id":76561198082052480,"connected_time":605000000000,"state":"active","ping":56},{"user_id":643,"name":"Ragnalon","steam_id":76561198807377526,"connected_time":1936000000000,"state":"active","ping":74},{"user_id":653,"name":"ChillyRed","steam_id":76561198984733468,"connected_time":637000000000,"state":"active","ping":77},{"user_id":577,"name":"10HourNaps","steam_id":76561199082304859,"connected_time":6505000000000,"state":"active","ping":50},{"user_id":660,"name":"CheeseCake488","steam_id":76561199407617942,"connected_time":465000000000,"state":"active","ping":98},{"user_id":650,"name":"SkyLark","steam_id":76561198303618132,"connected_time":809000000000,"state":"active","ping":37},{"user_id":649,"name":"lasky","steam_id":76561198017030029,"connected_time":916000000000,"state":"active","ping":72},{"user_id":656,"name":"i remember you was cumflated","steam_id":76561198097330521,"connected_time":519000000000,"state":"active","ping":111},{"user_id":661,"name":"Post-It Paige","steam_id":76561198294059159,"connected_time":384000000000,"state":"active","ping":120},{"user_id":600,"name":"dark art","steam_id":76561198169023104,"connected_time":4959000000000,"state":"active","ping":85},{"user_id":647,"name":"BurritoCat","steam_id":76561198059822805,"connected_time":1487000000000,"state":"active","ping":152},{"user_id":619,"name":":3","steam_id":76561198881665250,"connected_time":3529000000000,"state":"active","ping":50},{"user_id":640,"name":"Monarch of Glass","steam_id":76561198165638237,"connected_time":2233000000000,"state":"active","ping":40},{"user_id":657,"name":"rf","steam_id":76561198195359229,"connected_time":510000000000,"state":"active","ping":45},{"user_id":659,"name":"thunderous prophet","steam_id":76561198131166135,"connected_time":472000000000,"state":"active","ping":45},{"user_id":634,"name":"crookedspinalcord","steam_id":76561198833269144,"connected_time":2383000000000,"state":"active","ping":113},{"user_id":665,"name":"gisam888","steam_id":76561198077359473,"connected_time":301000000000,"state":"active","ping":173},{"user_id":664,"name":"oil","steam_id":76561198099980149,"connected_time":320000000000,"state":"active","ping":87},{"user_id":641,"name":"JoySlip","steam_id":76561198269476149,"connected_time":2186000000000,"state":"active","ping":86},{"user_id":666,"name":"Jeffery","steam_id":76561199226711716,"connected_time":294000000000,"state":"active","ping":59}]},{"server_id":406,"name":"Uncletopia | Seattle | 3 | Stopwatch","name_short":"sea-3","host":"sea-1.us.uncletopia.com","port":27035,"enabled":true,"region":"us-west","cc":"us","latitude":47.608013,"longitude":-122.33517,"reserved":0,"last_update":"0001-01-01T00:00:00Z","name_a2s":"Uncletopia | Seattle | 3 | Stopwatch","protocol":17,"map":"workshop/cp_reckoner_rc6.ugc674719999","folder":"tf","game":"Team Fortress","app_id":440,"player_count":0,"max_players":24,"Bots":0,"server_type":"Dedicated","server_os":"Linux","password":true,"vac":true,"version":"7961495","steam_id":85568392924515217,"keywords":["cp","nocrits","nodmgspread","uncletopia"],"game_id":440,"stv_port":27036,"stv_name":"Uncletopia | Seattle | 3 | Stopwatch | STV","players":null},{"server_id":17,"name":"Uncletopia | San Francisco | 1 | All Maps","name_short":"sfo-1","host":"sfo-1.us.uncletopia.com","port":27015,"enabled":true,"region":"us-west","cc":"us","latitude":37.77397,"longitude":-122.4313,"reserved":0,"last_update":"0001-01-01T00:00:00Z","name_a2s":"Uncletopia | San Francisco | 1 | All Maps","protocol":17,"map":"cp_snakewater_final1","folder":"tf","game":"Team Fortress","app_id":440,"player_count":0,"max_players":24,"Bots":0,"server_type":"Dedicated","server_os":"Linux","password":true,"vac":true,"version":"7961495","steam_id":85568392924469999,"keywords":["cp","nocrits","nodmgspread","uncletopia"],"game_id":440,"stv_port":27016,"stv_name":"Uncletopia | San Francisco | 1 | All Maps | STV","players":null},{"server_id":18,"name":"Uncletopia | San Francisco | 2 | All Maps","name_short":"sfo-2","host":"sfo-1.us.uncletopia.com","port":27025,"enabled":true,"region":"us-west","cc":"us","latitude":37.77397,"longitude":-122.4313,"reserved":0,"last_update":"0001-01-01T00:00:00Z","name_a2s":"Uncletopia | San Francisco | 2 | All Maps","protocol":17,"map":"pl_borneo","folder":"tf","game":"Team Fortress","app_id":440,"player_count":0,"max_players":24,"Bots":0,"server_type":"Dedicated","server_os":"Linux","password":true,"vac":true,"version":"7961495","steam_id":85568392924470000,"keywords":["nocrits","nodmgspread","payload","uncletopia"],"game_id":440,"stv_port":27026,"stv_name":"Uncletopia | San Francisco | 2 | All Maps | STV","players":null},{"server_id":19,"name":"Uncletopia | San Francisco | 3 | Stopwatch","name_short":"sfo-3","host":"sfo-1.us.uncletopia.com","port":27035,"enabled":true,"region":"us-west","cc":"us","latitude":37.77397,"longitude":-122.4313,"reserved":0,"last_update":"0001-01-01T00:00:00Z","name_a2s":"Uncletopia | San Francisco | 3 | Stopwatch","protocol":17,"map":"workshop/koth_ramjam_rc1.ugc459778887","folder":"tf","game":"Team Fortress","app_id":440,"player_count":0,"max_players":24,"Bots":0,"server_type":"Dedicated","server_os":"Linux","password":true,"vac":true,"version":"7961495","steam_id":85568392924742824,"keywords":["cp","nocrits","nodmgspread","uncletopia"],"game_id":440,"stv_port":27036,"stv_name":"Uncletopia | San Francisco | 3 | Stopwatch | STV","players":null},{"server_id":20,"name":"Uncletopia | San Francisco | 4 | Community","name_short":"sfo-4","host":"sfo-1.us.uncletopia.com","port":27045,"enabled":true,"region":"us-west","cc":"us","latitude":37.77397,"longitude":-122.4313,"reserved":0,"last_update":"0001-01-01T00:00:00Z","name_a2s":"Uncletopia | San Francisco | 4 | Community","protocol":17,"map":"workshop/cp_hazyfort_rc6.ugc1365963729","folder":"tf","game":"Team Fortress","app_id":440,"player_count":0,"max_players":24,"Bots":0,"server_type":"Dedicated","server_os":"Linux","password":true,"vac":true,"version":"7961495","steam_id":85568392924742826,"keywords":["cp","nocrits","nodmgspread","uncletopia"],"game_id":440,"stv_port":27046,"stv_name":"Uncletopia | San Francisco | 4 | Community | STV","players":null},{"server_id":141,"name":"Uncletopia | Sydney | 1 | All Maps","name_short":"syd-1","host":"syd-1.au.uncletopia.com","port":27015,"enabled":true,"region":"au","cc":"au","latitude":-33.865143,"longitude":151.2099,"reserved":0,"last_update":"0001-01-01T00:00:00Z","name_a2s":"Uncletopia | Sydney | 1 | All Maps","protocol":17,"map":"pl_upward","folder":"tf","game":"Team Fortress","app_id":440,"player_count":24,"max_players":24,"Bots":0,"server_type":"Dedicated","server_os":"Linux","password":true,"vac":true,"version":"7961495","steam_id":85568392924470001,"keywords":["nocrits","nodmgspread","payload","uncletopia"],"game_id":440,"stv_port":27016,"stv_name":"Uncletopia | Sydney | 1 | All Maps | STV","players":[{"user_id":109,"name":"Mooty","steam_id":76561198301293435,"connected_time":6578000000000,"state":"active","ping":59},{"user_id":117,"name":"fanc","steam_id":76561198071106796,"connected_time":6237000000000,"state":"active","ping":55},{"user_id":194,"name":"slicedtoast98","steam_id":76561199220276252,"connected_time":187000000000,"state":"active","ping":66},{"user_id":174,"name":"Snuky","steam_id":76561198117902338,"connected_time":2131000000000,"state":"active","ping":44},{"user_id":186,"name":"KeeperOfBalance","steam_id":76561198028070089,"connected_time":649000000000,"state":"active","ping":91},{"user_id":191,"name":"Krimson","steam_id":76561198072463650,"connected_time":231000000000,"state":"active","ping":56},{"user_id":158,"name":"Finios","steam_id":76561198209013071,"connected_time":3556000000000,"state":"active","ping":57},{"user_id":159,"name":"Paper","steam_id":76561198041517737,"connected_time":3515000000000,"state":"active","ping":38},{"user_id":179,"name":"alex","steam_id":76561198053382248,"connected_time":1079000000000,"state":"active","ping":43},{"user_id":187,"name":"ljpaters","steam_id":76561198094354484,"connected_time":649000000000,"state":"active","ping":62},{"user_id":134,"name":"thrax","steam_id":76561197992385270,"connected_time":5074000000000,"state":"active","ping":50},{"user_id":164,"name":"sav","steam_id":76561198058760041,"connected_time":2954000000000,"state":"active","ping":94},{"user_id":188,"name":"Worst Sniper","steam_id":76561198025733081,"connected_time":643000000000,"state":"active","ping":84},{"user_id":157,"name":"Bobby Wilkinson (They/She)","steam_id":76561198054985347,"connected_time":3689000000000,"state":"active","ping":61},{"user_id":175,"name":"Jeternal","steam_id":76561198016514233,"connected_time":2097000000000,"state":"active","ping":68},{"user_id":183,"name":"I'm using a controller","steam_id":76561198152210509,"connected_time":913000000000,"state":"active","ping":42},{"user_id":171,"name":"burfdae boi","steam_id":76561199000827969,"connected_time":2590000000000,"state":"active","ping":34},{"user_id":181,"name":"ManofWonder1","steam_id":76561198904788550,"connected_time":1015000000000,"state":"active","ping":70},{"user_id":190,"name":"Chooka","steam_id":76561197992307814,"connected_time":405000000000,"state":"active","ping":69},{"user_id":189,"name":"Ishanu","steam_id":76561198009397092,"connected_time":613000000000,"state":"active","ping":76},{"user_id":184,"name":"Dave","steam_id":76561197994203216,"connected_time":780000000000,"state":"active","ping":66},{"user_id":192,"name":"76561198096906754","steam_id":76561198096906754,"connected_time":231000000000,"state":"active","ping":51},{"user_id":177,"name":"Fumpig","steam_id":76561197995176045,"connected_time":1919000000000,"state":"active","ping":69},{"user_id":182,"name":"fry fondler","steam_id":76561198085124297,"connected_time":1015000000000,"state":"active","ping":60}]},{"server_id":123,"name":"Uncletopia | Sydney | 2 | All Maps","name_short":"syd-2","host":"syd-1.au.uncletopia.com","port":27025,"enabled":true,"region":"au","cc":"au","latitude":-33.865143,"longitude":151.2099,"reserved":0,"last_update":"0001-01-01T00:00:00Z","name_a2s":"Uncletopia | Sydney | 2 | All Maps","protocol":17,"map":"koth_lakeside_final","folder":"tf","game":"Team Fortress","app_id":440,"player_count":1,"max_players":24,"Bots":0,"server_type":"Dedicated","server_os":"Linux","password":true,"vac":true,"version":"7961495","steam_id":85568392924470002,"keywords":["cp","nocrits","nodmgspread","uncletopia"],"game_id":440,"stv_port":27026,"stv_name":"Uncletopia | Sydney | 2 | All Maps | STV","players":[{"user_id":16,"name":"brass monkey","steam_id":76561198833290341,"connected_time":199000000000,"state":"active","ping":100}]},{"server_id":395,"name":"Uncletopia | Sydney | 3 | All Maps","name_short":"syd-3","host":"syd-1.au.uncletopia.com","port":27035,"enabled":true,"region":"au","cc":"au","latitude":-33.865143,"longitude":151.2099,"reserved":0,"last_update":"0001-01-01T00:00:00Z","name_a2s":"Uncletopia | Sydney | 3 | All Maps","protocol":17,"map":"koth_lakeside_final","folder":"tf","game":"Team Fortress","app_id":440,"player_count":0,"max_players":24,"Bots":0,"server_type":"Dedicated","server_os":"Linux","password":true,"vac":true,"version":"7961495","steam_id":85568392925194467,"keywords":["cp","nocrits","nodmgspread","uncletopia"],"game_id":440,"stv_port":27036,"stv_name":"Uncletopia | Sydney | 3 | All Maps | STV","players":null},{"server_id":396,"name":"Uncletopia | Sydney | 4 | All Maps","name_short":"syd-4","host":"syd-1.au.uncletopia.com","port":27045,"enabled":true,"region":"au","cc":"au","latitude":-33.865143,"longitude":151.2099,"reserved":0,"last_update":"0001-01-01T00:00:00Z","name_a2s":"Uncletopia | Sydney | 4 | All Maps","protocol":17,"map":"pl_pier","folder":"tf","game":"Team Fortress","app_id":440,"player_count":6,"max_players":24,"Bots":0,"server_type":"Dedicated","server_os":"Linux","password":true,"vac":true,"version":"7961495","steam_id":85568392925397958,"keywords":["nocrits","nodmgspread","payload","uncletopia"],"game_id":440,"stv_port":27046,"stv_name":"Uncletopia | Sydney | 4 | All Maps | STV","players":[{"user_id":46,"name":"Major Hawk10","steam_id":76561198197709543,"connected_time":624000000000,"state":"active","ping":70},{"user_id":47,"name":"getgottengud","steam_id":76561199156863229,"connected_time":545000000000,"state":"active","ping":64},{"user_id":51,"name":"Harby","steam_id":76561198237597396,"connected_time":16000000000,"state":"spawning","ping":55},{"user_id":37,"name":"Owl","steam_id":76561198107786190,"connected_time":1555000000000,"state":"active","ping":82},{"user_id":34,"name":"ConnicoXD","steam_id":76561199472567627,"connected_time":1870000000000,"state":"active","ping":79},{"user_id":49,"name":"Dlwbug","steam_id":76561197983684017,"connected_time":314000000000,"state":"active","ping":73}]},{"server_id":58,"name":"Uncletopia | Sydney | 5 | Stopwatch","name_short":"syd-5","host":"syd-1.au.uncletopia.com","port":27055,"enabled":true,"region":"au","cc":"au","latitude":-33.865143,"longitude":151.2099,"reserved":0,"last_update":"0001-01-01T00:00:00Z","name_a2s":"Uncletopia | Sydney | 5 | Stopwatch","protocol":17,"map":"workshop/koth_ramjam_rc1.ugc459778887","folder":"tf","game":"Team Fortress","app_id":440,"player_count":0,"max_players":24,"Bots":0,"server_type":"Dedicated","server_os":"Linux","password":true,"vac":true,"version":"7961495","steam_id":85568392925397959,"keywords":["cp","nocrits","nodmgspread","uncletopia"],"game_id":440,"stv_port":27056,"stv_name":"Uncletopia | Sydney | 5 | Stopwatch | STV","players":null},{"server_id":59,"name":"Uncletopia | Sydney | 6 | Community","name_short":"syd-6","host":"syd-1.au.uncletopia.com","port":27065,"enabled":true,"region":"au","cc":"au","latitude":-33.865143,"longitude":151.2099,"reserved":0,"last_update":"0001-01-01T00:00:00Z","name_a2s":"Uncletopia | Sydney | 6 | Community","protocol":17,"map":"workshop/koth_kemptown_rc1.ugc767410655","folder":"tf","game":"Team Fortress","app_id":440,"player_count":0,"max_players":24,"Bots":0,"server_type":"Dedicated","server_os":"Linux","password":true,"vac":true,"version":"7961495","steam_id":85568392925397960,"keywords":["cp","nocrits","nodmgspread","uncletopia"],"game_id":440,"stv_port":27066,"stv_name":"Uncletopia | Sydney | 6 | Community | STV","players":null},{"server_id":49,"name":"Uncletopia | Warsaw | 1 | All Maps","name_short":"waw-1","host":"waw-1.pl.uncletopia.com","port":27015,"enabled":true,"region":"eu","cc":"pl","latitude":52.2297,"longitude":21.017532,"reserved":0,"last_update":"0001-01-01T00:00:00Z","name_a2s":"Uncletopia | Warsaw | 1 | All Maps","protocol":17,"map":"koth_lakeside_final","folder":"tf","game":"Team Fortress","app_id":440,"player_count":0,"max_players":24,"Bots":0,"server_type":"Dedicated","server_os":"Linux","password":true,"vac":true,"version":"7961495","steam_id":85568392925397850,"keywords":["cp","nocrits","nodmgspread","uncletopia"],"game_id":440,"stv_port":27016,"stv_name":"Uncletopia | Warsaw | 1 | All Maps | STV","players":null},{"server_id":50,"name":"Uncletopia | Warsaw | 2 | All Maps","name_short":"waw-2","host":"waw-1.pl.uncletopia.com","port":27025,"enabled":true,"region":"eu","cc":"pl","latitude":52.2297,"longitude":21.017532,"reserved":0,"last_update":"0001-01-01T00:00:00Z","name_a2s":"Uncletopia | Warsaw | 2 | All Maps","protocol":17,"map":"pl_borneo","folder":"tf","game":"Team Fortress","app_id":440,"player_count":0,"max_players":24,"Bots":0,"server_type":"Dedicated","server_os":"Linux","password":true,"vac":true,"version":"7961495","steam_id":85568392925397851,"keywords":["nocrits","nodmgspread","payload","uncletopia"],"game_id":440,"stv_port":27026,"stv_name":"Uncletopia | Warsaw | 2 | All Maps | STV","players":null},{"server_id":51,"name":"Uncletopia | Warsaw | 3 | All Maps","name_short":"waw-3","host":"waw-1.pl.uncletopia.com","port":27035,"enabled":true,"region":"eu","cc":"pl","latitude":52.2297,"longitude":21.017532,"reserved":0,"last_update":"0001-01-01T00:00:00Z","name_a2s":"Uncletopia | Warsaw | 3 | All Maps","protocol":17,"map":"pl_barnblitz","folder":"tf","game":"Team Fortress","app_id":440,"player_count":0,"max_players":24,"Bots":0,"server_type":"Dedicated","server_os":"Linux","password":true,"vac":true,"version":"7961495","steam_id":85568392925397852,"keywords":["nocrits","nodmgspread","payload","uncletopia"],"game_id":440,"stv_port":27036,"stv_name":"Uncletopia | Warsaw | 3 | All Maps | STV","players":null},{"server_id":52,"name":"Uncletopia | Warsaw | 4 | All Maps","name_short":"waw-4","host":"waw-1.pl.uncletopia.com","port":27045,"enabled":true,"region":"eu","cc":"pl","latitude":52.2297,"longitude":21.017532,"reserved":0,"last_update":"0001-01-01T00:00:00Z","name_a2s":"Uncletopia | Warsaw | 4 | All Maps","protocol":17,"map":"pl_borneo","folder":"tf","game":"Team Fortress","app_id":440,"player_count":0,"max_players":24,"Bots":0,"server_type":"Dedicated","server_os":"Linux","password":true,"vac":true,"version":"7961495","steam_id":85568392925397853,"keywords":["nocrits","nodmgspread","payload","uncletopia"],"game_id":440,"stv_port":27046,"stv_name":"Uncletopia | Warsaw | 4 | All Maps | STV","players":null},{"server_id":53,"name":"Uncletopia | Warsaw | 5 | Stopwatch","name_short":"waw-5","host":"waw-1.pl.uncletopia.com","port":27055,"enabled":true,"region":"eu","cc":"pl","latitude":52.2297,"longitude":21.017532,"reserved":0,"last_update":"0001-01-01T00:00:00Z","name_a2s":"Uncletopia | Warsaw | 5 | Stopwatch","protocol":17,"map":"pl_barnblitz","folder":"tf","game":"Team Fortress","app_id":440,"player_count":0,"max_players":24,"Bots":0,"server_type":"Dedicated","server_os":"Linux","password":true,"vac":true,"version":"7961495","steam_id":85568392925397854,"keywords":["nocrits","nodmgspread","payload","uncletopia"],"game_id":440,"stv_port":27056,"stv_name":"Uncletopia | Warsaw | 5 | Stopwatch | STV","players":null},{"server_id":54,"name":"Uncletopia | Warsaw | 6 | Community","name_short":"waw-6","host":"waw-1.pl.uncletopia.com","port":27065,"enabled":true,"region":"eu","cc":"pl","latitude":52.2297,"longitude":21.017532,"reserved":0,"last_update":"0001-01-01T00:00:00Z","name_a2s":"Uncletopia | Warsaw | 6 | Community","protocol":17,"map":"cp_altitude","folder":"tf","game":"Team Fortress","app_id":440,"player_count":0,"max_players":24,"Bots":0,"server_type":"Dedicated","server_os":"Linux","password":true,"vac":true,"version":"7961495","steam_id":85568392925397856,"keywords":["cp","nocrits","nodmgspread","uncletopia"],"game_id":440,"stv_port":27066,"stv_name":"Uncletopia | Warsaw | 6 | Community | STV","players":null}]}