{"status":true,"message":"","result":[{"server_id":9,"name":"Uncletopia | Atlanta | 1 | All Maps","name_short":"atl-1","host":"atl-1.us.uncletopia.com","port":27015,"enabled":true,"region":"us-east","cc":"us","latitude":33.753746,"longitude":-84.38633,"reserved":0,"last_update":"0001-01-01T00:00:00Z","name_a2s":"Uncletopia | Atlanta | 1 | All Maps","protocol":17,"map":"pl_upward","folder":"tf","game":"Team Fortress","app_id":440,"player_count":24,"max_players":24,"Bots":0,"server_type":"Dedicated","server_os":"Linux","password":true,"vac":true,"version":"7961495","steam_id":85568392924469982,"keywords":["nocrits","nodmgspread","payload","uncletopia"],"game_id":440,"stv_port":27016,"stv_name":"Uncletopia | Atlanta | 1 | All Maps | STV","players":[{"user_id":443,"name":"chexo4","steam_id":76561198150532531,"connected_time":659000000000,"state":"active","ping":49},{"user_id":420,"name":"drunk","steam_id":76561198119873148,"connected_time":3034000000000,"state":"active","ping":63},{"user_id":455,"name":"kite","steam_id":76561198346516392,"connected_time":186000000000,"state":"active","ping":84},{"user_id":456,"name":"lynt","steam_id":76561198988333976,"connected_time":36000000000,"state":"active","ping":42},{"user_id":440,"name":"werterioso","steam_id":76561198339254386,"connected_time":1232000000000,"state":"active","ping":140},{"user_id":448,"name":"sweglord227","steam_id":76561198415510262,"connected_time":575000000000,"state":"active","ping":68},{"user_id":414,"name":"Haveltherock27","steam_id":76561199219844391,"connected_time":3395000000000,"state":"active","ping":106},{"user_id":451,"name":"fachions_tip","steam_id":76561198848962575,"connected_time":397000000000,"state":"active","ping":70},{"user_id":438,"name":"shaderoses","steam_id":76561198070800500,"connected_time":1321000000000,"state":"active","ping":76},{"user_id":447,"name":"Decolour","steam_id":76561199045608372,"connected_time":609000000000,"state":"active","ping":81},{"user_id":449,"name":"‚òº money sittin tall yao ming","steam_id":76561198074180953,"connected_time":572000000000,"state":"active","ping":61},{"user_id":426,"name":"Vee (very cool)","steam_id":76561198330432889,"connected_time":2183000000000,"state":"active","ping":62},{"user_id":422,"name":"DoctorDrew","steam_id":76561197962400538,"connected_time":2817000000000,"state":"active","ping":100},{"user_id":262,"name":"joe","steam_id":76561198045781320,"connected_time":18693000000000,"state":"active","ping":60},{"user_id":452,"name":"Dale Wardark","steam_id":76561198047392668,"connected_time":370000000000,"state":"active","ping":81},{"user_id":457,"name":"pluto","steam_id":76561198354990729,"connected_time":12000000000,"state":"spawning","ping":81},{"user_id":442,"name":"idigu2","steam_id":76561199489391928,"connected_time":666000000000,"state":"active","ping":61},{"user_id":454,"name":"mechiimi ‚òÖ","steam_id":76561198321627268,"connected_time":349000000000,"state":"active","ping":814},{"user_id":446,"name":"Shame","steam_id":76561198100490994,"connected_time":618000000000,"state":"active","ping":61},{"user_id":423,"name":"professional bias","steam_id":76561199089730744,"connected_time":2339000000000,"state":"active","ping":118},{"user_id":432,"name":"lolfreyja","steam_id":76561198249206656,"connected_time":1623000000000,"state":"active","ping":88},{"user_id":367,"name":"sansa musa","steam_id":76561198163723555,"connected_time":7137000000000,"state":"active","ping":61},{"user_id":436,"name":"Chaotic Rushu","steam_id":76561198170054407,"connected_time":1595000000000,"state":"active","ping":78},{"user_id":377,"name":"‚ô°Alyx‚ô°","steam_id":76561198024303978,"connected_time":6483000000000,"state":"active","ping":51}]},{"server_id":104,"name":"Uncletopia | Atlanta | 2 | All Maps","name_short":"atl-2","host":"atl-1.us.uncletopia.com","port":27025,"enabled":true,"region":"us-east","cc":"us","latitude":33.753746,"longitude":-84.38633,"reserved":0,"last_update":"0001-01-01T00:00:00Z","name_a2s":"Uncletopia | Atlanta | 2 | All Maps","protocol":17,"map":"pl_pier","folder":"tf","game":"Team Fortress","app_id":440,"player_count":24,"max_players":24,"Bots":0,"server_type":"Dedicated","server_os":"Linux","password":true,"vac":true,"version":"7961495","steam_id":85568392924469983,"keywords":["nocrits","nodmgspread","payload","uncletopia"],"game_id":440,"stv_port":27026,"stv_name":"Uncletopia | Atlanta | 2 | All Maps | STV","players":[{"user_id":590,"name":"SD","steam_id":76561198217410988,"connected_time":519000000000,"state":"active","ping":97},{"user_id":587,"name":"NeoWolf","steam_id":76561198144759784,"connected_time":563000000000,"state":"active","ping":104},{"user_id":568,"name":"Chilledr","steam_id":76561198799250315,"connected_time":1161000000000,"state":"active","ping":87},{"user_id":580,"name":"Slip","steam_id":76561199057232579,"connected_time":822000000000,"state":"active","ping":75},{"user_id":562,"name":"Young-OG","steam_id":76561198058800479,"connected_time":1340000000000,"state":"active","ping":60},{"user_id":488,"name":"SCATTER","steam_id":76561198405168492,"connected_time":6638000000000,"state":"active","ping":85},{"user_id":583,"name":"Killbasa","steam_id":76561198064868400,"connected_time":677000000000,"state":"active","ping":92},{"user_id":563,"name":"Oxygen User","steam_id":76561199111975528,"connected_time":1339000000000,"state":"active","ping":70},{"user_id":536,"name":"Huloon","steam_id":76561198070837568,"connected_time":3139000000000,"state":"active","ping":54},{"user_id":519,"name":"Crows!","steam_id":76561198150086324,"connected_time":4922000000000,"state":"active","ping":75},{"user_id":592,"name":"UltraHeck","steam_id":76561198074019286,"connected_time":368000000000,"state":"active","ping":71},{"user_id":564,"name":"–õ—É–∏—Å","steam_id":76561198818196886,"connected_time":1319000000000,"state":"active","ping":69},{"user_id":579,"name":"TF2C | fac","steam_id":76561198009818412,"connected_time":836000000000,"state":"active","ping":71},{"user_id":441,"name":"Chrislox","steam_id":76561198270759691,"connected_time":10335000000000,"state":"active","ping":60},{"user_id":577,"name":"Decapitation Station","steam_id":76561198201796098,"connected_time":886000000000,"state":"active","ping":64},{"user_id":588,"name":"King Cotton","steam_id":76561198292444376,"connected_time":546000000000,"state":"active","ping":86},{"user_id":581,"name":"Foolie","steam_id":76561198291741747,"connected_time":817000000000,"state":"active","ping":75},{"user_id":570,"name":"Yoshimelon","steam_id":76561198253054325,"connected_time":1055000000000,"state":"active","ping":66},{"user_id":593,"name":"Jim the Fish","steam_id":76561199135784419,"connected_time":365000000000,"state":"active","ping":101},{"user_id":584,"name":"Captain Bug","steam_id":76561198137763878,"connected_time":625000000000,"state":"active","ping":71},{"user_id":589,"name":"Sous-Chef","steam_id":76561198075705827,"connected_time":545000000000,"state":"active","ping":63},{"user_id":591,"name":"Skulgan","steam_id":76561198150261397,"connected_time":500000000000,"state":"active","ping":58},{"user_id":585,"name":"Gungus Dingaling","steam_id":76561198018270898,"connected_time":622000000000,"state":"active","ping":76}]},{"server_id":400,"name":"Uncletopia | Atlanta | 3 | Stopwatch","name_short":"atl-3","host":"atl-1.us.uncletopia.com","port":27035,"enabled":true,"region":"us-east","cc":"us","latitude":33.753746,"longitude":-84.38633,"reserved":0,"last_update":"0001-01-01T00:00:00Z","name_a2s":"Uncletopia | Atlanta | 3 | Stopwatch","protocol":17,"map":"koth_highpass","folder":"tf","game":"Team Fortress","app_id":440,"player_count":24,"max_players":24,"Bots":0,"server_type":"Dedicated","server_os":"Linux","password":true,"vac":true,"version":"7961495","steam_id":85568392924515187,"keywords":["cp","nocrits","nodmgspread","uncletopia"],"game_id":440,"stv_port":27036,"stv_name":"Uncletopia | Atlanta | 3 | Stopwatch | STV","players":[{"user_id":82,"name":"Elijah123","steam_id":76561199037648021,"connected_time":5061000000000,"state":"active","ping":75},{"user_id":122,"name":"Harufloofer","steam_id":76561199084506827,"connected_time":2205000000000,"state":"active","ping":60},{"user_id":103,"name":"Exetior","steam_id":76561198978688451,"connected_time":3678000000000,"state":"active","ping":51},{"user_id":146,"name":"JYNACCI #josiepilled","steam_id":76561198100942212,"connected_time":703000000000,"state":"active","ping":60},{"user_id":148,"name":"Octo","steam_id":76561198024056355,"connected_time":491000000000,"state":"active","ping":92},{"user_id":138,"name":"Yengozi","steam_id":76561198448764748,"connected_time":1290000000000,"state":"active","ping":61},{"user_id":135,"name":"Dragus","steam_id":76561198032967285,"connected_time":1590000000000,"state":"active","ping":72},{"user_id":149,"name":"fear","steam_id":76561198063170079,"connected_time":129000000000,"state":"active","ping":67},{"user_id":117,"name":"Mr. Sun","steam_id":76561198081338822,"connected_time":2639000000000,"state":"active","ping":56},{"user_id":142,"name":"Hertz","steam_id":76561198310927351,"connected_time":1015000000000,"state":"active","ping":132},{"user_id":141,"name":"Fostrel","steam_id":76561198152160601,"connected_time":1175000000000,"state":"active","ping":76},{"user_id":87,"name":"kelvindavid121","steam_id":76561199010489413,"connected_time":4944000000000,"state":"active","ping":90},{"user_id":144,"name":"Crouching Noob Hidden Sniper","steam_id":76561197971328473,"connected_time":779000000000,"state":"active","ping":107},{"user_id":133,"name":"Waff00","steam_id":76561198848377100,"connected_time":1854000000000,"state":"active","ping":80},{"user_id":137,"name":"Manchester by the Sea","steam_id":76561198076768673,"connected_time":1460000000000,"state":"active","ping":64},{"user_id":145,"name":"MOVEMENTPLAYER bladeefan12","steam_id":76561198274959371,"connected_time":765000000000,"state":"active","ping":69},{"user_id":120,"name":"AstronautPug","steam_id":76561198162372709,"connected_time":2342000000000,"state":"active","ping":79},{"user_id":140,"name":"coach cartier","steam_id":76561198819023590,"connected_time":1212000000000,"state":"active","ping":93},{"user_id":74,"name":"A Gay Idiot","steam_id":76561199443309709,"connected_time":5726000000000,"state":"active","ping":129},{"user_id":114,"name":"Snivy64","steam_id":76561198423445376,"connected_time":2928000000000,"state":"active","ping":115},{"user_id":147,"name":"The All-Seeing Tim","steam_id":76561198075510786,"connected_time":660000000000,"state":"active","ping":87},{"user_id":90,"name":"DiscoTraveler","steam_id":76561199240168088,"connected_time":4923000000000,"state":"active","ping":58},{"user_id":118,"name":"mini-sentry","steam_id":76561198884712155,"connected_time":2587000000000,"state":"active","ping":73},{"user_id":130,"name":"Plant Enthusiast","steam_id":76561198045718960,"connected_time":2087000000000,"state":"active","ping":86}]},{"server_id":401,"name":"Uncletopia | Atlanta | 4 | Community","name_short":"atl-4","host":"atl-1.us.uncletopia.com","port":27045,"enabled":true,"region":"us-east","cc":"us","latitude":33.753746,"longitude":-84.38633,"reserved":0,"last_update":"0001-01-01T00:00:00Z","name_a2s":"Uncletopia | Atlanta | 4 | Community","protocol":17,"map":"workshop/koth_slaughter_rc1.ugc1712845210","folder":"tf","game":"Team Fortress","app_id":440,"player_count":0,"max_players":24,"Bots":0,"server_type":"Dedicated","server_os":"Linux","password":true,"vac":true,"version":"7961495","steam_id":85568392924515188,"keywords":["cp","nocrits","nodmgspread","uncletopia"],"game_id":440,"stv_port":27046,"stv_name":"Uncletopia | Atlanta | 4 | Community | STV","players":null},{"server_id":2,"name":"Uncletopia | Chicago | 1 | All Maps","name_short":"chi-1","host":"chi-1.us.uncletopia.com","port":27015,"enabled":true,"region":"us-central","cc":"us","latitude":41.881832,"longitude":-87.62318,"reserved":0,"last_update":"0001-01-01T00:00:00Z","name_a2s":"Uncletopia | Chicago | 1 | All Maps","protocol":17,"map":"pl_pier","folder":"tf","game":"Team Fortress","app_id":440,"player_count":25,"max_players":24,"Bots":0,"server_type":"Dedicated","server_os":"Linux","password":true,"vac":true,"version":"7961495","steam_id":85568392924469984,"keywords":["nocrits","nodmgspread","payload","uncletopia"],"game_id":440,"stv_port":27016,"stv_name":"Uncletopia | Chicago | 1 | All Maps | STV","players":[{"user_id":586,"name":"triangleman","steam_id":76561198972733542,"connected_time":491000000000,"state":"active","ping":58},{"user_id":309,"name":"ThatGamingKiwi","steam_id":76561199170522237,"connected_time":21461000000000,"state":"active","ping":80},{"user_id":568,"name":"Pyroshark","steam_id":76561198133599422,"connected_time":2079000000000,"state":"active","ping":71},{"user_id":587,"name":"sheep man shaun","steam_id":76561198994349483,"connected_time":467000000000,"state":"active","ping":100},{"user_id":570,"name":"purple diesel","steam_id":76561197976548449,"connected_time":2068000000000,"state":"active","ping":88},{"user_id":590,"name":"The Salacious Monk Monk","steam_id":76561198013781408,"connected_time":193000000000,"state":"active","ping":84},{"user_id":571,"name":"START PRAYIN BOY","steam_id":76561198089173996,"connected_time":2060000000000,"state":"active","ping":79},{"user_id":572,"name":"rhsiegetank","steam_id":76561198359829118,"connected_time":2038000000000,"state":"active","ping":100},{"user_id":578,"name":"Strangelove","steam_id":76561198353773611,"connected_time":837000000000,"state":"active","ping":84},{"user_id":588,"name":"DinkleBerg","steam_id":76561198891626233,"connected_time":209000000000,"state":"connecting","ping":0},{"user_id":583,"name":"worker","steam_id":76561198039608940,"connected_time":736000000000,"state":"active","ping":115},{"user_id":569,"name":"xiii","steam_id":76561198079416036,"connected_time":2078000000000,"state":"active","ping":44},{"user_id":552,"name":"üöΩKorfJobüöΩ","steam_id":76561198212932833,"connected_time":2767000000000,"state":"active","ping":189},{"user_id":580,"name":"Peepee","steam_id":76561198202438047,"connected_time":782000000000,"state":"active","ping":63},{"user_id":581,"name":"ShellBug","steam_id":76561198144187527,"connected_time":779000000000,"state":"active","ping":77},{"user_id":582,"name":"gesture jester","steam_id":76561198850632709,"connected_time":771000000000,"state":"active","ping":82},{"user_id":566,"name":"miihnd","steam_id":76561198078297598,"connected_time":2097000000000,"state":"active","ping":49},{"user_id":553,"name":"‡∏∏","steam_id":76561198170624701,"connected_time":2767000000000,"state":"active","ping":75},{"user_id":528,"name":"FinnaBust","steam_id":76561198397669078,"connected_time":4369000000000,"state":"active","ping":69},{"user_id":511,"name":"Stanv","steam_id":76561198259530604,"connected_time":5495000000000,"state":"active","ping":50},{"user_id":584,"name":"TheMtnDewback","steam_id":76561199468606424,"connected_time":718000000000,"state":"active","ping":92},{"user_id":536,"name":"Female Gamer","steam_id":76561199366482682,"connected_time":3907000000000,"state":"active","ping":111},{"user_id":585,"name":"The Grim Heaper","steam_id":76561197987759101,"connected_time":712000000000,"state":"active","ping":105},{"user_id":589,"name":"crazy CHEAPwm1CRITS","steam_id":76561198061502797,"connected_time":206000000000,"state":"active","ping":80},{"user_id":591,"name":"rhen","steam_id":76561198085256979,"connected_time":179000000000,"state":"active","ping":91}]},{"server_id":106,"name":"Uncletopia | Chicago | 2 | All Maps","name_short":"chi-2","host":"chi-1.us.uncletopia.com","port":27025,"enabled":true,"region":"us-central","cc":"us","latitude":41.881832,"longitude":-87.62318,"reserved":0,"last_update":"0001-01-01T00:00:00Z","name_a2s":"Uncletopia | Chicago | 2 | All Maps","protocol":17,"map":"pl_badwater","folder":"tf","game":"Team Fortress","app_id":440,"player_count":24,"max_players":24,"Bots":0,"server_type":"Dedicated","server_os":"Linux","password":true,"vac":true,"version":"7961495","steam_id":85568392924469985,"keywords":["nocrits","nodmgspread","payload","uncletopia"],"game_id":440,"stv_port":27026,"stv_name":"Uncletopia | Chicago | 2 | All Maps | STV","players":[{"user_id":434,"name":"Medic Bag","steam_id":76561198403209900,"connected_time":795000000000,"state":"active","ping":60},{"user_id":435,"name":"-œÄ- BakaD","steam_id":76561197960559169,"connected_time":754000000000,"state":"active","ping":60},{"user_id":438,"name":"Natasha User","steam_id":76561198054072665,"connected_time":468000000000,"state":"active","ping":68},{"user_id":419,"name":"Dzhoshua","steam_id":76561198071915251,"connected_time":1431000000000,"state":"active","ping":67},{"user_id":431,"name":"3ggsalad3","steam_id":76561199386969191,"connected_time":1026000000000,"state":"active","ping":47},{"user_id":437,"name":"Fanatic","steam_id":76561198036960509,"connected_time":700000000000,"state":"active","ping":60},{"user_id":385,"name":"NUt","steam_id":76561198031007966,"connected_time":4394000000000,"state":"active","ping":59},{"user_id":403,"name":"ViserOfOrder","steam_id":76561198137222506,"connected_time":3101000000000,"state":"active","ping":50},{"user_id":445,"name":"Flyinglab","steam_id":76561198042161408,"connected_time":196000000000,"state":"active","ping":77},{"user_id":388,"name":"Holo Jumpscare","steam_id":76561198153908250,"connected_time":4371000000000,"state":"active","ping":104},{"user_id":396,"name":"Oogie (OddMonster)","steam_id":76561198026802918,"connected_time":3952000000000,"state":"active","ping":99},{"user_id":440,"name":"story","steam_id":76561199088496817,"connected_time":460000000000,"state":"active","ping":86},{"user_id":401,"name":"Majin Boo Radley","steam_id":76561198288471052,"connected_time":3143000000000,"state":"active","ping":55},{"user_id":441,"name":"tsbro40","steam_id":76561199455605580,"connected_time":449000000000,"state":"active","ping":89},{"user_id":417,"name":"Bigburgers","steam_id":76561198165013808,"connected_time":1500000000000,"state":"active","ping":57},{"user_id":442,"name":"AXELORDX","steam_id":76561198136639581,"connected_time":422000000000,"state":"active","ping":75},{"user_id":424,"name":"ttvRumpshaker489","steam_id":76561198064981004,"connected_time":1303000000000,"state":"active","ping":70},{"user_id":425,"name":"On The Bright Side...","steam_id":76561198168785883,"connected_time":1295000000000,"state":"active","ping":49},{"user_id":391,"name":"KASHI","steam_id":76561198045285049,"connected_time":4352000000000,"state":"active","ping":82},{"user_id":443,"name":"twizted","steam_id":76561197960407274,"connected_time":269000000000,"state":"active","ping":72},{"user_id":402,"name":"DiamondEpsilon","steam_id":76561198203883311,"connected_time":3105000000000,"state":"active","ping":82},{"user_id":429,"name":"silly lil guy (very whimsical)","steam_id":76561198420849507,"connected_time":1184000000000,"state":"active","ping":69},{"user_id":433,"name":"CmdBash (Nephew)","steam_id":76561198032684766,"connected_time":964000000000,"state":"active","ping":73}]},{"server_id":402,"name":"Uncletopia | Chicago | 3 | All Maps","name_short":"chi-3","host":"chi-1.us.uncletopia.com","port":27035,"enabled":true,"region":"us-central","cc":"us","latitude":41.881832,"longitude":-87.62318,"reserved":0,"last_update":"0001-01-01T00:00:00Z","name_a2s":"Uncletopia | Chicago | 3 | All Maps","protocol":17,"map":"cp_dustbowl","folder":"tf","game":"Team Fortress","app_id":440,"player_count":24,"max_players":24,"Bots":0,"server_type":"Dedicated","server_os":"Linux","password":true,"vac":true,"version":"7961495","steam_id":85568392924515191,"keywords":["cp","nocrits","nodmgspread","uncletopia"],"game_id":440,"stv_port":27036,"stv_name":"Uncletopia | Chicago | 3 | All Maps | STV","players":[{"user_id":86,"name":"Furious George","steam_id":76561198405111646,"connected_time":1132000000000,"state":"active","ping":99},{"user_id":83,"name":"Zelumie","steam_id":76561198147335801,"connected_time":1211000000000,"state":"active","ping":49},{"user_id":80,"name":"catgirl","steam_id":76561198071152332,"connected_time":1559000000000,"state":"active","ping":57},{"user_id":44,"name":"Smog","steam_id":76561198043705383,"connected_time":3820000000000,"state":"active","ping":65},{"user_id":85,"name":"MechaSixVII","steam_id":76561198014927379,"connected_time":1185000000000,"state":"active","ping":65},{"user_id":95,"name":"Kid named download","steam_id":76561199192074448,"connected_time":600000000000,"state":"active","ping":82},{"user_id":88,"name":"*‚ÄßÀökitsu  ö‚ô•…û","steam_id":76561198091741658,"connected_time":1078000000000,"state":"active","ping":70},{"user_id":94,"name":"DaisyTheCat","steam_id":76561198241732704,"connected_time":753000000000,"state":"active","ping":136},{"user_id":78,"name":"Reiner","steam_id":76561199201762178,"connected_time":2029000000000,"state":"active","ping":78},{"user_id":90,"name":"Sithayo","steam_id":76561198027950572,"connected_time":1060000000000,"state":"active","ping":122},{"user_id":92,"name":"ABY$$","steam_id":76561198026837000,"connected_time":971000000000,"state":"active","ping":61},{"user_id":61,"name":"Kiss Master","steam_id":76561198289572271,"connected_time":2678000000000,"state":"active","ping":81},{"user_id":32,"name":"Brigadier Sir Noodle","steam_id":76561198151986180,"connected_time":4177000000000,"state":"active","ping":59},{"user_id":33,"name":"‚ú® Rarity ‚ú®","steam_id":76561199172206856,"connected_time":4079000000000,"state":"active","ping":82},{"user_id":75,"name":"Neopyth","steam_id":76561198031868427,"connected_time":2074000000000,"state":"active","ping":66},{"user_id":68,"name":"A Sun","steam_id":76561198142545364,"connected_time":2321000000000,"state":"active","ping":68},{"user_id":74,"name":"Jezzus","steam_id":76561199289676387,"connected_time":2097000000000,"state":"active","ping":83},{"user_id":97,"name":"Lemon","steam_id":76561198108181398,"connected_time":162000000000,"state":"active","ping":56},{"user_id":96,"name":"Godot 102","steam_id":76561198083079903,"connected_time":559000000000,"state":"active","ping":145},{"user_id":67,"name":"rick from pawn stars","steam_id":76561198009962732,"connected_time":2469000000000,"state":"active","ping":90},{"user_id":65,"name":"Whyamidoingthisaaaa","steam_id":76561199168837342,"connected_time":2594000000000,"state":"active","ping":79},{"user_id":42,"name":"Piss Man","steam_id":76561199446367874,"connected_time":3863000000000,"state":"active","ping":51},{"user_id":53,"name":"Kritzburgh","steam_id":76561198149466938,"connected_time":3066000000000,"state":"active","ping":62},{"user_id":54,"name":"‚ô°Mogwr‚ô°","steam_id":76561198124942972,"connected_time":3066000000000,"state":"active","ping":75}]},{"server_id":403,"name":"Uncletopia | Chicago | 4 | All Maps","name_short":"chi-4","host":"chi-1.us.uncletopia.com","port":27045,"enabled":true,"region":"us-central","cc":"us","latitude":41.881832,"longitude":-87.62318,"reserved":0,"last_update":"0001-01-01T00:00:00Z","name_a2s":"Uncletopia | Chicago | 4 | All Maps","protocol":17,"map":"pl_thundermountain","folder":"tf","game":"Team Fortress","app_id":440,"player_count":24,"max_players":24,"Bots":0,"server_type":"Dedicated","server_os":"Linux","password":true,"vac":true,"version":"7961495","steam_id":85568392924515193,"keywords":["nocrits","nodmgspread","payload","uncletopia"],"game_id":440,"stv_port":27046,"stv_name":"Uncletopia | Chicago | 4 | All Maps | STV","players":[{"user_id":106,"name":"deadbxlt","steam_id":76561198061632593,"connected_time":1002000000000,"state":"active","ping":78},{"user_id":105,"name":"LavenderSys","steam_id":76561198289106015,"connected_time":1020000000000,"state":"active","ping":79},{"user_id":126,"name":"Ixcarsis","steam_id":76561198880674783,"connected_time":321000000000,"state":"active","ping":82},{"user_id":112,"name":"pee pee poo poo","steam_id":76561198930017260,"connected_time":766000000000,"state":"active","ping":55},{"user_id":95,"name":"Compile","steam_id":76561198242842394,"connected_time":1850000000000,"state":"active","ping":75},{"user_id":109,"name":"Mx.OmniLeaf","steam_id":76561198049001928,"connected_time":882000000000,"state":"active","ping":46},{"user_id":127,"name":"agless","steam_id":76561198045248344,"connected_time":277000000000,"state":"active","ping":57},{"user_id":111,"name":"Telephus","steam_id":76561198017530698,"connected_time":791000000000,"state":"active","ping":68},{"user_id":77,"name":"RealStanzy","steam_id":76561199060261003,"connected_time":3290000000000,"state":"active","ping":70},{"user_id":115,"name":"your moms car","steam_id":76561199389283507,"connected_time":732000000000,"state":"active","ping":71},{"user_id":83,"name":"Cheesi","steam_id":76561199417190840,"connected_time":2862000000000,"state":"active","ping":74},{"user_id":128,"name":"Big G","steam_id":76561198290474559,"connected_time":269000000000,"state":"active","ping":69},{"user_id":96,"name":"Guitar Queero","steam_id":76561198880568662,"connected_time":1509000000000,"state":"active","ping":67},{"user_id":131,"name":"Mer","steam_id":76561198192171041,"connected_time":201000000000,"state":"active","ping":112},{"user_id":116,"name":"Gumino","steam_id":76561199080478746,"connected_time":720000000000,"state":"active","ping":108},{"user_id":132,"name":"La Tabda","steam_id":76561198120364620,"connected_time":178000000000,"state":"active","ping":90},{"user_id":125,"name":"SafetyInstructor","steam_id":76561199195205705,"connected_time":349000000000,"state":"active","ping":81},{"user_id":88,"name":"Brawns","steam_id":76561198045190199,"connected_time":2502000000000,"state":"active","ping":80},{"user_id":117,"name":"John Xina","steam_id":76561198350649871,"connected_time":719000000000,"state":"active","ping":84},{"user_id":75,"name":"Krispy","steam_id":76561197994783393,"connected_time":3615000000000,"state":"active","ping":77},{"user_id":118,"name":"george piston","steam_id":76561198120396039,"connected_time":712000000000,"state":"active","ping":110},{"user_id":121,"name":"Grain_Is_Diabetic","steam_id":76561199120869422,"connected_time":560000000000,"state":"active","ping":91},{"user_id":74,"name":"Sauce","steam_id":76561198398722419,"connected_time":3659000000000,"state":"active","ping":101},{"user_id":91,"name":"Joyous Jenny","steam_id":76561198127998866,"connected_time":2366000000000,"state":"active","ping":76}]},{"server_id":36,"name":"Uncletopia | Chicago | 5 | All Maps","name_short":"chi-5","host":"chi-2.us.uncletopia.com","port":27015,"enabled":true,"region":"us-central","cc":"us","latitude":41.881832,"longitude":-87.62318,"reserved":0,"last_update":"0001-01-01T00:00:00Z","name_a2s":"Uncletopia | Chicago | 5 | All Maps","protocol":17,"map":"pl_badwater","folder":"tf","game":"Team Fortress","app_id":440,"player_count":24,"max_players":24,"Bots":0,"server_type":"Dedicated","server_os":"Linux","password":true,"vac":true,"version":"7961495","steam_id":85568392924866362,"keywords":["nocrits","nodmgspread","payload","uncletopia"],"game_id":440,"stv_port":27016,"stv_name":"Uncletopia | Chicago | 5 | All Maps | STV","players":[{"user_id":21,"name":"Triple-Edged","steam_id":76561198308472155,"connected_time":1697000000000,"state":"active","ping":58},{"user_id":45,"name":"Egg Guzzler","steam_id":76561199109194893,"connected_time":393000000000,"state":"active","ping":76},{"user_id":24,"name":"bookreader","steam_id":76561198978568007,"connected_time":1436000000000,"state":"active","ping":53},{"user_id":25,"name":"+==[:::::::::::::::::::::::\u003e","steam_id":76561199051212534,"connected_time":1431000000000,"state":"active","ping":58},{"user_id":59,"name":"lazily","steam_id":76561198051127715,"connected_time":18000000000,"state":"spawning","ping":878},{"user_id":57,"name":"leumas","steam_id":76561198240408540,"connected_time":196000000000,"state":"active","ping":57},{"user_id":30,"name":"davidflyswag","steam_id":76561198979060652,"connected_time":955000000000,"state":"active","ping":80},{"user_id":31,"name":"Bruh Bruh The Brah Brah","steam_id":76561198087482068,"connected_time":910000000000,"state":"active","ping":50},{"user_id":32,"name":"Architect","steam_id":76561198015242016,"connected_time":874000000000,"state":"active","ping":40},{"user_id":44,"name":"Scout that only uses shove","steam_id":76561198373692962,"connected_time":405000000000,"state":"active","ping":57},{"user_id":58,"name":"Ginnunga","steam_id":76561198000320083,"connected_time":56000000000,"state":"active","ping":104},{"user_id":39,"name":"spider mastermind (real)","steam_id":76561199433948284,"connected_time":530000000000,"state":"active","ping":64},{"user_id":40,"name":"JoeFalco","steam_id":76561198064005012,"connected_time":464000000000,"state":"active","ping":86},{"user_id":41,"name":"Bingo Bango Bongo","steam_id":76561198035421550,"connected_time":453000000000,"state":"active","ping":60},{"user_id":50,"name":"cass","steam_id":76561198074502046,"connected_time":341000000000,"state":"active","ping":123},{"user_id":48,"name":"Oh wow.","steam_id":76561199039754846,"connected_time":370000000000,"state":"active","ping":121},{"user_id":47,"name":"STROKINMA.MD","steam_id":76561198052261111,"connected_time":373000000000,"state":"active","ping":127},{"user_id":60,"name":"Carpetspill","steam_id":76561198240023406,"connected_time":2000000000,"state":"spawning","ping":68},{"user_id":51,"name":"UNIT 220","steam_id":76561198042243497,"connected_time":331000000000,"state":"active","ping":74},{"user_id":52,"name":"hyazz","steam_id":76561199100342013,"connected_time":330000000000,"state":"active","ping":90},{"user_id":53,"name":"Howard Hamlin","steam_id":76561198881039861,"connected_time":316000000000,"state":"active","ping":51},{"user_id":54,"name":"DeckofDragons","steam_id":76561198057398213,"connected_time":307000000000,"state":"active","ping":76},{"user_id":55,"name":"BIG DUKE","steam_id":76561198041005562,"connected_time":299000000000,"state":"active","ping":45},{"user_id":56,"name":"R{FITH}‚Ñ¢ Z4LTte","steam_id":76561198283258068,"connected_time":290000000000,"state":"active","ping":62}]},{"server_id":37,"name":"Uncletopia | Chicago | 6 | All Maps","name_short":"chi-6","host":"chi-2.us.uncletopia.com","port":27025,"enabled":true,"region":"us-central","cc":"us","latitude":41.881832,"longitude":-87.62318,"reserved":0,"last_update":"0001-01-01T00:00:00Z","name_a2s":"Uncletopia | Chicago | 6 | All Maps","protocol":17,"map":"koth_viaduct","folder":"tf","game":"Team Fortress","app_id":440,"player_count":0,"max_players":24,"Bots":0,"server_type":"Dedicated","server_os":"Linux","password":true,"vac":true,"version":"7961495","steam_id":85568392924866363,"keywords":["cp","nocrits","nodmgspread","uncletopia"],"game_id":440,"stv_port":27026,"stv_name":"Uncletopia | Chicago | 6 | All Maps | STV","players":null},{"server_id":38,"name":"Uncletopia | Chicago | 7 | Stopwatch","name_short":"chi-7","host":"chi-2.us.uncletopia.com","port":27035,"enabled":true,"region":"us-central","cc":"us","latitude":41.881832,"longitude":-87.62318,"reserved":0,"last_update":"0001-01-01T00:00:00Z","name_a2s":"Uncletopia | Chicago | 7 | Stopwatch","protocol":17,"map":"cp_process_final","folder":"tf","game":"Team Fortress","app_id":440,"player_count":19,"max_players":24,"Bots":0,"server_type":"Dedicated","server_os":"Linux","password":true,"vac":true,"version":"7961495","steam_id":85568392924866364,"keywords":["cp","nocrits","nodmgspread","uncletopia"],"game_id":440,"stv_port":27036,"stv_name":"Uncletopia | Chicago | 7 | Stopwatch | STV","players":[{"user_id":246,"name":"Lord Scrubling","steam_id":76561198263744445,"connected_time":1027000000000,"state":"active","ping":419},{"user_id":256,"name":"neet","steam_id":76561197968115168,"connected_time":404000000000,"state":"active","ping":55},{"user_id":252,"name":"mustard","steam_id":76561199386202591,"connected_time":563000000000,"state":"active","ping":87},{"user_id":210,"name":"oatmeal enthusiast","steam_id":76561198062763756,"connected_time":3250000000000,"state":"active","ping":38},{"user_id":224,"name":"J O S H¬≥¬≤","steam_id":76561198122603779,"connected_time":2450000000000,"state":"active","ping":147},{"user_id":262,"name":"Muxie","steam_id":76561198268567705,"connected_time":130000000000,"state":"spawning","ping":113},{"user_id":265,"name":"Gunpowder","steam_id":76561199089023124,"connected_time":4000000000,"state":"active","ping":53},{"user_id":186,"name":"Mirce","steam_id":76561198100889621,"connected_time":4839000000000,"state":"active","ping":53},{"user_id":245,"name":"PoliDimizu22","steam_id":76561199490135441,"connected_time":1097000000000,"state":"spawning","ping":53},{"user_id":202,"name":"DysfunctionJunction","steam_id":76561198051815183,"connected_time":4111000000000,"state":"spawning","ping":51},{"user_id":261,"name":"BananaMangoFestival2013","steam_id":76561198218558897,"connected_time":152000000000,"state":"active","ping":121},{"user_id":258,"name":"üëÅ sumixodic","steam_id":76561198090770710,"connected_time":389000000000,"state":"active","ping":144},{"user_id":184,"name":"Lucy Lou!","steam_id":76561198078209088,"connected_time":4850000000000,"state":"active","ping":49},{"user_id":259,"name":"TheKyleB","steam_id":76561198202515104,"connected_time":248000000000,"state":"active","ping":37},{"user_id":187,"name":"BB Lorexav","steam_id":76561198207565988,"connected_time":4825000000000,"state":"active","ping":84},{"user_id":225,"name":"jxh300","steam_id":76561199196579894,"connected_time":2392000000000,"state":"active","ping":80},{"user_id":189,"name":"Viewie","steam_id":76561198280108853,"connected_time":4803000000000,"state":"active","ping":80},{"user_id":263,"name":"tek lintowe fan","steam_id":76561198206177593,"connected_time":82000000000,"state":"active","ping":101},{"user_id":196,"name":"on that zaza?","steam_id":76561198038713198,"connected_time":4704000000000,"state":"active","ping":75}]},{"server_id":39,"name":"Uncletopia | Chicago | 8 | Community","name_short":"chi-8","host":"chi-2.us.uncletopia.com","port":27045,"enabled":true,"region":"us-central","cc":"us","latitude":41.881832,"longitude":-87.62318,"reserved":0,"last_update":"0001-01-01T00:00:00Z","name_a2s":"Uncletopia | Chicago | 8 | Community","protocol":17,"map":"pl_pier","folder":"tf","game":"Team Fortress","app_id":440,"player_count":0,"max_players":24,"Bots":0,"server_type":"Dedicated","server_os":"Linux","password":true,"vac":true,"version":"7961495","steam_id":85568392924866365,"keywords":["nocrits","nodmgspread","payload","uncletopia"],"game_id":440,"stv_port":27046,"stv_name":"Uncletopia | Chicago | 8 | Community | STV","players":null},{"server_id":8,"name":"Uncletopia | Dallas | 1 | All Maps","name_short":"dal-1","host":"dal-1.us.uncletopia.com","port":27015,"enabled":true,"region":"us-central","cc":"us","latitude":32.779167,"longitude":-96.80889,"reserved":0,"last_update":"0001-01-01T00:00:00Z","name_a2s":"Uncletopia | Dallas | 1 | All Maps","protocol":17,"map":"cp_sunshine","folder":"tf","game":"Team Fortress","app_id":440,"player_count":0,"max_players":24,"Bots":0,"server_type":"Dedicated","server_os":"Linux","password":true,"vac":true,"version":"7961495","steam_id":85568392924469986,"keywords":["cp","nocrits","nodmgspread","uncletopia"],"game_id":440,"stv_port":27016,"stv_name":"Uncletopia | Dallas | 1 | All Maps | STV","players":null},{"server_id":108,"name":"Uncletopia | Dallas | 2 | All Maps","name_short":"dal-2","host":"dal-1.us.uncletopia.com","port":27025,"enabled":true,"region":"us-central","cc":"us","latitude":32.779167,"longitude":-96.80889,"reserved":0,"last_update":"0001-01-01T00:00:00Z","name_a2s":"Uncletopia | Dallas | 2 | All Maps","protocol":17,"map":"pl_rumford_event","folder":"tf","game":"Team Fortress","app_id":440,"player_count":24,"max_players":24,"Bots":0,"server_type":"Dedicated","server_os":"Linux","password":true,"vac":true,"version":"7961495","steam_id":85568392924469988,"keywords":["nocrits","nodmgspread","payload","uncletopia"],"game_id":440,"stv_port":27026,"stv_name":"Uncletopia | Dallas | 2 | All Maps | STV","players":[{"user_id":127,"name":"wajanta","steam_id":76561199040280852,"connected_time":436000000000,"state":"active","ping":66},{"user_id":128,"name":"Darling","steam_id":76561198127525888,"connected_time":380000000000,"state":"active","ping":44},{"user_id":96,"name":"cock","steam_id":76561198931062414,"connected_time":1989000000000,"state":"active","ping":92},{"user_id":97,"name":"schmuck","steam_id":76561198143789773,"connected_time":1945000000000,"state":"active","ping":57},{"user_id":98,"name":"Jefferton","steam_id":76561198406216568,"connected_time":1920000000000,"state":"active","ping":71},{"user_id":130,"name":"Frebresio","steam_id":76561198353493333,"connected_time":267000000000,"state":"active","ping":95},{"user_id":115,"name":"Rattlesnake","steam_id":76561198321044152,"connected_time":1477000000000,"state":"active","ping":80},{"user_id":131,"name":"Julius Pringle","steam_id":76561198189330642,"connected_time":201000000000,"state":"active","ping":78},{"user_id":103,"name":"Major Woody","steam_id":76561198835541533,"connected_time":1672000000000,"state":"active","ping":77},{"user_id":135,"name":"Moth Beam","steam_id":76561198005069202,"connected_time":87000000000,"state":"active","ping":44},{"user_id":106,"name":"THE man is EPIC","steam_id":76561198085410777,"connected_time":1637000000000,"state":"active","ping":104},{"user_id":126,"name":"THE BINDING OF YAOISAAC?","steam_id":76561198123527383,"connected_time":720000000000,"state":"active","ping":45},{"user_id":132,"name":"Windows1800s","steam_id":76561198145093014,"connected_time":166000000000,"state":"active","ping":84},{"user_id":133,"name":"yin","steam_id":76561198154144014,"connected_time":165000000000,"state":"active","ping":90},{"user_id":112,"name":"7thelden","steam_id":76561198297428761,"connected_time":1522000000000,"state":"active","ping":85},{"user_id":121,"name":"green bean","steam_id":76561198113099204,"connected_time":1399000000000,"state":"active","ping":74},{"user_id":114,"name":"Serene Salamander","steam_id":76561198001094770,"connected_time":1479000000000,"state":"active","ping":88},{"user_id":124,"name":"Rob","steam_id":76561199187786660,"connected_time":1193000000000,"state":"active","ping":58},{"user_id":118,"name":"Cinnifox","steam_id":76561198068773971,"connected_time":1457000000000,"state":"active","ping":89},{"user_id":119,"name":"Joker","steam_id":76561198251373190,"connected_time":1448000000000,"state":"active","ping":71},{"user_id":120,"name":"chiswola","steam_id":76561198046920142,"connected_time":1419000000000,"state":"active","ping":100},{"user_id":122,"name":"stickg","steam_id":76561199193020423,"connected_time":1368000000000,"state":"active","ping":84},{"user_id":123,"name":"Pancake Shark","steam_id":76561198007093966,"connected_time":1334000000000,"state":"active","ping":88},{"user_id":137,"name":"femboy =Ôºæ‚óè ‚ãè ‚óèÔºæ=","steam_id":76561199052450127,"connected_time":53000000000,"state":"spawning","ping":138}]},{"server_id":404,"name":"Uncletopia | Dallas | 3 | All Maps","name_short":"dal-3","host":"dal-1.us.uncletopia.com","port":27035,"enabled":true,"region":"us-central","cc":"us","latitude":32.779167,"longitude":-96.80889,"reserved":0,"last_update":"0001-01-01T00:00:00Z","name_a2s":"Uncletopia | Dallas | 3 | All Maps","protocol":17,"map":"pl_snowycoast","folder":"tf","game":"Team Fortress","app_id":440,"player_count":0,"max_players":24,"Bots":0,"server_type":"Dedicated","server_os":"Linux","password":true,"vac":true,"version":"7961495","steam_id":85568392924515219,"keywords":["nocrits","nodmgspread","payload","uncletopia"],"game_id":440,"stv_port":27036,"stv_name":"Uncletopia | Dallas | 3 | All Maps | STV","players":null},{"server_id":405,"name":"Uncletopia | Dallas | 4 | Community","name_short":"dal-4","host":"dal-1.us.uncletopia.com","port":27045,"enabled":true,"region":"us-central","cc":"us","latitude":32.779167,"longitude":-96.80889,"reserved":0,"last_update":"0001-01-01T00:00:00Z","name_a2s":"Uncletopia | Dallas | 4 | Community","protocol":17,"map":"pl_pier","folder":"tf","game":"Team Fortress","app_id":440,"player_count":0,"max_players":24,"Bots":0,"server_type":"Dedicated","server_os":"Linux","password":true,"vac":true,"version":"7961495","steam_id":85568392924515220,"keywords":["nocrits","nodmgspread","payload","uncletopia"],"game_id":440,"stv_port":27046,"stv_name":"Uncletopia | Dallas | 4 | Community | STV","players":null},{"server_id":5,"name":"Uncletopia | Frankfurt | 1 | All Maps","name_short":"frk-1","host":"frk-1.de.uncletopia.com","port":27015,"enabled":true,"region":"eu","cc":"de","latitude":50.110924,"longitude":8.682127,"reserved":0,"last_update":"0001-01-01T00:00:00Z","name_a2s":"Uncletopia | Frankfurt | 1 | All Maps","protocol":17,"map":"koth_lakeside_final","folder":"tf","game":"Team Fortress","app_id":440,"player_count":0,"max_players":24,"Bots":0,"server_type":"Dedicated","server_os":"Linux","password":true,"vac":true,"version":"7961495","steam_id":85568392924469989,"keywords":["cp","nocrits","nodmgspread","uncletopia"],"game_id":440,"stv_port":27016,"stv_name":"Uncletopia | Frankfurt | 1 | All Maps | STV","players":null},{"server_id":110,"name":"Uncletopia | Frankfurt | 2 | All Maps","name_short":"frk-2","host":"frk-1.de.uncletopia.com","port":27025,"enabled":true,"region":"eu","cc":"de","latitude":50.110924,"longitude":8.682127,"reserved":0,"last_update":"0001-01-01T00:00:00Z","name_a2s":"Uncletopia | Frankfurt | 2 | All Maps","protocol":17,"map":"pl_badwater","folder":"tf","game":"Team Fortress","app_id":440,"player_count":17,"max_players":24,"Bots":0,"server_type":"Dedicated","server_os":"Linux","password":true,"vac":true,"version":"7961495","steam_id":85568392924469990,"keywords":["nocrits","nodmgspread","payload","uncletopia"],"game_id":440,"stv_port":27026,"stv_name":"Uncletopia | Frankfurt | 2 | All Maps | STV","players":[{"user_id":800,"name":"lawn","steam_id":76561198001243486,"connected_time":993000000000,"state":"active","ping":47},{"user_id":803,"name":"SuperPrower","steam_id":76561198040878246,"connected_time":67000000000,"state":"active","ping":124},{"user_id":804,"name":"flave","steam_id":76561198056372101,"connected_time":50000000000,"state":"active","ping":71},{"user_id":784,"name":"Kogu8ek","steam_id":76561198107387766,"connected_time":1781000000000,"state":"active","ping":59},{"user_id":805,"name":"Heinrich","steam_id":76561198063897745,"connected_time":45000000000,"state":"active","ping":64},{"user_id":801,"name":"GamingClemence","steam_id":76561198271679142,"connected_time":694000000000,"state":"active","ping":60},{"user_id":787,"name":"Niyaah","steam_id":76561198110209191,"connected_time":1686000000000,"state":"active","ping":59},{"user_id":794,"name":"Panserbjorne","steam_id":76561198143964642,"connected_time":1352000000000,"state":"active","ping":75},{"user_id":806,"name":"‚òÅ Lou1smeister ‚òÅ","steam_id":76561198004032968,"connected_time":45000000000,"state":"active","ping":75},{"user_id":807,"name":"Jonno","steam_id":76561198023443744,"connected_time":31000000000,"state":"active","ping":63},{"user_id":785,"name":"amarok","steam_id":76561198133526074,"connected_time":1753000000000,"state":"active","ping":40},{"user_id":769,"name":"random critz wizard","steam_id":76561198019416262,"connected_time":2670000000000,"state":"active","ping":84},{"user_id":770,"name":"Tumulus","steam_id":76561199164225741,"connected_time":2665000000000,"state":"active","ping":83},{"user_id":786,"name":"KrAk3rs","steam_id":76561198298179344,"connected_time":1751000000000,"state":"active","ping":48},{"user_id":750,"name":"Dizzy","steam_id":76561198010192462,"connected_time":4308000000000,"state":"active","ping":37},{"user_id":793,"name":"Tiny Desk Engineer","steam_id":76561199049784560,"connected_time":1492000000000,"state":"active","ping":202},{"user_id":799,"name":"√áodar","steam_id":76561198235518444,"connected_time":1057000000000,"state":"active","ping":47}]},{"server_id":308,"name":"Uncletopia | Frankfurt | 3 | All Maps","name_short":"frk-3","host":"frk-1.de.uncletopia.com","port":27035,"enabled":true,"region":"eu","cc":"de","latitude":50.110924,"longitude":8.682127,"reserved":0,"last_update":"0001-01-01T00:00:00Z","name_a2s":"Uncletopia | Frankfurt | 3 | All Maps","protocol":17,"map":"cp_sunshine","folder":"tf","game":"Team Fortress","app_id":440,"player_count":0,"max_players":24,"Bots":0,"server_type":"Dedicated","server_os":"Linux","password":true,"vac":true,"version":"7961495","steam_id":85568392924504274,"keywords":["cp","nocrits","nodmgspread","uncletopia"],"game_id":440,"stv_port":27036,"stv_name":"Uncletopia | Frankfurt | 3 | All Maps | STV","players":null},{"server_id":309,"name":"Uncletopia | Frankfurt | 4 | All Maps","name_short":"frk-4","host":"frk-1.de.uncletopia.com","port":27045,"enabled":true,"region":"eu","cc":"de","latitude":50.110924,"longitude":8.682127,"reserved":0,"last_update":"0001-01-01T00:00:00Z","name_a2s":"Uncletopia | Frankfurt | 4 | All Maps","protocol":17,"map":"cp_process_final","folder":"tf","game":"Team Fortress","app_id":440,"player_count":24,"max_players":24,"Bots":0,"server_type":"Dedicated","server_os":"Linux","password":true,"vac":true,"version":"7961495","steam_id":85568392924504275,"keywords":["cp","nocrits","nodmgspread","uncletopia"],"game_id":440,"stv_port":27046,"stv_name":"Uncletopia | Frankfurt | 4 | All Maps | STV","players":[{"user_id":546,"name":"agent youppii","steam_id":76561198055264447,"connected_time":6112000000000,"state":"active","ping":68},{"user_id":650,"name":"nug","steam_id":76561198055396568,"connected_time":219000000000,"state":"active","ping":71},{"user_id":651,"name":"Srckula","steam_id":76561198124631579,"connected_time":210000000000,"state":"active","ping":80},{"user_id":631,"name":"doorlarkeded","steam_id":76561199439227968,"connected_time":1657000000000,"state":"active","ping":158},{"user_id":648,"name":"v","steam_id":76561198236652792,"connected_time":937000000000,"state":"active","ping":64},{"user_id":628,"name":"Marxman","steam_id":76561198856249022,"connected_time":2079000000000,"state":"active","ping":178},{"user_id":632,"name":"BeefHammer","steam_id":76561198078426223,"connected_time":1561000000000,"state":"active","ping":101},{"user_id":477,"name":"Vershal Smershal","steam_id":76561198116223995,"connected_time":11414000000000,"state":"active","ping":57},{"user_id":638,"name":"Ghostler","steam_id":76561198008734235,"connected_time":1242000000000,"state":"active","ping":54},{"user_id":622,"name":"Captain Kacke","steam_id":76561198132133702,"connected_time":2276000000000,"state":"active","ping":38},{"user_id":634,"name":"A simple berry picker","steam_id":76561198091969871,"connected_time":1381000000000,"state":"active","ping":91},{"user_id":600,"name":"smiley","steam_id":76561198042245117,"connected_time":3697000000000,"state":"active","ping":85},{"user_id":576,"name":"raebbitos","steam_id":76561198167580006,"connected_time":4634000000000,"state":"active","ping":54},{"user_id":620,"name":"Seteesh","steam_id":76561199479420894,"connected_time":2441000000000,"state":"active","ping":168},{"user_id":635,"name":"Kabusogi","steam_id":76561198067226675,"connected_time":1370000000000,"state":"active","ping":106},{"user_id":636,"name":"THE SUN! THE SUN!","steam_id":76561198053400769,"connected_time":1341000000000,"state":"active","ping":61},{"user_id":637,"name":"etc","steam_id":76561197998394797,"connected_time":1263000000000,"state":"active","ping":58},{"user_id":646,"name":"Hogs Sidekick","steam_id":76561198136433205,"connected_time":1137000000000,"state":"active","ping":56},{"user_id":649,"name":"vortegan","steam_id":76561198266614530,"connected_time":583000000000,"state":"active","ping":61},{"user_id":645,"name":"Vince","steam_id":76561199103000131,"connected_time":1147000000000,"state":"active","ping":60},{"user_id":612,"name":".Owl","steam_id":76561198065351566,"connected_time":3226000000000,"state":"active","ping":53},{"user_id":602,"name":"Proto-arc","steam_id":76561198012776747,"connected_time":3632000000000,"state":"active","ping":59},{"user_id":647,"name":"Jeff","steam_id":76561198074722832,"connected_time":1076000000000,"state":"active","ping":52},{"user_id":626,"name":"Zim","steam_id":76561197962903996,"connected_time":2190000000000,"state":"active","ping":56}]},{"server_id":310,"name":"Uncletopia | Frankfurt | 5 | All Maps","name_short":"frk-5","host":"frk-1.de.uncletopia.com","port":27055,"enabled":true,"region":"eu","cc":"de","latitude":50.110924,"longitude":8.682127,"reserved":0,"last_update":"0001-01-01T00:00:00Z","name_a2s":"Uncletopia | Frankfurt | 5 | All Maps","protocol":17,"map":"pl_frontier_final","folder":"tf","game":"Team Fortress","app_id":440,"player_count":0,"max_players":24,"Bots":0,"server_type":"Dedicated","server_os":"Linux","password":true,"vac":true,"version":"7961495","steam_id":85568392924504277,"keywords":["nocrits","nodmgspread","payload","uncletopia"],"game_id":440,"stv_port":27056,"stv_name":"Uncletopia | Frankfurt | 5 | All Maps | STV","players":null},{"server_id":311,"name":"Uncletopia | Frankfurt | 6 | All Maps","name_short":"frk-6","host":"frk-1.de.uncletopia.com","port":27065,"enabled":true,"region":"eu","cc":"de","latitude":50.110924,"longitude":8.682127,"reserved":0,"last_update":"0001-01-01T00:00:00Z","name_a2s":"Uncletopia | Frankfurt | 6 | All Maps","protocol":17,"map":"pl_pier","folder":"tf","game":"Team Fortress","app_id":440,"player_count":0,"max_players":24,"Bots":0,"server_type":"Dedicated","server_os":"Linux","password":true,"vac":true,"version":"7961495","steam_id":85568392924504278,"keywords":["nocrits","nodmgspread","payload","uncletopia"],"game_id":440,"stv_port":27066,"stv_name":"Uncletopia | Frankfurt | 6 | All Maps | STV","players":null},{"server_id":23,"name":"Uncletopia | Frankfurt | 7 | Stopwatch","name_short":"frk-7","host":"frk-1.de.uncletopia.com","port":27075,"enabled":true,"region":"eu","cc":"de","latitude":50.110924,"longitude":8.682127,"reserved":0,"last_update":"0001-01-01T00:00:00Z","name_a2s":"Uncletopia | Frankfurt | 7 | Stopwatch","protocol":17,"map":"workshop/pl_vigil_rc10.ugc1266210012","folder":"tf","game":"Team Fortress","app_id":440,"player_count":0,"max_players":24,"Bots":0,"server_type":"Dedicated","server_os":"Linux","password":true,"vac":true,"version":"7961495","steam_id":85568392924742827,"keywords":["nocrits","nodmgspread","payload","uncletopia"],"game_id":440,"stv_port":27076,"stv_name":"Uncletopia | Frankfurt | 7 | Stopwatch | STV","players":null},{"server_id":24,"name":"Uncletopia | Frankfurt | 8 | Community","name_short":"frk-8","host":"frk-1.de.uncletopia.com","port":27085,"enabled":true,"region":"eu","cc":"de","latitude":50.110924,"longitude":8.682127,"reserved":0,"last_update":"0001-01-01T00:00:00Z","name_a2s":"Uncletopia | Frankfurt | 8 | Community","protocol":17,"map":"workshop/pl_emerge_rc2.ugc888027758","folder":"tf","game":"Team Fortress","app_id":440,"player_count":0,"max_players":24,"Bots":0,"server_type":"Dedicated","server_os":"Linux","password":true,"vac":true,"version":"7961495","steam_id":85568392924742828,"keywords":["nocrits","nodmgspread","payload","uncletopia"],"game_id":440,"stv_port":27086,"stv_name":"Uncletopia | Frankfurt | 8 | Community | STV","players":null},{"server_id":202,"name":"Uncletopia | Hong Kong | 1 | All Maps","name_short":"hgk-1","host":"hgk-1.hk.uncletopia.com","port":27015,"enabled":true,"region":"asia","cc":"hk","latitude":22.302711,"longitude":114.177216,"reserved":0,"last_update":"0001-01-01T00:00:00Z","name_a2s":"Uncletopia | Hong Kong | 1 | All Maps","protocol":17,"map":"pl_frontier_final","folder":"tf","game":"Team Fortress","app_id":440,"player_count":3,"max_players":24,"Bots":0,"server_type":"Dedicated","server_os":"Linux","password":true,"vac":true,"version":"7961495","steam_id":85568392924494504,"keywords":["nocrits","nodmgspread","payload","uncletopia"],"game_id":440,"stv_port":27016,"stv_name":"Uncletopia | Hong Kong | 1 | All Maps | STV","players":[{"user_id":6,"name":"wood","steam_id":76561198446479114,"connected_time":396000000000,"state":"active","ping":69},{"user_id":5,"name":"birdo","steam_id":76561199206075827,"connected_time":468000000000,"state":"active","ping":74},{"user_id":7,"name":"yam","steam_id":76561198980933984,"connected_time":280000000000,"state":"active","ping":249}]},{"server_id":1,"name":"Uncletopia | Los Angeles | 1 | All Maps","name_short":"lax-1","host":"lax-1.us.uncletopia.com","port":27015,"enabled":true,"region":"us-west","cc":"us","latitude":33.94279,"longitude":-118.41004,"reserved":0,"last_update":"0001-01-01T00:00:00Z","name_a2s":"Uncletopia | Los Angeles | 1 | All Maps","protocol":17,"map":"cp_steel","folder":"tf","game":"Team Fortress","app_id":440,"player_count":23,"max_players":24,"Bots":0,"server_type":"Dedicated","server_os":"Linux","password":true,"vac":true,"version":"7961495","steam_id":85568392924469991,"keywords":["cp","nocrits","nodmgspread","uncletopia"],"game_id":440,"stv_port":27016,"stv_name":"Uncletopia | Los Angeles | 1 | All Maps | STV","players":[{"user_id":318,"name":"[‚òØ] randomshagz*","steam_id":76561197968666646,"connected_time":2941000000000,"state":"active","ping":65},{"user_id":355,"name":"‚òÖ‚òÖthastephen‚òÖ‚òÖ","steam_id":76561198080289775,"connected_time":510000000000,"state":"active","ping":266},{"user_id":337,"name":"callie","steam_id":76561198131833567,"connected_time":1910000000000,"state":"active","ping":78},{"user_id":349,"name":"Frank Ugly","steam_id":76561198247002810,"connected_time":1313000000000,"state":"active","ping":59},{"user_id":356,"name":"roach :3","steam_id":76561198354811369,"connected_time":99000000000,"state":"active","ping":45},{"user_id":303,"name":"LazyDoll","steam_id":76561198053186338,"connected_time":4050000000000,"state":"active","ping":51},{"user_id":329,"name":"Noelle Holiday","steam_id":76561198359994674,"connected_time":2486000000000,"state":"active","ping":89},{"user_id":353,"name":"zUrik","steam_id":76561199038911272,"connected_time":699000000000,"state":"active","ping":45},{"user_id":358,"name":"Tideflat","steam_id":76561198179850851,"connected_time":55000000000,"state":"active","ping":86},{"user_id":359,"name":"King Sans","steam_id":76561198294198517,"connected_time":52000000000,"state":"active","ping":104},{"user_id":347,"name":"mr poop","steam_id":76561199195196632,"connected_time":1390000000000,"state":"active","ping":81},{"user_id":348,"name":"greens beans","steam_id":76561198153611491,"connected_time":1373000000000,"state":"active","ping":67},{"user_id":308,"name":"K-2","steam_id":76561198322606535,"connected_time":3445000000000,"state":"active","ping":70},{"user_id":310,"name":"lol","steam_id":76561198026491738,"connected_time":3246000000000,"state":"active","ping":66},{"user_id":224,"name":"FOX News goblin","steam_id":76561198167648580,"connected_time":9872000000000,"state":"active","ping":45},{"user_id":360,"name":"SuperEvilPasta","steam_id":76561198078258907,"connected_time":1000000000,"state":"spawning","ping":90},{"user_id":342,"name":"Esteban Delsin","steam_id":76561198433519639,"connected_time":1578000000000,"state":"active","ping":111},{"user_id":344,"name":"Monsoon","steam_id":76561198167596804,"connected_time":1485000000000,"state":"active","ping":85},{"user_id":357,"name":"Super3D","steam_id":76561199297779078,"connected_time":93000000000,"state":"active","ping":74},{"user_id":307,"name":"tass","steam_id":76561199254321874,"connected_time":3531000000000,"state":"active","ping":125},{"user_id":317,"name":"GameCube","steam_id":76561199040696739,"connected_time":2990000000000,"state":"active","ping":218},{"user_id":352,"name":"Spirit","steam_id":76561198861875678,"connected_time":734000000000,"state":"active","ping":42},{"user_id":313,"name":"who","steam_id":76561198066091050,"connected_time":3040000000000,"state":"active","ping":98}]},{"server_id":112,"name":"Uncletopia | Los Angeles | 2 | All Maps","name_short":"lax-2","host":"lax-1.us.uncletopia.com","port":27025,"enabled":true,"region":"us-west","cc":"us","latitude":33.94279,"longitude":-118.41004,"reserved":0,"last_update":"0001-01-01T00:00:00Z","name_a2s":"Uncletopia | Los Angeles | 2 | All Maps","protocol":17,"map":"koth_cascade","folder":"tf","game":"Team Fortress","app_id":440,"player_count":0,"max_players":24,"Bots":0,"server_type":"Dedicated","server_os":"Linux","password":true,"vac":true,"version":"7961495","steam_id":85568392924469992,"keywords":["cp","nocrits","nodmgspread","uncletopia"],"game_id":440,"stv_port":27026,"stv_name":"Uncletopia | Los Angeles | 2 | All Maps | STV","players":null},{"server_id":324,"name":"Uncletopia | Los Angeles | 3 | All Maps","name_short":"lax-3","host":"lax-1.us.uncletopia.com","port":27035,"enabled":true,"region":"us-west","cc":"us","latitude":33.94279,"longitude":-118.41004,"reserved":0,"last_update":"0001-01-01T00:00:00Z","name_a2s":"Uncletopia | Los Angeles | 3 | All Maps","protocol":17,"map":"ctf_2fort","folder":"tf","game":"Team Fortress","app_id":440,"player_count":0,"max_players":24,"Bots":0,"server_type":"Dedicated","server_os":"Linux","password":true,"vac":true,"version":"7961495","steam_id":85568392924510198,"keywords":["ctf","nocrits","nodmgspread","uncletopia"],"game_id":440,"stv_port":27036,"stv_name":"Uncletopia | Los Angeles | 3 | All Maps | STV","players":null},{"server_id":25,"name":"Uncletopia | Los Angeles | 4 | Stopwatch","name_short":"lax-4","host":"lax-1.us.uncletopia.com","port":27045,"enabled":true,"region":"us-west","cc":"us","latitude":33.94279,"longitude":-118.41004,"reserved":0,"last_update":"0001-01-01T00:00:00Z","name_a2s":"Uncletopia | Los Angeles | 4 | Stopwatch","protocol":17,"map":"pl_barnblitz","folder":"tf","game":"Team Fortress","app_id":440,"player_count":0,"max_players":24,"Bots":0,"server_type":"Dedicated","server_os":"Linux","password":true,"vac":true,"version":"7961495","steam_id":85568392924510199,"keywords":["nocrits","nodmgspread","payload","uncletopia"],"game_id":440,"stv_port":27046,"stv_name":"Uncletopia | Los Angeles | 4 | Stopwatch | STV","players":null},{"server_id":11,"name":"Uncletopia | London | 1 | All Maps","name_short":"lon-1","host":"lon-1.uk.uncletopia.com","port":27015,"enabled":true,"region":"eu","cc":"gb","latitude":51.509865,"longitude":-0.118092,"reserved":0,"last_update":"0001-01-01T00:00:00Z","name_a2s":"Uncletopia | London | 1 | All Maps","protocol":17,"map":"koth_lakeside_final","folder":"tf","game":"Team Fortress","app_id":440,"player_count":0,"max_players":24,"Bots":0,"server_type":"Dedicated","server_os":"Linux","password":true,"vac":true,"version":"7961495","steam_id":85568392924367362,"keywords":["cp","nocrits","nodmgspread","uncletopia"],"game_id":440,"stv_port":27016,"stv_name":"Uncletopia | London | 1 | All Maps | STV","players":null},{"server_id":114,"name":"Uncletopia | London | 2 | All Maps","name_short":"lon-2","host":"lon-1.uk.uncletopia.com","port":27025,"enabled":true,"region":"eu","cc":"gb","latitude":51.509865,"longitude":-0.118092,"reserved":0,"last_update":"0001-01-01T00:00:00Z","name_a2s":"Uncletopia | London | 2 | All Maps","protocol":17,"map":"pl_borneo","folder":"tf","game":"Team Fortress","app_id":440,"player_count":0,"max_players":24,"Bots":0,"server_type":"Dedicated","server_os":"Linux","password":true,"vac":true,"version":"7961495","steam_id":85568392924470941,"keywords":["nocrits","nodmgspread","payload","uncletopia"],"game_id":440,"stv_port":27026,"stv_name":"Uncletopia | London | 2 | All Maps | STV","players":null},{"server_id":320,"name":"Uncletopia | London | 3 | All Maps","name_short":"lon-3","host":"lon-1.uk.uncletopia.com","port":27035,"enabled":true,"region":"eu","cc":"gb","latitude":51.509865,"longitude":-0.118092,"reserved":0,"last_update":"0001-01-01T00:00:00Z","name_a2s":"Uncletopia | London | 3 | All Maps","protocol":17,"map":"koth_harvest_final","folder":"tf","game":"Team Fortress","app_id":440,"player_count":11,"max_players":24,"Bots":0,"server_type":"Dedicated","server_os":"Linux","password":true,"vac":true,"version":"7961495","steam_id":85568392924510192,"keywords":["cp","nocrits","nodmgspread","uncletopia"],"game_id":440,"stv_port":27036,"stv_name":"Uncletopia | London | 3 | All Maps | STV","players":[{"user_id":448,"name":"bug","steam_id":76561198118412910,"connected_time":2167000000000,"state":"active","ping":58},{"user_id":461,"name":"Egg","steam_id":76561198056517817,"connected_time":1016000000000,"state":"active","ping":129},{"user_id":467,"name":"Cool Ranch¬© Flavoured Pretzel","steam_id":76561198097130024,"connected_time":407000000000,"state":"active","ping":44},{"user_id":468,"name":"Tanyeri","steam_id":76561198116005521,"connected_time":67000000000,"state":"active","ping":101},{"user_id":450,"name":"Worm","steam_id":76561198296497176,"connected_time":2102000000000,"state":"active","ping":48},{"user_id":466,"name":"Ash_Dies_Alone","steam_id":76561198136126828,"connected_time":665000000000,"state":"active","ping":65},{"user_id":444,"name":"tapeworms!","steam_id":76561198069649097,"connected_time":2656000000000,"state":"active","ping":45},{"user_id":453,"name":"Doctor Marijuana","steam_id":76561198288289879,"connected_time":1996000000000,"state":"active","ping":46},{"user_id":469,"name":"xva","steam_id":76561198969286813,"connected_time":2000000000,"state":"spawning","ping":59},{"user_id":458,"name":"Arisu","steam_id":76561198080168182,"connected_time":1521000000000,"state":"active","ping":80},{"user_id":460,"name":"sticks","steam_id":76561198127099299,"connected_time":1309000000000,"state":"active","ping":36}]},{"server_id":321,"name":"Uncletopia | London | 4 | All Maps","name_short":"lon-4","host":"lon-1.uk.uncletopia.com","port":27045,"enabled":true,"region":"eu","cc":"gb","latitude":51.509865,"longitude":-0.118092,"reserved":0,"last_update":"0001-01-01T00:00:00Z","name_a2s":"Uncletopia | London | 4 | All Maps","protocol":17,"map":"koth_lakeside_final","folder":"tf","game":"Team Fortress","app_id":440,"player_count":0,"max_players":24,"Bots":0,"server_type":"Dedicated","server_os":"Linux","password":true,"vac":true,"version":"7961495","steam_id":85568392924510193,"keywords":["cp","nocrits","nodmgspread","uncletopia"],"game_id":440,"stv_port":27046,"stv_name":"Uncletopia | London | 4 | All Maps | STV","players":null},{"server_id":21,"name":"Uncletopia | London | 5 | All Maps","name_short":"lon-5","host":"lon-1.uk.uncletopia.com","port":27055,"enabled":true,"region":"eu","cc":"gb","latitude":51.509865,"longitude":-0.118092,"reserved":0,"last_update":"0001-01-01T00:00:00Z","name_a2s":"Uncletopia | London | 5 | All Maps","protocol":17,"map":"pl_barnblitz","folder":"tf","game":"Team Fortress","app_id":440,"player_count":24,"max_players":24,"Bots":0,"server_type":"Dedicated","server_os":"Linux","password":true,"vac":true,"version":"7961495","steam_id":85568392924742829,"keywords":["nocrits","nodmgspread","payload","uncletopia"],"game_id":440,"stv_port":27056,"stv_name":"Uncletopia | London | 5 | All Maps | STV","players":[{"user_id":523,"name":"‚ô• Tomboy ‚ô•","steam_id":76561198069881436,"connected_time":4453000000000,"state":"active","ping":142},{"user_id":555,"name":"Rai-the-CobaltClaw","steam_id":76561198027741747,"connected_time":2061000000000,"state":"active","ping":70},{"user_id":469,"name":"chillrend_morphs_high_lod6","steam_id":76561198452963141,"connected_time":8741000000000,"state":"active","ping":89},{"user_id":565,"name":"paypig","steam_id":76561198035137115,"connected_time":1013000000000,"state":"active","ping":52},{"user_id":559,"name":"Sebiromanes (Spookm√°ster)","steam_id":76561198112800408,"connected_time":1413000000000,"state":"active","ping":93},{"user_id":566,"name":"Onions","steam_id":76561198150195195,"connected_time":1011000000000,"state":"active","ping":46},{"user_id":472,"name":"Nomakh","steam_id":76561198096414653,"connected_time":8624000000000,"state":"active","ping":87},{"user_id":550,"name":"Mr. Voice","steam_id":76561198121649244,"connected_time":2471000000000,"state":"active","ping":69},{"user_id":544,"name":"uhhh obama","steam_id":76561198084325004,"connected_time":2827000000000,"state":"active","ping":69},{"user_id":407,"name":"joecalmatt","steam_id":76561198172552015,"connected_time":13244000000000,"state":"active","ping":42},{"user_id":494,"name":"IndigoJones","steam_id":76561198050284262,"connected_time":7566000000000,"state":"active","ping":46},{"user_id":514,"name":"Shlongulator","steam_id":76561198149779201,"connected_time":5581000000000,"state":"active","ping":63},{"user_id":579,"name":"sleep addict","steam_id":76561198100694096,"connected_time":303000000000,"state":"active","ping":165},{"user_id":571,"name":"Swagmaster","steam_id":76561198045828392,"connected_time":901000000000,"state":"active","ping":58},{"user_id":546,"name":"biohazard","steam_id":76561198162873354,"connected_time":2819000000000,"state":"active","ping":92},{"user_id":564,"name":"1 toke 4 mars bars","steam_id":76561198056460000,"connected_time":1059000000000,"state":"active","ping":45},{"user_id":581,"name":"aGryphoN","steam_id":76561198245175308,"connected_time":108000000000,"state":"active","ping":52},{"user_id":567,"name":"Lennox","steam_id":76561198069063554,"connected_time":987000000000,"state":"active","ping":48},{"user_id":576,"name":"Accident","steam_id":76561198037232641,"connected_time":698000000000,"state":"active","ping":53},{"user_id":578,"name":"Princess Peach","steam_id":76561198260272240,"connected_time":386000000000,"state":"active","ping":50},{"user_id":549,"name":"sleepy_fi","steam_id":76561198170095831,"connected_time":2780000000000,"state":"active","ping":95},{"user_id":573,"name":"I might knife you","steam_id":76561199267543998,"connected_time":794000000000,"state":"active","ping":76},{"user_id":540,"name":"billy","steam_id":76561198328711914,"connected_time":3095000000000,"state":"active","ping":41},{"user_id":558,"name":"M7MD3BD0","steam_id":76561199072750769,"connected_time":1601000000000,"state":"active","ping":129}]},{"server_id":22,"name":"Uncletopia | London | 6 | All Maps","name_short":"lon-6","host":"lon-1.uk.uncletopia.com","port":27065,"enabled":true,"region":"eu","cc":"gb","latitude":51.509865,"longitude":-0.118092,"reserved":0,"last_update":"0001-01-01T00:00:00Z","name_a2s":"Uncletopia | London | 6 | All Maps","protocol":17,"map":"koth_highpass","folder":"tf","game":"Team Fortress","app_id":440,"player_count":0,"max_players":24,"Bots":0,"server_type":"Dedicated","server_os":"Linux","password":true,"vac":true,"version":"7961495","steam_id":85568392924742830,"keywords":["cp","nocrits","nodmgspread","uncletopia"],"game_id":440,"stv_port":27066,"stv_name":"Uncletopia | London | 6 | All Maps | STV","players":null},{"server_id":40,"name":"Uncletopia | London | 7 | Stopwatch","name_short":"lon-7","host":"lon-1.uk.uncletopia.com","port":27075,"enabled":true,"region":"eu","cc":"gb","latitude":51.509865,"longitude":-0.118092,"reserved":0,"last_update":"0001-01-01T00:00:00Z","name_a2s":"Uncletopia | London | 7 | Stopwatch","protocol":17,"map":"koth_highpass","folder":"tf","game":"Team Fortress","app_id":440,"player_count":0,"max_players":24,"Bots":0,"server_type":"Dedicated","server_os":"Linux","password":true,"vac":true,"version":"7961495","steam_id":85568392924964314,"keywords":["cp","nocrits","nodmgspread","uncletopia"],"game_id":440,"stv_port":27076,"stv_name":"Uncletopia | London | 7 | Stopwatch | STV","players":null},{"server_id":41,"name":"Uncletopia | London | 8 | Community","name_short":"lon-8","host":"lon-1.uk.uncletopia.com","port":27085,"enabled":true,"region":"eu","cc":"gb","latitude":51.509865,"longitude":-0.118092,"reserved":0,"last_update":"0001-01-01T00:00:00Z","name_a2s":"Uncletopia | London | 8 | Community","protocol":17,"map":"cp_snakewater_final1","folder":"tf","game":"Team Fortress","app_id":440,"player_count":0,"max_players":24,"Bots":0,"server_type":"Dedicated","server_os":"Linux","password":true,"vac":true,"version":"7961495","steam_id":85568392924964315,"keywords":["cp","nocrits","nodmgspread","uncletopia"],"game_id":440,"stv_port":27086,"stv_name":"Uncletopia | London | 8 | Community | STV","players":null},{"server_id":300,"name":"Uncletopia | Montr√©al | 1 | One Thousand Uncles","name_short":"mtl-1","host":"mtl-1.ca.uncletopia.com","port":27015,"enabled":true,"region":"us-east","cc":"ca","latitude":45.50889,"longitude":-73.56167,"reserved":0,"last_update":"0001-01-01T00:00:00Z","name_a2s":"","protocol":0,"map":"","folder":"","game":"","app_id":0,"player_count":15,"max_players":0,"Bots":0,"server_type":"","server_os":"","password":false,"vac":false,"version":"","steam_id":0,"keywords":null,"game_id":0,"stv_port":0,"stv_name":"","players":[{"user_id":145,"name":"moe","steam_id":76561198929586245,"connected_time":1700000000000,"state":"active","ping":112},{"user_id":151,"name":"RacoonGamer","steam_id":76561198100907657,"connected_time":1005000000000,"state":"active","ping":46},{"user_id":170,"name":"LeGamingProPlays","steam_id":76561198121304032,"connected_time":274000000000,"state":"active","ping":65},{"user_id":102,"name":"BloodHoundYT (F2P) | trade.tf","steam_id":76561199180340440,"connected_time":4252000000000,"state":"active","ping":239},{"user_id":98,"name":"Xuri","steam_id":76561198196776081,"connected_time":5883000000000,"state":"active","ping":149},{"user_id":99,"name":"Yellow Fox","steam_id":76561198081665797,"connected_time":5874000000000,"state":"active","ping":136},{"user_id":150,"name":"Savok","steam_id":76561198202811878,"connected_time":1029000000000,"state":"active","ping":126},{"user_id":105,"name":"1-800-GHOST-DANCE","steam_id":76561198835430429,"connected_time":3304000000000,"state":"active","ping":76},{"user_id":106,"name":"tf2fan","steam_id":76561199371264774,"connected_time":3124000000000,"state":"active","ping":95},{"user_id":107,"name":"bananabanana","steam_id":76561199121970386,"connected_time":3054000000000,"state":"active","ping":113},{"user_id":124,"name":"BreadBread06","steam_id":76561198196914050,"connected_time":2928000000000,"state":"active","ping":106},{"user_id":146,"name":"Kollateral","steam_id":76561198845860800,"connected_time":1645000000000,"state":"active","ping":93},{"user_id":168,"name":"trobin120","steam_id":76561199122420273,"connected_time":888000000000,"state":"active","ping":60},{"user_id":171,"name":"Muddy Suds","steam_id":76561198075135550,"connected_time":49000000000,"state":"spawning","ping":60},{"user_id":172,"name":"TeatsMcghee #TummyTroubles","steam_id":76561198036483480,"connected_time":34000000000,"state":"active","ping":76}]},{"server_id":301,"name":"Uncletopia | Montr√©al | 2 | One Thousand Uncles","name_short":"mtl-2","host":"mtl-1.ca.uncletopia.com","port":27025,"enabled":true,"region":"us-east","cc":"ca","latitude":45.50889,"longitude":-73.56167,"reserved":0,"last_update":"0001-01-01T00:00:00Z","name_a2s":"","protocol":0,"map":"","folder":"","game":"","app_id":0,"player_count":0,"max_players":0,"Bots":0,"server_type":"","server_os":"","password":false,"vac":false,"version":"","steam_id":0,"keywords":null,"game_id":0,"stv_port":0,"stv_name":"","players":null},{"server_id":302,"name":"Uncletopia | Montr√©al | 3 | One Thousand Uncles","name_short":"mtl-3","host":"mtl-1.ca.uncletopia.com","port":27035,"enabled":true,"region":"us-east","cc":"ca","latitude":45.50889,"longitude":-73.56167,"reserved":0,"last_update":"0001-01-01T00:00:00Z","name_a2s":"","protocol":0,"map":"","folder":"","game":"","app_id":0,"player_count":8,"max_players":0,"Bots":0,"server_type":"","server_os":"","password":false,"vac":false,"version":"","steam_id":0,"keywords":null,"game_id":0,"stv_port":0,"stv_name":"","players":[{"user_id":109,"name":"THE REAL AXOLOTL.","steam_id":76561199130568377,"connected_time":206000000000,"state":"active","ping":84},{"user_id":55,"name":"Yorozuya with Odd Jobs","steam_id":76561198219473128,"connected_time":7845000000000,"state":"active","ping":54},{"user_id":56,"name":"Jimmy Pubetron","steam_id":76561198077634776,"connected_time":7837000000000,"state":"active","ping":45},{"user_id":107,"name":"D3rbs","steam_id":76561198072034657,"connected_time":1141000000000,"state":"active","ping":75},{"user_id":96,"name":"Chaos","steam_id":76561197967401532,"connected_time":2571000000000,"state":"active","ping":90},{"user_id":110,"name":"Milkmur","steam_id":76561198210043821,"connected_time":43000000000,"state":"active","ping":66},{"user_id":100,"name":"Rhutebeer","steam_id":76561198018302761,"connected_time":1945000000000,"state":"active","ping":101},{"user_id":103,"name":"Kazuma Yagami_blw.tf","steam_id":76561199044812516,"connected_time":1800000000000,"state":"active","ping":56}]},{"server_id":13,"name":"Uncletopia | New York City | 1 | All Maps","name_short":"nyc-1","host":"nyc-1.us.uncletopia.com","port":27015,"enabled":true,"region":"us-east","cc":"us","latitude":40.73061,"longitude":-73.93524,"reserved":0,"last_update":"0001-01-01T00:00:00Z","name_a2s":"Uncletopia | New York City | 1 | All Maps","protocol":17,"map":"pl_barnblitz","folder":"tf","game":"Team Fortress","app_id":440,"player_count":24,"max_players":24,"Bots":0,"server_type":"Dedicated","server_os":"Linux","password":true,"vac":true,"version":"7961495","steam_id":85568392924469993,"keywords":["nocrits","nodmgspread","payload","uncletopia"],"game_id":440,"stv_port":27016,"stv_name":"Uncletopia | New York City | 1 | All Maps | STV","players":[{"user_id":295,"name":"MTGbigdog","steam_id":76561198838760637,"connected_time":254000000000,"state":"active","ping":64},{"user_id":279,"name":"FattSucc","steam_id":76561198009500503,"connected_time":1292000000000,"state":"active","ping":89},{"user_id":280,"name":"gmaay","steam_id":76561199104911185,"connected_time":1270000000000,"state":"active","ping":53},{"user_id":281,"name":"anonymous semen","steam_id":76561198073269122,"connected_time":1250000000000,"state":"active","ping":47},{"user_id":292,"name":"emotional suppport e-cigarette","steam_id":76561198172120615,"connected_time":629000000000,"state":"active","ping":32},{"user_id":282,"name":"biff","steam_id":76561198056261066,"connected_time":1189000000000,"state":"active","ping":65},{"user_id":293,"name":"Lawnmower","steam_id":76561198186680197,"connected_time":583000000000,"state":"active","ping":103},{"user_id":284,"name":"Discourse","steam_id":76561198984286678,"connected_time":1100000000000,"state":"active","ping":73},{"user_id":302,"name":"gerf.","steam_id":76561198811706201,"connected_time":66000000000,"state":"active","ping":59},{"user_id":285,"name":"Chase/Kind/Rich/Hot/","steam_id":76561199093979359,"connected_time":1094000000000,"state":"active","ping":82},{"user_id":299,"name":"Lao","steam_id":76561198004528684,"connected_time":125000000000,"state":"active","ping":137},{"user_id":247,"name":"the sludge","steam_id":76561198268816354,"connected_time":3245000000000,"state":"active","ping":66},{"user_id":291,"name":"Larry Laffer","steam_id":76561198046832069,"connected_time":675000000000,"state":"active","ping":46},{"user_id":278,"name":"Rax","steam_id":76561198044277259,"connected_time":1374000000000,"state":"active","ping":58},{"user_id":275,"name":"nerfington","steam_id":76561198062785419,"connected_time":1514000000000,"state":"active","ping":83},{"user_id":300,"name":"vepis","steam_id":76561198015884720,"connected_time":122000000000,"state":"active","ping":75},{"user_id":287,"name":"Mads Mikkelsen","steam_id":76561198083482001,"connected_time":1036000000000,"state":"active","ping":130},{"user_id":296,"name":"lil EGG","steam_id":76561198361321253,"connected_time":223000000000,"state":"active","ping":68},{"user_id":277,"name":"momlovie","steam_id":76561198843933742,"connected_time":1429000000000,"state":"active","ping":77},{"user_id":288,"name":"gIBBY","steam_id":76561198080099598,"connected_time":1029000000000,"state":"active","ping":44},{"user_id":298,"name":"rive","steam_id":76561198216487540,"connected_time":162000000000,"state":"active","ping":118},{"user_id":297,"name":"CoopDraws","steam_id":76561198238568640,"connected_time":214000000000,"state":"active","ping":63},{"user_id":301,"name":"Verily","steam_id":76561198200558318,"connected_time":79000000000,"state":"active","ping":45},{"user_id":267,"name":"revolc36","steam_id":76561199438893811,"connected_time":2140000000000,"state":"active","ping":92}]},{"server_id":14,"name":"Uncletopia | New York City | 2 | All Maps","name_short":"nyc-2","host":"nyc-1.us.uncletopia.com","port":27025,"enabled":true,"region":"us-east","cc":"us","latitude":40.73061,"longitude":-73.93524,"reserved":0,"last_update":"0001-01-01T00:00:00Z","name_a2s":"Uncletopia | New York City | 2 | All Maps","protocol":17,"map":"pl_pier","folder":"tf","game":"Team Fortress","app_id":440,"player_count":24,"max_players":24,"Bots":0,"server_type":"Dedicated","server_os":"Linux","password":true,"vac":true,"version":"7961495","steam_id":85568392924469994,"keywords":["nocrits","nodmgspread","payload","uncletopia"],"game_id":440,"stv_port":27026,"stv_name":"Uncletopia | New York City | 2 | All Maps | STV","players":[{"user_id":134,"name":"Chicken Burger","steam_id":76561198358529311,"connected_time":3559000000000,"state":"active","ping":93},{"user_id":193,"name":"Astrocircuit","steam_id":76561198014437544,"connected_time":30000000000,"state":"active","ping":55},{"user_id":142,"name":"Coolcat","steam_id":76561198180933957,"connected_time":2989000000000,"state":"active","ping":76},{"user_id":147,"name":"artichoke","steam_id":76561198980994364,"connected_time":2817000000000,"state":"active","ping":70},{"user_id":190,"name":"Nerty","steam_id":76561199291879621,"connected_time":141000000000,"state":"active","ping":48},{"user_id":189,"name":"you forgot the sauce","steam_id":76561198387016713,"connected_time":177000000000,"state":"active","ping":59},{"user_id":181,"name":"Tablaro","steam_id":76561198076915673,"connected_time":673000000000,"state":"active","ping":60},{"user_id":179,"name":"photo321","steam_id":76561198416791953,"connected_time":739000000000,"state":"active","ping":76},{"user_id":154,"name":"Elzic Fuil","steam_id":76561198084192198,"connected_time":2059000000000,"state":"active","ping":125},{"user_id":172,"name":"numa","steam_id":76561198856016840,"connected_time":925000000000,"state":"active","ping":50},{"user_id":173,"name":"Fudgely","steam_id":76561198039425862,"connected_time":903000000000,"state":"active","ping":71},{"user_id":175,"name":"FunnyUsernameWow","steam_id":76561198324177635,"connected_time":829000000000,"state":"active","ping":45},{"user_id":182,"name":"Chilli","steam_id":76561199229885599,"connected_time":660000000000,"state":"active","ping":59},{"user_id":183,"name":"peace dog","steam_id":76561198267988522,"connected_time":645000000000,"state":"active","ping":58},{"user_id":106,"name":"Bombsgamer","steam_id":76561198350009050,"connected_time":4935000000000,"state":"active","ping":97},{"user_id":184,"name":"YourFriendJessie","steam_id":76561198176883097,"connected_time":610000000000,"state":"active","ping":46},{"user_id":185,"name":"Zinc","steam_id":76561198025303928,"connected_time":546000000000,"state":"active","ping":63},{"user_id":188,"name":"feleven","steam_id":76561198853721046,"connected_time":368000000000,"state":"active","ping":50},{"user_id":187,"name":"Was Wollen wir Trinken","steam_id":76561199009522165,"connected_time":456000000000,"state":"active","ping":61},{"user_id":122,"name":"[NAME-REDACTED]","steam_id":76561198035682975,"connected_time":4535000000000,"state":"active","ping":54},{"user_id":160,"name":"astrobob911","steam_id":76561199099110654,"connected_time":1849000000000,"state":"active","ping":76},{"user_id":176,"name":"You Don't Nomi.","steam_id":76561197969137836,"connected_time":828000000000,"state":"active","ping":54},{"user_id":151,"name":"Gummy","steam_id":76561199200969139,"connected_time":2411000000000,"state":"active","ping":112},{"user_id":192,"name":"KBoneski ‚ô°","steam_id":76561198307409065,"connected_time":56000000000,"state":"spawning","ping":60}]},{"server_id":15,"name":"Uncletopia | New York City | 3 | Stopwatch","name_short":"nyc-3","host":"nyc-1.us.uncletopia.com","port":27035,"enabled":true,"region":"us-east","cc":"us","latitude":40.73061,"longitude":-73.93524,"reserved":0,"last_update":"0001-01-01T00:00:00Z","name_a2s":"Uncletopia | New York City | 3 | Stopwatch","protocol":17,"map":"pl_snowycoast","folder":"tf","game":"Team Fortress","app_id":440,"player_count":0,"max_players":24,"Bots":0,"server_type":"Dedicated","server_os":"Linux","password":true,"vac":true,"version":"7961495","steam_id":85568392924742820,"keywords":["nocrits","nodmgspread","payload","uncletopia"],"game_id":440,"stv_port":27036,"stv_name":"Uncletopia | New York City | 3 | Stopwatch | STV","players":null},{"server_id":16,"name":"Uncletopia | New York City | 4 | Community","name_short":"nyc-4","host":"nyc-1.us.uncletopia.com","port":27045,"enabled":true,"region":"us-east","cc":"us","latitude":40.73061,"longitude":-73.93524,"reserved":0,"last_update":"0001-01-01T00:00:00Z","name_a2s":"Uncletopia | New York City | 4 | Community","protocol":17,"map":"workshop/pl_highwood_b13.ugc1769496557","folder":"tf","game":"Team Fortress","app_id":440,"player_count":9,"max_players":24,"Bots":0,"server_type":"Dedicated","server_os":"Linux","password":true,"vac":true,"version":"7961495","steam_id":85568392924742821,"keywords":["nocrits","nodmgspread","payload","uncletopia"],"game_id":440,"stv_port":27046,"stv_name":"Uncletopia | New York City | 4 | Community | STV","players":[{"user_id":44,"name":"Nari","steam_id":76561199220038535,"connected_time":171000000000,"state":"active","ping":79},{"user_id":45,"name":"Rated_C","steam_id":76561199226478414,"connected_time":85000000000,"state":"spawning","ping":170},{"user_id":46,"name":"bleach65","steam_id":76561198115270571,"connected_time":13000000000,"state":"active","ping":91},{"user_id":20,"name":"Kumatora","steam_id":76561198137748378,"connected_time":2043000000000,"state":"active","ping":75},{"user_id":25,"name":"DrCoeloCephalo","steam_id":76561198102666293,"connected_time":1897000000000,"state":"active","ping":87},{"user_id":31,"name":"Dragorhino","steam_id":76561198882000484,"connected_time":1718000000000,"state":"active","ping":55},{"user_id":32,"name":"MontellWilliams","steam_id":76561198172143015,"connected_time":1636000000000,"state":"active","ping":56},{"user_id":33,"name":"The Greedy Grinner","steam_id":76561198124964175,"connected_time":1516000000000,"state":"active","ping":106},{"user_id":36,"name":"Azby_","steam_id":76561198230307016,"connected_time":1477000000000,"state":"active","ping":119}]},{"server_id":142,"name":"Uncletopia | S√£o Paulo | 1 | All Maps","name_short":"sao-1","host":"sao-1.br.uncletopia.com","port":27015,"enabled":true,"region":"sa","cc":"br","latitude":-23.533773,"longitude":-46.62529,"reserved":0,"last_update":"0001-01-01T00:00:00Z","name_a2s":"Uncletopia | S√£o Paulo | 1 | All Maps","protocol":17,"map":"pl_barnblitz","folder":"tf","game":"Team Fortress","app_id":440,"player_count":0,"max_players":24,"Bots":0,"server_type":"Dedicated","server_os":"Linux","password":true,"vac":true,"version":"7961495","steam_id":85568392924469996,"keywords":["nocrits","nodmgspread","payload","uncletopia"],"game_id":440,"stv_port":27016,"stv_name":"Uncletopia | S√£o Paulo | 1 | All Maps | STV","players":null},{"server_id":143,"name":"Uncletopia | S√£o Paulo | 2 | Community","name_short":"sao-2","host":"sao-2.br.uncletopia.com","port":27015,"enabled":true,"region":"sa","cc":"br","latitude":-23.533773,"longitude":-46.62529,"reserved":0,"last_update":"0001-01-01T00:00:00Z","name_a2s":"Uncletopia | S√£o Paulo | 2 | Community","protocol":17,"map":"workshop/pl_cashworks_final1.ugc2904065412","folder":"tf","game":"Team Fortress","app_id":440,"player_count":3,"max_players":24,"Bots":0,"server_type":"Dedicated","server_os":"Linux","password":true,"vac":true,"version":"7961495","steam_id":85568392924485349,"keywords":["nocrits","nodmgspread","payload","uncletopia"],"game_id":440,"stv_port":27016,"stv_name":"Uncletopia | S√£o Paulo | 2 | Community | STV","players":[{"user_id":10,"name":"Kalevtov","steam_id":76561198080411904,"connected_time":761000000000,"state":"active","ping":196},{"user_id":11,"name":"Unicorn:)","steam_id":76561199394496724,"connected_time":589000000000,"state":"active","ping":195},{"user_id":12,"name":"jr_","steam_id":76561198313937899,"connected_time":174000000000,"state":"active","ping":48}]},{"server_id":7,"name":"Uncletopia | Seattle | 1 | All Maps","name_short":"sea-1","host":"sea-1.us.uncletopia.com","port":27015,"enabled":true,"region":"us-west","cc":"us","latitude":47.608013,"longitude":-122.33517,"reserved":0,"last_update":"0001-01-01T00:00:00Z","name_a2s":"Uncletopia | Seattle | 1 | All Maps","protocol":17,"map":"pl_swiftwater_final1","folder":"tf","game":"Team Fortress","app_id":440,"player_count":24,"max_players":24,"Bots":0,"server_type":"Dedicated","server_os":"Linux","password":true,"vac":true,"version":"7961495","steam_id":85568392924469997,"keywords":["nocrits","nodmgspread","payload","uncletopia"],"game_id":440,"stv_port":27016,"stv_name":"Uncletopia | Seattle | 1 | All Maps | STV","players":[{"user_id":176,"name":"TheMagicMrWaffle","steam_id":76561198104357256,"connected_time":7197000000000,"state":"active","ping":64},{"user_id":245,"name":"Vagrant","steam_id":76561198242536886,"connected_time":1087000000000,"state":"active","ping":89},{"user_id":236,"name":"CyberLyon","steam_id":76561198262891365,"connected_time":1196000000000,"state":"active","ping":80},{"user_id":252,"name":"Agreafel","steam_id":76561198077025862,"connected_time":639000000000,"state":"active","ping":81},{"user_id":243,"name":"Greskrendtregk","steam_id":76561197969553142,"connected_time":1151000000000,"state":"active","ping":47},{"user_id":231,"name":"Matthew Lewis MJ","steam_id":76561199014695287,"connected_time":1521000000000,"state":"active","ping":53},{"user_id":254,"name":"Weed Dealer","steam_id":76561198418604400,"connected_time":412000000000,"state":"active","ping":43},{"user_id":255,"name":"fathead","steam_id":76561198150155615,"connected_time":381000000000,"state":"active","ping":52},{"user_id":230,"name":"Whimsy!","steam_id":76561197989578836,"connected_time":1667000000000,"state":"active","ping":60},{"user_id":249,"name":"online","steam_id":76561198192531745,"connected_time":757000000000,"state":"active","ping":86},{"user_id":235,"name":"Beef Wellington","steam_id":76561197995635241,"connected_time":1214000000000,"state":"active","ping":174},{"user_id":239,"name":"Charles","steam_id":76561198155322277,"connected_time":1166000000000,"state":"active","ping":70},{"user_id":216,"name":"Imitation Caucasian","steam_id":76561198320536166,"connected_time":2681000000000,"state":"active","ping":79},{"user_id":234,"name":"derb","steam_id":76561198110369487,"connected_time":1268000000000,"state":"active","ping":70},{"user_id":229,"name":"Oktayey","steam_id":76561198143213426,"connected_time":1764000000000,"state":"active","ping":65},{"user_id":217,"name":"minerkid2004","steam_id":76561198044262827,"connected_time":2649000000000,"state":"active","ping":70},{"user_id":241,"name":"Batso","steam_id":76561198106589452,"connected_time":1162000000000,"state":"active","ping":105},{"user_id":203,"name":"lukamine","steam_id":76561198166827208,"connected_time":3918000000000,"state":"active","ping":52},{"user_id":213,"name":"AUSTIN THEORY","steam_id":76561198288743767,"connected_time":3152000000000,"state":"active","ping":64},{"user_id":258,"name":"ark","steam_id":76561198041066271,"connected_time":238000000000,"state":"active","ping":79},{"user_id":242,"name":"skittle ducks jr.","steam_id":76561198309823950,"connected_time":1154000000000,"state":"active","ping":40},{"user_id":257,"name":"PinkRathian","steam_id":76561198077714834,"connected_time":341000000000,"state":"active","ping":52},{"user_id":250,"name":"Astronat","steam_id":76561198096321896,"connected_time":757000000000,"state":"active","ping":70},{"user_id":218,"name":"Drink My *** U Nasty ****","steam_id":76561199100813140,"connected_time":2649000000000,"state":"active","ping":61}]},{"server_id":119,"name":"Uncletopia | Seattle | 2 | All Maps","name_short":"sea-2","host":"sea-1.us.uncletopia.com","port":27025,"enabled":true,"region":"us-west","cc":"us","latitude":47.608013,"longitude":-122.33517,"reserved":0,"last_update":"0001-01-01T00:00:00Z","name_a2s":"Uncletopia | Seattle | 2 | All Maps","protocol":17,"map":"ctf_2fort","folder":"tf","game":"Team Fortress","app_id":440,"player_count":0,"max_players":24,"Bots":0,"server_type":"Dedicated","server_os":"Linux","password":true,"vac":true,"version":"7961495","steam_id":85568392924469998,"keywords":["ctf","nocrits","nodmgspread","uncletopia"],"game_id":440,"stv_port":27026,"stv_name":"Uncletopia | Seattle | 2 | All Maps | STV","players":null},{"server_id":406,"name":"Uncletopia | Seattle | 3 | Stopwatch","name_short":"sea-3","host":"sea-1.us.uncletopia.com","port":27035,"enabled":true,"region":"us-west","cc":"us","latitude":47.608013,"longitude":-122.33517,"reserved":0,"last_update":"0001-01-01T00:00:00Z","name_a2s":"Uncletopia | Seattle | 3 | Stopwatch","protocol":17,"map":"pl_pier","folder":"tf","game":"Team Fortress","app_id":440,"player_count":0,"max_players":24,"Bots":0,"server_type":"Dedicated","server_os":"Linux","password":true,"vac":true,"version":"7961495","steam_id":85568392924515217,"keywords":["nocrits","nodmgspread","payload","uncletopia"],"game_id":440,"stv_port":27036,"stv_name":"Uncletopia | Seattle | 3 | Stopwatch | STV","players":null},{"server_id":17,"name":"Uncletopia | San Francisco | 1 | All Maps","name_short":"sfo-1","host":"sfo-1.us.uncletopia.com","port":27015,"enabled":true,"region":"us-west","cc":"us","latitude":37.77397,"longitude":-122.4313,"reserved":0,"last_update":"0001-01-01T00:00:00Z","name_a2s":"Uncletopia | San Francisco | 1 | All Maps","protocol":17,"map":"pl_pier","folder":"tf","game":"Team Fortress","app_id":440,"player_count":0,"max_players":24,"Bots":0,"server_type":"Dedicated","server_os":"Linux","password":true,"vac":true,"version":"7961495","steam_id":85568392924469999,"keywords":["nocrits","nodmgspread","payload","uncletopia"],"game_id":440,"stv_port":27016,"stv_name":"Uncletopia | San Francisco | 1 | All Maps | STV","players":null},{"server_id":18,"name":"Uncletopia | San Francisco | 2 | All Maps","name_short":"sfo-2","host":"sfo-1.us.uncletopia.com","port":27025,"enabled":true,"region":"us-west","cc":"us","latitude":37.77397,"longitude":-122.4313,"reserved":0,"last_update":"0001-01-01T00:00:00Z","name_a2s":"Uncletopia | San Francisco | 2 | All Maps","protocol":17,"map":"ctf_2fort","folder":"tf","game":"Team Fortress","app_id":440,"player_count":0,"max_players":24,"Bots":0,"server_type":"Dedicated","server_os":"Linux","password":true,"vac":true,"version":"7961495","steam_id":85568392924470000,"keywords":["ctf","nocrits","nodmgspread","uncletopia"],"game_id":440,"stv_port":27026,"stv_name":"Uncletopia | San Francisco | 2 | All Maps | STV","players":null},{"server_id":19,"name":"Uncletopia | San Francisco | 3 | Stopwatch","name_short":"sfo-3","host":"sfo-1.us.uncletopia.com","port":27035,"enabled":true,"region":"us-west","cc":"us","latitude":37.77397,"longitude":-122.4313,"reserved":0,"last_update":"0001-01-01T00:00:00Z","name_a2s":"Uncletopia | San Francisco | 3 | Stopwatch","protocol":17,"map":"pl_pier","folder":"tf","game":"Team Fortress","app_id":440,"player_count":0,"max_players":24,"Bots":0,"server_type":"Dedicated","server_os":"Linux","password":true,"vac":true,"version":"7961495","steam_id":85568392924742824,"keywords":["nocrits","nodmgspread","payload","uncletopia"],"game_id":440,"stv_port":27036,"stv_name":"Uncletopia | San Francisco | 3 | Stopwatch | STV","players":null},{"server_id":20,"name":"Uncletopia | San Francisco | 4 | Community","name_short":"sfo-4","host":"sfo-1.us.uncletopia.com","port":27045,"enabled":true,"region":"us-west","cc":"us","latitude":37.77397,"longitude":-122.4313,"reserved":0,"last_update":"0001-01-01T00:00:00Z","name_a2s":"Uncletopia | San Francisco | 4 | Community","protocol":17,"map":"workshop/koth_synthetic_rc6a.ugc1549817316","folder":"tf","game":"Team Fortress","app_id":440,"player_count":0,"max_players":24,"Bots":0,"server_type":"Dedicated","server_os":"Linux","password":true,"vac":true,"version":"7961495","steam_id":85568392924742826,"keywords":["cp","nocrits","nodmgspread","uncletopia"],"game_id":440,"stv_port":27046,"stv_name":"Uncletopia | San Francisco | 4 | Community | STV","players":null},{"server_id":141,"name":"Uncletopia | Sydney | 1 | All Maps","name_short":"syd-1","host":"syd-1.au.uncletopia.com","port":27015,"enabled":true,"region":"au","cc":"au","latitude":-33.865143,"longitude":151.2099,"reserved":0,"last_update":"0001-01-01T00:00:00Z","name_a2s":"Uncletopia | Sydney | 1 | All Maps","protocol":17,"map":"ctf_2fort","folder":"tf","game":"Team Fortress","app_id":440,"player_count":0,"max_players":24,"Bots":0,"server_type":"Dedicated","server_os":"Linux","password":true,"vac":true,"version":"7961495","steam_id":85568392924470001,"keywords":["ctf","nocrits","nodmgspread","uncletopia"],"game_id":440,"stv_port":27016,"stv_name":"Uncletopia | Sydney | 1 | All Maps | STV","players":null},{"server_id":123,"name":"Uncletopia | Sydney | 2 | All Maps","name_short":"syd-2","host":"syd-1.au.uncletopia.com","port":27025,"enabled":true,"region":"au","cc":"au","latitude":-33.865143,"longitude":151.2099,"reserved":0,"last_update":"0001-01-01T00:00:00Z","name_a2s":"Uncletopia | Sydney | 2 | All Maps","protocol":17,"map":"ctf_2fort","folder":"tf","game":"Team Fortress","app_id":440,"player_count":0,"max_players":24,"Bots":0,"server_type":"Dedicated","server_os":"Linux","password":true,"vac":true,"version":"7961495","steam_id":85568392924470002,"keywords":["ctf","nocrits","nodmgspread","uncletopia"],"game_id":440,"stv_port":27026,"stv_name":"Uncletopia | Sydney | 2 | All Maps | STV","players":null},{"server_id":395,"name":"Uncletopia | Sydney | 3 | All Maps","name_short":"syd-3","host":"syd-1.au.uncletopia.com","port":27035,"enabled":true,"region":"au","cc":"au","latitude":-33.865143,"longitude":151.2099,"reserved":0,"last_update":"0001-01-01T00:00:00Z","name_a2s":"Uncletopia | Sydney | 3 | All Maps","protocol":17,"map":"ctf_2fort","folder":"tf","game":"Team Fortress","app_id":440,"player_count":0,"max_players":24,"Bots":0,"server_type":"Dedicated","server_os":"Linux","password":true,"vac":true,"version":"7961495","steam_id":85568392925194467,"keywords":["ctf","nocrits","nodmgspread","uncletopia"],"game_id":440,"stv_port":27036,"stv_name":"Uncletopia | Sydney | 3 | All Maps | STV","players":null},{"server_id":396,"name":"Uncletopia | Sydney | 4 | All Maps","name_short":"syd-4","host":"syd-1.au.uncletopia.com","port":27045,"enabled":true,"region":"au","cc":"au","latitude":-33.865143,"longitude":151.2099,"reserved":0,"last_update":"0001-01-01T00:00:00Z","name_a2s":"Uncletopia | Sydney | 4 | All Maps","protocol":17,"map":"ctf_2fort","folder":"tf","game":"Team Fortress","app_id":440,"player_count":1,"max_players":24,"Bots":0,"server_type":"Dedicated","server_os":"Linux","password":true,"vac":true,"version":"7961495","steam_id":85568392925397958,"keywords":["ctf","nocrits","nodmgspread","uncletopia"],"game_id":440,"stv_port":27046,"stv_name":"Uncletopia | Sydney | 4 | All Maps | STV","players":[{"user_id":5,"name":"Butterednuggies","steam_id":76561199443345581,"connected_time":534000000000,"state":"active","ping":45}]},{"server_id":58,"name":"Uncletopia | Sydney | 5 | Stopwatch","name_short":"syd-5","host":"syd-1.au.uncletopia.com","port":27055,"enabled":true,"region":"au","cc":"au","latitude":-33.865143,"longitude":151.2099,"reserved":0,"last_update":"0001-01-01T00:00:00Z","name_a2s":"Uncletopia | Sydney | 5 | Stopwatch","protocol":17,"map":"pl_frontier_final","folder":"tf","game":"Team Fortress","app_id":440,"player_count":0,"max_players":24,"Bots":0,"server_type":"Dedicated","server_os":"Linux","password":true,"vac":true,"version":"7961495","steam_id":85568392925397959,"keywords":["nocrits","nodmgspread","payload","uncletopia"],"game_id":440,"stv_port":27056,"stv_name":"Uncletopia | Sydney | 5 | Stopwatch | STV","players":null},{"server_id":59,"name":"Uncletopia | Sydney | 6 | Community","name_short":"syd-6","host":"syd-1.au.uncletopia.com","port":27065,"enabled":true,"region":"au","cc":"au","latitude":-33.865143,"longitude":151.2099,"reserved":0,"last_update":"0001-01-01T00:00:00Z","name_a2s":"Uncletopia | Sydney | 6 | Community","protocol":17,"map":"cp_sunshine","folder":"tf","game":"Team Fortress","app_id":440,"player_count":0,"max_players":24,"Bots":0,"server_type":"Dedicated","server_os":"Linux","password":true,"vac":true,"version":"7961495","steam_id":85568392925397960,"keywords":["cp","nocrits","nodmgspread","uncletopia"],"game_id":440,"stv_port":27066,"stv_name":"Uncletopia | Sydney | 6 | Community | STV","players":null},{"server_id":49,"name":"Uncletopia | Warsaw | 1 | One Thousand Uncles","name_short":"waw-1","host":"waw-1.pl.uncletopia.com","port":27015,"enabled":true,"region":"eu","cc":"pl","latitude":52.2297,"longitude":21.017532,"reserved":0,"last_update":"0001-01-01T00:00:00Z","name_a2s":"Uncletopia | Warsaw | 1 | One Thousand Uncles","protocol":17,"map":"pl_chilly","folder":"tf","game":"Team Fortress","app_id":440,"player_count":0,"max_players":32,"Bots":0,"server_type":"Dedicated","server_os":"Linux","password":true,"vac":true,"version":"7961495","steam_id":85568392925397850,"keywords":["alltalk","danepve","increased_maxplayers","nocrits","norespawntime","payload","uncletopia"],"game_id":440,"stv_port":0,"stv_name":"","players":null},{"server_id":50,"name":"Uncletopia | Warsaw | 2 | One Thousand Uncles","name_short":"waw-2","host":"waw-1.pl.uncletopia.com","port":27025,"enabled":true,"region":"eu","cc":"pl","latitude":52.2297,"longitude":21.017532,"reserved":0,"last_update":"0001-01-01T00:00:00Z","name_a2s":"Uncletopia | Warsaw | 2 | One Thousand Uncles","protocol":17,"map":"cp_dustbowl","folder":"tf","game":"Team Fortress","app_id":440,"player_count":0,"max_players":32,"Bots":0,"server_type":"Dedicated","server_os":"Linux","password":true,"vac":true,"version":"7961495","steam_id":85568392925397851,"keywords":["alltalk","cp","danepve","increased_maxplayers","nocrits","norespawntime","uncletopia"],"game_id":440,"stv_port":0,"stv_name":"","players":null},{"server_id":51,"name":"Uncletopia | Warsaw | 3 | All Maps","name_short":"waw-3","host":"waw-1.pl.uncletopia.com","port":27035,"enabled":true,"region":"eu","cc":"pl","latitude":52.2297,"longitude":21.017532,"reserved":0,"last_update":"0001-01-01T00:00:00Z","name_a2s":"Uncletopia | Warsaw | 3 | All Maps","protocol":17,"map":"pl_badwater","folder":"tf","game":"Team Fortress","app_id":440,"player_count":0,"max_players":24,"Bots":0,"server_type":"Dedicated","server_os":"Linux","password":true,"vac":true,"version":"7961495","steam_id":85568392925397852,"keywords":["nocrits","nodmgspread","payload","uncletopia"],"game_id":440,"stv_port":27036,"stv_name":"Uncletopia | Warsaw | 3 | All Maps | STV","players":null},{"server_id":52,"name":"Uncletopia | Warsaw | 4 | All Maps","name_short":"waw-4","host":"waw-1.pl.uncletopia.com","port":27045,"enabled":true,"region":"eu","cc":"pl","latitude":52.2297,"longitude":21.017532,"reserved":0,"last_update":"0001-01-01T00:00:00Z","name_a2s":"Uncletopia | Warsaw | 4 | All Maps","protocol":17,"map":"ctf_2fort","folder":"tf","game":"Team Fortress","app_id":440,"player_count":0,"max_players":24,"Bots":0,"server_type":"Dedicated","server_os":"Linux","password":true,"vac":true,"version":"7961495","steam_id":85568392925397853,"keywords":["ctf","nocrits","nodmgspread","uncletopia"],"game_id":440,"stv_port":27046,"stv_name":"Uncletopia | Warsaw | 4 | All Maps | STV","players":null},{"server_id":53,"name":"Uncletopia | Warsaw | 5 | Stopwatch","name_short":"waw-5","host":"waw-1.pl.uncletopia.com","port":27055,"enabled":true,"region":"eu","cc":"pl","latitude":52.2297,"longitude":21.017532,"reserved":0,"last_update":"0001-01-01T00:00:00Z","name_a2s":"Uncletopia | Warsaw | 5 | Stopwatch","protocol":17,"map":"koth_lakeside_final","folder":"tf","game":"Team Fortress","app_id":440,"player_count":0,"max_players":24,"Bots":0,"server_type":"Dedicated","server_os":"Linux","password":true,"vac":true,"version":"7961495","steam_id":85568392925397854,"keywords":["cp","nocrits","nodmgspread","uncletopia"],"game_id":440,"stv_port":27056,"stv_name":"Uncletopia | Warsaw | 5 | Stopwatch | STV","players":null},{"server_id":54,"name":"Uncletopia | Warsaw | 6 | Community","name_short":"waw-6","host":"waw-1.pl.uncletopia.com","port":27065,"enabled":true,"region":"eu","cc":"pl","latitude":52.2297,"longitude":21.017532,"reserved":0,"last_update":"0001-01-01T00:00:00Z","name_a2s":"Uncletopia | Warsaw | 6 | Community","protocol":17,"map":"workshop/cp_propaganda_b18.ugc1603743849","folder":"tf","game":"Team Fortress","app_id":440,"player_count":0,"max_players":24,"Bots":0,"server_type":"Dedicated","server_os":"Linux","password":true,"vac":true,"version":"7961495","steam_id":85568392925397856,"keywords":["cp","nocrits","nodmgspread","uncletopia"],"game_id":440,"stv_port":27066,"stv_name":"Uncletopia | Warsaw | 6 | Community | STV","players":null}]}