{"status":true,"message":"","result":[{"server_id":9,"name":"Uncletopia | Atlanta | 1 | All Maps","name_short":"atl-1","host":"atl-1.us.uncletopia.com","port":27015,"enabled":true,"region":"us-east","cc":"us","latitude":33.753746,"longitude":-84.38633,"reserved":0,"last_update":"0001-01-01T00:00:00Z","name_a2s":"Uncletopia | Atlanta | 1 | All Maps","protocol":17,"map":"cp_dustbowl","folder":"tf","game":"Team Fortress","app_id":440,"player_count":20,"max_players":24,"Bots":0,"server_type":"Dedicated","server_os":"Linux","password":true,"vac":true,"version":"7961495","steam_id":85568392924469982,"keywords":["cp","nocrits","nodmgspread","uncletopia"],"game_id":440,"stv_port":27016,"stv_name":"Uncletopia | Atlanta | 1 | All Maps | STV","players":null},{"server_id":104,"name":"Uncletopia | Atlanta | 2 | All Maps","name_short":"atl-2","host":"atl-1.us.uncletopia.com","port":27025,"enabled":true,"region":"us-east","cc":"us","latitude":33.753746,"longitude":-84.38633,"reserved":0,"last_update":"0001-01-01T00:00:00Z","name_a2s":"Uncletopia | Atlanta | 2 | All Maps","protocol":17,"map":"cp_dustbowl","folder":"tf","game":"Team Fortress","app_id":440,"player_count":23,"max_players":24,"Bots":0,"server_type":"Dedicated","server_os":"Linux","password":true,"vac":true,"version":"7961495","steam_id":85568392924469983,"keywords":["cp","nocrits","nodmgspread","uncletopia"],"game_id":440,"stv_port":27026,"stv_name":"Uncletopia | Atlanta | 2 | All Maps | STV","players":null},{"server_id":400,"name":"Uncletopia | Atlanta | 3 | All Maps","name_short":"atl-3","host":"atl-1.us.uncletopia.com","port":27035,"enabled":true,"region":"us-east","cc":"us","latitude":33.753746,"longitude":-84.38633,"reserved":0,"last_update":"0001-01-01T00:00:00Z","name_a2s":"Uncletopia | Atlanta | 3 | All Maps","protocol":17,"map":"cp_process_final","folder":"tf","game":"Team Fortress","app_id":440,"player_count":0,"max_players":24,"Bots":0,"server_type":"Dedicated","server_os":"Linux","password":true,"vac":true,"version":"7961495","steam_id":85568392924515187,"keywords":["cp","nocrits","nodmgspread","uncletopia"],"game_id":440,"stv_port":27036,"stv_name":"Uncletopia | Atlanta | 3 | All Maps | STV","players":null},{"server_id":401,"name":"Uncletopia | Atlanta | 4 | Community","name_short":"atl-4","host":"atl-1.us.uncletopia.com","port":27045,"enabled":true,"region":"us-east","cc":"us","latitude":33.753746,"longitude":-84.38633,"reserved":0,"last_update":"0001-01-01T00:00:00Z","name_a2s":"Uncletopia | Atlanta | 4 | Community","protocol":17,"map":"koth_cascade","folder":"tf","game":"Team Fortress","app_id":440,"player_count":0,"max_players":24,"Bots":0,"server_type":"Dedicated","server_os":"Linux","password":true,"vac":true,"version":"7961495","steam_id":85568392924515188,"keywords":["cp","nocrits","nodmgspread","uncletopia"],"game_id":440,"stv_port":27046,"stv_name":"Uncletopia | Atlanta | 4 | Community | STV","players":null},{"server_id":2,"name":"Uncletopia | Chicago | 1 | All Maps","name_short":"chi-1","host":"chi-1.us.uncletopia.com","port":27015,"enabled":true,"region":"us-central","cc":"us","latitude":41.881832,"longitude":-87.62318,"reserved":0,"last_update":"0001-01-01T00:00:00Z","name_a2s":"Uncletopia | Chicago | 1 | All Maps","protocol":17,"map":"pl_badwater","folder":"tf","game":"Team Fortress","app_id":440,"player_count":24,"max_players":24,"Bots":0,"server_type":"Dedicated","server_os":"Linux","password":true,"vac":true,"version":"7961495","steam_id":85568392924469984,"keywords":["nocrits","nodmgspread","payload","uncletopia"],"game_id":440,"stv_port":27016,"stv_name":"Uncletopia | Chicago | 1 | All Maps | STV","players":[{"user_id":400,"name":"Deary","steam_id":76561198868580370,"connected_time":774000000000,"state":"active","ping":49},{"user_id":404,"name":"PKBEAST_7","steam_id":76561198177136537,"connected_time":390000000000,"state":"active","ping":87},{"user_id":406,"name":"berserker_tf2 yt","steam_id":76561198303464488,"connected_time":353000000000,"state":"active","ping":58},{"user_id":277,"name":"big steve","steam_id":76561199037050183,"connected_time":8930000000000,"state":"active","ping":108},{"user_id":401,"name":"greg 2002","steam_id":76561198886705498,"connected_time":695000000000,"state":"active","ping":48},{"user_id":399,"name":"Motorolª","steam_id":76561198358119669,"connected_time":1044000000000,"state":"active","ping":133},{"user_id":379,"name":"ImHellaDead","steam_id":76561198953634428,"connected_time":2211000000000,"state":"active","ping":67},{"user_id":391,"name":"alset333","steam_id":76561198405345260,"connected_time":1473000000000,"state":"active","ping":65},{"user_id":357,"name":"shadow wizard money gang","steam_id":76561198067487745,"connected_time":3664000000000,"state":"active","ping":59},{"user_id":377,"name":"mothra","steam_id":76561198028444359,"connected_time":2257000000000,"state":"active","ping":150},{"user_id":397,"name":"Bort","steam_id":76561198048992198,"connected_time":1176000000000,"state":"active","ping":60},{"user_id":385,"name":"eat Pant","steam_id":76561197974965536,"connected_time":1735000000000,"state":"active","ping":60},{"user_id":402,"name":"Nuts Berserk","steam_id":76561198145709870,"connected_time":613000000000,"state":"active","ping":110},{"user_id":408,"name":"silver","steam_id":76561198081906712,"connected_time":60000000000,"state":"active","ping":41},{"user_id":390,"name":"g00bur","steam_id":76561197993622520,"connected_time":1698000000000,"state":"active","ping":67},{"user_id":368,"name":"Nighty","steam_id":76561198121061641,"connected_time":3184000000000,"state":"active","ping":149},{"user_id":395,"name":"Eins","steam_id":76561199030343810,"connected_time":1327000000000,"state":"active","ping":66},{"user_id":405,"name":"L + Ratio","steam_id":76561198263786953,"connected_time":378000000000,"state":"active","ping":87},{"user_id":396,"name":"Kritzburgh","steam_id":76561198149466938,"connected_time":1323000000000,"state":"active","ping":72},{"user_id":364,"name":"the dishtv1605","steam_id":76561198061284371,"connected_time":3494000000000,"state":"active","ping":42},{"user_id":369,"name":"OrangeSodaMachine","steam_id":76561198079230156,"connected_time":3156000000000,"state":"active","ping":88},{"user_id":354,"name":"128 days no zaza","steam_id":76561198121871878,"connected_time":3986000000000,"state":"active","ping":75},{"user_id":386,"name":"rat eater","steam_id":76561199216874750,"connected_time":1735000000000,"state":"active","ping":59}]},{"server_id":106,"name":"Uncletopia | Chicago | 2 | All Maps","name_short":"chi-2","host":"chi-1.us.uncletopia.com","port":27025,"enabled":true,"region":"us-central","cc":"us","latitude":41.881832,"longitude":-87.62318,"reserved":0,"last_update":"0001-01-01T00:00:00Z","name_a2s":"Uncletopia | Chicago | 2 | All Maps","protocol":17,"map":"cp_sunshine","folder":"tf","game":"Team Fortress","app_id":440,"player_count":3,"max_players":24,"Bots":0,"server_type":"Dedicated","server_os":"Linux","password":true,"vac":true,"version":"7961495","steam_id":85568392924469985,"keywords":["cp","nocrits","nodmgspread","uncletopia"],"game_id":440,"stv_port":27026,"stv_name":"Uncletopia | Chicago | 2 | All Maps | STV","players":[{"user_id":163,"name":"Heinz-Harald Frentzen","steam_id":76561199002203593,"connected_time":271000000000,"state":"active","ping":113},{"user_id":164,"name":"Snakeface","steam_id":76561199197245826,"connected_time":169000000000,"state":"active","ping":64},{"user_id":165,"name":"cozy","steam_id":76561199044037628,"connected_time":141000000000,"state":"active","ping":140}]},{"server_id":402,"name":"Uncletopia | Chicago | 3 | All Maps","name_short":"chi-3","host":"chi-1.us.uncletopia.com","port":27035,"enabled":true,"region":"us-central","cc":"us","latitude":41.881832,"longitude":-87.62318,"reserved":0,"last_update":"0001-01-01T00:00:00Z","name_a2s":"Uncletopia | Chicago | 3 | All Maps","protocol":17,"map":"cp_5gorge","folder":"tf","game":"Team Fortress","app_id":440,"player_count":24,"max_players":24,"Bots":0,"server_type":"Dedicated","server_os":"Linux","password":true,"vac":true,"version":"7961495","steam_id":85568392924515191,"keywords":["cp","nocrits","nodmgspread","uncletopia"],"game_id":440,"stv_port":27036,"stv_name":"Uncletopia | Chicago | 3 | All Maps | STV","players":[{"user_id":219,"name":"Average Dispenser Enjoyer","steam_id":76561198989154975,"connected_time":635000000000,"state":"active","ping":81},{"user_id":229,"name":"Kinbo2487","steam_id":76561198184714198,"connected_time":346000000000,"state":"active","ping":74},{"user_id":220,"name":"cakgamin","steam_id":76561199088909749,"connected_time":567000000000,"state":"active","ping":65},{"user_id":202,"name":"[#1 fan of women] bog","steam_id":76561198070975491,"connected_time":2582000000000,"state":"active","ping":76},{"user_id":227,"name":"axellinag15","steam_id":76561199188113751,"connected_time":382000000000,"state":"active","ping":68},{"user_id":228,"name":"Infinite Power Kobold","steam_id":76561198069034583,"connected_time":370000000000,"state":"active","ping":93},{"user_id":232,"name":"Lunk","steam_id":76561198083037471,"connected_time":204000000000,"state":"active","ping":35},{"user_id":187,"name":"Touchpad User","steam_id":76561198365780517,"connected_time":3853000000000,"state":"active","ping":95},{"user_id":230,"name":"donkey","steam_id":76561198288539461,"connected_time":341000000000,"state":"active","ping":68},{"user_id":222,"name":"Apetometrist","steam_id":76561198045391635,"connected_time":516000000000,"state":"active","ping":59},{"user_id":213,"name":"kiv","steam_id":76561198838223023,"connected_time":1491000000000,"state":"active","ping":58},{"user_id":212,"name":"Junkbot","steam_id":76561198200633643,"connected_time":1517000000000,"state":"active","ping":86},{"user_id":210,"name":"ThePriceIsRice","steam_id":76561198079069543,"connected_time":1575000000000,"state":"active","ping":103},{"user_id":191,"name":"IanFishooks","steam_id":76561199403427527,"connected_time":3446000000000,"state":"active","ping":84},{"user_id":221,"name":"One week at Frederick's","steam_id":76561198264752535,"connected_time":551000000000,"state":"active","ping":60},{"user_id":199,"name":"SaaxoM","steam_id":76561198208256603,"connected_time":3095000000000,"state":"active","ping":95},{"user_id":207,"name":"125pankojo","steam_id":76561198063072595,"connected_time":2134000000000,"state":"active","ping":63},{"user_id":209,"name":"joe","steam_id":76561199389283507,"connected_time":1668000000000,"state":"active","ping":71},{"user_id":224,"name":"AmazingPlasma","steam_id":76561199005527586,"connected_time":474000000000,"state":"active","ping":79},{"user_id":216,"name":"LUIGI DANGEROUS","steam_id":76561198303944190,"connected_time":960000000000,"state":"active","ping":55},{"user_id":233,"name":"MedRed™ #IATAH","steam_id":76561198002962970,"connected_time":101000000000,"state":"active","ping":92},{"user_id":165,"name":"Acehay14","steam_id":76561198052373291,"connected_time":5349000000000,"state":"active","ping":55},{"user_id":226,"name":"Gent Batto","steam_id":76561198003465773,"connected_time":425000000000,"state":"active","ping":94},{"user_id":231,"name":"Broadsword #LGM","steam_id":76561198011160411,"connected_time":326000000000,"state":"active","ping":88}]},{"server_id":403,"name":"Uncletopia | Chicago | 4 | All Maps","name_short":"chi-4","host":"chi-1.us.uncletopia.com","port":27045,"enabled":true,"region":"us-central","cc":"us","latitude":41.881832,"longitude":-87.62318,"reserved":0,"last_update":"0001-01-01T00:00:00Z","name_a2s":"Uncletopia | Chicago | 4 | All Maps","protocol":17,"map":"pl_frontier_final","folder":"tf","game":"Team Fortress","app_id":440,"player_count":22,"max_players":24,"Bots":0,"server_type":"Dedicated","server_os":"Linux","password":true,"vac":true,"version":"7961495","steam_id":85568392924515193,"keywords":["nocrits","nodmgspread","payload","uncletopia"],"game_id":440,"stv_port":27046,"stv_name":"Uncletopia | Chicago | 4 | All Maps | STV","players":[{"user_id":37,"name":"Wilhelmktx","steam_id":76561198158102295,"connected_time":381000000000,"state":"active","ping":44},{"user_id":38,"name":"Idiot Princess","steam_id":76561198048205270,"connected_time":381000000000,"state":"active","ping":90},{"user_id":12,"name":"gps","steam_id":76561198067492304,"connected_time":972000000000,"state":"active","ping":80},{"user_id":13,"name":"wiiblob","steam_id":76561198109106242,"connected_time":963000000000,"state":"active","ping":135},{"user_id":14,"name":"Bolty","steam_id":76561198084199165,"connected_time":961000000000,"state":"active","ping":67},{"user_id":15,"name":"LegendaryMister151","steam_id":76561198064890524,"connected_time":941000000000,"state":"active","ping":77},{"user_id":16,"name":"Mister Rattlebones","steam_id":76561198065560157,"connected_time":900000000000,"state":"active","ping":53},{"user_id":18,"name":"toastman","steam_id":76561198207073088,"connected_time":855000000000,"state":"active","ping":83},{"user_id":24,"name":"GamingMonkey734","steam_id":76561198148362039,"connected_time":717000000000,"state":"active","ping":89},{"user_id":20,"name":"Female Gamer","steam_id":76561199366482682,"connected_time":751000000000,"state":"active","ping":101},{"user_id":21,"name":"Yoinky","steam_id":76561199021887027,"connected_time":737000000000,"state":"active","ping":64},{"user_id":22,"name":"Viennetta","steam_id":76561198044088335,"connected_time":727000000000,"state":"active","ping":64},{"user_id":25,"name":"Joner","steam_id":76561198278462016,"connected_time":712000000000,"state":"active","ping":68},{"user_id":36,"name":"Rein","steam_id":76561198300340427,"connected_time":489000000000,"state":"active","ping":60},{"user_id":27,"name":"Dennis","steam_id":76561198354131052,"connected_time":698000000000,"state":"active","ping":83},{"user_id":28,"name":"Ⓑ⓪⓪ⓣⓨⓒⓐⓚⓔⓢ","steam_id":76561198088776421,"connected_time":682000000000,"state":"active","ping":60},{"user_id":29,"name":"mccoolshawn99","steam_id":76561199207230191,"connected_time":644000000000,"state":"active","ping":83},{"user_id":30,"name":"Randy \"the Man\" Johnson","steam_id":76561198039124445,"connected_time":627000000000,"state":"active","ping":123},{"user_id":31,"name":"White-faced Redneck","steam_id":76561199122083047,"connected_time":607000000000,"state":"active","ping":90},{"user_id":32,"name":"viagra addict","steam_id":76561198017705248,"connected_time":602000000000,"state":"active","ping":45},{"user_id":33,"name":"Zymiren","steam_id":76561198054985471,"connected_time":585000000000,"state":"active","ping":97},{"user_id":34,"name":"papa big slammer","steam_id":76561198011675372,"connected_time":578000000000,"state":"active","ping":109}]},{"server_id":36,"name":"Uncletopia | Chicago | 5 | All Maps","name_short":"chi-5","host":"chi-2.us.uncletopia.com","port":27015,"enabled":true,"region":"us-central","cc":"us","latitude":41.881832,"longitude":-87.62318,"reserved":0,"last_update":"0001-01-01T00:00:00Z","name_a2s":"Uncletopia | Chicago | 5 | All Maps","protocol":17,"map":"pl_frontier_final","folder":"tf","game":"Team Fortress","app_id":440,"player_count":4,"max_players":24,"Bots":0,"server_type":"Dedicated","server_os":"Linux","password":true,"vac":true,"version":"7961495","steam_id":85568392924866362,"keywords":["nocrits","nodmgspread","payload","uncletopia"],"game_id":440,"stv_port":27016,"stv_name":"Uncletopia | Chicago | 5 | All Maps | STV","players":[{"user_id":7,"name":"Dragoon","steam_id":76561198211973253,"connected_time":415000000000,"state":"active","ping":82},{"user_id":8,"name":"Snowy","steam_id":76561198360209483,"connected_time":408000000000,"state":"active","ping":59},{"user_id":9,"name":"doamgeo468","steam_id":76561199485287045,"connected_time":402000000000,"state":"active","ping":84},{"user_id":12,"name":"the swag","steam_id":76561199090024098,"connected_time":35000000000,"state":"active","ping":86}]},{"server_id":37,"name":"Uncletopia | Chicago | 6 | All Maps","name_short":"chi-6","host":"chi-2.us.uncletopia.com","port":27025,"enabled":true,"region":"us-central","cc":"us","latitude":41.881832,"longitude":-87.62318,"reserved":0,"last_update":"0001-01-01T00:00:00Z","name_a2s":"Uncletopia | Chicago | 6 | All Maps","protocol":17,"map":"cp_sunshine","folder":"tf","game":"Team Fortress","app_id":440,"player_count":0,"max_players":24,"Bots":0,"server_type":"Dedicated","server_os":"Linux","password":true,"vac":true,"version":"7961495","steam_id":85568392924866363,"keywords":["cp","nocrits","nodmgspread","uncletopia"],"game_id":440,"stv_port":27026,"stv_name":"Uncletopia | Chicago | 6 | All Maps | STV","players":null},{"server_id":38,"name":"Uncletopia | Chicago | 7 | Stopwatch Beta","name_short":"chi-7","host":"chi-2.us.uncletopia.com","port":27035,"enabled":true,"region":"us-central","cc":"us","latitude":41.881832,"longitude":-87.62318,"reserved":0,"last_update":"0001-01-01T00:00:00Z","name_a2s":"Uncletopia | Chicago | 7 | Stopwatch Beta","protocol":17,"map":"pl_badwater","folder":"tf","game":"Team Fortress","app_id":440,"player_count":0,"max_players":24,"Bots":0,"server_type":"Dedicated","server_os":"Linux","password":true,"vac":true,"version":"7961495","steam_id":85568392924866364,"keywords":["nocrits","nodmgspread","payload","uncletopia"],"game_id":440,"stv_port":27036,"stv_name":"Uncletopia | Chicago | 7 | Stopwatch Beta | STV","players":null},{"server_id":39,"name":"Uncletopia | Chicago | 8 | Community","name_short":"chi-8","host":"chi-2.us.uncletopia.com","port":27045,"enabled":true,"region":"us-central","cc":"us","latitude":41.881832,"longitude":-87.62318,"reserved":0,"last_update":"0001-01-01T00:00:00Z","name_a2s":"Uncletopia | Chicago | 8 | Community","protocol":17,"map":"workshop/koth_slaughter_rc1.ugc1712845210","folder":"tf","game":"Team Fortress","app_id":440,"player_count":24,"max_players":24,"Bots":0,"server_type":"Dedicated","server_os":"Linux","password":true,"vac":true,"version":"7961495","steam_id":85568392924866365,"keywords":["cp","nocrits","nodmgspread","uncletopia"],"game_id":440,"stv_port":27046,"stv_name":"Uncletopia | Chicago | 8 | Community | STV","players":[{"user_id":48,"name":"VHSTAPE","steam_id":76561198036560740,"connected_time":706000000000,"state":"active","ping":95},{"user_id":50,"name":"vitriol","steam_id":76561199159038358,"connected_time":612000000000,"state":"active","ping":62},{"user_id":51,"name":"Thesilentgamer","steam_id":76561198295860735,"connected_time":606000000000,"state":"active","ping":107},{"user_id":52,"name":"MED","steam_id":76561198389670774,"connected_time":573000000000,"state":"active","ping":131},{"user_id":42,"name":"travellersblues","steam_id":76561198821627466,"connected_time":1056000000000,"state":"active","ping":62},{"user_id":60,"name":"RavingLuntic","steam_id":76561198010360784,"connected_time":343000000000,"state":"active","ping":95},{"user_id":21,"name":"Walkiing","steam_id":76561198074473413,"connected_time":1877000000000,"state":"active","ping":45},{"user_id":22,"name":"Evenaris","steam_id":76561198087544319,"connected_time":1816000000000,"state":"active","ping":90},{"user_id":15,"name":"beans","steam_id":76561199082781884,"connected_time":2740000000000,"state":"active","ping":67},{"user_id":67,"name":"MintyPawz","steam_id":76561198111430103,"connected_time":102000000000,"state":"active","ping":88},{"user_id":53,"name":"dribby","steam_id":76561197985925929,"connected_time":557000000000,"state":"active","ping":46},{"user_id":27,"name":"Grimbo","steam_id":76561198826767537,"connected_time":1596000000000,"state":"active","ping":50},{"user_id":28,"name":"nilftb","steam_id":76561198161952186,"connected_time":1538000000000,"state":"active","ping":65},{"user_id":64,"name":"yo mr white, isn't this haram?","steam_id":76561198104086771,"connected_time":216000000000,"state":"active","ping":103},{"user_id":30,"name":"Cerebral Malfunction","steam_id":76561198885651598,"connected_time":1447000000000,"state":"active","ping":69},{"user_id":57,"name":"aetho","steam_id":76561198173567245,"connected_time":418000000000,"state":"active","ping":86},{"user_id":66,"name":"GuyGoom","steam_id":76561198254522178,"connected_time":135000000000,"state":"active","ping":60},{"user_id":55,"name":"let me in gaben","steam_id":76561198083619784,"connected_time":518000000000,"state":"active","ping":52},{"user_id":49,"name":"MisterAgui","steam_id":76561198333835720,"connected_time":686000000000,"state":"active","ping":89},{"user_id":37,"name":"Photoshop","steam_id":76561198122192838,"connected_time":1238000000000,"state":"active","ping":75},{"user_id":45,"name":"Serene Salamander","steam_id":76561198001094770,"connected_time":956000000000,"state":"active","ping":116},{"user_id":68,"name":"Robin","steam_id":76561198121165149,"connected_time":21000000000,"state":"spawning","ping":79},{"user_id":63,"name":"ViserofJustice","steam_id":76561198267918559,"connected_time":294000000000,"state":"active","ping":68},{"user_id":44,"name":"BarrowBaron","steam_id":76561198013633236,"connected_time":1024000000000,"state":"active","ping":59}]},{"server_id":8,"name":"Uncletopia | Dallas | 1 | All Maps","name_short":"dal-1","host":"dal-1.us.uncletopia.com","port":27015,"enabled":true,"region":"us-central","cc":"us","latitude":32.779167,"longitude":-96.80889,"reserved":0,"last_update":"0001-01-01T00:00:00Z","name_a2s":"Uncletopia | Dallas | 1 | All Maps","protocol":17,"map":"pl_pier","folder":"tf","game":"Team Fortress","app_id":440,"player_count":24,"max_players":24,"Bots":0,"server_type":"Dedicated","server_os":"Linux","password":true,"vac":true,"version":"7961495","steam_id":85568392924469986,"keywords":["nocrits","nodmgspread","payload","uncletopia"],"game_id":440,"stv_port":27016,"stv_name":"Uncletopia | Dallas | 1 | All Maps | STV","players":[{"user_id":49,"name":"NovusOrdoDux","steam_id":76561198271936289,"connected_time":7071000000000,"state":"active","ping":131},{"user_id":210,"name":"Scum Knight | T.I.D.K.","steam_id":76561198282444763,"connected_time":1436000000000,"state":"active","ping":81},{"user_id":185,"name":"Emily50AE","steam_id":76561198088619665,"connected_time":3404000000000,"state":"active","ping":79},{"user_id":216,"name":"Krispy!","steam_id":76561198037481161,"connected_time":189000000000,"state":"active","ping":70},{"user_id":42,"name":"Busta Cap","steam_id":76561197994482862,"connected_time":7626000000000,"state":"active","ping":57},{"user_id":202,"name":"gadisboss","steam_id":76561198301704975,"connected_time":2071000000000,"state":"active","ping":72},{"user_id":196,"name":"♥ thedittofemboy ♥","steam_id":76561199013129784,"connected_time":2662000000000,"state":"active","ping":59},{"user_id":197,"name":"alpha1zer0ready","steam_id":76561199206731331,"connected_time":2614000000000,"state":"active","ping":69},{"user_id":208,"name":"quek","steam_id":76561198181048813,"connected_time":1657000000000,"state":"active","ping":43},{"user_id":212,"name":"frank","steam_id":76561198137777483,"connected_time":1197000000000,"state":"active","ping":86},{"user_id":211,"name":"Dr.EggMan","steam_id":76561198985040549,"connected_time":1427000000000,"state":"active","ping":70},{"user_id":213,"name":"leesh","steam_id":76561198079603938,"connected_time":914000000000,"state":"active","ping":61},{"user_id":186,"name":"soupwithonions37","steam_id":76561199014636515,"connected_time":3383000000000,"state":"active","ping":83},{"user_id":200,"name":"Rob","steam_id":76561199187786660,"connected_time":2083000000000,"state":"active","ping":55},{"user_id":207,"name":"sex enjoyer","steam_id":76561198106320012,"connected_time":1669000000000,"state":"active","ping":122},{"user_id":214,"name":"Willem Dafoe","steam_id":76561198037453253,"connected_time":904000000000,"state":"active","ping":86},{"user_id":215,"name":"Joe Nathan","steam_id":76561198041030399,"connected_time":541000000000,"state":"active","ping":58},{"user_id":209,"name":"FanaticSalt","steam_id":76561199380123059,"connected_time":1454000000000,"state":"active","ping":54},{"user_id":198,"name":"jayden","steam_id":76561198152455865,"connected_time":2218000000000,"state":"active","ping":88},{"user_id":169,"name":"whittecar","steam_id":76561198169715643,"connected_time":4210000000000,"state":"active","ping":104},{"user_id":170,"name":"G. Howard Dee","steam_id":76561198058382812,"connected_time":4200000000000,"state":"active","ping":66},{"user_id":175,"name":"SuperJagops","steam_id":76561198034689716,"connected_time":4145000000000,"state":"active","ping":97},{"user_id":192,"name":"APOTATO","steam_id":76561198118199858,"connected_time":2904000000000,"state":"active","ping":70},{"user_id":195,"name":"ArtoMeister","steam_id":76561198374963088,"connected_time":2839000000000,"state":"active","ping":108}]},{"server_id":108,"name":"Uncletopia | Dallas | 2 | All Maps","name_short":"dal-2","host":"dal-1.us.uncletopia.com","port":27025,"enabled":true,"region":"us-central","cc":"us","latitude":32.779167,"longitude":-96.80889,"reserved":0,"last_update":"0001-01-01T00:00:00Z","name_a2s":"Uncletopia | Dallas | 2 | All Maps","protocol":17,"map":"cp_powerhouse","folder":"tf","game":"Team Fortress","app_id":440,"player_count":24,"max_players":24,"Bots":0,"server_type":"Dedicated","server_os":"Linux","password":true,"vac":true,"version":"7961495","steam_id":85568392924469988,"keywords":["cp","nocrits","nodmgspread","uncletopia"],"game_id":440,"stv_port":27026,"stv_name":"Uncletopia | Dallas | 2 | All Maps | STV","players":[{"user_id":122,"name":"Dusklight","steam_id":76561198036982638,"connected_time":1358000000000,"state":"active","ping":57},{"user_id":125,"name":"sunny","steam_id":76561198069380992,"connected_time":1170000000000,"state":"active","ping":48},{"user_id":110,"name":"Drive-By-Fish-Guy","steam_id":76561198105513652,"connected_time":2798000000000,"state":"active","ping":93},{"user_id":87,"name":"Big Bill Hells","steam_id":76561198109323006,"connected_time":4070000000000,"state":"active","ping":75},{"user_id":133,"name":"sophie","steam_id":76561199007333656,"connected_time":111000000000,"state":"active","ping":74},{"user_id":74,"name":"A Straw","steam_id":76561199367935846,"connected_time":4689000000000,"state":"active","ping":69},{"user_id":127,"name":"flop","steam_id":76561199230528008,"connected_time":1158000000000,"state":"active","ping":96},{"user_id":124,"name":"Stolas \u003c3","steam_id":76561198835430280,"connected_time":1213000000000,"state":"active","ping":56},{"user_id":123,"name":"Zycron0","steam_id":76561199122983789,"connected_time":1334000000000,"state":"active","ping":106},{"user_id":99,"name":"Broken Cereal√","steam_id":76561198087489795,"connected_time":3109000000000,"state":"active","ping":76},{"user_id":18,"name":"xLeoparrd","steam_id":76561198940657194,"connected_time":7288000000000,"state":"active","ping":65},{"user_id":132,"name":"ZeFizzyPop™","steam_id":76561198258104981,"connected_time":570000000000,"state":"active","ping":85},{"user_id":114,"name":"manbearswineflu","steam_id":76561198083945137,"connected_time":2278000000000,"state":"active","ping":86},{"user_id":41,"name":"Golddick Lewisson","steam_id":76561198054719949,"connected_time":6850000000000,"state":"active","ping":105},{"user_id":112,"name":"Furry Edgelord","steam_id":76561199216176798,"connected_time":2600000000000,"state":"active","ping":68},{"user_id":119,"name":"artichoke","steam_id":76561198980994364,"connected_time":1733000000000,"state":"active","ping":99},{"user_id":71,"name":"Radger","steam_id":76561198204039747,"connected_time":4782000000000,"state":"active","ping":108},{"user_id":86,"name":"Big Toolkit","steam_id":76561198174281743,"connected_time":4236000000000,"state":"active","ping":69},{"user_id":129,"name":"kn0n2999","steam_id":76561198249172818,"connected_time":1091000000000,"state":"active","ping":118},{"user_id":130,"name":"Unlock The Shock (She/They)","steam_id":76561198823616667,"connected_time":1059000000000,"state":"active","ping":62},{"user_id":107,"name":"Tommy Provolone","steam_id":76561198170062377,"connected_time":2895000000000,"state":"active","ping":62},{"user_id":121,"name":"Kramer's Apology (Full Video)","steam_id":76561198009339435,"connected_time":1385000000000,"state":"active","ping":54},{"user_id":131,"name":"Bacon","steam_id":76561199078407152,"connected_time":1039000000000,"state":"active","ping":81},{"user_id":56,"name":"Phos","steam_id":76561198122339506,"connected_time":6008000000000,"state":"active","ping":70}]},{"server_id":404,"name":"Uncletopia | Dallas | 3 | All Maps","name_short":"dal-3","host":"dal-1.us.uncletopia.com","port":27035,"enabled":true,"region":"us-central","cc":"us","latitude":32.779167,"longitude":-96.80889,"reserved":0,"last_update":"0001-01-01T00:00:00Z","name_a2s":"Uncletopia | Dallas | 3 | All Maps","protocol":17,"map":"koth_harvest_final","folder":"tf","game":"Team Fortress","app_id":440,"player_count":24,"max_players":24,"Bots":0,"server_type":"Dedicated","server_os":"Linux","password":true,"vac":true,"version":"7961495","steam_id":85568392924515219,"keywords":["cp","nocrits","nodmgspread","uncletopia"],"game_id":440,"stv_port":27036,"stv_name":"Uncletopia | Dallas | 3 | All Maps | STV","players":[{"user_id":201,"name":"AntHoot","steam_id":76561198080674895,"connected_time":792000000000,"state":"active","ping":131},{"user_id":126,"name":"Jerk Tryhard (roleplay)","steam_id":76561199470538309,"connected_time":6095000000000,"state":"active","ping":76},{"user_id":208,"name":"Portal2Player","steam_id":76561198062870114,"connected_time":634000000000,"state":"active","ping":110},{"user_id":198,"name":"ＳＣＰ１０６","steam_id":76561198883157736,"connected_time":916000000000,"state":"active","ping":130},{"user_id":155,"name":"dweamy","steam_id":76561198119181880,"connected_time":4446000000000,"state":"active","ping":60},{"user_id":199,"name":"Fresh Lychee","steam_id":76561198045399559,"connected_time":843000000000,"state":"active","ping":75},{"user_id":200,"name":"The World's Softest Sandwich","steam_id":76561198015577707,"connected_time":837000000000,"state":"active","ping":71},{"user_id":212,"name":"The Indomitable Italian Spirit","steam_id":76561198337971820,"connected_time":513000000000,"state":"active","ping":91},{"user_id":203,"name":"FriedYogurt","steam_id":76561198280667376,"connected_time":740000000000,"state":"active","ping":88},{"user_id":204,"name":"Misanthrope","steam_id":76561198090692884,"connected_time":726000000000,"state":"active","ping":99},{"user_id":205,"name":"Your Dad™","steam_id":76561198254739340,"connected_time":710000000000,"state":"active","ping":94},{"user_id":206,"name":"basilberry","steam_id":76561198145275937,"connected_time":669000000000,"state":"active","ping":66},{"user_id":149,"name":"A Gamer [F2P]","steam_id":76561198138712892,"connected_time":5204000000000,"state":"active","ping":43},{"user_id":215,"name":"Lolxdloldx","steam_id":76561198136887125,"connected_time":169000000000,"state":"active","ping":100},{"user_id":216,"name":"Dauntless Duelist","steam_id":76561198025056018,"connected_time":147000000000,"state":"active","ping":98},{"user_id":207,"name":"LemonLimeSoda","steam_id":76561198287682469,"connected_time":658000000000,"state":"active","ping":71},{"user_id":162,"name":"Jimmy","steam_id":76561198857959855,"connected_time":3992000000000,"state":"active","ping":71},{"user_id":152,"name":"The Dreamer","steam_id":76561198047638312,"connected_time":4848000000000,"state":"active","ping":76},{"user_id":209,"name":"Travorski","steam_id":76561198072493142,"connected_time":607000000000,"state":"active","ping":87},{"user_id":150,"name":"thepokeyen","steam_id":76561198236847572,"connected_time":5131000000000,"state":"active","ping":83},{"user_id":217,"name":"Bheem","steam_id":76561198170453459,"connected_time":143000000000,"state":"active","ping":97},{"user_id":214,"name":"Not Guztaf","steam_id":76561198334924763,"connected_time":423000000000,"state":"active","ping":83},{"user_id":187,"name":"MantisToboggan","steam_id":76561197969447887,"connected_time":2466000000000,"state":"active","ping":147},{"user_id":191,"name":"Scita","steam_id":76561198066861559,"connected_time":1632000000000,"state":"active","ping":92}]},{"server_id":405,"name":"Uncletopia | Dallas | 4 | Community","name_short":"dal-4","host":"dal-1.us.uncletopia.com","port":27045,"enabled":true,"region":"us-central","cc":"us","latitude":32.779167,"longitude":-96.80889,"reserved":0,"last_update":"0001-01-01T00:00:00Z","name_a2s":"Uncletopia | Dallas | 4 | Community","protocol":17,"map":"workshop/cp_reckoner_rc6.ugc674719999","folder":"tf","game":"Team Fortress","app_id":440,"player_count":0,"max_players":24,"Bots":0,"server_type":"Dedicated","server_os":"Linux","password":true,"vac":true,"version":"7961495","steam_id":85568392924515220,"keywords":["cp","nocrits","nodmgspread","uncletopia"],"game_id":440,"stv_port":27046,"stv_name":"Uncletopia | Dallas | 4 | Community | STV","players":null},{"server_id":5,"name":"Uncletopia | Frankfurt | 1 | All Maps","name_short":"frk-1","host":"frk-1.de.uncletopia.com","port":27015,"enabled":true,"region":"eu","cc":"de","latitude":50.110924,"longitude":8.682127,"reserved":0,"last_update":"0001-01-01T00:00:00Z","name_a2s":"Uncletopia | Frankfurt | 1 | All Maps","protocol":17,"map":"cp_dustbowl","folder":"tf","game":"Team Fortress","app_id":440,"player_count":23,"max_players":24,"Bots":0,"server_type":"Dedicated","server_os":"Linux","password":true,"vac":true,"version":"7961495","steam_id":85568392924469989,"keywords":["cp","nocrits","nodmgspread","uncletopia"],"game_id":440,"stv_port":27016,"stv_name":"Uncletopia | Frankfurt | 1 | All Maps | STV","players":[{"user_id":278,"name":"Walter Black","steam_id":76561198309194819,"connected_time":5364000000000,"state":"active","ping":88},{"user_id":314,"name":"ducksattack","steam_id":76561198074706076,"connected_time":2932000000000,"state":"active","ping":75},{"user_id":333,"name":"foureyesfries","steam_id":76561198271831555,"connected_time":688000000000,"state":"active","ping":59},{"user_id":352,"name":"Kalibri","steam_id":76561198864279175,"connected_time":132000000000,"state":"active","ping":85},{"user_id":313,"name":"realness","steam_id":76561199129226935,"connected_time":2978000000000,"state":"active","ping":90},{"user_id":345,"name":"Foo.","steam_id":76561198000013666,"connected_time":203000000000,"state":"active","ping":53},{"user_id":346,"name":"MemeLord","steam_id":76561198135115524,"connected_time":194000000000,"state":"active","ping":55},{"user_id":339,"name":"Mally","steam_id":76561198025013765,"connected_time":482000000000,"state":"active","ping":159},{"user_id":318,"name":"Oceanic | tuesday maybe","steam_id":76561197979741827,"connected_time":2102000000000,"state":"active","ping":69},{"user_id":344,"name":"2_Kan","steam_id":76561199456801899,"connected_time":214000000000,"state":"active","ping":193},{"user_id":342,"name":"Tengen","steam_id":76561199356990346,"connected_time":351000000000,"state":"active","ping":102},{"user_id":275,"name":"Mario Moretti [BR]","steam_id":76561198179299606,"connected_time":5635000000000,"state":"active","ping":92},{"user_id":347,"name":"neophyte78","steam_id":76561198010009076,"connected_time":188000000000,"state":"active","ping":59},{"user_id":329,"name":"Habimbi","steam_id":76561198047271252,"connected_time":1237000000000,"state":"active","ping":79},{"user_id":292,"name":"anthony","steam_id":76561198800416524,"connected_time":4679000000000,"state":"active","ping":182},{"user_id":330,"name":"Vischan but worse","steam_id":76561199371650805,"connected_time":1162000000000,"state":"active","ping":93},{"user_id":348,"name":"trash","steam_id":76561199050407628,"connected_time":180000000000,"state":"active","ping":162},{"user_id":351,"name":"DzejKob2007","steam_id":76561199158220210,"connected_time":148000000000,"state":"active","ping":101},{"user_id":302,"name":"Charmedelf","steam_id":76561197993611881,"connected_time":4327000000000,"state":"active","ping":59},{"user_id":303,"name":"chooper","steam_id":76561197963552834,"connected_time":4300000000000,"state":"active","ping":61},{"user_id":353,"name":"Jun-A266","steam_id":76561198261990606,"connected_time":131000000000,"state":"active","ping":91},{"user_id":306,"name":"houston","steam_id":76561198056314375,"connected_time":4261000000000,"state":"active","ping":82},{"user_id":254,"name":"Bruschetta","steam_id":76561198251927162,"connected_time":7492000000000,"state":"active","ping":62}]},{"server_id":110,"name":"Uncletopia | Frankfurt | 2 | All Maps","name_short":"frk-2","host":"frk-1.de.uncletopia.com","port":27025,"enabled":true,"region":"eu","cc":"de","latitude":50.110924,"longitude":8.682127,"reserved":0,"last_update":"0001-01-01T00:00:00Z","name_a2s":"Uncletopia | Frankfurt | 2 | All Maps","protocol":17,"map":"pl_badwater","folder":"tf","game":"Team Fortress","app_id":440,"player_count":4,"max_players":24,"Bots":0,"server_type":"Dedicated","server_os":"Linux","password":true,"vac":true,"version":"7961495","steam_id":85568392924469990,"keywords":["nocrits","nodmgspread","payload","uncletopia"],"game_id":440,"stv_port":27026,"stv_name":"Uncletopia | Frankfurt | 2 | All Maps | STV","players":[{"user_id":50,"name":"dirtik300","steam_id":76561198424701630,"connected_time":145000000000,"state":"active","ping":105},{"user_id":51,"name":"bogdan.ru.pro.slim.roblox.1849","steam_id":76561199489020776,"connected_time":132000000000,"state":"active","ping":66},{"user_id":52,"name":"sunshine","steam_id":76561198084597975,"connected_time":112000000000,"state":"active","ping":56},{"user_id":53,"name":"meat man","steam_id":76561199135835032,"connected_time":55000000000,"state":"active","ping":90}]},{"server_id":308,"name":"Uncletopia | Frankfurt | 3 | All Maps","name_short":"frk-3","host":"frk-1.de.uncletopia.com","port":27035,"enabled":true,"region":"eu","cc":"de","latitude":50.110924,"longitude":8.682127,"reserved":0,"last_update":"0001-01-01T00:00:00Z","name_a2s":"Uncletopia | Frankfurt | 3 | All Maps","protocol":17,"map":"pl_frontier_final","folder":"tf","game":"Team Fortress","app_id":440,"player_count":24,"max_players":24,"Bots":0,"server_type":"Dedicated","server_os":"Linux","password":true,"vac":true,"version":"7961495","steam_id":85568392924504274,"keywords":["nocrits","nodmgspread","payload","uncletopia"],"game_id":440,"stv_port":27036,"stv_name":"Uncletopia | Frankfurt | 3 | All Maps | STV","players":[{"user_id":240,"name":"Diggity","steam_id":76561198297157085,"connected_time":350000000000,"state":"active","ping":59},{"user_id":193,"name":"The Manager of Sex","steam_id":76561198385989487,"connected_time":2686000000000,"state":"active","ping":121},{"user_id":158,"name":"cargo_conductor_754","steam_id":76561198165604007,"connected_time":4105000000000,"state":"active","ping":61},{"user_id":206,"name":"Urfangonultasadana","steam_id":76561199389286151,"connected_time":2416000000000,"state":"active","ping":109},{"user_id":199,"name":"[HOL] Solringen","steam_id":76561198003584681,"connected_time":2498000000000,"state":"active","ping":67},{"user_id":211,"name":"AC/DC=A/D","steam_id":76561198101114695,"connected_time":2250000000000,"state":"active","ping":89},{"user_id":96,"name":"AleXandriX","steam_id":76561198035203950,"connected_time":9565000000000,"state":"active","ping":53},{"user_id":230,"name":"GUSTAVO BING","steam_id":76561198080086744,"connected_time":1385000000000,"state":"active","ping":76},{"user_id":198,"name":"fregaropa","steam_id":76561198150806166,"connected_time":2556000000000,"state":"active","ping":76},{"user_id":213,"name":"laza's boy","steam_id":76561199074095198,"connected_time":2111000000000,"state":"active","ping":124},{"user_id":195,"name":"Kotlet schabowy","steam_id":76561198048983509,"connected_time":2647000000000,"state":"active","ping":80},{"user_id":223,"name":"wise ukrainian shaman","steam_id":76561198989398023,"connected_time":1555000000000,"state":"active","ping":102},{"user_id":225,"name":"Generál Kiwi","steam_id":76561198255946537,"connected_time":1515000000000,"state":"active","ping":44},{"user_id":239,"name":"Mrs. Lich","steam_id":76561198041341775,"connected_time":396000000000,"state":"active","ping":64},{"user_id":216,"name":"Yisl","steam_id":76561198379536082,"connected_time":1875000000000,"state":"active","ping":95},{"user_id":234,"name":"Le Perv","steam_id":76561198057153676,"connected_time":831000000000,"state":"active","ping":102},{"user_id":175,"name":"bob","steam_id":76561198309295580,"connected_time":3386000000000,"state":"active","ping":56},{"user_id":111,"name":"hhhhhh","steam_id":76561198031982574,"connected_time":8130000000000,"state":"active","ping":55},{"user_id":237,"name":"Random","steam_id":76561199079951047,"connected_time":738000000000,"state":"active","ping":89},{"user_id":232,"name":"jawA","steam_id":76561198070341774,"connected_time":959000000000,"state":"active","ping":78},{"user_id":229,"name":"Monsteh","steam_id":76561198325898181,"connected_time":1411000000000,"state":"active","ping":71},{"user_id":233,"name":"Acanda","steam_id":76561198123246537,"connected_time":878000000000,"state":"active","ping":52},{"user_id":228,"name":"shankz","steam_id":76561198128803260,"connected_time":1417000000000,"state":"active","ping":60},{"user_id":227,"name":"Stage 5 Autism","steam_id":76561198370485227,"connected_time":1489000000000,"state":"active","ping":84}]},{"server_id":309,"name":"Uncletopia | Frankfurt | 4 | All Maps","name_short":"frk-4","host":"frk-1.de.uncletopia.com","port":27045,"enabled":true,"region":"eu","cc":"de","latitude":50.110924,"longitude":8.682127,"reserved":0,"last_update":"0001-01-01T00:00:00Z","name_a2s":"Uncletopia | Frankfurt | 4 | All Maps","protocol":17,"map":"pl_barnblitz","folder":"tf","game":"Team Fortress","app_id":440,"player_count":24,"max_players":24,"Bots":0,"server_type":"Dedicated","server_os":"Linux","password":true,"vac":true,"version":"7961495","steam_id":85568392924504275,"keywords":["nocrits","nodmgspread","payload","uncletopia"],"game_id":440,"stv_port":27046,"stv_name":"Uncletopia | Frankfurt | 4 | All Maps | STV","players":[{"user_id":169,"name":"1914","steam_id":76561198257383813,"connected_time":5961000000000,"state":"active","ping":46},{"user_id":223,"name":"Jerry Cotton","steam_id":76561198089991130,"connected_time":1886000000000,"state":"active","ping":60},{"user_id":236,"name":"Anadddest","steam_id":76561198992528373,"connected_time":1111000000000,"state":"active","ping":69},{"user_id":243,"name":"Bobo","steam_id":76561198052308399,"connected_time":577000000000,"state":"active","ping":58},{"user_id":227,"name":"Spijonas","steam_id":76561198041950547,"connected_time":1776000000000,"state":"active","ping":75},{"user_id":231,"name":"WolfmanCZ","steam_id":76561199157141414,"connected_time":1664000000000,"state":"active","ping":63},{"user_id":246,"name":"KIVISD3N","steam_id":76561198070645759,"connected_time":488000000000,"state":"active","ping":76},{"user_id":228,"name":"Riky95","steam_id":76561198095289436,"connected_time":1772000000000,"state":"active","ping":45},{"user_id":245,"name":"WannaBread","steam_id":76561198007009855,"connected_time":521000000000,"state":"active","ping":83},{"user_id":257,"name":"david.klemen","steam_id":76561198382246222,"connected_time":67000000000,"state":"active","ping":99},{"user_id":255,"name":"Varsk","steam_id":76561198061398890,"connected_time":199000000000,"state":"active","ping":84},{"user_id":229,"name":"Rask","steam_id":76561198052934944,"connected_time":1714000000000,"state":"active","ping":97},{"user_id":242,"name":"Mr.Nannoldo","steam_id":76561198107373653,"connected_time":601000000000,"state":"active","ping":85},{"user_id":247,"name":"Doriian","steam_id":76561198071438810,"connected_time":479000000000,"state":"active","ping":79},{"user_id":253,"name":"Pvt. Prinny","steam_id":76561198030278562,"connected_time":245000000000,"state":"active","ping":57},{"user_id":179,"name":"Master Of Noob","steam_id":76561198217926783,"connected_time":5293000000000,"state":"active","ping":73},{"user_id":256,"name":"Eleren","steam_id":76561198123361225,"connected_time":150000000000,"state":"active","ping":60},{"user_id":200,"name":"Pvt Talbot","steam_id":76561198261001389,"connected_time":3502000000000,"state":"active","ping":60},{"user_id":250,"name":"stefanbejenari","steam_id":76561199466718294,"connected_time":410000000000,"state":"active","ping":82},{"user_id":233,"name":"Josh","steam_id":76561198274546904,"connected_time":1328000000000,"state":"active","ping":134},{"user_id":170,"name":"def","steam_id":76561198857396812,"connected_time":5784000000000,"state":"active","ping":47},{"user_id":232,"name":"vurtun","steam_id":76561198857395274,"connected_time":1643000000000,"state":"active","ping":50},{"user_id":217,"name":"BreadAcres","steam_id":76561198098217082,"connected_time":2494000000000,"state":"active","ping":54},{"user_id":235,"name":"kalash","steam_id":76561199489880580,"connected_time":1258000000000,"state":"active","ping":64}]},{"server_id":310,"name":"Uncletopia | Frankfurt | 5 | All Maps","name_short":"frk-5","host":"frk-1.de.uncletopia.com","port":27055,"enabled":true,"region":"eu","cc":"de","latitude":50.110924,"longitude":8.682127,"reserved":0,"last_update":"0001-01-01T00:00:00Z","name_a2s":"Uncletopia | Frankfurt | 5 | All Maps","protocol":17,"map":"cp_sunshine","folder":"tf","game":"Team Fortress","app_id":440,"player_count":24,"max_players":24,"Bots":0,"server_type":"Dedicated","server_os":"Linux","password":true,"vac":true,"version":"7961495","steam_id":85568392924504277,"keywords":["cp","nocrits","nodmgspread","uncletopia"],"game_id":440,"stv_port":27056,"stv_name":"Uncletopia | Frankfurt | 5 | All Maps | STV","players":[{"user_id":276,"name":"Welder","steam_id":76561198355300561,"connected_time":3429000000000,"state":"active","ping":73},{"user_id":282,"name":"halow","steam_id":76561198061505163,"connected_time":3171000000000,"state":"active","ping":91},{"user_id":286,"name":"andreaswack","steam_id":76561199050454503,"connected_time":3044000000000,"state":"active","ping":52},{"user_id":254,"name":"❤G a n K","steam_id":76561199125995565,"connected_time":4184000000000,"state":"active","ping":63},{"user_id":322,"name":"garymg","steam_id":76561198028368190,"connected_time":668000000000,"state":"active","ping":96},{"user_id":315,"name":"fénix","steam_id":76561198083199151,"connected_time":1011000000000,"state":"active","ping":60},{"user_id":308,"name":"Peskyplumber64","steam_id":76561198044458330,"connected_time":1603000000000,"state":"active","ping":72},{"user_id":309,"name":"mendako","steam_id":76561198295305088,"connected_time":1594000000000,"state":"active","ping":54},{"user_id":279,"name":"♂ Animan ♂ Studios ♂","steam_id":76561198308302932,"connected_time":3287000000000,"state":"active","ping":102},{"user_id":314,"name":"Tfuj Stary","steam_id":76561198126681452,"connected_time":1104000000000,"state":"active","ping":87},{"user_id":317,"name":"Lyell","steam_id":76561198350329389,"connected_time":916000000000,"state":"active","ping":82},{"user_id":328,"name":"Pasta lover","steam_id":76561199025518388,"connected_time":374000000000,"state":"active","ping":63},{"user_id":332,"name":".apo","steam_id":76561198003042239,"connected_time":227000000000,"state":"active","ping":50},{"user_id":331,"name":"wvwaxhtp","steam_id":76561198237038646,"connected_time":306000000000,"state":"active","ping":60},{"user_id":296,"name":"D0kai","steam_id":76561198389271720,"connected_time":2446000000000,"state":"active","ping":63},{"user_id":325,"name":"grrokr","steam_id":76561199003462804,"connected_time":540000000000,"state":"active","ping":84},{"user_id":320,"name":"eva.","steam_id":76561198054474684,"connected_time":807000000000,"state":"active","ping":78},{"user_id":292,"name":"The Empire Ant","steam_id":76561198082466790,"connected_time":2547000000000,"state":"active","ping":57},{"user_id":330,"name":"ye haw⚠","steam_id":76561199180176442,"connected_time":354000000000,"state":"active","ping":73},{"user_id":287,"name":"MEDiUM","steam_id":76561198112328561,"connected_time":2667000000000,"state":"active","ping":73},{"user_id":323,"name":"HUGO","steam_id":76561198317134996,"connected_time":608000000000,"state":"active","ping":80},{"user_id":333,"name":"beef estrogenoff","steam_id":76561198106455841,"connected_time":48000000000,"state":"active","ping":78},{"user_id":295,"name":"Penis Contortionist","steam_id":76561198073663784,"connected_time":2510000000000,"state":"active","ping":54},{"user_id":306,"name":"jge","steam_id":76561198123186387,"connected_time":1634000000000,"state":"active","ping":54}]},{"server_id":311,"name":"Uncletopia | Frankfurt | 6 | All Maps","name_short":"frk-6","host":"frk-1.de.uncletopia.com","port":27065,"enabled":true,"region":"eu","cc":"de","latitude":50.110924,"longitude":8.682127,"reserved":0,"last_update":"0001-01-01T00:00:00Z","name_a2s":"Uncletopia | Frankfurt | 6 | All Maps","protocol":17,"map":"cp_sunshine","folder":"tf","game":"Team Fortress","app_id":440,"player_count":24,"max_players":24,"Bots":0,"server_type":"Dedicated","server_os":"Linux","password":true,"vac":true,"version":"7961495","steam_id":85568392924504278,"keywords":["cp","nocrits","nodmgspread","uncletopia"],"game_id":440,"stv_port":27066,"stv_name":"Uncletopia | Frankfurt | 6 | All Maps | STV","players":[{"user_id":289,"name":"FUKAYU","steam_id":76561198380484033,"connected_time":611000000000,"state":"active","ping":54},{"user_id":297,"name":"Reichskanzlerl✙","steam_id":76561199010757888,"connected_time":195000000000,"state":"active","ping":69},{"user_id":278,"name":"gug real","steam_id":76561198311044984,"connected_time":1204000000000,"state":"active","ping":62},{"user_id":277,"name":"fluffy474","steam_id":76561198375486320,"connected_time":1230000000000,"state":"active","ping":67},{"user_id":271,"name":"Fandovec03","steam_id":76561198252567650,"connected_time":1320000000000,"state":"active","ping":53},{"user_id":291,"name":"ClisdLocne","steam_id":76561198997467741,"connected_time":341000000000,"state":"active","ping":96},{"user_id":198,"name":"gug 4","steam_id":76561198121434692,"connected_time":5626000000000,"state":"active","ping":159},{"user_id":145,"name":"cotroD","steam_id":76561198130063938,"connected_time":9675000000000,"state":"active","ping":100},{"user_id":281,"name":"欠税哥","steam_id":76561199118856462,"connected_time":1018000000000,"state":"active","ping":60},{"user_id":292,"name":"femboy enjoyer","steam_id":76561198372077936,"connected_time":306000000000,"state":"active","ping":80},{"user_id":296,"name":"Iron Maiden Eddie (Real)☆","steam_id":76561198115252607,"connected_time":259000000000,"state":"active","ping":96},{"user_id":298,"name":"jù xiē","steam_id":76561198096189399,"connected_time":88000000000,"state":"active","ping":50},{"user_id":197,"name":"bodys","steam_id":76561198111134021,"connected_time":5674000000000,"state":"active","ping":83},{"user_id":274,"name":"collin","steam_id":76561198067030681,"connected_time":1275000000000,"state":"active","ping":61},{"user_id":293,"name":"dakkafex","steam_id":76561198020254869,"connected_time":289000000000,"state":"active","ping":48},{"user_id":285,"name":"TJ1212","steam_id":76561199013575313,"connected_time":960000000000,"state":"active","ping":63},{"user_id":162,"name":"goga","steam_id":76561198280507478,"connected_time":8663000000000,"state":"active","ping":54},{"user_id":288,"name":"Deckard","steam_id":76561198004704647,"connected_time":707000000000,"state":"active","ping":79},{"user_id":250,"name":"gug","steam_id":76561198436817109,"connected_time":2261000000000,"state":"active","ping":65},{"user_id":232,"name":"goga 2","steam_id":76561198163615254,"connected_time":2799000000000,"state":"active","ping":58},{"user_id":294,"name":"twpsyn","steam_id":76561198057121917,"connected_time":285000000000,"state":"active","ping":72},{"user_id":286,"name":"Wattoz","steam_id":76561198127779511,"connected_time":954000000000,"state":"active","ping":70},{"user_id":295,"name":"wicked","steam_id":76561198164376035,"connected_time":274000000000,"state":"active","ping":70},{"user_id":273,"name":"m909","steam_id":76561198279621400,"connected_time":1307000000000,"state":"active","ping":88}]},{"server_id":23,"name":"Uncletopia | Frankfurt | 7 | Stopwatch Beta","name_short":"frk-7","host":"frk-1.de.uncletopia.com","port":27075,"enabled":true,"region":"eu","cc":"de","latitude":50.110924,"longitude":8.682127,"reserved":0,"last_update":"0001-01-01T00:00:00Z","name_a2s":"Uncletopia | Frankfurt | 7 | Stopwatch Beta","protocol":17,"map":"workshop/koth_clearcut_b15.ugc2107050255","folder":"tf","game":"Team Fortress","app_id":440,"player_count":0,"max_players":24,"Bots":0,"server_type":"Dedicated","server_os":"Linux","password":true,"vac":true,"version":"7961495","steam_id":85568392924742827,"keywords":["cp","nocrits","nodmgspread","uncletopia"],"game_id":440,"stv_port":27076,"stv_name":"Uncletopia | Frankfurt | 7 | Stopwatch Beta | STV","players":null},{"server_id":24,"name":"Uncletopia | Frankfurt | 8 | Community","name_short":"frk-8","host":"frk-1.de.uncletopia.com","port":27085,"enabled":true,"region":"eu","cc":"de","latitude":50.110924,"longitude":8.682127,"reserved":0,"last_update":"0001-01-01T00:00:00Z","name_a2s":"Uncletopia | Frankfurt | 8 | Community","protocol":17,"map":"workshop/cp_kalinka_rc6a.ugc1272700588","folder":"tf","game":"Team Fortress","app_id":440,"player_count":0,"max_players":24,"Bots":0,"server_type":"Dedicated","server_os":"Linux","password":true,"vac":true,"version":"7961495","steam_id":85568392924742828,"keywords":["cp","nocrits","nodmgspread","uncletopia"],"game_id":440,"stv_port":27086,"stv_name":"Uncletopia | Frankfurt | 8 | Community | STV","players":null},{"server_id":202,"name":"Uncletopia | Hong Kong | 1 | All Maps","name_short":"hgk-1","host":"hgk-1.hk.uncletopia.com","port":27015,"enabled":true,"region":"asia","cc":"hk","latitude":22.302711,"longitude":114.177216,"reserved":0,"last_update":"0001-01-01T00:00:00Z","name_a2s":"","protocol":0,"map":"","folder":"","game":"","app_id":0,"player_count":0,"max_players":0,"Bots":0,"server_type":"","server_os":"","password":false,"vac":false,"version":"","steam_id":0,"keywords":null,"game_id":0,"stv_port":0,"stv_name":"","players":null},{"server_id":1,"name":"Uncletopia | Los Angeles | 1 | All Maps","name_short":"lax-1","host":"lax-1.us.uncletopia.com","port":27015,"enabled":true,"region":"us-west","cc":"us","latitude":33.94279,"longitude":-118.41004,"reserved":0,"last_update":"0001-01-01T00:00:00Z","name_a2s":"Uncletopia | Los Angeles | 1 | All Maps","protocol":17,"map":"pl_snowycoast","folder":"tf","game":"Team Fortress","app_id":440,"player_count":0,"max_players":24,"Bots":0,"server_type":"Dedicated","server_os":"Linux","password":true,"vac":true,"version":"7961495","steam_id":85568392924469991,"keywords":["nocrits","nodmgspread","payload","uncletopia"],"game_id":440,"stv_port":27016,"stv_name":"Uncletopia | Los Angeles | 1 | All Maps | STV","players":null},{"server_id":112,"name":"Uncletopia | Los Angeles | 2 | All Maps","name_short":"lax-2","host":"lax-1.us.uncletopia.com","port":27025,"enabled":true,"region":"us-west","cc":"us","latitude":33.94279,"longitude":-118.41004,"reserved":0,"last_update":"0001-01-01T00:00:00Z","name_a2s":"Uncletopia | Los Angeles | 2 | All Maps","protocol":17,"map":"pl_borneo","folder":"tf","game":"Team Fortress","app_id":440,"player_count":0,"max_players":24,"Bots":0,"server_type":"Dedicated","server_os":"Linux","password":true,"vac":true,"version":"7961495","steam_id":85568392924469992,"keywords":["nocrits","nodmgspread","payload","uncletopia"],"game_id":440,"stv_port":27026,"stv_name":"Uncletopia | Los Angeles | 2 | All Maps | STV","players":null},{"server_id":324,"name":"Uncletopia | Los Angeles | 3 | All Maps","name_short":"lax-3","host":"lax-1.us.uncletopia.com","port":27035,"enabled":true,"region":"us-west","cc":"us","latitude":33.94279,"longitude":-118.41004,"reserved":0,"last_update":"0001-01-01T00:00:00Z","name_a2s":"Uncletopia | Los Angeles | 3 | All Maps","protocol":17,"map":"pl_badwater","folder":"tf","game":"Team Fortress","app_id":440,"player_count":0,"max_players":24,"Bots":0,"server_type":"Dedicated","server_os":"Linux","password":true,"vac":true,"version":"7961495","steam_id":85568392924510198,"keywords":["nocrits","nodmgspread","payload","uncletopia"],"game_id":440,"stv_port":27036,"stv_name":"Uncletopia | Los Angeles | 3 | All Maps | STV","players":null},{"server_id":25,"name":"Uncletopia | Los Angeles | 4 | Stopwatch Beta","name_short":"lax-4","host":"lax-1.us.uncletopia.com","port":27045,"enabled":true,"region":"us-west","cc":"us","latitude":33.94279,"longitude":-118.41004,"reserved":0,"last_update":"0001-01-01T00:00:00Z","name_a2s":"Uncletopia | Los Angeles | 4 | Stopwatch Beta","protocol":17,"map":"pl_upward","folder":"tf","game":"Team Fortress","app_id":440,"player_count":0,"max_players":24,"Bots":0,"server_type":"Dedicated","server_os":"Linux","password":true,"vac":true,"version":"7961495","steam_id":85568392924510199,"keywords":["nocrits","nodmgspread","payload","uncletopia"],"game_id":440,"stv_port":27046,"stv_name":"Uncletopia | Los Angeles | 4 | Stopwatch Beta | STV","players":null},{"server_id":11,"name":"Uncletopia | London | 1 | All Maps","name_short":"lon-1","host":"lon-1.uk.uncletopia.com","port":27015,"enabled":true,"region":"eu","cc":"gb","latitude":51.509865,"longitude":-0.118092,"reserved":0,"last_update":"0001-01-01T00:00:00Z","name_a2s":"Uncletopia | London | 1 | All Maps","protocol":17,"map":"pl_badwater","folder":"tf","game":"Team Fortress","app_id":440,"player_count":24,"max_players":24,"Bots":0,"server_type":"Dedicated","server_os":"Linux","password":true,"vac":true,"version":"7961495","steam_id":85568392924367362,"keywords":["nocrits","nodmgspread","payload","uncletopia"],"game_id":440,"stv_port":27016,"stv_name":"Uncletopia | London | 1 | All Maps | STV","players":[{"user_id":209,"name":"Fwebbie","steam_id":76561199006875621,"connected_time":3305000000000,"state":"active","ping":50},{"user_id":267,"name":"Aeglos","steam_id":76561198248698294,"connected_time":164000000000,"state":"active","ping":69},{"user_id":227,"name":"Exgone","steam_id":76561198296655773,"connected_time":2126000000000,"state":"active","ping":85},{"user_id":236,"name":"็McTK","steam_id":76561199384193338,"connected_time":1723000000000,"state":"active","ping":67},{"user_id":265,"name":"retaW","steam_id":76561198308097092,"connected_time":276000000000,"state":"active","ping":134},{"user_id":261,"name":"ƃuɐʇsnɯ","steam_id":76561198235739036,"connected_time":905000000000,"state":"active","ping":75},{"user_id":262,"name":"None of that $9.99 bullshit","steam_id":76561198116169903,"connected_time":809000000000,"state":"active","ping":149},{"user_id":212,"name":"Average Medic Enjoyer","steam_id":76561198048867302,"connected_time":3011000000000,"state":"active","ping":65},{"user_id":242,"name":"Mike Okitches","steam_id":76561198046597584,"connected_time":1226000000000,"state":"active","ping":45},{"user_id":223,"name":"png.png","steam_id":76561198444446521,"connected_time":2578000000000,"state":"active","ping":113},{"user_id":264,"name":"ein'd","steam_id":76561198152162834,"connected_time":303000000000,"state":"active","ping":95},{"user_id":268,"name":"impossible whopper eater","steam_id":76561198058641805,"connected_time":18000000000,"state":"spawning","ping":55},{"user_id":259,"name":"D D","steam_id":76561198257836694,"connected_time":1078000000000,"state":"active","ping":35},{"user_id":263,"name":"ArtaKir","steam_id":76561198291746440,"connected_time":755000000000,"state":"active","ping":89},{"user_id":189,"name":"unconditional love","steam_id":76561199026097466,"connected_time":4802000000000,"state":"active","ping":74},{"user_id":213,"name":"sloppy transgirl toppy","steam_id":76561198057092208,"connected_time":3006000000000,"state":"active","ping":75},{"user_id":232,"name":"Max Power","steam_id":76561198019269089,"connected_time":1999000000000,"state":"active","ping":60},{"user_id":246,"name":"Oak","steam_id":76561198067315672,"connected_time":1193000000000,"state":"active","ping":54},{"user_id":266,"name":"LOBZIK","steam_id":76561198114830120,"connected_time":230000000000,"state":"active","ping":80},{"user_id":247,"name":"YARrICk.«+»","steam_id":76561197990126485,"connected_time":1178000000000,"state":"active","ping":62},{"user_id":204,"name":"finbar","steam_id":76561198056812396,"connected_time":3723000000000,"state":"active","ping":87},{"user_id":254,"name":"SketchyEtchaSketch","steam_id":76561198143747486,"connected_time":1140000000000,"state":"active","ping":175},{"user_id":235,"name":"Dirty Harry","steam_id":76561198813079990,"connected_time":1882000000000,"state":"active","ping":72},{"user_id":249,"name":"Sir Cauterize","steam_id":76561198047079422,"connected_time":1174000000000,"state":"active","ping":50}]},{"server_id":114,"name":"Uncletopia | London | 2 | All Maps","name_short":"lon-2","host":"lon-1.uk.uncletopia.com","port":27025,"enabled":true,"region":"eu","cc":"gb","latitude":51.509865,"longitude":-0.118092,"reserved":0,"last_update":"0001-01-01T00:00:00Z","name_a2s":"Uncletopia | London | 2 | All Maps","protocol":17,"map":"pl_thundermountain","folder":"tf","game":"Team Fortress","app_id":440,"player_count":24,"max_players":24,"Bots":0,"server_type":"Dedicated","server_os":"Linux","password":true,"vac":true,"version":"7961495","steam_id":85568392924470941,"keywords":["nocrits","nodmgspread","payload","uncletopia"],"game_id":440,"stv_port":27026,"stv_name":"Uncletopia | London | 2 | All Maps | STV","players":[{"user_id":263,"name":"Epic Meal Time","steam_id":76561198178032977,"connected_time":1273000000000,"state":"active","ping":49},{"user_id":276,"name":"Ilismo","steam_id":76561198148404495,"connected_time":843000000000,"state":"active","ping":78},{"user_id":248,"name":"CrowbarWarrior","steam_id":76561198044077015,"connected_time":1638000000000,"state":"active","ping":71},{"user_id":207,"name":"TF2 Heavy taking a shit","steam_id":76561199128282369,"connected_time":3876000000000,"state":"active","ping":70},{"user_id":283,"name":"brtaba","steam_id":76561198796334790,"connected_time":107000000000,"state":"active","ping":70},{"user_id":271,"name":"cult","steam_id":76561198188647690,"connected_time":1090000000000,"state":"active","ping":75},{"user_id":274,"name":"insane, deranged possibly menta","steam_id":76561198139729249,"connected_time":916000000000,"state":"active","ping":135},{"user_id":249,"name":"Nag","steam_id":76561197970488206,"connected_time":1620000000000,"state":"active","ping":69},{"user_id":279,"name":"le unfunny dog","steam_id":76561198415020571,"connected_time":825000000000,"state":"active","ping":75},{"user_id":250,"name":"Poohcho","steam_id":76561198048374460,"connected_time":1615000000000,"state":"active","ping":88},{"user_id":266,"name":"Michael","steam_id":76561198003146906,"connected_time":1236000000000,"state":"active","ping":47},{"user_id":267,"name":"mod300000","steam_id":76561199166823105,"connected_time":1229000000000,"state":"active","ping":51},{"user_id":268,"name":"Mish","steam_id":76561198302973642,"connected_time":1213000000000,"state":"active","ping":252},{"user_id":282,"name":"Kylute","steam_id":76561198447504417,"connected_time":383000000000,"state":"active","ping":45},{"user_id":284,"name":"Breizbuc","steam_id":76561198118220633,"connected_time":104000000000,"state":"active","ping":68},{"user_id":285,"name":"Sluge","steam_id":76561198043725693,"connected_time":83000000000,"state":"active","ping":74},{"user_id":273,"name":"Rare bulldog owner","steam_id":76561199407941086,"connected_time":993000000000,"state":"active","ping":74},{"user_id":255,"name":"F4.exe","steam_id":76561198278822807,"connected_time":1562000000000,"state":"active","ping":66},{"user_id":280,"name":"highest noon","steam_id":76561199103959197,"connected_time":816000000000,"state":"active","ping":100},{"user_id":286,"name":"Jack","steam_id":76561198325505238,"connected_time":58000000000,"state":"active","ping":88},{"user_id":241,"name":"Bob Sacamano","steam_id":76561198085610701,"connected_time":2321000000000,"state":"active","ping":99},{"user_id":237,"name":"Bingo Bango Bongo Useless Ponko","steam_id":76561198116667174,"connected_time":2468000000000,"state":"active","ping":70},{"user_id":260,"name":"silicon based life form","steam_id":76561199127121346,"connected_time":1517000000000,"state":"active","ping":57},{"user_id":281,"name":"LemonLeCitron","steam_id":76561198215545267,"connected_time":660000000000,"state":"active","ping":89}]},{"server_id":320,"name":"Uncletopia | London | 3 | All Maps","name_short":"lon-3","host":"lon-1.uk.uncletopia.com","port":27035,"enabled":true,"region":"eu","cc":"gb","latitude":51.509865,"longitude":-0.118092,"reserved":0,"last_update":"0001-01-01T00:00:00Z","name_a2s":"Uncletopia | London | 3 | All Maps","protocol":17,"map":"pl_badwater","folder":"tf","game":"Team Fortress","app_id":440,"player_count":23,"max_players":24,"Bots":0,"server_type":"Dedicated","server_os":"Linux","password":true,"vac":true,"version":"7961495","steam_id":85568392924510192,"keywords":["nocrits","nodmgspread","payload","uncletopia"],"game_id":440,"stv_port":27036,"stv_name":"Uncletopia | London | 3 | All Maps | STV","players":[{"user_id":181,"name":"Will Smiths Right Hand","steam_id":76561198342189930,"connected_time":577000000000,"state":"active","ping":71},{"user_id":138,"name":"s a i","steam_id":76561197970379754,"connected_time":5187000000000,"state":"active","ping":64},{"user_id":196,"name":"105","steam_id":76561198256619964,"connected_time":53000000000,"state":"active","ping":79},{"user_id":155,"name":"ksg","steam_id":76561198042894236,"connected_time":3621000000000,"state":"active","ping":75},{"user_id":182,"name":"WiiSportKing","steam_id":76561198114139081,"connected_time":482000000000,"state":"active","ping":56},{"user_id":116,"name":"hmscole09","steam_id":76561198811362788,"connected_time":6516000000000,"state":"active","ping":49},{"user_id":189,"name":"Gibus enjoyer","steam_id":76561198843396821,"connected_time":342000000000,"state":"active","ping":93},{"user_id":193,"name":"ROX","steam_id":76561198272289320,"connected_time":217000000000,"state":"active","ping":63},{"user_id":185,"name":"любитель джазмас","steam_id":76561198163244605,"connected_time":415000000000,"state":"active","ping":81},{"user_id":137,"name":"Lord","steam_id":76561198241305816,"connected_time":5280000000000,"state":"active","ping":116},{"user_id":179,"name":"brk559","steam_id":76561199095687349,"connected_time":1319000000000,"state":"active","ping":94},{"user_id":49,"name":"GetCremeEgged","steam_id":76561199123415870,"connected_time":11797000000000,"state":"active","ping":58},{"user_id":186,"name":"sushii","steam_id":76561198297987372,"connected_time":384000000000,"state":"active","ping":86},{"user_id":133,"name":"PyrOwO","steam_id":76561198134378108,"connected_time":5575000000000,"state":"active","ping":81},{"user_id":187,"name":"Fridge","steam_id":76561198071665589,"connected_time":375000000000,"state":"active","ping":99},{"user_id":134,"name":"install gentoo","steam_id":76561198185257982,"connected_time":5463000000000,"state":"active","ping":77},{"user_id":192,"name":"Golden Boy","steam_id":76561198049072159,"connected_time":241000000000,"state":"active","ping":58},{"user_id":195,"name":"Bruh","steam_id":76561198969080049,"connected_time":68000000000,"state":"active","ping":104},{"user_id":178,"name":"sparcoro","steam_id":76561198986010546,"connected_time":1949000000000,"state":"active","ping":70},{"user_id":180,"name":"Paint","steam_id":76561198166823873,"connected_time":981000000000,"state":"active","ping":55},{"user_id":190,"name":"red guy in agony","steam_id":76561198031573426,"connected_time":341000000000,"state":"active","ping":71},{"user_id":167,"name":"ScudFXX","steam_id":76561198136603848,"connected_time":2657000000000,"state":"active","ping":73},{"user_id":191,"name":"Bisago?","steam_id":76561198181794353,"connected_time":330000000000,"state":"active","ping":41}]},{"server_id":321,"name":"Uncletopia | London | 4 | All Maps","name_short":"lon-4","host":"lon-1.uk.uncletopia.com","port":27045,"enabled":true,"region":"eu","cc":"gb","latitude":51.509865,"longitude":-0.118092,"reserved":0,"last_update":"0001-01-01T00:00:00Z","name_a2s":"Uncletopia | London | 4 | All Maps","protocol":17,"map":"ctf_2fort","folder":"tf","game":"Team Fortress","app_id":440,"player_count":1,"max_players":24,"Bots":0,"server_type":"Dedicated","server_os":"Linux","password":true,"vac":true,"version":"7961495","steam_id":85568392924510193,"keywords":["ctf","nocrits","nodmgspread","uncletopia"],"game_id":440,"stv_port":27046,"stv_name":"Uncletopia | London | 4 | All Maps | STV","players":[{"user_id":114,"name":"pokemonsuper9","steam_id":76561198120530545,"connected_time":759000000000,"state":"active","ping":55}]},{"server_id":21,"name":"Uncletopia | London | 5 | All Maps","name_short":"lon-5","host":"lon-1.uk.uncletopia.com","port":27055,"enabled":true,"region":"eu","cc":"gb","latitude":51.509865,"longitude":-0.118092,"reserved":0,"last_update":"0001-01-01T00:00:00Z","name_a2s":"Uncletopia | London | 5 | All Maps","protocol":17,"map":"pl_pier","folder":"tf","game":"Team Fortress","app_id":440,"player_count":24,"max_players":24,"Bots":0,"server_type":"Dedicated","server_os":"Linux","password":true,"vac":true,"version":"7961495","steam_id":85568392924742829,"keywords":["nocrits","nodmgspread","payload","uncletopia"],"game_id":440,"stv_port":27056,"stv_name":"Uncletopia | London | 5 | All Maps | STV","players":[{"user_id":180,"name":"cuddle","steam_id":76561198805181599,"connected_time":250000000000,"state":"active","ping":52},{"user_id":185,"name":"Abby","steam_id":76561198170528489,"connected_time":43000000000,"state":"active","ping":66},{"user_id":165,"name":"Cap","steam_id":76561197993692648,"connected_time":1144000000000,"state":"active","ping":99},{"user_id":176,"name":"bilbo","steam_id":76561198074118638,"connected_time":311000000000,"state":"active","ping":63},{"user_id":177,"name":"After8","steam_id":76561198090750865,"connected_time":290000000000,"state":"active","ping":75},{"user_id":86,"name":"hipster_doofus","steam_id":76561197970902697,"connected_time":6847000000000,"state":"active","ping":63},{"user_id":170,"name":"[T]aKer","steam_id":76561198001778013,"connected_time":667000000000,"state":"active","ping":47},{"user_id":174,"name":"Jørn","steam_id":76561199073257952,"connected_time":449000000000,"state":"active","ping":70},{"user_id":132,"name":"Hexagon","steam_id":76561198151205758,"connected_time":3563000000000,"state":"active","ping":62},{"user_id":178,"name":"randompixel","steam_id":76561198003941207,"connected_time":265000000000,"state":"active","ping":60},{"user_id":147,"name":"ash","steam_id":76561198004728744,"connected_time":2487000000000,"state":"active","ping":59},{"user_id":162,"name":"FNF","steam_id":76561199151422826,"connected_time":1453000000000,"state":"active","ping":112},{"user_id":130,"name":"blazeeight","steam_id":76561198159456502,"connected_time":3594000000000,"state":"active","ping":121},{"user_id":181,"name":"HaylingZar","steam_id":76561198053559897,"connected_time":231000000000,"state":"active","ping":64},{"user_id":154,"name":"Rohnus","steam_id":76561198074049934,"connected_time":2151000000000,"state":"active","ping":59},{"user_id":113,"name":"RockFrenzy","steam_id":76561198005428050,"connected_time":5230000000000,"state":"active","ping":74},{"user_id":131,"name":"EagleFire","steam_id":76561198352938403,"connected_time":3586000000000,"state":"active","ping":120},{"user_id":182,"name":"Pingus","steam_id":76561198164880756,"connected_time":230000000000,"state":"active","ping":75},{"user_id":157,"name":"gibb (official)","steam_id":76561198074097655,"connected_time":1813000000000,"state":"active","ping":31},{"user_id":148,"name":"Buddy","steam_id":76561198050185582,"connected_time":2480000000000,"state":"active","ping":57},{"user_id":156,"name":"Mr. Mundy","steam_id":76561198132008918,"connected_time":1826000000000,"state":"active","ping":92},{"user_id":186,"name":"Kapitan Polska","steam_id":76561197968069413,"connected_time":36000000000,"state":"active","ping":89},{"user_id":173,"name":"void_tech_1234","steam_id":76561198245254406,"connected_time":463000000000,"state":"active","ping":64},{"user_id":179,"name":"PrinsJohan","steam_id":76561198827496915,"connected_time":258000000000,"state":"active","ping":82}]},{"server_id":22,"name":"Uncletopia | London | 6 | All Maps","name_short":"lon-6","host":"lon-1.uk.uncletopia.com","port":27065,"enabled":true,"region":"eu","cc":"gb","latitude":51.509865,"longitude":-0.118092,"reserved":0,"last_update":"0001-01-01T00:00:00Z","name_a2s":"Uncletopia | London | 6 | All Maps","protocol":17,"map":"pl_thundermountain","folder":"tf","game":"Team Fortress","app_id":440,"player_count":23,"max_players":24,"Bots":0,"server_type":"Dedicated","server_os":"Linux","password":true,"vac":true,"version":"7961495","steam_id":85568392924742830,"keywords":["nocrits","nodmgspread","payload","uncletopia"],"game_id":440,"stv_port":27066,"stv_name":"Uncletopia | London | 6 | All Maps | STV","players":[{"user_id":60,"name":"pardner","steam_id":76561198451471161,"connected_time":4603000000000,"state":"active","ping":48},{"user_id":121,"name":"Day 15","steam_id":76561198024438352,"connected_time":757000000000,"state":"active","ping":40},{"user_id":125,"name":"Temperance","steam_id":76561198446955878,"connected_time":600000000000,"state":"active","ping":57},{"user_id":85,"name":"Rin-Nakaret","steam_id":76561197971051188,"connected_time":2953000000000,"state":"active","ping":61},{"user_id":130,"name":"CEO of Racism","steam_id":76561198042317958,"connected_time":156000000000,"state":"active","ping":73},{"user_id":114,"name":"Joe","steam_id":76561198061717026,"connected_time":1435000000000,"state":"active","ping":45},{"user_id":112,"name":"rag","steam_id":76561198083505031,"connected_time":1970000000000,"state":"active","ping":48},{"user_id":122,"name":"Relon Frolik","steam_id":76561198106492874,"connected_time":699000000000,"state":"active","ping":74},{"user_id":87,"name":"Kitoglav Kito","steam_id":76561198359912140,"connected_time":2925000000000,"state":"active","ping":88},{"user_id":123,"name":"orange-ish","steam_id":76561198374834340,"connected_time":689000000000,"state":"active","ping":73},{"user_id":31,"name":"xqc","steam_id":76561198145465595,"connected_time":5854000000000,"state":"active","ping":43},{"user_id":49,"name":"sareena","steam_id":76561198810194062,"connected_time":5485000000000,"state":"active","ping":71},{"user_id":124,"name":"GoatLord1","steam_id":76561198157964544,"connected_time":678000000000,"state":"active","ping":57},{"user_id":35,"name":"georgeiscool3","steam_id":76561199116151412,"connected_time":5790000000000,"state":"active","ping":70},{"user_id":96,"name":"nobodyy","steam_id":76561198027735766,"connected_time":2747000000000,"state":"active","ping":62},{"user_id":133,"name":"no u","steam_id":76561198991595320,"connected_time":54000000000,"state":"active","ping":65},{"user_id":105,"name":"Duskie","steam_id":76561198036695121,"connected_time":2438000000000,"state":"active","ping":58},{"user_id":131,"name":"Wuffington","steam_id":76561198033762881,"connected_time":84000000000,"state":"active","ping":77},{"user_id":117,"name":"ryanocerous888","steam_id":76561198374204234,"connected_time":1072000000000,"state":"active","ping":79},{"user_id":129,"name":"MR ASSMAN","steam_id":76561198206227241,"connected_time":501000000000,"state":"active","ping":68},{"user_id":119,"name":"gaming","steam_id":76561198032221882,"connected_time":1071000000000,"state":"active","ping":52},{"user_id":91,"name":"Pomson 6000","steam_id":76561198344588858,"connected_time":2875000000000,"state":"active","ping":55},{"user_id":100,"name":"Pineappleman","steam_id":76561199074651648,"connected_time":2597000000000,"state":"active","ping":50}]},{"server_id":40,"name":"Uncletopia | London | 7 | No Payload","name_short":"lon-7","host":"lon-1.uk.uncletopia.com","port":27075,"enabled":true,"region":"eu","cc":"gb","latitude":51.509865,"longitude":-0.118092,"reserved":0,"last_update":"0001-01-01T00:00:00Z","name_a2s":"Uncletopia | London | 7 | No Payload","protocol":17,"map":"cp_steel","folder":"tf","game":"Team Fortress","app_id":440,"player_count":24,"max_players":24,"Bots":0,"server_type":"Dedicated","server_os":"Linux","password":true,"vac":true,"version":"7961495","steam_id":85568392924964314,"keywords":["cp","nocrits","nodmgspread","uncletopia"],"game_id":440,"stv_port":27076,"stv_name":"Uncletopia | London | 7 | No Payload | STV","players":[{"user_id":59,"name":"Goofy","steam_id":76561198009992071,"connected_time":985000000000,"state":"active","ping":75},{"user_id":66,"name":"Brot","steam_id":76561197968495616,"connected_time":776000000000,"state":"active","ping":80},{"user_id":55,"name":"Shynii","steam_id":76561198194682105,"connected_time":1129000000000,"state":"active","ping":60},{"user_id":16,"name":"I have","steam_id":76561199184873889,"connected_time":3164000000000,"state":"active","ping":62},{"user_id":68,"name":"rets","steam_id":76561198061551392,"connected_time":691000000000,"state":"active","ping":61},{"user_id":67,"name":"Mr.Pwesident","steam_id":76561198058114703,"connected_time":728000000000,"state":"active","ping":143},{"user_id":22,"name":"boring ahh engineering","steam_id":76561198973069177,"connected_time":2572000000000,"state":"active","ping":60},{"user_id":20,"name":"bob","steam_id":76561198353212719,"connected_time":2817000000000,"state":"active","ping":46},{"user_id":43,"name":"Jeffrey Harpen","steam_id":76561199073314677,"connected_time":1751000000000,"state":"active","ping":80},{"user_id":23,"name":"xX_Veritas_Lux_Mea1337_Xx","steam_id":76561198350754203,"connected_time":2533000000000,"state":"active","ping":71},{"user_id":72,"name":"󠁳⁧⁧ Kruthal","steam_id":76561198245726582,"connected_time":376000000000,"state":"active","ping":89},{"user_id":74,"name":"The☆Cops","steam_id":76561198146358073,"connected_time":213000000000,"state":"active","ping":107},{"user_id":63,"name":"mixxxa_french","steam_id":76561198085098243,"connected_time":882000000000,"state":"active","ping":119},{"user_id":31,"name":"gr3821","steam_id":76561198091531010,"connected_time":1964000000000,"state":"active","ping":45},{"user_id":64,"name":"Klaun","steam_id":76561198077827849,"connected_time":812000000000,"state":"active","ping":77},{"user_id":56,"name":"Dezarys","steam_id":76561198039880034,"connected_time":1126000000000,"state":"active","ping":77},{"user_id":57,"name":"Wulpenstein","steam_id":76561198060873866,"connected_time":1120000000000,"state":"active","ping":49},{"user_id":35,"name":"Suspicious Viktor","steam_id":76561198136496249,"connected_time":1902000000000,"state":"active","ping":69},{"user_id":70,"name":"Tort","steam_id":76561198329646769,"connected_time":578000000000,"state":"active","ping":63},{"user_id":71,"name":"Lessoz","steam_id":76561199211572036,"connected_time":519000000000,"state":"active","ping":90},{"user_id":73,"name":"kallerannar","steam_id":76561199095701143,"connected_time":325000000000,"state":"active","ping":93},{"user_id":50,"name":"Twingo","steam_id":76561198207042812,"connected_time":1464000000000,"state":"active","ping":75},{"user_id":48,"name":"Pirkage #transrights","steam_id":76561198323002691,"connected_time":1604000000000,"state":"active","ping":74},{"user_id":58,"name":"salmon15","steam_id":76561198838807521,"connected_time":1075000000000,"state":"active","ping":109}]},{"server_id":41,"name":"Uncletopia | London | 8 | Community","name_short":"lon-8","host":"lon-1.uk.uncletopia.com","port":27085,"enabled":true,"region":"eu","cc":"gb","latitude":51.509865,"longitude":-0.118092,"reserved":0,"last_update":"0001-01-01T00:00:00Z","name_a2s":"Uncletopia | London | 8 | Community","protocol":17,"map":"workshop/cp_villa_b19.ugc2113052569","folder":"tf","game":"Team Fortress","app_id":440,"player_count":0,"max_players":24,"Bots":0,"server_type":"Dedicated","server_os":"Linux","password":true,"vac":true,"version":"7961495","steam_id":85568392924964315,"keywords":["cp","nocrits","nodmgspread","uncletopia"],"game_id":440,"stv_port":27086,"stv_name":"Uncletopia | London | 8 | Community | STV","players":null},{"server_id":300,"name":"Uncletopia | Montréal | 1 | All Maps","name_short":"mtl-1","host":"mtl-1.ca.uncletopia.com","port":27015,"enabled":true,"region":"us-east","cc":"ca","latitude":45.50889,"longitude":-73.56167,"reserved":0,"last_update":"0001-01-01T00:00:00Z","name_a2s":"Uncletopia | Montréal | 1 | All Maps","protocol":17,"map":"pl_swiftwater_final1","folder":"tf","game":"Team Fortress","app_id":440,"player_count":0,"max_players":24,"Bots":0,"server_type":"Dedicated","server_os":"Linux","password":true,"vac":true,"version":"7961495","steam_id":85568392924500087,"keywords":["nocrits","nodmgspread","payload","uncletopia"],"game_id":440,"stv_port":27016,"stv_name":"Uncletopia | Montréal | 1 | All Maps | STV","players":null},{"server_id":301,"name":"Uncletopia | Montréal | 2 | All Maps","name_short":"mtl-2","host":"mtl-1.ca.uncletopia.com","port":27025,"enabled":true,"region":"us-east","cc":"ca","latitude":45.50889,"longitude":-73.56167,"reserved":0,"last_update":"0001-01-01T00:00:00Z","name_a2s":"Uncletopia | Montréal | 2 | All Maps","protocol":17,"map":"cp_dustbowl","folder":"tf","game":"Team Fortress","app_id":440,"player_count":0,"max_players":24,"Bots":0,"server_type":"Dedicated","server_os":"Linux","password":true,"vac":true,"version":"7961495","steam_id":85568392924500088,"keywords":["cp","nocrits","nodmgspread","uncletopia"],"game_id":440,"stv_port":27026,"stv_name":"Uncletopia | Montréal | 2 | All Maps | STV","players":null},{"server_id":302,"name":"Uncletopia | Montréal | 3 | All Maps","name_short":"mtl-3","host":"mtl-1.ca.uncletopia.com","port":27035,"enabled":true,"region":"us-east","cc":"ca","latitude":45.50889,"longitude":-73.56167,"reserved":0,"last_update":"0001-01-01T00:00:00Z","name_a2s":"Uncletopia | Montréal | 3 | All Maps","protocol":17,"map":"koth_cascade","folder":"tf","game":"Team Fortress","app_id":440,"player_count":0,"max_players":24,"Bots":0,"server_type":"Dedicated","server_os":"Linux","password":true,"vac":true,"version":"7961495","steam_id":85568392924500089,"keywords":["cp","nocrits","nodmgspread","uncletopia"],"game_id":440,"stv_port":27036,"stv_name":"Uncletopia | Montréal | 3 | All Maps | STV","players":null},{"server_id":303,"name":"Uncletopia | Montréal | 4 | No Payload","name_short":"mtl-4","host":"mtl-1.ca.uncletopia.com","port":27045,"enabled":true,"region":"us-east","cc":"ca","latitude":45.50889,"longitude":-73.56167,"reserved":0,"last_update":"0001-01-01T00:00:00Z","name_a2s":"Uncletopia | Montréal | 4 | No Payload","protocol":17,"map":"koth_lakeside_final","folder":"tf","game":"Team Fortress","app_id":440,"player_count":0,"max_players":24,"Bots":0,"server_type":"Dedicated","server_os":"Linux","password":true,"vac":true,"version":"7961495","steam_id":85568392924500090,"keywords":["cp","nocrits","nodmgspread","uncletopia"],"game_id":440,"stv_port":27046,"stv_name":"Uncletopia | Montréal | 4 | No Payload | STV","players":null},{"server_id":13,"name":"Uncletopia | New York City | 1 | All Maps","name_short":"nyc-1","host":"nyc-1.us.uncletopia.com","port":27015,"enabled":true,"region":"us-east","cc":"us","latitude":40.73061,"longitude":-73.93524,"reserved":0,"last_update":"0001-01-01T00:00:00Z","name_a2s":"Uncletopia | New York City | 1 | All Maps","protocol":17,"map":"pl_goldrush","folder":"tf","game":"Team Fortress","app_id":440,"player_count":24,"max_players":24,"Bots":0,"server_type":"Dedicated","server_os":"Linux","password":true,"vac":true,"version":"7961495","steam_id":85568392924469993,"keywords":["nocrits","nodmgspread","payload","uncletopia"],"game_id":440,"stv_port":27016,"stv_name":"Uncletopia | New York City | 1 | All Maps | STV","players":[{"user_id":399,"name":"3hunna56k.n3t","steam_id":76561198404564240,"connected_time":335000000000,"state":"active","ping":45},{"user_id":395,"name":"Primitive","steam_id":76561198060500671,"connected_time":620000000000,"state":"active","ping":44},{"user_id":384,"name":"Clumsy","steam_id":76561198056345245,"connected_time":1588000000000,"state":"active","ping":71},{"user_id":401,"name":"ThreatLvl 9","steam_id":76561198079410533,"connected_time":202000000000,"state":"active","ping":65},{"user_id":381,"name":"Mister Mundy","steam_id":76561198145675134,"connected_time":1973000000000,"state":"active","ping":54},{"user_id":403,"name":"Mecha","steam_id":76561198014927379,"connected_time":7000000000,"state":"spawning","ping":57},{"user_id":389,"name":"GutsandGlory","steam_id":76561198132335674,"connected_time":979000000000,"state":"active","ping":119},{"user_id":400,"name":"Nutz On Yo Chin","steam_id":76561197962978554,"connected_time":234000000000,"state":"active","ping":69},{"user_id":394,"name":"Bother","steam_id":76561198336750909,"connected_time":784000000000,"state":"active","ping":46},{"user_id":347,"name":"dog","steam_id":76561198263873491,"connected_time":4640000000000,"state":"active","ping":61},{"user_id":385,"name":"AreYouMyMummy?","steam_id":76561197995101745,"connected_time":1585000000000,"state":"active","ping":74},{"user_id":387,"name":"Beefaroni","steam_id":76561198093631976,"connected_time":1526000000000,"state":"active","ping":40},{"user_id":377,"name":"dalehunter","steam_id":76561199158974920,"connected_time":2489000000000,"state":"active","ping":115},{"user_id":397,"name":"SneakyJayMLP","steam_id":76561198969565685,"connected_time":519000000000,"state":"active","ping":74},{"user_id":378,"name":"THOTDADDY","steam_id":76561198069868942,"connected_time":2447000000000,"state":"active","ping":75},{"user_id":379,"name":"JACOB","steam_id":76561198211874895,"connected_time":2435000000000,"state":"active","ping":93},{"user_id":380,"name":"Loaf","steam_id":76561198446378419,"connected_time":2383000000000,"state":"active","ping":97},{"user_id":328,"name":"JACOB's Medic","steam_id":76561198409907417,"connected_time":6225000000000,"state":"active","ping":131},{"user_id":367,"name":"Oaky Loafs","steam_id":76561198317179010,"connected_time":3218000000000,"state":"active","ping":125},{"user_id":383,"name":"acid","steam_id":76561198055855408,"connected_time":1635000000000,"state":"active","ping":64},{"user_id":356,"name":"ThatGamingKiwi","steam_id":76561199170522237,"connected_time":4189000000000,"state":"active","ping":83},{"user_id":402,"name":"Piss God","steam_id":76561198090504334,"connected_time":172000000000,"state":"active","ping":63},{"user_id":388,"name":"Bananadu","steam_id":76561198078062042,"connected_time":1227000000000,"state":"active","ping":45},{"user_id":398,"name":"spooby","steam_id":76561198168114366,"connected_time":489000000000,"state":"active","ping":66}]},{"server_id":14,"name":"Uncletopia | New York City | 2 | All Maps","name_short":"nyc-2","host":"nyc-1.us.uncletopia.com","port":27025,"enabled":true,"region":"us-east","cc":"us","latitude":40.73061,"longitude":-73.93524,"reserved":0,"last_update":"0001-01-01T00:00:00Z","name_a2s":"Uncletopia | New York City | 2 | All Maps","protocol":17,"map":"pl_upward","folder":"tf","game":"Team Fortress","app_id":440,"player_count":24,"max_players":24,"Bots":0,"server_type":"Dedicated","server_os":"Linux","password":true,"vac":true,"version":"7961495","steam_id":85568392924469994,"keywords":["nocrits","nodmgspread","payload","uncletopia"],"game_id":440,"stv_port":27026,"stv_name":"Uncletopia | New York City | 2 | All Maps | STV","players":[{"user_id":247,"name":"Sad Sapling","steam_id":76561198075612150,"connected_time":676000000000,"state":"active","ping":117},{"user_id":235,"name":"MurpAMurp","steam_id":76561198374437261,"connected_time":1104000000000,"state":"active","ping":80},{"user_id":250,"name":"Dad 2","steam_id":76561198138546187,"connected_time":387000000000,"state":"active","ping":65},{"user_id":238,"name":"Queso2469","steam_id":76561197993024580,"connected_time":1014000000000,"state":"active","ping":54},{"user_id":222,"name":"duhRICE[UT]","steam_id":76561198117832876,"connected_time":2274000000000,"state":"active","ping":31},{"user_id":233,"name":"Lemon","steam_id":76561198119362095,"connected_time":1853000000000,"state":"active","ping":45},{"user_id":148,"name":"dirty tuna","steam_id":76561198021535785,"connected_time":7633000000000,"state":"active","ping":62},{"user_id":239,"name":"Epifiny","steam_id":76561198027958086,"connected_time":905000000000,"state":"active","ping":76},{"user_id":64,"name":"DRLdestroyer","steam_id":76561198085803893,"connected_time":15055000000000,"state":"active","ping":53},{"user_id":241,"name":"4jess20","steam_id":76561199488852383,"connected_time":742000000000,"state":"active","ping":53},{"user_id":230,"name":"Tile(s)","steam_id":76561198196660338,"connected_time":2079000000000,"state":"active","ping":81},{"user_id":216,"name":"You Don't Nomi.","steam_id":76561197969137836,"connected_time":2650000000000,"state":"active","ping":52},{"user_id":251,"name":"Grombrindal","steam_id":76561197999845662,"connected_time":371000000000,"state":"active","ping":77},{"user_id":229,"name":"Charlotte","steam_id":76561198194975870,"connected_time":2126000000000,"state":"active","ping":70},{"user_id":198,"name":"Nova","steam_id":76561198415791639,"connected_time":4178000000000,"state":"active","ping":128},{"user_id":211,"name":"lofile","steam_id":76561198083798918,"connected_time":2885000000000,"state":"active","ping":64},{"user_id":219,"name":"Kaestal","steam_id":76561198033174157,"connected_time":2578000000000,"state":"active","ping":98},{"user_id":234,"name":"Ambatukrit","steam_id":76561198838206526,"connected_time":1819000000000,"state":"active","ping":138},{"user_id":249,"name":"blobb","steam_id":76561198950448488,"connected_time":482000000000,"state":"active","ping":60},{"user_id":246,"name":"Dr Nefario","steam_id":76561198254646194,"connected_time":683000000000,"state":"active","ping":44},{"user_id":243,"name":"Admiral Catradora","steam_id":76561198017271944,"connected_time":738000000000,"state":"active","ping":85},{"user_id":217,"name":"Copland OS","steam_id":76561198041800378,"connected_time":2643000000000,"state":"active","ping":74},{"user_id":226,"name":"Jae","steam_id":76561198060026844,"connected_time":2201000000000,"state":"active","ping":70},{"user_id":244,"name":"Mr. Durian","steam_id":76561198093813212,"connected_time":738000000000,"state":"active","ping":53}]},{"server_id":15,"name":"Uncletopia | New York City | 3 | Stopwatch Beta","name_short":"nyc-3","host":"nyc-1.us.uncletopia.com","port":27035,"enabled":true,"region":"us-east","cc":"us","latitude":40.73061,"longitude":-73.93524,"reserved":0,"last_update":"0001-01-01T00:00:00Z","name_a2s":"Uncletopia | New York City | 3 | Stopwatch Beta","protocol":17,"map":"workshop/cp_process_f12.ugc2302948105","folder":"tf","game":"Team Fortress","app_id":440,"player_count":0,"max_players":24,"Bots":0,"server_type":"Dedicated","server_os":"Linux","password":true,"vac":true,"version":"7961495","steam_id":85568392924742820,"keywords":["cp","nocrits","nodmgspread","uncletopia"],"game_id":440,"stv_port":27036,"stv_name":"Uncletopia | New York City | 3 | Stopwatch Beta | STV","players":null},{"server_id":16,"name":"Uncletopia | New York City | 4 | Community","name_short":"nyc-4","host":"nyc-1.us.uncletopia.com","port":27045,"enabled":true,"region":"us-east","cc":"us","latitude":40.73061,"longitude":-73.93524,"reserved":0,"last_update":"0001-01-01T00:00:00Z","name_a2s":"Uncletopia | New York City | 4 | Community","protocol":17,"map":"workshop/cp_glassworks_rc6a.ugc454118349","folder":"tf","game":"Team Fortress","app_id":440,"player_count":7,"max_players":24,"Bots":0,"server_type":"Dedicated","server_os":"Linux","password":true,"vac":true,"version":"7961495","steam_id":85568392924742821,"keywords":["cp","nocrits","nodmgspread","uncletopia"],"game_id":440,"stv_port":27046,"stv_name":"Uncletopia | New York City | 4 | Community | STV","players":[{"user_id":29,"name":"babyface","steam_id":76561199440933687,"connected_time":2588000000000,"state":"active","ping":61},{"user_id":30,"name":"Antidisestablishmentarianism","steam_id":76561199058049384,"connected_time":2565000000000,"state":"active","ping":58},{"user_id":31,"name":"the epiccgaemar","steam_id":76561198804408996,"connected_time":1465000000000,"state":"active","ping":77},{"user_id":32,"name":"badasscoolboy57","steam_id":76561198795412055,"connected_time":1430000000000,"state":"active","ping":68},{"user_id":34,"name":"scout_tf2","steam_id":76561199206668538,"connected_time":51000000000,"state":"active","ping":57},{"user_id":35,"name":"milfred louver","steam_id":76561198882713406,"connected_time":15000000000,"state":"spawning","ping":501},{"user_id":36,"name":"FROYO Ding Dong","steam_id":76561198379421700,"connected_time":4000000000,"state":"spawning","ping":64}]},{"server_id":142,"name":"Uncletopia | São Paulo | 1 | All Maps","name_short":"sao-1","host":"sao-1.br.uncletopia.com","port":27015,"enabled":true,"region":"sa","cc":"br","latitude":-23.533773,"longitude":-46.62529,"reserved":0,"last_update":"0001-01-01T00:00:00Z","name_a2s":"Uncletopia | São Paulo | 1 | All Maps","protocol":17,"map":"cp_dustbowl","folder":"tf","game":"Team Fortress","app_id":440,"player_count":3,"max_players":24,"Bots":0,"server_type":"Dedicated","server_os":"Linux","password":true,"vac":true,"version":"7961495","steam_id":85568392924469996,"keywords":["cp","nocrits","nodmgspread","uncletopia"],"game_id":440,"stv_port":27016,"stv_name":"Uncletopia | São Paulo | 1 | All Maps | STV","players":[{"user_id":53,"name":"goofy gupp buttercup","steam_id":76561198391399039,"connected_time":1949000000000,"state":"active","ping":65},{"user_id":56,"name":"Tj","steam_id":76561199144268605,"connected_time":1604000000000,"state":"active","ping":64},{"user_id":57,"name":"guarda-chuva","steam_id":76561198078694330,"connected_time":1572000000000,"state":"active","ping":54}]},{"server_id":143,"name":"Uncletopia | São Paulo | 2 | Community","name_short":"sao-2","host":"sao-2.br.uncletopia.com","port":27015,"enabled":true,"region":"sa","cc":"br","latitude":-23.533773,"longitude":-46.62529,"reserved":0,"last_update":"0001-01-01T00:00:00Z","name_a2s":"Uncletopia | São Paulo | 2 | Community","protocol":17,"map":"workshop/pl_highwood_b13.ugc1769496557","folder":"tf","game":"Team Fortress","app_id":440,"player_count":2,"max_players":24,"Bots":0,"server_type":"Dedicated","server_os":"Linux","password":true,"vac":true,"version":"7961495","steam_id":85568392924485349,"keywords":["nocrits","nodmgspread","payload","uncletopia"],"game_id":440,"stv_port":27016,"stv_name":"Uncletopia | São Paulo | 2 | Community | STV","players":[{"user_id":8,"name":"-√s- Wivi2013","steam_id":76561198263763942,"connected_time":345000000000,"state":"active","ping":50},{"user_id":9,"name":"Halmosi1","steam_id":76561198820929798,"connected_time":331000000000,"state":"active","ping":271}]},{"server_id":7,"name":"Uncletopia | Seattle | 1 | All Maps","name_short":"sea-1","host":"sea-1.us.uncletopia.com","port":27015,"enabled":true,"region":"us-west","cc":"us","latitude":47.608013,"longitude":-122.33517,"reserved":0,"last_update":"0001-01-01T00:00:00Z","name_a2s":"Uncletopia | Seattle | 1 | All Maps","protocol":17,"map":"cp_process_final","folder":"tf","game":"Team Fortress","app_id":440,"player_count":24,"max_players":24,"Bots":0,"server_type":"Dedicated","server_os":"Linux","password":true,"vac":true,"version":"7961495","steam_id":85568392924469997,"keywords":["cp","nocrits","nodmgspread","uncletopia"],"game_id":440,"stv_port":27016,"stv_name":"Uncletopia | Seattle | 1 | All Maps | STV","players":[{"user_id":47,"name":"Phlog Roach","steam_id":76561198111154662,"connected_time":1595000000000,"state":"active","ping":47},{"user_id":10,"name":"Sleuth","steam_id":76561198418288939,"connected_time":3319000000000,"state":"active","ping":77},{"user_id":29,"name":"Integral","steam_id":76561198158225481,"connected_time":2364000000000,"state":"active","ping":177},{"user_id":53,"name":"Aporophobia","steam_id":76561198068672882,"connected_time":1370000000000,"state":"active","ping":65},{"user_id":46,"name":"magic","steam_id":76561198031957385,"connected_time":1619000000000,"state":"active","ping":63},{"user_id":67,"name":"rad killl raccoon","steam_id":76561198980975595,"connected_time":38000000000,"state":"active","ping":66},{"user_id":17,"name":"Oktayey","steam_id":76561198143213426,"connected_time":2878000000000,"state":"active","ping":63},{"user_id":41,"name":"HAT-WEARING™ Maggot Gamer Cat","steam_id":76561197973992705,"connected_time":1970000000000,"state":"active","ping":82},{"user_id":22,"name":"Tinyangel124","steam_id":76561199387234901,"connected_time":2494000000000,"state":"active","ping":96},{"user_id":64,"name":"2Fort Cactus","steam_id":76561199273395913,"connected_time":424000000000,"state":"active","ping":48},{"user_id":24,"name":"awesomebrololo","steam_id":76561198374283489,"connected_time":2400000000000,"state":"active","ping":77},{"user_id":57,"name":"daBigBoss","steam_id":76561198120428029,"connected_time":1083000000000,"state":"active","ping":76},{"user_id":59,"name":"johnman gooberguy","steam_id":76561199014859764,"connected_time":1000000000000,"state":"active","ping":75},{"user_id":31,"name":"cthonic cvnt","steam_id":76561198039604491,"connected_time":2230000000000,"state":"active","ping":48},{"user_id":61,"name":"ilun","steam_id":76561198042913843,"connected_time":892000000000,"state":"active","ping":58},{"user_id":66,"name":"jubanya","steam_id":76561198830921046,"connected_time":340000000000,"state":"active","ping":115},{"user_id":60,"name":"kriddur","steam_id":76561198347660282,"connected_time":981000000000,"state":"active","ping":79},{"user_id":63,"name":"Dimple #TF2Center","steam_id":76561198980324190,"connected_time":753000000000,"state":"active","ping":60},{"user_id":62,"name":"Vincent Van Bro","steam_id":76561197966919802,"connected_time":791000000000,"state":"active","ping":61},{"user_id":49,"name":"miguelrodriguez2013","steam_id":76561198269253587,"connected_time":1570000000000,"state":"active","ping":66},{"user_id":56,"name":"KevinKendrick","steam_id":76561198364706359,"connected_time":1116000000000,"state":"active","ping":59},{"user_id":42,"name":"Mr. Gratz","steam_id":76561198116396247,"connected_time":1962000000000,"state":"active","ping":101},{"user_id":44,"name":"neutral response","steam_id":76561198207881077,"connected_time":1691000000000,"state":"active","ping":103},{"user_id":65,"name":"dust | she/it","steam_id":76561198045218909,"connected_time":424000000000,"state":"active","ping":42}]},{"server_id":119,"name":"Uncletopia | Seattle | 2 | All Maps","name_short":"sea-2","host":"sea-1.us.uncletopia.com","port":27025,"enabled":true,"region":"us-west","cc":"us","latitude":47.608013,"longitude":-122.33517,"reserved":0,"last_update":"0001-01-01T00:00:00Z","name_a2s":"Uncletopia | Seattle | 2 | All Maps","protocol":17,"map":"koth_lakeside_final","folder":"tf","game":"Team Fortress","app_id":440,"player_count":0,"max_players":24,"Bots":0,"server_type":"Dedicated","server_os":"Linux","password":true,"vac":true,"version":"7961495","steam_id":85568392924469998,"keywords":["cp","nocrits","nodmgspread","uncletopia"],"game_id":440,"stv_port":27026,"stv_name":"Uncletopia | Seattle | 2 | All Maps | STV","players":null},{"server_id":406,"name":"Uncletopia | Seattle | 3 | Stopwatch Beta","name_short":"sea-3","host":"sea-1.us.uncletopia.com","port":27035,"enabled":true,"region":"us-west","cc":"us","latitude":47.608013,"longitude":-122.33517,"reserved":0,"last_update":"0001-01-01T00:00:00Z","name_a2s":"Uncletopia | Seattle | 3 | Stopwatch Beta","protocol":17,"map":"koth_lakeside_final","folder":"tf","game":"Team Fortress","app_id":440,"player_count":0,"max_players":24,"Bots":0,"server_type":"Dedicated","server_os":"Linux","password":true,"vac":true,"version":"7961495","steam_id":85568392924515217,"keywords":["cp","nocrits","nodmgspread","uncletopia"],"game_id":440,"stv_port":27036,"stv_name":"Uncletopia | Seattle | 3 | Stopwatch Beta | STV","players":null},{"server_id":17,"name":"Uncletopia | San Francisco | 1 | All Maps","name_short":"sfo-1","host":"sfo-1.us.uncletopia.com","port":27015,"enabled":true,"region":"us-west","cc":"us","latitude":37.77397,"longitude":-122.4313,"reserved":0,"last_update":"0001-01-01T00:00:00Z","name_a2s":"Uncletopia | San Francisco | 1 | All Maps","protocol":17,"map":"koth_cascade","folder":"tf","game":"Team Fortress","app_id":440,"player_count":0,"max_players":24,"Bots":0,"server_type":"Dedicated","server_os":"Linux","password":true,"vac":true,"version":"7961495","steam_id":85568392924469999,"keywords":["cp","nocrits","nodmgspread","uncletopia"],"game_id":440,"stv_port":27016,"stv_name":"Uncletopia | San Francisco | 1 | All Maps | STV","players":null},{"server_id":18,"name":"Uncletopia | San Francisco | 2 | All Maps","name_short":"sfo-2","host":"sfo-1.us.uncletopia.com","port":27025,"enabled":true,"region":"us-west","cc":"us","latitude":37.77397,"longitude":-122.4313,"reserved":0,"last_update":"0001-01-01T00:00:00Z","name_a2s":"Uncletopia | San Francisco | 2 | All Maps","protocol":17,"map":"cp_snakewater_final1","folder":"tf","game":"Team Fortress","app_id":440,"player_count":0,"max_players":24,"Bots":0,"server_type":"Dedicated","server_os":"Linux","password":true,"vac":true,"version":"7961495","steam_id":85568392924470000,"keywords":["cp","nocrits","nodmgspread","uncletopia"],"game_id":440,"stv_port":27026,"stv_name":"Uncletopia | San Francisco | 2 | All Maps | STV","players":null},{"server_id":19,"name":"Uncletopia | San Francisco | 3 | Stopwatch Beta","name_short":"sfo-3","host":"sfo-1.us.uncletopia.com","port":27035,"enabled":true,"region":"us-west","cc":"us","latitude":37.77397,"longitude":-122.4313,"reserved":0,"last_update":"0001-01-01T00:00:00Z","name_a2s":"Uncletopia | San Francisco | 3 | Stopwatch Beta","protocol":17,"map":"pl_borneo","folder":"tf","game":"Team Fortress","app_id":440,"player_count":0,"max_players":24,"Bots":0,"server_type":"Dedicated","server_os":"Linux","password":true,"vac":true,"version":"7961495","steam_id":85568392924742824,"keywords":["nocrits","nodmgspread","payload","uncletopia"],"game_id":440,"stv_port":27036,"stv_name":"Uncletopia | San Francisco | 3 | Stopwatch Beta | STV","players":null},{"server_id":20,"name":"Uncletopia | San Francisco | 4 | Community","name_short":"sfo-4","host":"sfo-1.us.uncletopia.com","port":27045,"enabled":true,"region":"us-west","cc":"us","latitude":37.77397,"longitude":-122.4313,"reserved":0,"last_update":"0001-01-01T00:00:00Z","name_a2s":"Uncletopia | San Francisco | 4 | Community","protocol":17,"map":"koth_viaduct","folder":"tf","game":"Team Fortress","app_id":440,"player_count":0,"max_players":24,"Bots":0,"server_type":"Dedicated","server_os":"Linux","password":true,"vac":true,"version":"7961495","steam_id":85568392924742826,"keywords":["cp","nocrits","nodmgspread","uncletopia"],"game_id":440,"stv_port":27046,"stv_name":"Uncletopia | San Francisco | 4 | Community | STV","players":null},{"server_id":141,"name":"Uncletopia | Sydney | 1 | All Maps","name_short":"syd-1","host":"syd-1.au.uncletopia.com","port":27015,"enabled":true,"region":"au","cc":"au","latitude":-33.865143,"longitude":151.2099,"reserved":0,"last_update":"0001-01-01T00:00:00Z","name_a2s":"","protocol":0,"map":"","folder":"","game":"","app_id":0,"player_count":0,"max_players":0,"Bots":0,"server_type":"","server_os":"","password":false,"vac":false,"version":"","steam_id":0,"keywords":null,"game_id":0,"stv_port":0,"stv_name":"","players":null},{"server_id":123,"name":"Uncletopia | Sydney | 2 | All Maps","name_short":"syd-2","host":"syd-1.au.uncletopia.com","port":27025,"enabled":true,"region":"au","cc":"au","latitude":-33.865143,"longitude":151.2099,"reserved":0,"last_update":"0001-01-01T00:00:00Z","name_a2s":"","protocol":0,"map":"","folder":"","game":"","app_id":0,"player_count":0,"max_players":0,"Bots":0,"server_type":"","server_os":"","password":false,"vac":false,"version":"","steam_id":0,"keywords":null,"game_id":0,"stv_port":0,"stv_name":"","players":null},{"server_id":395,"name":"Uncletopia | Sydney | 3 | All Maps","name_short":"syd-3","host":"syd-1.au.uncletopia.com","port":27035,"enabled":true,"region":"au","cc":"au","latitude":-33.865143,"longitude":151.2099,"reserved":0,"last_update":"0001-01-01T00:00:00Z","name_a2s":"","protocol":0,"map":"","folder":"","game":"","app_id":0,"player_count":0,"max_players":0,"Bots":0,"server_type":"","server_os":"","password":false,"vac":false,"version":"","steam_id":0,"keywords":null,"game_id":0,"stv_port":0,"stv_name":"","players":null},{"server_id":396,"name":"Uncletopia | Sydney | 4 | All Maps","name_short":"syd-4","host":"syd-1.au.uncletopia.com","port":27045,"enabled":true,"region":"au","cc":"au","latitude":-33.865143,"longitude":151.2099,"reserved":0,"last_update":"0001-01-01T00:00:00Z","name_a2s":"","protocol":0,"map":"","folder":"","game":"","app_id":0,"player_count":0,"max_players":0,"Bots":0,"server_type":"","server_os":"","password":false,"vac":false,"version":"","steam_id":0,"keywords":null,"game_id":0,"stv_port":0,"stv_name":"","players":null},{"server_id":58,"name":"Uncletopia | Sydney | 5 | No Payload","name_short":"syd-5","host":"syd-1.au.uncletopia.com","port":27055,"enabled":true,"region":"au","cc":"au","latitude":-33.865143,"longitude":151.2099,"reserved":0,"last_update":"0001-01-01T00:00:00Z","name_a2s":"","protocol":0,"map":"","folder":"","game":"","app_id":0,"player_count":0,"max_players":0,"Bots":0,"server_type":"","server_os":"","password":false,"vac":false,"version":"","steam_id":0,"keywords":null,"game_id":0,"stv_port":0,"stv_name":"","players":null},{"server_id":59,"name":"Uncletopia | Sydney | 6 | Community","name_short":"syd-6","host":"syd-1.au.uncletopia.com","port":27065,"enabled":true,"region":"au","cc":"au","latitude":-33.865143,"longitude":151.2099,"reserved":0,"last_update":"0001-01-01T00:00:00Z","name_a2s":"","protocol":0,"map":"","folder":"","game":"","app_id":0,"player_count":0,"max_players":0,"Bots":0,"server_type":"","server_os":"","password":false,"vac":false,"version":"","steam_id":0,"keywords":null,"game_id":0,"stv_port":0,"stv_name":"","players":null},{"server_id":49,"name":"Uncletopia | Warsaw | 1 | All Maps","name_short":"waw-1","host":"waw-1.pl.uncletopia.com","port":27015,"enabled":true,"region":"eu","cc":"pl","latitude":52.2297,"longitude":21.017532,"reserved":0,"last_update":"0001-01-01T00:00:00Z","name_a2s":"","protocol":0,"map":"","folder":"","game":"","app_id":0,"player_count":0,"max_players":0,"Bots":0,"server_type":"","server_os":"","password":false,"vac":false,"version":"","steam_id":0,"keywords":null,"game_id":0,"stv_port":0,"stv_name":"","players":null},{"server_id":50,"name":"Uncletopia | Warsaw | 2 | All Maps","name_short":"waw-2","host":"waw-1.pl.uncletopia.com","port":27025,"enabled":true,"region":"eu","cc":"pl","latitude":52.2297,"longitude":21.017532,"reserved":0,"last_update":"0001-01-01T00:00:00Z","name_a2s":"","protocol":0,"map":"","folder":"","game":"","app_id":0,"player_count":0,"max_players":0,"Bots":0,"server_type":"","server_os":"","password":false,"vac":false,"version":"","steam_id":0,"keywords":null,"game_id":0,"stv_port":0,"stv_name":"","players":null},{"server_id":51,"name":"Uncletopia | Warsaw | 3 | All Maps","name_short":"waw-3","host":"waw-1.pl.uncletopia.com","port":27035,"enabled":true,"region":"eu","cc":"pl","latitude":52.2297,"longitude":21.017532,"reserved":0,"last_update":"0001-01-01T00:00:00Z","name_a2s":"","protocol":0,"map":"","folder":"","game":"","app_id":0,"player_count":0,"max_players":0,"Bots":0,"server_type":"","server_os":"","password":false,"vac":false,"version":"","steam_id":0,"keywords":null,"game_id":0,"stv_port":0,"stv_name":"","players":null},{"server_id":52,"name":"Uncletopia | Warsaw | 4 | All Maps","name_short":"waw-4","host":"waw-1.pl.uncletopia.com","port":27045,"enabled":true,"region":"eu","cc":"pl","latitude":52.2297,"longitude":21.017532,"reserved":0,"last_update":"0001-01-01T00:00:00Z","name_a2s":"","protocol":0,"map":"","folder":"","game":"","app_id":0,"player_count":0,"max_players":0,"Bots":0,"server_type":"","server_os":"","password":false,"vac":false,"version":"","steam_id":0,"keywords":null,"game_id":0,"stv_port":0,"stv_name":"","players":null},{"server_id":53,"name":"Uncletopia | Warsaw | 5 | No Payload","name_short":"waw-5","host":"waw-1.pl.uncletopia.com","port":27055,"enabled":true,"region":"eu","cc":"pl","latitude":52.2297,"longitude":21.017532,"reserved":0,"last_update":"0001-01-01T00:00:00Z","name_a2s":"","protocol":0,"map":"","folder":"","game":"","app_id":0,"player_count":0,"max_players":0,"Bots":0,"server_type":"","server_os":"","password":false,"vac":false,"version":"","steam_id":0,"keywords":null,"game_id":0,"stv_port":0,"stv_name":"","players":null},{"server_id":54,"name":"Uncletopia | Warsaw | 6 | Community","name_short":"waw-6","host":"waw-1.pl.uncletopia.com","port":27065,"enabled":true,"region":"eu","cc":"pl","latitude":52.2297,"longitude":21.017532,"reserved":0,"last_update":"0001-01-01T00:00:00Z","name_a2s":"","protocol":0,"map":"","folder":"","game":"","app_id":0,"player_count":0,"max_players":0,"Bots":0,"server_type":"","server_os":"","password":false,"vac":false,"version":"","steam_id":0,"keywords":null,"game_id":0,"stv_port":0,"stv_name":"","players":null}]}