{"status":true,"message":"","result":[{"server_id":9,"name":"Uncletopia | Atlanta | 1 | All Maps","name_short":"atl-1","host":"atl-1.us.uncletopia.com","port":27015,"enabled":true,"region":"us-east","cc":"us","latitude":33.753746,"longitude":-84.38633,"reserved":0,"last_update":"0001-01-01T00:00:00Z","name_a2s":"Uncletopia | Atlanta | 1 | All Maps","protocol":17,"map":"pl_upward","folder":"tf","game":"Team Fortress","app_id":440,"player_count":24,"max_players":24,"Bots":0,"server_type":"Dedicated","server_os":"Linux","password":true,"vac":true,"version":"7961495","steam_id":85568392924469982,"keywords":["nocrits","nodmgspread","payload","uncletopia"],"game_id":440,"stv_port":27016,"stv_name":"Uncletopia | Atlanta | 1 | All Maps | STV","players":null},{"server_id":104,"name":"Uncletopia | Atlanta | 2 | All Maps","name_short":"atl-2","host":"atl-1.us.uncletopia.com","port":27025,"enabled":true,"region":"us-east","cc":"us","latitude":33.753746,"longitude":-84.38633,"reserved":0,"last_update":"0001-01-01T00:00:00Z","name_a2s":"Uncletopia | Atlanta | 2 | All Maps","protocol":17,"map":"pl_barnblitz","folder":"tf","game":"Team Fortress","app_id":440,"player_count":23,"max_players":24,"Bots":0,"server_type":"Dedicated","server_os":"Linux","password":true,"vac":true,"version":"7961495","steam_id":85568392924469983,"keywords":["nocrits","nodmgspread","payload","uncletopia"],"game_id":440,"stv_port":27026,"stv_name":"Uncletopia | Atlanta | 2 | All Maps | STV","players":null},{"server_id":400,"name":"Uncletopia | Atlanta | 3 | Stopwatch","name_short":"atl-3","host":"atl-1.us.uncletopia.com","port":27035,"enabled":true,"region":"us-east","cc":"us","latitude":33.753746,"longitude":-84.38633,"reserved":0,"last_update":"0001-01-01T00:00:00Z","name_a2s":"Uncletopia | Atlanta | 3 | Stopwatch","protocol":17,"map":"koth_clearcut_b15","folder":"tf","game":"Team Fortress","app_id":440,"player_count":0,"max_players":24,"Bots":0,"server_type":"Dedicated","server_os":"Linux","password":true,"vac":true,"version":"7961495","steam_id":85568392924515187,"keywords":["cp","nocrits","nodmgspread","uncletopia"],"game_id":440,"stv_port":27036,"stv_name":"Uncletopia | Atlanta | 3 | Stopwatch | STV","players":null},{"server_id":401,"name":"Uncletopia | Atlanta | 4 | Community","name_short":"atl-4","host":"atl-1.us.uncletopia.com","port":27045,"enabled":true,"region":"us-east","cc":"us","latitude":33.753746,"longitude":-84.38633,"reserved":0,"last_update":"0001-01-01T00:00:00Z","name_a2s":"Uncletopia | Atlanta | 4 | Community","protocol":17,"map":"pl_divulgence_b4b","folder":"tf","game":"Team Fortress","app_id":440,"player_count":24,"max_players":24,"Bots":0,"server_type":"Dedicated","server_os":"Linux","password":true,"vac":true,"version":"7961495","steam_id":85568392924515188,"keywords":["nocrits","nodmgspread","payload","uncletopia"],"game_id":440,"stv_port":27046,"stv_name":"Uncletopia | Atlanta | 4 | Community | STV","players":null},{"server_id":2,"name":"Uncletopia | Chicago | 1 | All Maps","name_short":"chi-1","host":"chi-1.us.uncletopia.com","port":27015,"enabled":true,"region":"us-central","cc":"us","latitude":41.881832,"longitude":-87.62318,"reserved":0,"last_update":"0001-01-01T00:00:00Z","name_a2s":"Uncletopia | Chicago | 1 | All Maps","protocol":17,"map":"pl_snowycoast","folder":"tf","game":"Team Fortress","app_id":440,"player_count":24,"max_players":24,"Bots":0,"server_type":"Dedicated","server_os":"Linux","password":true,"vac":true,"version":"7961495","steam_id":85568392924469984,"keywords":["nocrits","nodmgspread","payload","uncletopia"],"game_id":440,"stv_port":27016,"stv_name":"Uncletopia | Chicago | 1 | All Maps | STV","players":[{"user_id":414,"name":"Cream Corn","steam_id":76561198043791586,"connected_time":3367000000000,"state":"active","ping":59},{"user_id":439,"name":"Shady Businessman","steam_id":76561198143855968,"connected_time":2134000000000,"state":"active","ping":91},{"user_id":458,"name":"hamvangolio","steam_id":76561198139588105,"connected_time":1123000000000,"state":"active","ping":51},{"user_id":469,"name":"Praise_to_the_Flashlight!","steam_id":76561199001728789,"connected_time":631000000000,"state":"active","ping":62},{"user_id":460,"name":"Quark","steam_id":76561198328155605,"connected_time":1115000000000,"state":"active","ping":51},{"user_id":461,"name":"hrdurdur","steam_id":76561199204815638,"connected_time":1092000000000,"state":"active","ping":86},{"user_id":476,"name":"menk3","steam_id":76561198120888597,"connected_time":143000000000,"state":"active","ping":79},{"user_id":474,"name":"faxxy","steam_id":76561198079621240,"connected_time":347000000000,"state":"active","ping":72},{"user_id":443,"name":"goggyrina","steam_id":76561198428033086,"connected_time":2117000000000,"state":"active","ping":43},{"user_id":477,"name":"Nordie","steam_id":76561198102297774,"connected_time":133000000000,"state":"active","ping":65},{"user_id":370,"name":"Im High","steam_id":76561198049954886,"connected_time":7232000000000,"state":"active","ping":68},{"user_id":444,"name":"Ecliptica","steam_id":76561198171951333,"connected_time":2103000000000,"state":"active","ping":99},{"user_id":453,"name":"flamingcookies","steam_id":76561198280864779,"connected_time":1481000000000,"state":"active","ping":71},{"user_id":468,"name":"Tibalt Nyahuma","steam_id":76561198034779431,"connected_time":778000000000,"state":"active","ping":78},{"user_id":464,"name":"lker","steam_id":76561197976975075,"connected_time":1065000000000,"state":"active","ping":60},{"user_id":478,"name":"SUPREME CHAMPION","steam_id":76561198072112905,"connected_time":129000000000,"state":"active","ping":61},{"user_id":448,"name":"ExpandedCuber","steam_id":76561198970140709,"connected_time":1701000000000,"state":"active","ping":56},{"user_id":437,"name":"Claybae","steam_id":76561198064290179,"connected_time":2156000000000,"state":"active","ping":86},{"user_id":479,"name":"eat Pant","steam_id":76561197974965536,"connected_time":112000000000,"state":"active","ping":64},{"user_id":471,"name":"redredgreengreen","steam_id":76561198035660801,"connected_time":518000000000,"state":"active","ping":120},{"user_id":457,"name":"CommieKurtz","steam_id":76561198061687521,"connected_time":1131000000000,"state":"active","ping":59},{"user_id":452,"name":"Space","steam_id":76561198350489754,"connected_time":1587000000000,"state":"active","ping":49},{"user_id":475,"name":"Delightful MadCat","steam_id":76561198086178426,"connected_time":210000000000,"state":"active","ping":75},{"user_id":470,"name":"D","steam_id":76561198292908619,"connected_time":557000000000,"state":"active","ping":75}]},{"server_id":106,"name":"Uncletopia | Chicago | 2 | All Maps","name_short":"chi-2","host":"chi-1.us.uncletopia.com","port":27025,"enabled":true,"region":"us-central","cc":"us","latitude":41.881832,"longitude":-87.62318,"reserved":0,"last_update":"0001-01-01T00:00:00Z","name_a2s":"Uncletopia | Chicago | 2 | All Maps","protocol":17,"map":"cp_egypt_final","folder":"tf","game":"Team Fortress","app_id":440,"player_count":24,"max_players":24,"Bots":0,"server_type":"Dedicated","server_os":"Linux","password":true,"vac":true,"version":"7961495","steam_id":85568392924469985,"keywords":["cp","nocrits","nodmgspread","uncletopia"],"game_id":440,"stv_port":27026,"stv_name":"Uncletopia | Chicago | 2 | All Maps | STV","players":[{"user_id":699,"name":"menonamed","steam_id":76561198199564382,"connected_time":2477000000000,"state":"active","ping":63},{"user_id":693,"name":"Boomerish","steam_id":76561198083946878,"connected_time":3300000000000,"state":"active","ping":72},{"user_id":634,"name":"King's Disease","steam_id":76561198076639682,"connected_time":8150000000000,"state":"active","ping":79},{"user_id":730,"name":"Raccoon Wizard","steam_id":76561198072562591,"connected_time":172000000000,"state":"active","ping":84},{"user_id":721,"name":"Sock","steam_id":76561198315420000,"connected_time":503000000000,"state":"active","ping":47},{"user_id":717,"name":"jade","steam_id":76561198088961574,"connected_time":605000000000,"state":"active","ping":63},{"user_id":712,"name":"cuddles","steam_id":76561199471390987,"connected_time":1054000000000,"state":"active","ping":78},{"user_id":718,"name":"Robot Rocker","steam_id":76561198050718267,"connected_time":604000000000,"state":"active","ping":65},{"user_id":734,"name":"JGatsby","steam_id":76561198023307584,"connected_time":76000000000,"state":"active","ping":49},{"user_id":709,"name":"Greenie","steam_id":76561198081998064,"connected_time":1188000000000,"state":"active","ping":75},{"user_id":669,"name":"Hexadecatrack","steam_id":76561198044480181,"connected_time":5915000000000,"state":"active","ping":46},{"user_id":719,"name":"that's showbiz, baybee","steam_id":76561197998258233,"connected_time":593000000000,"state":"active","ping":73},{"user_id":706,"name":"nox","steam_id":76561198225589536,"connected_time":2117000000000,"state":"active","ping":79},{"user_id":720,"name":"SuperSX","steam_id":76561199230865085,"connected_time":571000000000,"state":"active","ping":85},{"user_id":688,"name":"Crazy Insane Proboscis Monkey","steam_id":76561198061011176,"connected_time":4247000000000,"state":"active","ping":92},{"user_id":722,"name":"sarcastic_monke","steam_id":76561198918244788,"connected_time":482000000000,"state":"active","ping":62},{"user_id":680,"name":"TheGrassMan (He/Him)","steam_id":76561198118984048,"connected_time":4983000000000,"state":"active","ping":59},{"user_id":678,"name":"The Jar","steam_id":76561198146013385,"connected_time":5498000000000,"state":"active","ping":70},{"user_id":735,"name":"Bluedot","steam_id":76561198019909639,"connected_time":1000000000,"state":"spawning","ping":48},{"user_id":723,"name":"Pizza Boy","steam_id":76561198207213173,"connected_time":452000000000,"state":"active","ping":48},{"user_id":728,"name":"C4K3","steam_id":76561197996963285,"connected_time":385000000000,"state":"active","ping":75},{"user_id":732,"name":"warpwave","steam_id":76561198190417719,"connected_time":155000000000,"state":"active","ping":44},{"user_id":733,"name":"Spare(8)Ball","steam_id":76561197982432995,"connected_time":137000000000,"state":"active","ping":99},{"user_id":727,"name":"ethanf","steam_id":76561198103930234,"connected_time":435000000000,"state":"active","ping":49}]},{"server_id":402,"name":"Uncletopia | Chicago | 3 | All Maps","name_short":"chi-3","host":"chi-1.us.uncletopia.com","port":27035,"enabled":true,"region":"us-central","cc":"us","latitude":41.881832,"longitude":-87.62318,"reserved":0,"last_update":"0001-01-01T00:00:00Z","name_a2s":"Uncletopia | Chicago | 3 | All Maps","protocol":17,"map":"pl_pier","folder":"tf","game":"Team Fortress","app_id":440,"player_count":24,"max_players":24,"Bots":0,"server_type":"Dedicated","server_os":"Linux","password":true,"vac":true,"version":"7961495","steam_id":85568392924515191,"keywords":["nocrits","nodmgspread","payload","uncletopia"],"game_id":440,"stv_port":27036,"stv_name":"Uncletopia | Chicago | 3 | All Maps | STV","players":[{"user_id":259,"name":"augh","steam_id":76561198131532406,"connected_time":666000000000,"state":"active","ping":75},{"user_id":234,"name":"Imagine being trash at Medic","steam_id":76561197986530028,"connected_time":3122000000000,"state":"active","ping":99},{"user_id":186,"name":"TheChickenChuck","steam_id":76561199192686708,"connected_time":5595000000000,"state":"active","ping":99},{"user_id":261,"name":"DeltaD","steam_id":76561198096108552,"connected_time":649000000000,"state":"active","ping":71},{"user_id":254,"name":"dudeer733","steam_id":76561198030319392,"connected_time":956000000000,"state":"active","ping":72},{"user_id":204,"name":"AlexLovesYou","steam_id":76561199163263543,"connected_time":4975000000000,"state":"active","ping":98},{"user_id":269,"name":"marley star7","steam_id":76561198295452087,"connected_time":554000000000,"state":"active","ping":62},{"user_id":239,"name":"queso","steam_id":76561198403072474,"connected_time":2280000000000,"state":"active","ping":94},{"user_id":256,"name":"Unrandom._.","steam_id":76561198337970963,"connected_time":854000000000,"state":"active","ping":95},{"user_id":159,"name":"GreatTimBones","steam_id":76561198409145748,"connected_time":7277000000000,"state":"active","ping":79},{"user_id":130,"name":"notdoxed","steam_id":76561197992591404,"connected_time":9351000000000,"state":"active","ping":48},{"user_id":224,"name":"Mr. Tickle","steam_id":76561198126684647,"connected_time":3435000000000,"state":"active","ping":59},{"user_id":255,"name":"Nessie is my Waifu","steam_id":76561198076021620,"connected_time":941000000000,"state":"active","ping":70},{"user_id":202,"name":"[MRY] Sk-iLite","steam_id":76561198041797350,"connected_time":5079000000000,"state":"active","ping":67},{"user_id":264,"name":"gay sex","steam_id":76561198138467891,"connected_time":632000000000,"state":"active","ping":146},{"user_id":265,"name":"soof","steam_id":76561198043762955,"connected_time":624000000000,"state":"active","ping":62},{"user_id":236,"name":"rickyrickyricky","steam_id":76561198041765918,"connected_time":2936000000000,"state":"active","ping":83},{"user_id":266,"name":"Skiddy","steam_id":76561198125942665,"connected_time":614000000000,"state":"active","ping":75},{"user_id":207,"name":"H0ovy","steam_id":76561198996230924,"connected_time":4880000000000,"state":"active","ping":60},{"user_id":270,"name":"birbmanminty","steam_id":76561199159145275,"connected_time":306000000000,"state":"active","ping":104},{"user_id":258,"name":"Skygod47e","steam_id":76561198132296314,"connected_time":781000000000,"state":"active","ping":93},{"user_id":245,"name":"Metbol","steam_id":76561198001362410,"connected_time":1784000000000,"state":"active","ping":85},{"user_id":268,"name":"The Grim Heaper","steam_id":76561197987759101,"connected_time":599000000000,"state":"active","ping":109},{"user_id":272,"name":"autisma","steam_id":76561198261560229,"connected_time":13000000000,"state":"spawning","ping":88}]},{"server_id":403,"name":"Uncletopia | Chicago | 4 | All Maps","name_short":"chi-4","host":"chi-1.us.uncletopia.com","port":27045,"enabled":true,"region":"us-central","cc":"us","latitude":41.881832,"longitude":-87.62318,"reserved":0,"last_update":"0001-01-01T00:00:00Z","name_a2s":"Uncletopia | Chicago | 4 | All Maps","protocol":17,"map":"pl_barnblitz","folder":"tf","game":"Team Fortress","app_id":440,"player_count":21,"max_players":24,"Bots":0,"server_type":"Dedicated","server_os":"Linux","password":true,"vac":true,"version":"7961495","steam_id":85568392924515193,"keywords":["nocrits","nodmgspread","payload","uncletopia"],"game_id":440,"stv_port":27046,"stv_name":"Uncletopia | Chicago | 4 | All Maps | STV","players":[{"user_id":260,"name":"rf","steam_id":76561198195359229,"connected_time":153000000000,"state":"active","ping":86},{"user_id":232,"name":"totally not a pile of beans","steam_id":76561198119851931,"connected_time":2548000000000,"state":"active","ping":73},{"user_id":179,"name":"Ace Chromatica","steam_id":76561198042211131,"connected_time":6496000000000,"state":"active","ping":58},{"user_id":231,"name":"Female Gamer","steam_id":76561199366482682,"connected_time":2561000000000,"state":"active","ping":105},{"user_id":248,"name":"ApertureCity","steam_id":76561198004153607,"connected_time":1004000000000,"state":"active","ping":74},{"user_id":266,"name":"zpalmtree","steam_id":76561198134307620,"connected_time":8000000000,"state":"spawning","ping":62},{"user_id":234,"name":"Archie","steam_id":76561198137112917,"connected_time":2529000000000,"state":"active","ping":90},{"user_id":267,"name":"Provocator","steam_id":76561197961830410,"connected_time":0,"state":"spawning","ping":0},{"user_id":253,"name":"Seskova","steam_id":76561198090207032,"connected_time":518000000000,"state":"active","ping":112},{"user_id":200,"name":"YoteDab McFapDab.jpg","steam_id":76561197984870380,"connected_time":4555000000000,"state":"active","ping":87},{"user_id":235,"name":"Bones0010","steam_id":76561198096186958,"connected_time":2527000000000,"state":"active","ping":85},{"user_id":263,"name":"Pipnirsian","steam_id":76561198380976416,"connected_time":41000000000,"state":"spawning","ping":60},{"user_id":250,"name":"sloth (be nice im cringe)","steam_id":76561198047098172,"connected_time":925000000000,"state":"active","ping":62},{"user_id":243,"name":"ṽ⧉ hank","steam_id":76561197977182378,"connected_time":1706000000000,"state":"active","ping":45},{"user_id":264,"name":"Renota","steam_id":76561198058224488,"connected_time":33000000000,"state":"active","ping":61},{"user_id":265,"name":"Dexidus","steam_id":76561198021840495,"connected_time":25000000000,"state":"spawning","ping":45},{"user_id":258,"name":"sunglasses","steam_id":76561198173747227,"connected_time":267000000000,"state":"active","ping":57},{"user_id":256,"name":"lpk","steam_id":76561198025478698,"connected_time":342000000000,"state":"active","ping":40},{"user_id":238,"name":"Sir.TopHats","steam_id":76561198267326839,"connected_time":2485000000000,"state":"active","ping":83},{"user_id":254,"name":"Crisp","steam_id":76561198132644084,"connected_time":499000000000,"state":"active","ping":69},{"user_id":252,"name":"HemoTox","steam_id":76561197999713466,"connected_time":822000000000,"state":"active","ping":65}]},{"server_id":36,"name":"Uncletopia | Chicago | 5 | All Maps","name_short":"chi-5","host":"chi-2.us.uncletopia.com","port":27015,"enabled":true,"region":"us-central","cc":"us","latitude":41.881832,"longitude":-87.62318,"reserved":0,"last_update":"0001-01-01T00:00:00Z","name_a2s":"Uncletopia | Chicago | 5 | All Maps","protocol":17,"map":"cp_altitude","folder":"tf","game":"Team Fortress","app_id":440,"player_count":24,"max_players":24,"Bots":0,"server_type":"Dedicated","server_os":"Linux","password":true,"vac":true,"version":"7961495","steam_id":85568392924866362,"keywords":["cp","nocrits","nodmgspread","uncletopia"],"game_id":440,"stv_port":27016,"stv_name":"Uncletopia | Chicago | 5 | All Maps | STV","players":[{"user_id":222,"name":"Axio","steam_id":76561198046826031,"connected_time":525000000000,"state":"active","ping":150},{"user_id":207,"name":"flappyflap2","steam_id":76561198285048973,"connected_time":1967000000000,"state":"active","ping":60},{"user_id":231,"name":"[12V] Marv","steam_id":76561198158638384,"connected_time":174000000000,"state":"active","ping":69},{"user_id":217,"name":"Drez47","steam_id":76561198380714058,"connected_time":647000000000,"state":"active","ping":79},{"user_id":134,"name":"Piyono","steam_id":76561197962188504,"connected_time":8740000000000,"state":"active","ping":71},{"user_id":218,"name":"Synergy","steam_id":76561198365956073,"connected_time":642000000000,"state":"active","ping":69},{"user_id":230,"name":"Wool #ThankUrMedics","steam_id":76561198332704108,"connected_time":219000000000,"state":"active","ping":50},{"user_id":172,"name":"MR SKELTAL","steam_id":76561198031089598,"connected_time":5229000000000,"state":"active","ping":73},{"user_id":221,"name":"Open Mailbox","steam_id":76561198051933580,"connected_time":558000000000,"state":"active","ping":98},{"user_id":219,"name":"chheesse","steam_id":76561198926982316,"connected_time":639000000000,"state":"active","ping":83},{"user_id":220,"name":"Jousty","steam_id":76561199162677853,"connected_time":636000000000,"state":"active","ping":94},{"user_id":223,"name":"Madeline (She/Her)","steam_id":76561198336551859,"connected_time":518000000000,"state":"active","ping":91},{"user_id":211,"name":"Akornical","steam_id":76561199171025092,"connected_time":1692000000000,"state":"active","ping":78},{"user_id":224,"name":"dopadream","steam_id":76561198068383694,"connected_time":477000000000,"state":"active","ping":77},{"user_id":82,"name":"bbcf keeps crashing","steam_id":76561198303948269,"connected_time":12531000000000,"state":"active","ping":74},{"user_id":225,"name":"JACOB","steam_id":76561198211874895,"connected_time":438000000000,"state":"active","ping":80},{"user_id":215,"name":"AJones97","steam_id":76561198028973438,"connected_time":1190000000000,"state":"active","ping":71},{"user_id":229,"name":"Rex","steam_id":76561198138365053,"connected_time":266000000000,"state":"active","ping":127},{"user_id":228,"name":"Cspans","steam_id":76561198290316405,"connected_time":373000000000,"state":"active","ping":78},{"user_id":203,"name":"Aspxts","steam_id":76561199125254746,"connected_time":2795000000000,"state":"active","ping":60},{"user_id":216,"name":"lukethepumpkin","steam_id":76561198204158335,"connected_time":1187000000000,"state":"active","ping":81},{"user_id":205,"name":"steakfarmasian","steam_id":76561198212754036,"connected_time":2758000000000,"state":"active","ping":62},{"user_id":204,"name":"Chadwick Strongpants","steam_id":76561198160522777,"connected_time":2769000000000,"state":"active","ping":92},{"user_id":227,"name":"Misha","steam_id":76561198066174041,"connected_time":429000000000,"state":"active","ping":64}]},{"server_id":37,"name":"Uncletopia | Chicago | 6 | All Maps","name_short":"chi-6","host":"chi-2.us.uncletopia.com","port":27025,"enabled":true,"region":"us-central","cc":"us","latitude":41.881832,"longitude":-87.62318,"reserved":0,"last_update":"0001-01-01T00:00:00Z","name_a2s":"Uncletopia | Chicago | 6 | All Maps","protocol":17,"map":"koth_viaduct","folder":"tf","game":"Team Fortress","app_id":440,"player_count":24,"max_players":24,"Bots":0,"server_type":"Dedicated","server_os":"Linux","password":true,"vac":true,"version":"7961495","steam_id":85568392924866363,"keywords":["cp","nocrits","nodmgspread","uncletopia"],"game_id":440,"stv_port":27026,"stv_name":"Uncletopia | Chicago | 6 | All Maps | STV","players":[{"user_id":377,"name":"Fried Water?!","steam_id":76561198053164815,"connected_time":5890000000000,"state":"active","ping":64},{"user_id":407,"name":"weakest tf2 player","steam_id":76561198160174097,"connected_time":3530000000000,"state":"active","ping":64},{"user_id":405,"name":"Terry Bogard's beefin 12 inch","steam_id":76561198371133385,"connected_time":3542000000000,"state":"active","ping":81},{"user_id":443,"name":"Asanez3","steam_id":76561198037381436,"connected_time":167000000000,"state":"active","ping":76},{"user_id":433,"name":"SHADOW","steam_id":76561198207768148,"connected_time":1109000000000,"state":"active","ping":108},{"user_id":399,"name":"Yucky","steam_id":76561198077358516,"connected_time":3940000000000,"state":"active","ping":61},{"user_id":408,"name":"Ringo x Seiran","steam_id":76561198357437908,"connected_time":3519000000000,"state":"active","ping":74},{"user_id":440,"name":"Gram Tokers Count Doinkula","steam_id":76561198112811565,"connected_time":267000000000,"state":"active","ping":73},{"user_id":406,"name":"TransPuppygirlUp4Adoption","steam_id":76561198085813708,"connected_time":3537000000000,"state":"active","ping":69},{"user_id":439,"name":"cognitiveAfflatus","steam_id":76561198295181426,"connected_time":303000000000,"state":"active","ping":75},{"user_id":426,"name":"runtzaplyshe","steam_id":76561198107925719,"connected_time":2271000000000,"state":"active","ping":62},{"user_id":432,"name":"Poopdick McGee","steam_id":76561198168976029,"connected_time":1345000000000,"state":"active","ping":111},{"user_id":445,"name":"FrostStorm","steam_id":76561198142685151,"connected_time":116000000000,"state":"active","ping":70},{"user_id":437,"name":"ʕ•ᴥ•ʔ the bear","steam_id":76561197989591976,"connected_time":332000000000,"state":"active","ping":82},{"user_id":429,"name":"deathgaming69","steam_id":76561198452547649,"connected_time":2050000000000,"state":"active","ping":60},{"user_id":442,"name":"chunkysquare","steam_id":76561199076468383,"connected_time":190000000000,"state":"active","ping":98},{"user_id":378,"name":"Goldfire","steam_id":76561198061999410,"connected_time":5880000000000,"state":"active","ping":110},{"user_id":428,"name":"rella","steam_id":76561198102462929,"connected_time":2068000000000,"state":"active","ping":79},{"user_id":444,"name":"Olitude","steam_id":76561199238964574,"connected_time":157000000000,"state":"active","ping":71},{"user_id":397,"name":"Thirty Thirty","steam_id":76561197987242808,"connected_time":3957000000000,"state":"active","ping":91},{"user_id":413,"name":"BreadNoose","steam_id":76561198104027367,"connected_time":3498000000000,"state":"active","ping":60},{"user_id":446,"name":"yeayea","steam_id":76561198118498882,"connected_time":104000000000,"state":"active","ping":64},{"user_id":398,"name":"Egg","steam_id":76561198028157625,"connected_time":3950000000000,"state":"active","ping":89},{"user_id":424,"name":"|MT|","steam_id":76561199052865451,"connected_time":2450000000000,"state":"active","ping":60}]},{"server_id":38,"name":"Uncletopia | Chicago | 7 | Stopwatch","name_short":"chi-7","host":"chi-2.us.uncletopia.com","port":27035,"enabled":true,"region":"us-central","cc":"us","latitude":41.881832,"longitude":-87.62318,"reserved":0,"last_update":"0001-01-01T00:00:00Z","name_a2s":"Uncletopia | Chicago | 7 | Stopwatch","protocol":17,"map":"workshop/cp_process_f12.ugc2302948105","folder":"tf","game":"Team Fortress","app_id":440,"player_count":24,"max_players":24,"Bots":0,"server_type":"Dedicated","server_os":"Linux","password":true,"vac":true,"version":"7961495","steam_id":85568392924866364,"keywords":["cp","nocrits","nodmgspread","uncletopia"],"game_id":440,"stv_port":27036,"stv_name":"Uncletopia | Chicago | 7 | Stopwatch | STV","players":[{"user_id":328,"name":"Monsterjessy","steam_id":76561198035630985,"connected_time":1998000000000,"state":"active","ping":68},{"user_id":337,"name":"kicks","steam_id":76561199228854923,"connected_time":1625000000000,"state":"active","ping":59},{"user_id":314,"name":"Squid","steam_id":76561198142873471,"connected_time":2763000000000,"state":"active","ping":87},{"user_id":296,"name":"Uncle Crang","steam_id":76561198218558897,"connected_time":3611000000000,"state":"active","ping":155},{"user_id":348,"name":"MR MODE","steam_id":76561198046775352,"connected_time":971000000000,"state":"active","ping":91},{"user_id":354,"name":"Exetior","steam_id":76561198978688451,"connected_time":423000000000,"state":"active","ping":68},{"user_id":341,"name":"burt macklin","steam_id":76561198038080028,"connected_time":1258000000000,"state":"active","ping":96},{"user_id":355,"name":"Maxini_","steam_id":76561198041077011,"connected_time":332000000000,"state":"active","ping":60},{"user_id":315,"name":"A Good Boy","steam_id":76561198066998594,"connected_time":2743000000000,"state":"active","ping":85},{"user_id":335,"name":"C/Spoons","steam_id":76561198019227661,"connected_time":1754000000000,"state":"active","ping":57},{"user_id":322,"name":"leonardo doujinshi","steam_id":76561198025810326,"connected_time":2529000000000,"state":"active","ping":75},{"user_id":316,"name":"DweltAlone","steam_id":76561198043786742,"connected_time":2741000000000,"state":"active","ping":75},{"user_id":299,"name":"Keegs","steam_id":76561198346917831,"connected_time":3581000000000,"state":"active","ping":56},{"user_id":330,"name":"PabloDukie64","steam_id":76561198274893147,"connected_time":1957000000000,"state":"active","ping":80},{"user_id":317,"name":"SilentGuy","steam_id":76561198149395324,"connected_time":2732000000000,"state":"active","ping":87},{"user_id":352,"name":"jimmz","steam_id":76561199076776118,"connected_time":545000000000,"state":"active","ping":77},{"user_id":344,"name":"checkswing","steam_id":76561198999816132,"connected_time":1173000000000,"state":"active","ping":83},{"user_id":356,"name":"BLØRG","steam_id":76561198036126673,"connected_time":229000000000,"state":"active","ping":85},{"user_id":345,"name":"tavvy","steam_id":76561198266284864,"connected_time":1172000000000,"state":"active","ping":142},{"user_id":350,"name":"leumas","steam_id":76561198240408540,"connected_time":758000000000,"state":"active","ping":60},{"user_id":329,"name":"Nespreco","steam_id":76561198252035336,"connected_time":1996000000000,"state":"active","ping":62},{"user_id":346,"name":"JordyHunter53","steam_id":76561198214297553,"connected_time":1122000000000,"state":"active","ping":90},{"user_id":353,"name":"wepry","steam_id":76561198114091417,"connected_time":537000000000,"state":"active","ping":64},{"user_id":320,"name":"Eustace \"CA$H MONEY\" Bagge","steam_id":76561198154022811,"connected_time":2641000000000,"state":"active","ping":75}]},{"server_id":39,"name":"Uncletopia | Chicago | 8 | Community","name_short":"chi-8","host":"chi-2.us.uncletopia.com","port":27045,"enabled":true,"region":"us-central","cc":"us","latitude":41.881832,"longitude":-87.62318,"reserved":0,"last_update":"0001-01-01T00:00:00Z","name_a2s":"Uncletopia | Chicago | 8 | Community","protocol":17,"map":"workshop/koth_ashville_final.ugc2130459942","folder":"tf","game":"Team Fortress","app_id":440,"player_count":0,"max_players":24,"Bots":0,"server_type":"Dedicated","server_os":"Linux","password":true,"vac":true,"version":"7961495","steam_id":85568392924866365,"keywords":["cp","nocrits","nodmgspread","uncletopia"],"game_id":440,"stv_port":27046,"stv_name":"Uncletopia | Chicago | 8 | Community | STV","players":null},{"server_id":8,"name":"Uncletopia | Dallas | 1 | All Maps","name_short":"dal-1","host":"dal-1.us.uncletopia.com","port":27015,"enabled":true,"region":"us-central","cc":"us","latitude":32.779167,"longitude":-96.80889,"reserved":0,"last_update":"0001-01-01T00:00:00Z","name_a2s":"Uncletopia | Dallas | 1 | All Maps","protocol":17,"map":"pl_upward","folder":"tf","game":"Team Fortress","app_id":440,"player_count":24,"max_players":24,"Bots":0,"server_type":"Dedicated","server_os":"Linux","password":true,"vac":true,"version":"7961495","steam_id":85568392924469986,"keywords":["nocrits","nodmgspread","payload","uncletopia"],"game_id":440,"stv_port":27016,"stv_name":"Uncletopia | Dallas | 1 | All Maps | STV","players":[{"user_id":440,"name":"Bombsgamer","steam_id":76561198350009050,"connected_time":2720000000000,"state":"active","ping":86},{"user_id":469,"name":"Eblizard","steam_id":76561198111481965,"connected_time":938000000000,"state":"active","ping":87},{"user_id":441,"name":"LitchCraft271","steam_id":76561199072151338,"connected_time":2716000000000,"state":"active","ping":135},{"user_id":396,"name":"sapphoroth","steam_id":76561198062263639,"connected_time":6972000000000,"state":"active","ping":55},{"user_id":464,"name":"RandomRainbow","steam_id":76561199107573588,"connected_time":1175000000000,"state":"active","ping":74},{"user_id":457,"name":"Lucky Roux","steam_id":76561198298884337,"connected_time":1333000000000,"state":"active","ping":86},{"user_id":465,"name":"Rob","steam_id":76561199187786660,"connected_time":1110000000000,"state":"active","ping":55},{"user_id":466,"name":"Lucil3 on Bandcamp","steam_id":76561198149063013,"connected_time":1010000000000,"state":"active","ping":60},{"user_id":459,"name":"GLG.Liz","steam_id":76561198021957956,"connected_time":1294000000000,"state":"active","ping":48},{"user_id":471,"name":"Inflation Jumpscare","steam_id":76561198137862444,"connected_time":214000000000,"state":"active","ping":46},{"user_id":470,"name":"Sobertoday","steam_id":76561198010606163,"connected_time":933000000000,"state":"active","ping":99},{"user_id":460,"name":";w;","steam_id":76561199058284787,"connected_time":1279000000000,"state":"active","ping":99},{"user_id":442,"name":"Ewan303","steam_id":76561198246769118,"connected_time":2716000000000,"state":"active","ping":53},{"user_id":434,"name":"LampMan","steam_id":76561198079857527,"connected_time":3394000000000,"state":"active","ping":52},{"user_id":397,"name":"Imrgrim","steam_id":76561198135866481,"connected_time":6774000000000,"state":"active","ping":64},{"user_id":453,"name":"Rowdyshark101","steam_id":76561199019123695,"connected_time":1489000000000,"state":"active","ping":63},{"user_id":472,"name":"mushrom","steam_id":76561198026563351,"connected_time":211000000000,"state":"active","ping":78},{"user_id":467,"name":"ICBMonkey","steam_id":76561198033351821,"connected_time":994000000000,"state":"active","ping":73},{"user_id":473,"name":"Penguinodle","steam_id":76561199082347306,"connected_time":195000000000,"state":"active","ping":45},{"user_id":475,"name":"shnowshner","steam_id":76561198066450438,"connected_time":160000000000,"state":"active","ping":95},{"user_id":449,"name":"Sweet Tooth","steam_id":76561198830158092,"connected_time":1985000000000,"state":"active","ping":84},{"user_id":451,"name":"VaL-ASROC","steam_id":76561198886493635,"connected_time":1648000000000,"state":"active","ping":77},{"user_id":474,"name":"Other Players, My One Weakness","steam_id":76561197989247588,"connected_time":191000000000,"state":"active","ping":65},{"user_id":447,"name":"EvilPi99let","steam_id":76561197987243470,"connected_time":2197000000000,"state":"active","ping":80}]},{"server_id":108,"name":"Uncletopia | Dallas | 2 | All Maps","name_short":"dal-2","host":"dal-1.us.uncletopia.com","port":27025,"enabled":true,"region":"us-central","cc":"us","latitude":32.779167,"longitude":-96.80889,"reserved":0,"last_update":"0001-01-01T00:00:00Z","name_a2s":"Uncletopia | Dallas | 2 | All Maps","protocol":17,"map":"cp_dustbowl","folder":"tf","game":"Team Fortress","app_id":440,"player_count":24,"max_players":24,"Bots":0,"server_type":"Dedicated","server_os":"Linux","password":true,"vac":true,"version":"7961495","steam_id":85568392924469988,"keywords":["cp","nocrits","nodmgspread","uncletopia"],"game_id":440,"stv_port":27026,"stv_name":"Uncletopia | Dallas | 2 | All Maps | STV","players":[{"user_id":835,"name":"Brandonator","steam_id":76561198059293104,"connected_time":323000000000,"state":"active","ping":85},{"user_id":834,"name":"autumn","steam_id":76561198036901822,"connected_time":337000000000,"state":"active","ping":46},{"user_id":823,"name":"Yapple Dapple","steam_id":76561198082422815,"connected_time":1053000000000,"state":"active","ping":63},{"user_id":836,"name":"StudioMania (#SAVETF2)","steam_id":76561198211315795,"connected_time":321000000000,"state":"active","ping":79},{"user_id":754,"name":"Major Woody","steam_id":76561198835541533,"connected_time":4044000000000,"state":"active","ping":62},{"user_id":828,"name":"S.N.A.F.U.","steam_id":76561197980128424,"connected_time":721000000000,"state":"active","ping":76},{"user_id":826,"name":"tiernan330","steam_id":76561198271912722,"connected_time":819000000000,"state":"active","ping":97},{"user_id":837,"name":"JPtoony","steam_id":76561198135111952,"connected_time":320000000000,"state":"active","ping":94},{"user_id":814,"name":"Caboose","steam_id":76561198215451935,"connected_time":1584000000000,"state":"active","ping":54},{"user_id":807,"name":"TwinkGaming(Jerma)","steam_id":76561197972835907,"connected_time":1939000000000,"state":"active","ping":83},{"user_id":790,"name":"dailydiamond","steam_id":76561199123582502,"connected_time":2348000000000,"state":"active","ping":102},{"user_id":838,"name":"Pulmonary Edema","steam_id":76561198116555093,"connected_time":318000000000,"state":"active","ping":114},{"user_id":760,"name":"Ominous Whir","steam_id":76561198002851724,"connected_time":3853000000000,"state":"active","ping":44},{"user_id":831,"name":"firesaiyan12","steam_id":76561199224724490,"connected_time":533000000000,"state":"active","ping":111},{"user_id":839,"name":"Nicoarn121","steam_id":76561198156297440,"connected_time":315000000000,"state":"active","ping":82},{"user_id":842,"name":"Xx_Death_Threat_International_x","steam_id":76561198071753835,"connected_time":253000000000,"state":"active","ping":106},{"user_id":827,"name":"-Rλ҉inyCloudCore","steam_id":76561198028799685,"connected_time":744000000000,"state":"active","ping":117},{"user_id":847,"name":"Timur","steam_id":76561197989552257,"connected_time":72000000000,"state":"active","ping":73},{"user_id":843,"name":"Benjitties","steam_id":76561198072728952,"connected_time":253000000000,"state":"active","ping":104},{"user_id":846,"name":"Jamie Hyneman","steam_id":76561199196036481,"connected_time":119000000000,"state":"active","ping":67},{"user_id":812,"name":"StoicalSynz","steam_id":76561198355290984,"connected_time":1825000000000,"state":"active","ping":97},{"user_id":829,"name":"grillbyssisoloeso","steam_id":76561199105132740,"connected_time":707000000000,"state":"active","ping":91},{"user_id":845,"name":"Beefboss_plays","steam_id":76561199454237265,"connected_time":232000000000,"state":"active","ping":91},{"user_id":817,"name":"Soviet Potato","steam_id":76561198068546113,"connected_time":1415000000000,"state":"active","ping":89}]},{"server_id":404,"name":"Uncletopia | Dallas | 3 | All Maps","name_short":"dal-3","host":"dal-1.us.uncletopia.com","port":27035,"enabled":true,"region":"us-central","cc":"us","latitude":32.779167,"longitude":-96.80889,"reserved":0,"last_update":"0001-01-01T00:00:00Z","name_a2s":"Uncletopia | Dallas | 3 | All Maps","protocol":17,"map":"koth_nucleus","folder":"tf","game":"Team Fortress","app_id":440,"player_count":24,"max_players":24,"Bots":0,"server_type":"Dedicated","server_os":"Linux","password":true,"vac":true,"version":"7961495","steam_id":85568392924515219,"keywords":["cp","nocrits","nodmgspread","uncletopia"],"game_id":440,"stv_port":27036,"stv_name":"Uncletopia | Dallas | 3 | All Maps | STV","players":[{"user_id":238,"name":"Artincendies","steam_id":76561198242373456,"connected_time":447000000000,"state":"active","ping":75},{"user_id":233,"name":"Vladimir Puddin","steam_id":76561198139674520,"connected_time":925000000000,"state":"active","ping":80},{"user_id":239,"name":"Parzsival21","steam_id":76561198981447562,"connected_time":362000000000,"state":"active","ping":151},{"user_id":200,"name":"Luky","steam_id":76561198970778850,"connected_time":4798000000000,"state":"active","ping":113},{"user_id":219,"name":"BigButternater","steam_id":76561199046684880,"connected_time":3382000000000,"state":"active","ping":104},{"user_id":243,"name":"Juanelo","steam_id":76561199096390505,"connected_time":142000000000,"state":"active","ping":64},{"user_id":189,"name":"Da Policia","steam_id":76561198012762789,"connected_time":5838000000000,"state":"active","ping":43},{"user_id":201,"name":"Starlotte","steam_id":76561198204734477,"connected_time":4797000000000,"state":"active","ping":100},{"user_id":234,"name":"RoseaVenefica","steam_id":76561198020660560,"connected_time":912000000000,"state":"active","ping":45},{"user_id":237,"name":"meat.","steam_id":76561198256154493,"connected_time":500000000000,"state":"active","ping":91},{"user_id":158,"name":"CoffeeZombee","steam_id":76561198172708053,"connected_time":6437000000000,"state":"active","ping":110},{"user_id":222,"name":"Emberformula","steam_id":76561198171526119,"connected_time":2874000000000,"state":"active","ping":62},{"user_id":223,"name":"TheLightOf87","steam_id":76561199229969259,"connected_time":2868000000000,"state":"active","ping":78},{"user_id":220,"name":"An Engineer","steam_id":76561198110381643,"connected_time":3374000000000,"state":"active","ping":46},{"user_id":181,"name":"HundchenTanque","steam_id":76561198122692754,"connected_time":6341000000000,"state":"active","ping":76},{"user_id":136,"name":"They/Them Pyro Truther","steam_id":76561198893358191,"connected_time":7452000000000,"state":"active","ping":100},{"user_id":229,"name":"Hanselpup","steam_id":76561198165480226,"connected_time":2010000000000,"state":"active","ping":52},{"user_id":240,"name":"framp down","steam_id":76561198006316527,"connected_time":332000000000,"state":"active","ping":78},{"user_id":230,"name":"Orca?","steam_id":76561198164341099,"connected_time":2005000000000,"state":"active","ping":83},{"user_id":196,"name":"Drained","steam_id":76561198081974528,"connected_time":5040000000000,"state":"active","ping":67},{"user_id":241,"name":"Coffeemelon","steam_id":76561198285891257,"connected_time":324000000000,"state":"active","ping":113},{"user_id":152,"name":"High Tier Mortal","steam_id":76561198138347045,"connected_time":6845000000000,"state":"active","ping":77},{"user_id":232,"name":"Si1entSn1pa","steam_id":76561198170095479,"connected_time":1063000000000,"state":"active","ping":87},{"user_id":191,"name":"Kuyumiester","steam_id":76561198126835302,"connected_time":5680000000000,"state":"active","ping":61}]},{"server_id":405,"name":"Uncletopia | Dallas | 4 | Community","name_short":"dal-4","host":"dal-1.us.uncletopia.com","port":27045,"enabled":true,"region":"us-central","cc":"us","latitude":32.779167,"longitude":-96.80889,"reserved":0,"last_update":"0001-01-01T00:00:00Z","name_a2s":"Uncletopia | Dallas | 4 | Community","protocol":17,"map":"workshop/pl_corrode_rc2.ugc546577989","folder":"tf","game":"Team Fortress","app_id":440,"player_count":21,"max_players":24,"Bots":0,"server_type":"Dedicated","server_os":"Linux","password":true,"vac":true,"version":"7961495","steam_id":85568392924515220,"keywords":["nocrits","nodmgspread","payload","uncletopia"],"game_id":440,"stv_port":27046,"stv_name":"Uncletopia | Dallas | 4 | Community | STV","players":[{"user_id":78,"name":"Iron Argus","steam_id":76561198181088245,"connected_time":172000000000,"state":"active","ping":102},{"user_id":69,"name":"Splunk","steam_id":76561198967046704,"connected_time":1138000000000,"state":"active","ping":100},{"user_id":51,"name":"kfroggiedawg","steam_id":76561198371924020,"connected_time":1712000000000,"state":"spawning","ping":159},{"user_id":40,"name":"David Hasseloof","steam_id":76561198070864553,"connected_time":2740000000000,"state":"active","ping":88},{"user_id":52,"name":"Username","steam_id":76561198198918781,"connected_time":1696000000000,"state":"active","ping":105},{"user_id":42,"name":"Sailor Galaxy Planet Man","steam_id":76561198039569373,"connected_time":2670000000000,"state":"active","ping":82},{"user_id":43,"name":"Silly Shark","steam_id":76561198130714378,"connected_time":2518000000000,"state":"active","ping":115},{"user_id":77,"name":"No. 1 Crate","steam_id":76561198232539068,"connected_time":184000000000,"state":"active","ping":76},{"user_id":41,"name":"Tylorde","steam_id":76561198044086991,"connected_time":2736000000000,"state":"active","ping":78},{"user_id":35,"name":"speedy756plane","steam_id":76561199010797609,"connected_time":2927000000000,"state":"active","ping":88},{"user_id":54,"name":"gulch","steam_id":76561199227946025,"connected_time":1643000000000,"state":"active","ping":72},{"user_id":38,"name":"womthedom","steam_id":76561198088768287,"connected_time":2777000000000,"state":"active","ping":71},{"user_id":68,"name":"Everlongsword","steam_id":76561198843311945,"connected_time":1166000000000,"state":"active","ping":99},{"user_id":46,"name":"shaquille oatmeal","steam_id":76561198044999104,"connected_time":2051000000000,"state":"active","ping":74},{"user_id":74,"name":"RC","steam_id":76561198048127881,"connected_time":412000000000,"state":"active","ping":61},{"user_id":58,"name":"NexFrost","steam_id":76561197985774837,"connected_time":1543000000000,"state":"active","ping":38},{"user_id":55,"name":"U.n.k","steam_id":76561198329242141,"connected_time":1606000000000,"state":"active","ping":96},{"user_id":61,"name":"Gary Budussy","steam_id":76561197969793969,"connected_time":1376000000000,"state":"active","ping":52},{"user_id":75,"name":"piss gaming","steam_id":76561198002280184,"connected_time":400000000000,"state":"active","ping":94},{"user_id":72,"name":"webaline  =＾● ⋏ ●＾=","steam_id":76561199052450127,"connected_time":807000000000,"state":"spawning","ping":175},{"user_id":76,"name":"JtsRes","steam_id":76561197994809241,"connected_time":395000000000,"state":"active","ping":66}]},{"server_id":5,"name":"Uncletopia | Frankfurt | 1 | All Maps","name_short":"frk-1","host":"frk-1.de.uncletopia.com","port":27015,"enabled":true,"region":"eu","cc":"de","latitude":50.110924,"longitude":8.682127,"reserved":0,"last_update":"0001-01-01T00:00:00Z","name_a2s":"Uncletopia | Frankfurt | 1 | All Maps","protocol":17,"map":"pl_badwater","folder":"tf","game":"Team Fortress","app_id":440,"player_count":0,"max_players":24,"Bots":0,"server_type":"Dedicated","server_os":"Linux","password":true,"vac":true,"version":"7961495","steam_id":85568392924469989,"keywords":["nocrits","nodmgspread","payload","uncletopia"],"game_id":440,"stv_port":27016,"stv_name":"Uncletopia | Frankfurt | 1 | All Maps | STV","players":null},{"server_id":110,"name":"Uncletopia | Frankfurt | 2 | All Maps","name_short":"frk-2","host":"frk-1.de.uncletopia.com","port":27025,"enabled":true,"region":"eu","cc":"de","latitude":50.110924,"longitude":8.682127,"reserved":0,"last_update":"0001-01-01T00:00:00Z","name_a2s":"Uncletopia | Frankfurt | 2 | All Maps","protocol":17,"map":"cp_gorge","folder":"tf","game":"Team Fortress","app_id":440,"player_count":0,"max_players":24,"Bots":0,"server_type":"Dedicated","server_os":"Linux","password":true,"vac":true,"version":"7961495","steam_id":85568392924469990,"keywords":["cp","nocrits","nodmgspread","uncletopia"],"game_id":440,"stv_port":27026,"stv_name":"Uncletopia | Frankfurt | 2 | All Maps | STV","players":null},{"server_id":308,"name":"Uncletopia | Frankfurt | 3 | All Maps","name_short":"frk-3","host":"frk-1.de.uncletopia.com","port":27035,"enabled":true,"region":"eu","cc":"de","latitude":50.110924,"longitude":8.682127,"reserved":0,"last_update":"0001-01-01T00:00:00Z","name_a2s":"Uncletopia | Frankfurt | 3 | All Maps","protocol":17,"map":"koth_cascade","folder":"tf","game":"Team Fortress","app_id":440,"player_count":0,"max_players":24,"Bots":0,"server_type":"Dedicated","server_os":"Linux","password":true,"vac":true,"version":"7961495","steam_id":85568392924504274,"keywords":["cp","nocrits","nodmgspread","uncletopia"],"game_id":440,"stv_port":27036,"stv_name":"Uncletopia | Frankfurt | 3 | All Maps | STV","players":null},{"server_id":309,"name":"Uncletopia | Frankfurt | 4 | All Maps","name_short":"frk-4","host":"frk-1.de.uncletopia.com","port":27045,"enabled":true,"region":"eu","cc":"de","latitude":50.110924,"longitude":8.682127,"reserved":0,"last_update":"0001-01-01T00:00:00Z","name_a2s":"Uncletopia | Frankfurt | 4 | All Maps","protocol":17,"map":"ctf_2fort","folder":"tf","game":"Team Fortress","app_id":440,"player_count":0,"max_players":24,"Bots":0,"server_type":"Dedicated","server_os":"Linux","password":true,"vac":true,"version":"7961495","steam_id":85568392924504275,"keywords":["ctf","nocrits","nodmgspread","uncletopia"],"game_id":440,"stv_port":27046,"stv_name":"Uncletopia | Frankfurt | 4 | All Maps | STV","players":null},{"server_id":310,"name":"Uncletopia | Frankfurt | 5 | All Maps","name_short":"frk-5","host":"frk-1.de.uncletopia.com","port":27055,"enabled":true,"region":"eu","cc":"de","latitude":50.110924,"longitude":8.682127,"reserved":0,"last_update":"0001-01-01T00:00:00Z","name_a2s":"Uncletopia | Frankfurt | 5 | All Maps","protocol":17,"map":"cp_altitude","folder":"tf","game":"Team Fortress","app_id":440,"player_count":0,"max_players":24,"Bots":0,"server_type":"Dedicated","server_os":"Linux","password":true,"vac":true,"version":"7961495","steam_id":85568392924504277,"keywords":["cp","nocrits","nodmgspread","uncletopia"],"game_id":440,"stv_port":27056,"stv_name":"Uncletopia | Frankfurt | 5 | All Maps | STV","players":null},{"server_id":311,"name":"Uncletopia | Frankfurt | 6 | All Maps","name_short":"frk-6","host":"frk-1.de.uncletopia.com","port":27065,"enabled":true,"region":"eu","cc":"de","latitude":50.110924,"longitude":8.682127,"reserved":0,"last_update":"0001-01-01T00:00:00Z","name_a2s":"Uncletopia | Frankfurt | 6 | All Maps","protocol":17,"map":"plr_bananabay","folder":"tf","game":"Team Fortress","app_id":440,"player_count":0,"max_players":24,"Bots":0,"server_type":"Dedicated","server_os":"Linux","password":true,"vac":true,"version":"7961495","steam_id":85568392924504278,"keywords":["nocrits","nodmgspread","payload","uncletopia"],"game_id":440,"stv_port":27066,"stv_name":"Uncletopia | Frankfurt | 6 | All Maps | STV","players":null},{"server_id":23,"name":"Uncletopia | Frankfurt | 7 | Stopwatch","name_short":"frk-7","host":"frk-1.de.uncletopia.com","port":27075,"enabled":true,"region":"eu","cc":"de","latitude":50.110924,"longitude":8.682127,"reserved":0,"last_update":"0001-01-01T00:00:00Z","name_a2s":"Uncletopia | Frankfurt | 7 | Stopwatch","protocol":17,"map":"workshop/pl_barnblitz_pro7.ugc582280235","folder":"tf","game":"Team Fortress","app_id":440,"player_count":0,"max_players":24,"Bots":0,"server_type":"Dedicated","server_os":"Linux","password":true,"vac":true,"version":"7961495","steam_id":85568392924742827,"keywords":["nocrits","nodmgspread","payload","uncletopia"],"game_id":440,"stv_port":27076,"stv_name":"Uncletopia | Frankfurt | 7 | Stopwatch | STV","players":null},{"server_id":24,"name":"Uncletopia | Frankfurt | 8 | Community","name_short":"frk-8","host":"frk-1.de.uncletopia.com","port":27085,"enabled":true,"region":"eu","cc":"de","latitude":50.110924,"longitude":8.682127,"reserved":0,"last_update":"0001-01-01T00:00:00Z","name_a2s":"Uncletopia | Frankfurt | 8 | Community","protocol":17,"map":"workshop/koth_ramjam_rc1.ugc459778887","folder":"tf","game":"Team Fortress","app_id":440,"player_count":0,"max_players":24,"Bots":0,"server_type":"Dedicated","server_os":"Linux","password":true,"vac":true,"version":"7961495","steam_id":85568392924742828,"keywords":["cp","nocrits","nodmgspread","uncletopia"],"game_id":440,"stv_port":27086,"stv_name":"Uncletopia | Frankfurt | 8 | Community | STV","players":null},{"server_id":202,"name":"Uncletopia | Hong Kong | 1 | All Maps","name_short":"hgk-1","host":"hgk-1.hk.uncletopia.com","port":27015,"enabled":true,"region":"asia","cc":"hk","latitude":22.302711,"longitude":114.177216,"reserved":0,"last_update":"0001-01-01T00:00:00Z","name_a2s":"Uncletopia | Hong Kong | 1 | All Maps","protocol":17,"map":"pl_borneo","folder":"tf","game":"Team Fortress","app_id":440,"player_count":0,"max_players":24,"Bots":0,"server_type":"Dedicated","server_os":"Linux","password":true,"vac":true,"version":"7961495","steam_id":85568392924494504,"keywords":["nocrits","nodmgspread","payload","uncletopia"],"game_id":440,"stv_port":27016,"stv_name":"Uncletopia | Hong Kong | 1 | All Maps | STV","players":null},{"server_id":1,"name":"Uncletopia | Los Angeles | 1 | All Maps","name_short":"lax-1","host":"lax-1.us.uncletopia.com","port":27015,"enabled":true,"region":"us-west","cc":"us","latitude":33.94279,"longitude":-118.41004,"reserved":0,"last_update":"0001-01-01T00:00:00Z","name_a2s":"Uncletopia | Los Angeles | 1 | All Maps","protocol":17,"map":"pl_pier","folder":"tf","game":"Team Fortress","app_id":440,"player_count":20,"max_players":24,"Bots":0,"server_type":"Dedicated","server_os":"Linux","password":true,"vac":true,"version":"7961495","steam_id":85568392924469991,"keywords":["nocrits","nodmgspread","payload","uncletopia"],"game_id":440,"stv_port":27016,"stv_name":"Uncletopia | Los Angeles | 1 | All Maps | STV","players":[{"user_id":164,"name":"Seshreb","steam_id":76561198846614634,"connected_time":80000000000,"state":"active","ping":62},{"user_id":142,"name":"DerpyNate","steam_id":76561198100249037,"connected_time":2499000000000,"state":"active","ping":89},{"user_id":141,"name":"altpuppy","steam_id":76561198325643231,"connected_time":2511000000000,"state":"active","ping":42},{"user_id":116,"name":"Captain Underbelly","steam_id":76561198811270935,"connected_time":2952000000000,"state":"active","ping":146},{"user_id":143,"name":"moe","steam_id":76561198929586245,"connected_time":2483000000000,"state":"active","ping":39},{"user_id":162,"name":"fertile moist and well drained","steam_id":76561198031409921,"connected_time":268000000000,"state":"active","ping":58},{"user_id":151,"name":"TTV/ChadMorningWood","steam_id":76561198139832291,"connected_time":1653000000000,"state":"active","ping":47},{"user_id":96,"name":"Andreshatesmondays","steam_id":76561198889349797,"connected_time":4860000000000,"state":"active","ping":42},{"user_id":119,"name":"Snoop Loops","steam_id":76561198048055109,"connected_time":2893000000000,"state":"active","ping":101},{"user_id":165,"name":"Mr. Noodle","steam_id":76561198025280658,"connected_time":76000000000,"state":"active","ping":55},{"user_id":140,"name":"Maximum Flame","steam_id":76561198073682529,"connected_time":2608000000000,"state":"active","ping":90},{"user_id":121,"name":"Hazeyboi","steam_id":76561198130687838,"connected_time":2879000000000,"state":"active","ping":89},{"user_id":148,"name":"snail2646","steam_id":76561198061411251,"connected_time":2192000000000,"state":"active","ping":120},{"user_id":149,"name":"Ballista","steam_id":76561197983182562,"connected_time":1666000000000,"state":"active","ping":68},{"user_id":166,"name":"SNOZZ LOGGS","steam_id":76561199005676213,"connected_time":63000000000,"state":"active","ping":222},{"user_id":110,"name":"sadlaxx","steam_id":76561198061354919,"connected_time":4005000000000,"state":"active","ping":75},{"user_id":150,"name":"falloutguy69","steam_id":76561199078739743,"connected_time":1659000000000,"state":"active","ping":102},{"user_id":158,"name":"Apex","steam_id":76561199058954656,"connected_time":606000000000,"state":"active","ping":65},{"user_id":155,"name":"duncaidan","steam_id":76561199013510313,"connected_time":691000000000,"state":"active","ping":51},{"user_id":156,"name":"nothowon","steam_id":76561198937601452,"connected_time":670000000000,"state":"active","ping":95}]},{"server_id":112,"name":"Uncletopia | Los Angeles | 2 | All Maps","name_short":"lax-2","host":"lax-1.us.uncletopia.com","port":27025,"enabled":true,"region":"us-west","cc":"us","latitude":33.94279,"longitude":-118.41004,"reserved":0,"last_update":"0001-01-01T00:00:00Z","name_a2s":"Uncletopia | Los Angeles | 2 | All Maps","protocol":17,"map":"pl_borneo","folder":"tf","game":"Team Fortress","app_id":440,"player_count":24,"max_players":24,"Bots":0,"server_type":"Dedicated","server_os":"Linux","password":true,"vac":true,"version":"7961495","steam_id":85568392924469992,"keywords":["nocrits","nodmgspread","payload","uncletopia"],"game_id":440,"stv_port":27026,"stv_name":"Uncletopia | Los Angeles | 2 | All Maps | STV","players":[{"user_id":294,"name":"Vaccine Eater","steam_id":76561198026301425,"connected_time":2003000000000,"state":"active","ping":59},{"user_id":276,"name":"GLXy","steam_id":76561198207551544,"connected_time":2741000000000,"state":"active","ping":78},{"user_id":300,"name":"Penis Music","steam_id":76561198089647760,"connected_time":1377000000000,"state":"active","ping":108},{"user_id":203,"name":"One Confused Proton","steam_id":76561199372053610,"connected_time":7364000000000,"state":"active","ping":115},{"user_id":277,"name":"NOOB935","steam_id":76561199418458444,"connected_time":2728000000000,"state":"active","ping":71},{"user_id":313,"name":"Nameplate55","steam_id":76561199072581803,"connected_time":394000000000,"state":"active","ping":92},{"user_id":241,"name":"Dreamzapp","steam_id":76561199084936632,"connected_time":5545000000000,"state":"active","ping":63},{"user_id":302,"name":"Vaudeville Villain","steam_id":76561199212093339,"connected_time":1264000000000,"state":"active","ping":121},{"user_id":297,"name":"Lj3online","steam_id":76561198009960926,"connected_time":1978000000000,"state":"active","ping":68},{"user_id":310,"name":"exx","steam_id":76561198090552145,"connected_time":578000000000,"state":"active","ping":45},{"user_id":301,"name":"CatLike Pigeon","steam_id":76561198171716030,"connected_time":1304000000000,"state":"active","ping":82},{"user_id":307,"name":"how do i control my guy?","steam_id":76561198158855211,"connected_time":1059000000000,"state":"active","ping":70},{"user_id":275,"name":"Ralph Kramden (Slim Charles)","steam_id":76561197981687895,"connected_time":3147000000000,"state":"active","ping":55},{"user_id":309,"name":"strabes","steam_id":76561197961480297,"connected_time":805000000000,"state":"active","ping":47},{"user_id":312,"name":"oil","steam_id":76561198099980149,"connected_time":539000000000,"state":"active","ping":48},{"user_id":304,"name":"asm_ghost","steam_id":76561199205363547,"connected_time":1221000000000,"state":"active","ping":80},{"user_id":283,"name":"I GOT LAID AT SHEN YUN 2023","steam_id":76561198844003641,"connected_time":2683000000000,"state":"active","ping":59},{"user_id":306,"name":"happer","steam_id":76561198018252253,"connected_time":1147000000000,"state":"active","ping":65},{"user_id":284,"name":"Axolotl Gaming","steam_id":76561198343988802,"connected_time":2660000000000,"state":"active","ping":47},{"user_id":285,"name":"HAT-WEARING™ Maggot Gamer Cat","steam_id":76561197973992705,"connected_time":2651000000000,"state":"active","ping":69},{"user_id":291,"name":"FlexTape","steam_id":76561198871834867,"connected_time":2243000000000,"state":"active","ping":74},{"user_id":120,"name":"sobaka","steam_id":76561198116008934,"connected_time":14947000000000,"state":"active","ping":59},{"user_id":314,"name":"heck","steam_id":76561198315694520,"connected_time":172000000000,"state":"active","ping":46},{"user_id":293,"name":"a chicken","steam_id":76561198313121580,"connected_time":2086000000000,"state":"active","ping":55}]},{"server_id":324,"name":"Uncletopia | Los Angeles | 3 | All Maps","name_short":"lax-3","host":"lax-1.us.uncletopia.com","port":27035,"enabled":true,"region":"us-west","cc":"us","latitude":33.94279,"longitude":-118.41004,"reserved":0,"last_update":"0001-01-01T00:00:00Z","name_a2s":"Uncletopia | Los Angeles | 3 | All Maps","protocol":17,"map":"koth_lakeside_final","folder":"tf","game":"Team Fortress","app_id":440,"player_count":20,"max_players":24,"Bots":0,"server_type":"Dedicated","server_os":"Linux","password":true,"vac":true,"version":"7961495","steam_id":85568392924510198,"keywords":["cp","nocrits","nodmgspread","uncletopia"],"game_id":440,"stv_port":27036,"stv_name":"Uncletopia | Los Angeles | 3 | All Maps | STV","players":[{"user_id":106,"name":"Borked","steam_id":76561197984964095,"connected_time":1762000000000,"state":"active","ping":54},{"user_id":96,"name":"chicken on quack","steam_id":76561199235538552,"connected_time":3815000000000,"state":"active","ping":63},{"user_id":128,"name":"Starkiller","steam_id":76561198101643120,"connected_time":149000000000,"state":"active","ping":82},{"user_id":129,"name":"bob dylan","steam_id":76561198207881077,"connected_time":101000000000,"state":"active","ping":105},{"user_id":131,"name":"Armpit!","steam_id":76561197978095727,"connected_time":27000000000,"state":"active","ping":94},{"user_id":111,"name":"my piss isnt neon yellow anymor","steam_id":76561198257023512,"connected_time":1205000000000,"state":"active","ping":92},{"user_id":120,"name":"Frank Accardi","steam_id":76561198017275707,"connected_time":763000000000,"state":"active","ping":59},{"user_id":38,"name":"No.21 - Feral Scent","steam_id":76561198045844070,"connected_time":7297000000000,"state":"active","ping":98},{"user_id":64,"name":"Ethan :3","steam_id":76561199477901258,"connected_time":5957000000000,"state":"active","ping":82},{"user_id":86,"name":"Argon","steam_id":76561199254804349,"connected_time":4363000000000,"state":"active","ping":115},{"user_id":74,"name":"cielael","steam_id":76561198043971956,"connected_time":4957000000000,"state":"active","ping":47},{"user_id":39,"name":"BreakfastTacos","steam_id":76561198847620442,"connected_time":7265000000000,"state":"active","ping":116},{"user_id":109,"name":"Jokergamma","steam_id":76561198807984541,"connected_time":1476000000000,"state":"active","ping":77},{"user_id":118,"name":"Mocha Josie","steam_id":76561198066452726,"connected_time":928000000000,"state":"active","ping":57},{"user_id":121,"name":"S-Video","steam_id":76561198002821513,"connected_time":748000000000,"state":"active","ping":103},{"user_id":122,"name":"A UsedNom","steam_id":76561198402832756,"connected_time":730000000000,"state":"active","ping":49},{"user_id":126,"name":"pyrotechnic","steam_id":76561198043558709,"connected_time":544000000000,"state":"active","ping":74},{"user_id":55,"name":"Tom","steam_id":76561198139202942,"connected_time":6326000000000,"state":"active","ping":118},{"user_id":119,"name":"Taco+Taco=Burrito","steam_id":76561198063128663,"connected_time":818000000000,"state":"active","ping":43},{"user_id":124,"name":"oxy","steam_id":76561198089770351,"connected_time":700000000000,"state":"active","ping":106}]},{"server_id":25,"name":"Uncletopia | Los Angeles | 4 | Stopwatch","name_short":"lax-4","host":"lax-1.us.uncletopia.com","port":27045,"enabled":true,"region":"us-west","cc":"us","latitude":33.94279,"longitude":-118.41004,"reserved":0,"last_update":"0001-01-01T00:00:00Z","name_a2s":"Uncletopia | Los Angeles | 4 | Stopwatch","protocol":17,"map":"cp_snakewater_final1","folder":"tf","game":"Team Fortress","app_id":440,"player_count":0,"max_players":24,"Bots":0,"server_type":"Dedicated","server_os":"Linux","password":true,"vac":true,"version":"7961495","steam_id":85568392924510199,"keywords":["cp","nocrits","nodmgspread","uncletopia"],"game_id":440,"stv_port":27046,"stv_name":"Uncletopia | Los Angeles | 4 | Stopwatch | STV","players":null},{"server_id":11,"name":"Uncletopia | London | 1 | All Maps","name_short":"lon-1","host":"lon-1.uk.uncletopia.com","port":27015,"enabled":true,"region":"eu","cc":"gb","latitude":51.509865,"longitude":-0.118092,"reserved":0,"last_update":"0001-01-01T00:00:00Z","name_a2s":"Uncletopia | London | 1 | All Maps","protocol":17,"map":"koth_cascade","folder":"tf","game":"Team Fortress","app_id":440,"player_count":8,"max_players":24,"Bots":0,"server_type":"Dedicated","server_os":"Linux","password":true,"vac":true,"version":"7961495","steam_id":85568392924367362,"keywords":["cp","nocrits","nodmgspread","uncletopia"],"game_id":440,"stv_port":27016,"stv_name":"Uncletopia | London | 1 | All Maps | STV","players":[{"user_id":880,"name":"Touchy Tommy","steam_id":76561198194847049,"connected_time":696000000000,"state":"active","ping":48},{"user_id":850,"name":"Alice","steam_id":76561198322365540,"connected_time":3336000000000,"state":"active","ping":103},{"user_id":882,"name":"Immortalyes","steam_id":76561198050800698,"connected_time":556000000000,"state":"active","ping":68},{"user_id":887,"name":"Simply Autism!","steam_id":76561198223603960,"connected_time":274000000000,"state":"active","ping":36},{"user_id":859,"name":"king k rool","steam_id":76561199179040672,"connected_time":1865000000000,"state":"active","ping":46},{"user_id":827,"name":"MATLAB R2021b","steam_id":76561198053440695,"connected_time":4440000000000,"state":"active","ping":44},{"user_id":860,"name":"pootis sentry","steam_id":76561199225363633,"connected_time":1818000000000,"state":"active","ping":103},{"user_id":863,"name":"Critless","steam_id":76561198133968184,"connected_time":1560000000000,"state":"active","ping":47}]},{"server_id":114,"name":"Uncletopia | London | 2 | All Maps","name_short":"lon-2","host":"lon-1.uk.uncletopia.com","port":27025,"enabled":true,"region":"eu","cc":"gb","latitude":51.509865,"longitude":-0.118092,"reserved":0,"last_update":"0001-01-01T00:00:00Z","name_a2s":"Uncletopia | London | 2 | All Maps","protocol":17,"map":"cp_dustbowl","folder":"tf","game":"Team Fortress","app_id":440,"player_count":2,"max_players":24,"Bots":0,"server_type":"Dedicated","server_os":"Linux","password":true,"vac":true,"version":"7961495","steam_id":85568392924470941,"keywords":["cp","nocrits","nodmgspread","uncletopia"],"game_id":440,"stv_port":27026,"stv_name":"Uncletopia | London | 2 | All Maps | STV","players":[{"user_id":804,"name":"timothylmao38","steam_id":76561199348861599,"connected_time":849000000000,"state":"active","ping":301},{"user_id":800,"name":"Lord rei","steam_id":76561199257490283,"connected_time":2244000000000,"state":"active","ping":105}]},{"server_id":320,"name":"Uncletopia | London | 3 | All Maps","name_short":"lon-3","host":"lon-1.uk.uncletopia.com","port":27035,"enabled":true,"region":"eu","cc":"gb","latitude":51.509865,"longitude":-0.118092,"reserved":0,"last_update":"0001-01-01T00:00:00Z","name_a2s":"Uncletopia | London | 3 | All Maps","protocol":17,"map":"pl_borneo","folder":"tf","game":"Team Fortress","app_id":440,"player_count":0,"max_players":24,"Bots":0,"server_type":"Dedicated","server_os":"Linux","password":true,"vac":true,"version":"7961495","steam_id":85568392924510192,"keywords":["nocrits","nodmgspread","payload","uncletopia"],"game_id":440,"stv_port":27036,"stv_name":"Uncletopia | London | 3 | All Maps | STV","players":null},{"server_id":321,"name":"Uncletopia | London | 4 | All Maps","name_short":"lon-4","host":"lon-1.uk.uncletopia.com","port":27045,"enabled":true,"region":"eu","cc":"gb","latitude":51.509865,"longitude":-0.118092,"reserved":0,"last_update":"0001-01-01T00:00:00Z","name_a2s":"Uncletopia | London | 4 | All Maps","protocol":17,"map":"pl_borneo","folder":"tf","game":"Team Fortress","app_id":440,"player_count":0,"max_players":24,"Bots":0,"server_type":"Dedicated","server_os":"Linux","password":true,"vac":true,"version":"7961495","steam_id":85568392924510193,"keywords":["nocrits","nodmgspread","payload","uncletopia"],"game_id":440,"stv_port":27046,"stv_name":"Uncletopia | London | 4 | All Maps | STV","players":null},{"server_id":21,"name":"Uncletopia | London | 5 | All Maps","name_short":"lon-5","host":"lon-1.uk.uncletopia.com","port":27055,"enabled":true,"region":"eu","cc":"gb","latitude":51.509865,"longitude":-0.118092,"reserved":0,"last_update":"0001-01-01T00:00:00Z","name_a2s":"Uncletopia | London | 5 | All Maps","protocol":17,"map":"pl_upward","folder":"tf","game":"Team Fortress","app_id":440,"player_count":21,"max_players":24,"Bots":0,"server_type":"Dedicated","server_os":"Linux","password":true,"vac":true,"version":"7961495","steam_id":85568392924742829,"keywords":["nocrits","nodmgspread","payload","uncletopia"],"game_id":440,"stv_port":27056,"stv_name":"Uncletopia | London | 5 | All Maps | STV","players":[{"user_id":499,"name":"SK","steam_id":76561198351389571,"connected_time":72000000000,"state":"active","ping":89},{"user_id":432,"name":"yuck","steam_id":76561197987249568,"connected_time":4437000000000,"state":"active","ping":106},{"user_id":464,"name":"jonbob","steam_id":76561197963506620,"connected_time":1722000000000,"state":"active","ping":60},{"user_id":498,"name":"Kanny","steam_id":76561198058810184,"connected_time":167000000000,"state":"active","ping":53},{"user_id":456,"name":"Big Sauce","steam_id":76561198046654750,"connected_time":2799000000000,"state":"active","ping":116},{"user_id":452,"name":"toilet drinker","steam_id":76561199403589748,"connected_time":3207000000000,"state":"active","ping":126},{"user_id":455,"name":"Turbo","steam_id":76561197973697756,"connected_time":2927000000000,"state":"active","ping":45},{"user_id":478,"name":"МЕДИК!","steam_id":76561198803488036,"connected_time":886000000000,"state":"active","ping":112},{"user_id":462,"name":"Borat","steam_id":76561198122226417,"connected_time":1845000000000,"state":"active","ping":37},{"user_id":474,"name":"nNT ≠ Gara.Stark","steam_id":76561198009057907,"connected_time":1062000000000,"state":"active","ping":74},{"user_id":470,"name":"sqomboashous snickerdoodle","steam_id":76561198346001637,"connected_time":1350000000000,"state":"active","ping":158},{"user_id":457,"name":"Luyn","steam_id":76561198043829667,"connected_time":2789000000000,"state":"active","ping":59},{"user_id":472,"name":"Taterboy07","steam_id":76561199236691088,"connected_time":1328000000000,"state":"active","ping":159},{"user_id":480,"name":"Montrose","steam_id":76561198338911736,"connected_time":822000000000,"state":"active","ping":177},{"user_id":479,"name":"Ping Comms Only","steam_id":76561198071938027,"connected_time":865000000000,"state":"active","ping":44},{"user_id":481,"name":"Bobirulez","steam_id":76561198009125458,"connected_time":781000000000,"state":"active","ping":72},{"user_id":482,"name":"røverhul","steam_id":76561198150474100,"connected_time":765000000000,"state":"active","ping":69},{"user_id":483,"name":"a chimp with a keyboard","steam_id":76561198060270322,"connected_time":741000000000,"state":"active","ping":79},{"user_id":484,"name":"Talent","steam_id":76561198153880354,"connected_time":729000000000,"state":"active","ping":54},{"user_id":461,"name":"frosty","steam_id":76561198094560834,"connected_time":2139000000000,"state":"active","ping":51},{"user_id":497,"name":"GoatLord1","steam_id":76561198157964544,"connected_time":191000000000,"state":"active","ping":55}]},{"server_id":22,"name":"Uncletopia | London | 6 | All Maps","name_short":"lon-6","host":"lon-1.uk.uncletopia.com","port":27065,"enabled":true,"region":"eu","cc":"gb","latitude":51.509865,"longitude":-0.118092,"reserved":0,"last_update":"0001-01-01T00:00:00Z","name_a2s":"Uncletopia | London | 6 | All Maps","protocol":17,"map":"koth_highpass","folder":"tf","game":"Team Fortress","app_id":440,"player_count":0,"max_players":24,"Bots":0,"server_type":"Dedicated","server_os":"Linux","password":true,"vac":true,"version":"7961495","steam_id":85568392924742830,"keywords":["cp","nocrits","nodmgspread","uncletopia"],"game_id":440,"stv_port":27066,"stv_name":"Uncletopia | London | 6 | All Maps | STV","players":null},{"server_id":40,"name":"Uncletopia | London | 7 | Stopwatch","name_short":"lon-7","host":"lon-1.uk.uncletopia.com","port":27075,"enabled":true,"region":"eu","cc":"gb","latitude":51.509865,"longitude":-0.118092,"reserved":0,"last_update":"0001-01-01T00:00:00Z","name_a2s":"Uncletopia | London | 7 | Stopwatch","protocol":17,"map":"cp_gullywash_final1","folder":"tf","game":"Team Fortress","app_id":440,"player_count":0,"max_players":24,"Bots":0,"server_type":"Dedicated","server_os":"Linux","password":true,"vac":true,"version":"7961495","steam_id":85568392924964314,"keywords":["cp","nocrits","nodmgspread","uncletopia"],"game_id":440,"stv_port":27076,"stv_name":"Uncletopia | London | 7 | Stopwatch | STV","players":null},{"server_id":41,"name":"Uncletopia | London | 8 | Community","name_short":"lon-8","host":"lon-1.uk.uncletopia.com","port":27085,"enabled":true,"region":"eu","cc":"gb","latitude":51.509865,"longitude":-0.118092,"reserved":0,"last_update":"0001-01-01T00:00:00Z","name_a2s":"Uncletopia | London | 8 | Community","protocol":17,"map":"workshop/koth_ashville_final.ugc2130459942","folder":"tf","game":"Team Fortress","app_id":440,"player_count":0,"max_players":24,"Bots":0,"server_type":"Dedicated","server_os":"Linux","password":true,"vac":true,"version":"7961495","steam_id":85568392924964315,"keywords":["cp","nocrits","nodmgspread","uncletopia"],"game_id":440,"stv_port":27086,"stv_name":"Uncletopia | London | 8 | Community | STV","players":null},{"server_id":300,"name":"Uncletopia | Montréal | 1 | One Thousand Uncles","name_short":"mtl-1","host":"mtl-1.ca.uncletopia.com","port":27015,"enabled":true,"region":"us-east","cc":"ca","latitude":45.50889,"longitude":-73.56167,"reserved":0,"last_update":"0001-01-01T00:00:00Z","name_a2s":"","protocol":0,"map":"","folder":"","game":"","app_id":0,"player_count":8,"max_players":0,"Bots":0,"server_type":"","server_os":"","password":false,"vac":false,"version":"","steam_id":0,"keywords":null,"game_id":0,"stv_port":0,"stv_name":"","players":[{"user_id":463,"name":"concrete_car","steam_id":76561198388207363,"connected_time":3298000000000,"state":"active","ping":64},{"user_id":470,"name":"manbearswineflu","steam_id":76561198083945137,"connected_time":1547000000000,"state":"active","ping":75},{"user_id":361,"name":"schnedwob","steam_id":76561197999146588,"connected_time":10132000000000,"state":"active","ping":86},{"user_id":469,"name":"Pox4Dinner","steam_id":76561198036958101,"connected_time":1761000000000,"state":"active","ping":63},{"user_id":471,"name":"GanZ","steam_id":76561199378883538,"connected_time":1301000000000,"state":"active","ping":48},{"user_id":474,"name":"Duk","steam_id":76561198450692568,"connected_time":703000000000,"state":"active","ping":81},{"user_id":476,"name":"walterfishing_17","steam_id":76561198976904099,"connected_time":679000000000,"state":"active","ping":83},{"user_id":378,"name":"PieSpie","steam_id":76561198054531169,"connected_time":8575000000000,"state":"active","ping":88}]},{"server_id":301,"name":"Uncletopia | Montréal | 2 | One Thousand Uncles","name_short":"mtl-2","host":"mtl-1.ca.uncletopia.com","port":27025,"enabled":true,"region":"us-east","cc":"ca","latitude":45.50889,"longitude":-73.56167,"reserved":0,"last_update":"0001-01-01T00:00:00Z","name_a2s":"","protocol":0,"map":"","folder":"","game":"","app_id":0,"player_count":0,"max_players":0,"Bots":0,"server_type":"","server_os":"","password":false,"vac":false,"version":"","steam_id":0,"keywords":null,"game_id":0,"stv_port":0,"stv_name":"","players":null},{"server_id":302,"name":"Uncletopia | Montréal | 3 | One Thousand Uncles","name_short":"mtl-3","host":"mtl-1.ca.uncletopia.com","port":27035,"enabled":true,"region":"us-east","cc":"ca","latitude":45.50889,"longitude":-73.56167,"reserved":0,"last_update":"0001-01-01T00:00:00Z","name_a2s":"","protocol":0,"map":"","folder":"","game":"","app_id":0,"player_count":3,"max_players":0,"Bots":0,"server_type":"","server_os":"","password":false,"vac":false,"version":"","steam_id":0,"keywords":null,"game_id":0,"stv_port":0,"stv_name":"","players":[{"user_id":63,"name":"Swash","steam_id":76561197969421355,"connected_time":7600000000000,"state":"active","ping":47},{"user_id":117,"name":"Lots0","steam_id":76561198043143145,"connected_time":2756000000000,"state":"active","ping":89},{"user_id":122,"name":"Dennis Reynolds","steam_id":76561197960371259,"connected_time":2631000000000,"state":"active","ping":78}]},{"server_id":13,"name":"Uncletopia | New York City | 1 | All Maps","name_short":"nyc-1","host":"nyc-1.us.uncletopia.com","port":27015,"enabled":true,"region":"us-east","cc":"us","latitude":40.73061,"longitude":-73.93524,"reserved":0,"last_update":"0001-01-01T00:00:00Z","name_a2s":"Uncletopia | New York City | 1 | All Maps","protocol":17,"map":"pl_borneo","folder":"tf","game":"Team Fortress","app_id":440,"player_count":24,"max_players":24,"Bots":0,"server_type":"Dedicated","server_os":"Linux","password":true,"vac":true,"version":"7961495","steam_id":85568392924469993,"keywords":["nocrits","nodmgspread","payload","uncletopia"],"game_id":440,"stv_port":27016,"stv_name":"Uncletopia | New York City | 1 | All Maps | STV","players":[{"user_id":466,"name":"stormfoam","steam_id":76561198936871387,"connected_time":5202000000000,"state":"active","ping":84},{"user_id":533,"name":"Nasteen27","steam_id":76561199159513164,"connected_time":1506000000000,"state":"active","ping":80},{"user_id":520,"name":"MondoDong","steam_id":76561197991400109,"connected_time":2483000000000,"state":"active","ping":53},{"user_id":477,"name":"Yuzu","steam_id":76561198417913035,"connected_time":3981000000000,"state":"active","ping":70},{"user_id":468,"name":"roman","steam_id":76561198170066797,"connected_time":5157000000000,"state":"active","ping":59},{"user_id":537,"name":"Tristen0808","steam_id":76561198154235444,"connected_time":1019000000000,"state":"active","ping":73},{"user_id":512,"name":"Glitchy stick","steam_id":76561199013429386,"connected_time":2653000000000,"state":"active","ping":62},{"user_id":515,"name":"The Wave","steam_id":76561198268225109,"connected_time":2598000000000,"state":"active","ping":83},{"user_id":513,"name":"Mirelas","steam_id":76561198839360212,"connected_time":2647000000000,"state":"active","ping":77},{"user_id":511,"name":"Bee","steam_id":76561198074681324,"connected_time":2699000000000,"state":"active","ping":48},{"user_id":504,"name":"lfty","steam_id":76561198283841707,"connected_time":2852000000000,"state":"active","ping":49},{"user_id":536,"name":"reis","steam_id":76561199232952016,"connected_time":1370000000000,"state":"active","ping":168},{"user_id":538,"name":"BreadFish","steam_id":76561198834556559,"connected_time":610000000000,"state":"active","ping":71},{"user_id":543,"name":"ive lost my marbles","steam_id":76561198284576334,"connected_time":158000000000,"state":"active","ping":54},{"user_id":540,"name":"ndvr","steam_id":76561199379200102,"connected_time":549000000000,"state":"active","ping":54},{"user_id":544,"name":"Lore","steam_id":76561198098407538,"connected_time":148000000000,"state":"active","ping":62},{"user_id":519,"name":"Rornir","steam_id":76561198081829615,"connected_time":2551000000000,"state":"active","ping":55},{"user_id":542,"name":"Bee_Pirate","steam_id":76561199000599111,"connected_time":194000000000,"state":"active","ping":67},{"user_id":528,"name":"batheman63","steam_id":76561198881818552,"connected_time":1773000000000,"state":"active","ping":62},{"user_id":523,"name":"Porcupine's Revenge!","steam_id":76561199121615234,"connected_time":2021000000000,"state":"active","ping":44},{"user_id":493,"name":"The Colonel","steam_id":76561198081280583,"connected_time":3297000000000,"state":"active","ping":60},{"user_id":545,"name":"femboy enjoyer","steam_id":76561199068665492,"connected_time":123000000000,"state":"active","ping":157},{"user_id":546,"name":"Ulysses  a.D.","steam_id":76561198070493483,"connected_time":59000000000,"state":"active","ping":123},{"user_id":517,"name":"too deep for most to understand","steam_id":76561198022636144,"connected_time":2565000000000,"state":"active","ping":43}]},{"server_id":14,"name":"Uncletopia | New York City | 2 | All Maps","name_short":"nyc-2","host":"nyc-1.us.uncletopia.com","port":27025,"enabled":true,"region":"us-east","cc":"us","latitude":40.73061,"longitude":-73.93524,"reserved":0,"last_update":"0001-01-01T00:00:00Z","name_a2s":"Uncletopia | New York City | 2 | All Maps","protocol":17,"map":"pl_upward","folder":"tf","game":"Team Fortress","app_id":440,"player_count":10,"max_players":24,"Bots":0,"server_type":"Dedicated","server_os":"Linux","password":true,"vac":true,"version":"7961495","steam_id":85568392924469994,"keywords":["nocrits","nodmgspread","payload","uncletopia"],"game_id":440,"stv_port":27026,"stv_name":"Uncletopia | New York City | 2 | All Maps | STV","players":[{"user_id":461,"name":"MegaXCK","steam_id":76561199166444957,"connected_time":39000000000,"state":"active","ping":59},{"user_id":460,"name":"Timothy Grunclebottoms","steam_id":76561198871450477,"connected_time":121000000000,"state":"active","ping":70},{"user_id":457,"name":"Hopdon The Magic Bunny","steam_id":76561198051616613,"connected_time":448000000000,"state":"active","ping":88},{"user_id":430,"name":"FAKE TAXI PRANKS","steam_id":76561198136746987,"connected_time":2768000000000,"state":"active","ping":78},{"user_id":418,"name":"Suck Her Dick Sunday","steam_id":76561198029274581,"connected_time":4142000000000,"state":"active","ping":66},{"user_id":454,"name":"Guil","steam_id":76561197993289176,"connected_time":547000000000,"state":"active","ping":56},{"user_id":431,"name":"Synell","steam_id":76561198053232523,"connected_time":2707000000000,"state":"active","ping":56},{"user_id":453,"name":"Artemisia (She/They)","steam_id":76561198265616793,"connected_time":759000000000,"state":"active","ping":96},{"user_id":452,"name":"Junipyre","steam_id":76561198044819364,"connected_time":1098000000000,"state":"active","ping":94},{"user_id":459,"name":"Oakspace_","steam_id":76561198132487015,"connected_time":193000000000,"state":"active","ping":58}]},{"server_id":15,"name":"Uncletopia | New York City | 3 | Stopwatch","name_short":"nyc-3","host":"nyc-1.us.uncletopia.com","port":27035,"enabled":true,"region":"us-east","cc":"us","latitude":40.73061,"longitude":-73.93524,"reserved":0,"last_update":"0001-01-01T00:00:00Z","name_a2s":"Uncletopia | New York City | 3 | Stopwatch","protocol":17,"map":"workshop/koth_ramjam_rc1.ugc459778887","folder":"tf","game":"Team Fortress","app_id":440,"player_count":3,"max_players":24,"Bots":0,"server_type":"Dedicated","server_os":"Linux","password":true,"vac":true,"version":"7961495","steam_id":85568392924742820,"keywords":["cp","nocrits","nodmgspread","uncletopia"],"game_id":440,"stv_port":27036,"stv_name":"Uncletopia | New York City | 3 | Stopwatch | STV","players":[{"user_id":24,"name":"The Collective(Hypnotist)","steam_id":76561198170423483,"connected_time":541000000000,"state":"active","ping":59},{"user_id":25,"name":"angle_anna3","steam_id":76561199498585154,"connected_time":533000000000,"state":"active","ping":72},{"user_id":27,"name":"nfseskimo","steam_id":76561198078745666,"connected_time":258000000000,"state":"active","ping":105}]},{"server_id":16,"name":"Uncletopia | New York City | 4 | Community","name_short":"nyc-4","host":"nyc-1.us.uncletopia.com","port":27045,"enabled":true,"region":"us-east","cc":"us","latitude":40.73061,"longitude":-73.93524,"reserved":0,"last_update":"0001-01-01T00:00:00Z","name_a2s":"Uncletopia | New York City | 4 | Community","protocol":17,"map":"workshop/koth_trenchfoot_b1a.ugc731436616","folder":"tf","game":"Team Fortress","app_id":440,"player_count":0,"max_players":24,"Bots":0,"server_type":"Dedicated","server_os":"Linux","password":true,"vac":true,"version":"7961495","steam_id":85568392924742821,"keywords":["cp","nocrits","nodmgspread","uncletopia"],"game_id":440,"stv_port":27046,"stv_name":"Uncletopia | New York City | 4 | Community | STV","players":null},{"server_id":142,"name":"Uncletopia | São Paulo | 1 | All Maps","name_short":"sao-1","host":"sao-1.br.uncletopia.com","port":27015,"enabled":true,"region":"sa","cc":"br","latitude":-23.533773,"longitude":-46.62529,"reserved":0,"last_update":"0001-01-01T00:00:00Z","name_a2s":"Uncletopia | São Paulo | 1 | All Maps","protocol":17,"map":"pl_barnblitz","folder":"tf","game":"Team Fortress","app_id":440,"player_count":0,"max_players":24,"Bots":0,"server_type":"Dedicated","server_os":"Linux","password":true,"vac":true,"version":"7961495","steam_id":85568392924469996,"keywords":["nocrits","nodmgspread","payload","uncletopia"],"game_id":440,"stv_port":27016,"stv_name":"Uncletopia | São Paulo | 1 | All Maps | STV","players":null},{"server_id":143,"name":"Uncletopia | São Paulo | 2 | Community","name_short":"sao-2","host":"sao-2.br.uncletopia.com","port":27015,"enabled":true,"region":"sa","cc":"br","latitude":-23.533773,"longitude":-46.62529,"reserved":0,"last_update":"0001-01-01T00:00:00Z","name_a2s":"Uncletopia | São Paulo | 2 | Community","protocol":17,"map":"workshop/koth_ashville_final.ugc2130459942","folder":"tf","game":"Team Fortress","app_id":440,"player_count":0,"max_players":24,"Bots":0,"server_type":"Dedicated","server_os":"Linux","password":true,"vac":true,"version":"7961495","steam_id":85568392924485349,"keywords":["cp","nocrits","nodmgspread","uncletopia"],"game_id":440,"stv_port":27016,"stv_name":"Uncletopia | São Paulo | 2 | Community | STV","players":null},{"server_id":7,"name":"Uncletopia | Seattle | 1 | All Maps","name_short":"sea-1","host":"sea-1.us.uncletopia.com","port":27015,"enabled":true,"region":"us-west","cc":"us","latitude":47.608013,"longitude":-122.33517,"reserved":0,"last_update":"0001-01-01T00:00:00Z","name_a2s":"Uncletopia | Seattle | 1 | All Maps","protocol":17,"map":"pl_upward","folder":"tf","game":"Team Fortress","app_id":440,"player_count":24,"max_players":24,"Bots":0,"server_type":"Dedicated","server_os":"Linux","password":true,"vac":true,"version":"7961495","steam_id":85568392924469997,"keywords":["nocrits","nodmgspread","payload","uncletopia"],"game_id":440,"stv_port":27016,"stv_name":"Uncletopia | Seattle | 1 | All Maps | STV","players":[{"user_id":486,"name":"Mitchell","steam_id":76561197972922328,"connected_time":550000000000,"state":"active","ping":58},{"user_id":467,"name":"ed","steam_id":76561198080475712,"connected_time":2825000000000,"state":"active","ping":76},{"user_id":475,"name":"GRONT","steam_id":76561198040464533,"connected_time":2551000000000,"state":"active","ping":119},{"user_id":488,"name":"DevourerofGlass","steam_id":76561199443647976,"connected_time":549000000000,"state":"active","ping":96},{"user_id":430,"name":"Legionnaire man","steam_id":76561199338313228,"connected_time":7036000000000,"state":"active","ping":70},{"user_id":487,"name":"GgDionne","steam_id":76561198079684772,"connected_time":550000000000,"state":"active","ping":46},{"user_id":489,"name":"thunderous prophet","steam_id":76561198131166135,"connected_time":514000000000,"state":"active","ping":37},{"user_id":470,"name":"[Bandit]","steam_id":76561197986919852,"connected_time":2788000000000,"state":"active","ping":46},{"user_id":433,"name":"Spectre","steam_id":76561198037535169,"connected_time":6475000000000,"state":"active","ping":65},{"user_id":364,"name":"ShiningForce","steam_id":76561198026039048,"connected_time":12706000000000,"state":"active","ping":76},{"user_id":491,"name":"a great chinese monkey","steam_id":76561199059310006,"connected_time":400000000000,"state":"active","ping":48},{"user_id":468,"name":"Dongus","steam_id":76561197979056451,"connected_time":2812000000000,"state":"active","ping":59},{"user_id":473,"name":"MantisToboggan","steam_id":76561197969447887,"connected_time":2653000000000,"state":"active","ping":88},{"user_id":447,"name":"Lili","steam_id":76561199488457138,"connected_time":5363000000000,"state":"active","ping":57},{"user_id":456,"name":"Cheezbeargur","steam_id":76561198164702899,"connected_time":4159000000000,"state":"active","ping":74},{"user_id":472,"name":"Johnnyboy503","steam_id":76561198127833187,"connected_time":2671000000000,"state":"active","ping":56},{"user_id":464,"name":"a cat plushie","steam_id":76561198080046542,"connected_time":3128000000000,"state":"active","ping":44},{"user_id":450,"name":"ilun","steam_id":76561198042913843,"connected_time":4950000000000,"state":"active","ping":61},{"user_id":474,"name":"2cats_2curious","steam_id":76561198027143149,"connected_time":2621000000000,"state":"active","ping":79},{"user_id":477,"name":"2 much p00p","steam_id":76561198847372026,"connected_time":2323000000000,"state":"active","ping":48},{"user_id":482,"name":"mrow","steam_id":76561198171840525,"connected_time":769000000000,"state":"active","ping":53},{"user_id":479,"name":"Level 3 hotdog enjoyer","steam_id":76561198870649125,"connected_time":1133000000000,"state":"active","ping":81},{"user_id":492,"name":"Skabbety","steam_id":76561198168044257,"connected_time":399000000000,"state":"active","ping":45},{"user_id":466,"name":"sleePI","steam_id":76561198450073779,"connected_time":3074000000000,"state":"active","ping":45}]},{"server_id":119,"name":"Uncletopia | Seattle | 2 | All Maps","name_short":"sea-2","host":"sea-1.us.uncletopia.com","port":27025,"enabled":true,"region":"us-west","cc":"us","latitude":47.608013,"longitude":-122.33517,"reserved":0,"last_update":"0001-01-01T00:00:00Z","name_a2s":"Uncletopia | Seattle | 2 | All Maps","protocol":17,"map":"pl_badwater","folder":"tf","game":"Team Fortress","app_id":440,"player_count":24,"max_players":24,"Bots":0,"server_type":"Dedicated","server_os":"Linux","password":true,"vac":true,"version":"7961495","steam_id":85568392924469998,"keywords":["nocrits","nodmgspread","payload","uncletopia"],"game_id":440,"stv_port":27026,"stv_name":"Uncletopia | Seattle | 2 | All Maps | STV","players":[{"user_id":537,"name":"CashGordon","steam_id":76561197975594096,"connected_time":2302000000000,"state":"active","ping":40},{"user_id":557,"name":"MrYadaization","steam_id":76561198050770818,"connected_time":1750000000000,"state":"active","ping":56},{"user_id":573,"name":"Haydob13","steam_id":76561198110378191,"connected_time":405000000000,"state":"active","ping":56},{"user_id":527,"name":"fish","steam_id":76561198303575607,"connected_time":3100000000000,"state":"active","ping":123},{"user_id":504,"name":"Jshoe","steam_id":76561198128252048,"connected_time":5140000000000,"state":"active","ping":66},{"user_id":559,"name":"Glanderson booper","steam_id":76561198021223747,"connected_time":1704000000000,"state":"active","ping":44},{"user_id":569,"name":"BALLADS 2","steam_id":76561198062712676,"connected_time":697000000000,"state":"active","ping":35},{"user_id":516,"name":"SadFapping","steam_id":76561198076651049,"connected_time":4021000000000,"state":"active","ping":45},{"user_id":489,"name":"Diesel","steam_id":76561198448815852,"connected_time":6612000000000,"state":"active","ping":47},{"user_id":574,"name":"asterismz","steam_id":76561198271895997,"connected_time":382000000000,"state":"active","ping":48},{"user_id":568,"name":"Tideflat","steam_id":76561198179850851,"connected_time":744000000000,"state":"active","ping":56},{"user_id":541,"name":"♥ Osana Najimi ♥ (Soupcan)","steam_id":76561198056269538,"connected_time":2163000000000,"state":"active","ping":51},{"user_id":548,"name":"Lilith","steam_id":76561198120362654,"connected_time":2035000000000,"state":"active","ping":45},{"user_id":565,"name":"Pork Belly","steam_id":76561198053003142,"connected_time":1143000000000,"state":"active","ping":72},{"user_id":553,"name":"TheCowledWiz","steam_id":76561198016735868,"connected_time":1893000000000,"state":"active","ping":45},{"user_id":521,"name":"Lucide","steam_id":76561197998530400,"connected_time":3374000000000,"state":"active","ping":59},{"user_id":572,"name":"imasheep","steam_id":76561198210322871,"connected_time":409000000000,"state":"active","ping":83},{"user_id":570,"name":"Qas","steam_id":76561198067564482,"connected_time":689000000000,"state":"active","ping":109},{"user_id":577,"name":"Spread Joy, Not Hate","steam_id":76561198053117503,"connected_time":180000000000,"state":"active","ping":60},{"user_id":561,"name":"GregGaming098","steam_id":76561198882415360,"connected_time":1454000000000,"state":"active","ping":54},{"user_id":551,"name":"Branta","steam_id":76561199103842843,"connected_time":1963000000000,"state":"active","ping":34},{"user_id":575,"name":"riSygneD","steam_id":76561198331618687,"connected_time":359000000000,"state":"active","ping":71},{"user_id":571,"name":"Bendidy","steam_id":76561198041964300,"connected_time":413000000000,"state":"active","ping":61},{"user_id":576,"name":"❤ Ashley ❤","steam_id":76561198056428303,"connected_time":353000000000,"state":"active","ping":75}]},{"server_id":406,"name":"Uncletopia | Seattle | 3 | Stopwatch","name_short":"sea-3","host":"sea-1.us.uncletopia.com","port":27035,"enabled":true,"region":"us-west","cc":"us","latitude":47.608013,"longitude":-122.33517,"reserved":0,"last_update":"0001-01-01T00:00:00Z","name_a2s":"Uncletopia | Seattle | 3 | Stopwatch","protocol":17,"map":"workshop/koth_clearcut_b15.ugc2107050255","folder":"tf","game":"Team Fortress","app_id":440,"player_count":0,"max_players":24,"Bots":0,"server_type":"Dedicated","server_os":"Linux","password":true,"vac":true,"version":"7961495","steam_id":85568392924515217,"keywords":["cp","nocrits","nodmgspread","uncletopia"],"game_id":440,"stv_port":27036,"stv_name":"Uncletopia | Seattle | 3 | Stopwatch | STV","players":null},{"server_id":17,"name":"Uncletopia | San Francisco | 1 | All Maps","name_short":"sfo-1","host":"sfo-1.us.uncletopia.com","port":27015,"enabled":true,"region":"us-west","cc":"us","latitude":37.77397,"longitude":-122.4313,"reserved":0,"last_update":"0001-01-01T00:00:00Z","name_a2s":"Uncletopia | San Francisco | 1 | All Maps","protocol":17,"map":"koth_viaduct","folder":"tf","game":"Team Fortress","app_id":440,"player_count":0,"max_players":24,"Bots":0,"server_type":"Dedicated","server_os":"Linux","password":true,"vac":true,"version":"7961495","steam_id":85568392924469999,"keywords":["cp","nocrits","nodmgspread","uncletopia"],"game_id":440,"stv_port":27016,"stv_name":"Uncletopia | San Francisco | 1 | All Maps | STV","players":null},{"server_id":18,"name":"Uncletopia | San Francisco | 2 | All Maps","name_short":"sfo-2","host":"sfo-1.us.uncletopia.com","port":27025,"enabled":true,"region":"us-west","cc":"us","latitude":37.77397,"longitude":-122.4313,"reserved":0,"last_update":"0001-01-01T00:00:00Z","name_a2s":"Uncletopia | San Francisco | 2 | All Maps","protocol":17,"map":"cp_snakewater_final1","folder":"tf","game":"Team Fortress","app_id":440,"player_count":21,"max_players":24,"Bots":0,"server_type":"Dedicated","server_os":"Linux","password":true,"vac":true,"version":"7961495","steam_id":85568392924470000,"keywords":["cp","nocrits","nodmgspread","uncletopia"],"game_id":440,"stv_port":27026,"stv_name":"Uncletopia | San Francisco | 2 | All Maps | STV","players":[{"user_id":165,"name":"'Oddo","steam_id":76561198090866900,"connected_time":1112000000000,"state":"active","ping":103},{"user_id":181,"name":"Thunder","steam_id":76561198097721532,"connected_time":28000000000,"state":"active","ping":57},{"user_id":175,"name":"Axelfreeze14","steam_id":76561198436383913,"connected_time":207000000000,"state":"active","ping":54},{"user_id":172,"name":"Thermo","steam_id":76561198978967412,"connected_time":595000000000,"state":"active","ping":45},{"user_id":173,"name":"sez","steam_id":76561199465922101,"connected_time":415000000000,"state":"active","ping":80},{"user_id":154,"name":"Whiskey","steam_id":76561198858154667,"connected_time":2008000000000,"state":"active","ping":59},{"user_id":142,"name":"Phos","steam_id":76561198122339506,"connected_time":2603000000000,"state":"active","ping":80},{"user_id":147,"name":"Rock Kickass","steam_id":76561198450510841,"connected_time":2362000000000,"state":"active","ping":90},{"user_id":126,"name":"LiMa","steam_id":76561198872798792,"connected_time":4342000000000,"state":"active","ping":85},{"user_id":156,"name":"jerma watcher to femboy pipelin","steam_id":76561198065662025,"connected_time":1877000000000,"state":"active","ping":51},{"user_id":176,"name":"Hatchitis","steam_id":76561198320346037,"connected_time":184000000000,"state":"active","ping":59},{"user_id":164,"name":"FaZe hyazZzZaZa","steam_id":76561199100342013,"connected_time":1116000000000,"state":"active","ping":48},{"user_id":139,"name":"Lambchop","steam_id":76561198043900363,"connected_time":3163000000000,"state":"active","ping":60},{"user_id":160,"name":"Grassman (Cc)","steam_id":76561198026488532,"connected_time":1718000000000,"state":"active","ping":36},{"user_id":177,"name":"Kinetic Warlord","steam_id":76561198007900244,"connected_time":155000000000,"state":"active","ping":98},{"user_id":140,"name":"DeckofDragons","steam_id":76561198057398213,"connected_time":2910000000000,"state":"active","ping":78},{"user_id":178,"name":"Mister Mystical Perfection","steam_id":76561198036444997,"connected_time":110000000000,"state":"active","ping":61},{"user_id":171,"name":"Red-Raven","steam_id":76561197971130794,"connected_time":636000000000,"state":"active","ping":68},{"user_id":179,"name":"[S]Mr. X [No Monitor]","steam_id":76561197963746035,"connected_time":101000000000,"state":"active","ping":90},{"user_id":137,"name":"Hydroxianchaos","steam_id":76561198043786828,"connected_time":3421000000000,"state":"active","ping":112},{"user_id":152,"name":"Paint Huffing Yoshi Player","steam_id":76561198028969023,"connected_time":2072000000000,"state":"active","ping":75}]},{"server_id":19,"name":"Uncletopia | San Francisco | 3 | Stopwatch","name_short":"sfo-3","host":"sfo-1.us.uncletopia.com","port":27035,"enabled":true,"region":"us-west","cc":"us","latitude":37.77397,"longitude":-122.4313,"reserved":0,"last_update":"0001-01-01T00:00:00Z","name_a2s":"Uncletopia | San Francisco | 3 | Stopwatch","protocol":17,"map":"workshop/koth_clearcut_b15.ugc2107050255","folder":"tf","game":"Team Fortress","app_id":440,"player_count":0,"max_players":24,"Bots":0,"server_type":"Dedicated","server_os":"Linux","password":true,"vac":true,"version":"7961495","steam_id":85568392924742824,"keywords":["cp","nocrits","nodmgspread","uncletopia"],"game_id":440,"stv_port":27036,"stv_name":"Uncletopia | San Francisco | 3 | Stopwatch | STV","players":null},{"server_id":20,"name":"Uncletopia | San Francisco | 4 | Community","name_short":"sfo-4","host":"sfo-1.us.uncletopia.com","port":27045,"enabled":true,"region":"us-west","cc":"us","latitude":37.77397,"longitude":-122.4313,"reserved":0,"last_update":"0001-01-01T00:00:00Z","name_a2s":"Uncletopia | San Francisco | 4 | Community","protocol":17,"map":"workshop/pl_boundary_final1.ugc456799153","folder":"tf","game":"Team Fortress","app_id":440,"player_count":0,"max_players":24,"Bots":0,"server_type":"Dedicated","server_os":"Linux","password":true,"vac":true,"version":"7961495","steam_id":85568392924742826,"keywords":["nocrits","nodmgspread","payload","uncletopia"],"game_id":440,"stv_port":27046,"stv_name":"Uncletopia | San Francisco | 4 | Community | STV","players":null},{"server_id":141,"name":"Uncletopia | Sydney | 1 | All Maps","name_short":"syd-1","host":"syd-1.au.uncletopia.com","port":27015,"enabled":true,"region":"au","cc":"au","latitude":-33.865143,"longitude":151.2099,"reserved":0,"last_update":"0001-01-01T00:00:00Z","name_a2s":"Uncletopia | Sydney | 1 | All Maps","protocol":17,"map":"ctf_2fort","folder":"tf","game":"Team Fortress","app_id":440,"player_count":24,"max_players":24,"Bots":0,"server_type":"Dedicated","server_os":"Linux","password":true,"vac":true,"version":"7961495","steam_id":85568392924470001,"keywords":["ctf","nocrits","nodmgspread","uncletopia"],"game_id":440,"stv_port":27016,"stv_name":"Uncletopia | Sydney | 1 | All Maps | STV","players":[{"user_id":178,"name":"8MILLION (del david)","steam_id":76561198140339181,"connected_time":1611000000000,"state":"active","ping":99},{"user_id":177,"name":"Really(Del Davis)","steam_id":76561198153397177,"connected_time":1724000000000,"state":"active","ping":55},{"user_id":180,"name":"Daniel Chong (Del Davis)","steam_id":76561199009189725,"connected_time":1584000000000,"state":"active","ping":63},{"user_id":205,"name":"fat tits haver","steam_id":76561198081681647,"connected_time":364000000000,"state":"active","ping":75},{"user_id":184,"name":"dave orit ඞ","steam_id":76561198051367425,"connected_time":1405000000000,"state":"active","ping":60},{"user_id":185,"name":"The Cake Is A Pie","steam_id":76561198043068402,"connected_time":1376000000000,"state":"active","ping":68},{"user_id":193,"name":"Dino Gazz","steam_id":76561198046899495,"connected_time":898000000000,"state":"active","ping":49},{"user_id":209,"name":"alex","steam_id":76561198053382248,"connected_time":155000000000,"state":"active","ping":48},{"user_id":182,"name":"Bait Monkey","steam_id":76561198085392224,"connected_time":1485000000000,"state":"active","ping":54},{"user_id":194,"name":"human696982","steam_id":76561199496222946,"connected_time":848000000000,"state":"active","ping":165},{"user_id":192,"name":"roy","steam_id":76561198441878967,"connected_time":951000000000,"state":"active","ping":159},{"user_id":211,"name":"Beangodhiann","steam_id":76561198189663681,"connected_time":19000000000,"state":"spawning","ping":84},{"user_id":172,"name":"P. Ness","steam_id":76561198037664265,"connected_time":2174000000000,"state":"active","ping":59},{"user_id":189,"name":"pogowashere","steam_id":76561198271166106,"connected_time":1088000000000,"state":"active","ping":69},{"user_id":199,"name":"miyamoto is daddy","steam_id":76561199483818230,"connected_time":671000000000,"state":"active","ping":73},{"user_id":203,"name":"Medieval Cucumber Sorcerer","steam_id":76561198972095766,"connected_time":455000000000,"state":"active","ping":44},{"user_id":207,"name":"Victor","steam_id":76561198324441442,"connected_time":261000000000,"state":"active","ping":74},{"user_id":151,"name":"Muffin","steam_id":76561198075391119,"connected_time":4156000000000,"state":"active","ping":53},{"user_id":169,"name":"TF2oi","steam_id":76561199073820836,"connected_time":2266000000000,"state":"active","ping":71},{"user_id":198,"name":"grandpa","steam_id":76561198054265152,"connected_time":729000000000,"state":"active","ping":93},{"user_id":171,"name":"fun haver","steam_id":76561197996866578,"connected_time":2240000000000,"state":"active","ping":59},{"user_id":210,"name":"callum.jones2008","steam_id":76561198050053720,"connected_time":97000000000,"state":"active","ping":72},{"user_id":163,"name":"Pompadouraus","steam_id":76561198327530525,"connected_time":3203000000000,"state":"active","ping":75},{"user_id":201,"name":"Bigrichard","steam_id":76561198032092945,"connected_time":466000000000,"state":"active","ping":77}]},{"server_id":123,"name":"Uncletopia | Sydney | 2 | All Maps","name_short":"syd-2","host":"syd-1.au.uncletopia.com","port":27025,"enabled":true,"region":"au","cc":"au","latitude":-33.865143,"longitude":151.2099,"reserved":0,"last_update":"0001-01-01T00:00:00Z","name_a2s":"Uncletopia | Sydney | 2 | All Maps","protocol":17,"map":"koth_lakeside_final","folder":"tf","game":"Team Fortress","app_id":440,"player_count":0,"max_players":24,"Bots":0,"server_type":"Dedicated","server_os":"Linux","password":true,"vac":true,"version":"7961495","steam_id":85568392924470002,"keywords":["cp","nocrits","nodmgspread","uncletopia"],"game_id":440,"stv_port":27026,"stv_name":"Uncletopia | Sydney | 2 | All Maps | STV","players":null},{"server_id":395,"name":"Uncletopia | Sydney | 3 | All Maps","name_short":"syd-3","host":"syd-1.au.uncletopia.com","port":27035,"enabled":true,"region":"au","cc":"au","latitude":-33.865143,"longitude":151.2099,"reserved":0,"last_update":"0001-01-01T00:00:00Z","name_a2s":"Uncletopia | Sydney | 3 | All Maps","protocol":17,"map":"pl_frontier_final","folder":"tf","game":"Team Fortress","app_id":440,"player_count":0,"max_players":24,"Bots":0,"server_type":"Dedicated","server_os":"Linux","password":true,"vac":true,"version":"7961495","steam_id":85568392925194467,"keywords":["nocrits","nodmgspread","payload","uncletopia"],"game_id":440,"stv_port":27036,"stv_name":"Uncletopia | Sydney | 3 | All Maps | STV","players":null},{"server_id":396,"name":"Uncletopia | Sydney | 4 | All Maps","name_short":"syd-4","host":"syd-1.au.uncletopia.com","port":27045,"enabled":true,"region":"au","cc":"au","latitude":-33.865143,"longitude":151.2099,"reserved":0,"last_update":"0001-01-01T00:00:00Z","name_a2s":"Uncletopia | Sydney | 4 | All Maps","protocol":17,"map":"cp_process_final","folder":"tf","game":"Team Fortress","app_id":440,"player_count":0,"max_players":24,"Bots":0,"server_type":"Dedicated","server_os":"Linux","password":true,"vac":true,"version":"7961495","steam_id":85568392925397958,"keywords":["cp","nocrits","nodmgspread","uncletopia"],"game_id":440,"stv_port":27046,"stv_name":"Uncletopia | Sydney | 4 | All Maps | STV","players":null},{"server_id":58,"name":"Uncletopia | Sydney | 5 | Stopwatch","name_short":"syd-5","host":"syd-1.au.uncletopia.com","port":27055,"enabled":true,"region":"au","cc":"au","latitude":-33.865143,"longitude":151.2099,"reserved":0,"last_update":"0001-01-01T00:00:00Z","name_a2s":"Uncletopia | Sydney | 5 | Stopwatch","protocol":17,"map":"workshop/koth_bagel_rc6.ugc2514036946","folder":"tf","game":"Team Fortress","app_id":440,"player_count":0,"max_players":24,"Bots":0,"server_type":"Dedicated","server_os":"Linux","password":true,"vac":true,"version":"7961495","steam_id":85568392925397959,"keywords":["cp","nocrits","nodmgspread","uncletopia"],"game_id":440,"stv_port":27056,"stv_name":"Uncletopia | Sydney | 5 | Stopwatch | STV","players":null},{"server_id":59,"name":"Uncletopia | Sydney | 6 | Community","name_short":"syd-6","host":"syd-1.au.uncletopia.com","port":27065,"enabled":true,"region":"au","cc":"au","latitude":-33.865143,"longitude":151.2099,"reserved":0,"last_update":"0001-01-01T00:00:00Z","name_a2s":"Uncletopia | Sydney | 6 | Community","protocol":17,"map":"workshop/koth_kemptown_rc1.ugc767410655","folder":"tf","game":"Team Fortress","app_id":440,"player_count":0,"max_players":24,"Bots":0,"server_type":"Dedicated","server_os":"Linux","password":true,"vac":true,"version":"7961495","steam_id":85568392925397960,"keywords":["cp","nocrits","nodmgspread","uncletopia"],"game_id":440,"stv_port":27066,"stv_name":"Uncletopia | Sydney | 6 | Community | STV","players":null},{"server_id":49,"name":"Uncletopia | Warsaw | 1 | One Thousand Uncles","name_short":"waw-1","host":"waw-1.pl.uncletopia.com","port":27015,"enabled":true,"region":"eu","cc":"pl","latitude":52.2297,"longitude":21.017532,"reserved":0,"last_update":"0001-01-01T00:00:00Z","name_a2s":"Uncletopia | Warsaw | 1 | One Thousand Uncles","protocol":17,"map":"pl_badwater","folder":"tf","game":"Team Fortress","app_id":440,"player_count":0,"max_players":32,"Bots":0,"server_type":"Dedicated","server_os":"Linux","password":true,"vac":true,"version":"7961495","steam_id":85568392925397850,"keywords":["alltalk","danepve","increased_maxplayers","nocrits","norespawntime","payload","uncletopia"],"game_id":440,"stv_port":0,"stv_name":"","players":null},{"server_id":50,"name":"Uncletopia | Warsaw | 2 | One Thousand Uncles","name_short":"waw-2","host":"waw-1.pl.uncletopia.com","port":27025,"enabled":true,"region":"eu","cc":"pl","latitude":52.2297,"longitude":21.017532,"reserved":0,"last_update":"0001-01-01T00:00:00Z","name_a2s":"Uncletopia | Warsaw | 2 | One Thousand Uncles","protocol":17,"map":"pl_barnblitz","folder":"tf","game":"Team Fortress","app_id":440,"player_count":0,"max_players":32,"Bots":0,"server_type":"Dedicated","server_os":"Linux","password":true,"vac":true,"version":"7961495","steam_id":85568392925397851,"keywords":["alltalk","danepve","increased_maxplayers","nocrits","norespawntime","payload","uncletopia"],"game_id":440,"stv_port":0,"stv_name":"","players":null},{"server_id":51,"name":"Uncletopia | Warsaw | 3 | All Maps","name_short":"waw-3","host":"waw-1.pl.uncletopia.com","port":27035,"enabled":true,"region":"eu","cc":"pl","latitude":52.2297,"longitude":21.017532,"reserved":0,"last_update":"0001-01-01T00:00:00Z","name_a2s":"Uncletopia | Warsaw | 3 | All Maps","protocol":17,"map":"koth_cascade","folder":"tf","game":"Team Fortress","app_id":440,"player_count":0,"max_players":24,"Bots":0,"server_type":"Dedicated","server_os":"Linux","password":true,"vac":true,"version":"7961495","steam_id":85568392925397852,"keywords":["cp","nocrits","nodmgspread","uncletopia"],"game_id":440,"stv_port":27036,"stv_name":"Uncletopia | Warsaw | 3 | All Maps | STV","players":null},{"server_id":52,"name":"Uncletopia | Warsaw | 4 | All Maps","name_short":"waw-4","host":"waw-1.pl.uncletopia.com","port":27045,"enabled":true,"region":"eu","cc":"pl","latitude":52.2297,"longitude":21.017532,"reserved":0,"last_update":"0001-01-01T00:00:00Z","name_a2s":"Uncletopia | Warsaw | 4 | All Maps","protocol":17,"map":"pl_pier","folder":"tf","game":"Team Fortress","app_id":440,"player_count":0,"max_players":24,"Bots":0,"server_type":"Dedicated","server_os":"Linux","password":true,"vac":true,"version":"7961495","steam_id":85568392925397853,"keywords":["nocrits","nodmgspread","payload","uncletopia"],"game_id":440,"stv_port":27046,"stv_name":"Uncletopia | Warsaw | 4 | All Maps | STV","players":null},{"server_id":53,"name":"Uncletopia | Warsaw | 5 | Stopwatch","name_short":"waw-5","host":"waw-1.pl.uncletopia.com","port":27055,"enabled":true,"region":"eu","cc":"pl","latitude":52.2297,"longitude":21.017532,"reserved":0,"last_update":"0001-01-01T00:00:00Z","name_a2s":"Uncletopia | Warsaw | 5 | Stopwatch","protocol":17,"map":"koth_lakeside_final","folder":"tf","game":"Team Fortress","app_id":440,"player_count":0,"max_players":24,"Bots":0,"server_type":"Dedicated","server_os":"Linux","password":true,"vac":true,"version":"7961495","steam_id":85568392925397854,"keywords":["cp","nocrits","nodmgspread","uncletopia"],"game_id":440,"stv_port":27056,"stv_name":"Uncletopia | Warsaw | 5 | Stopwatch | STV","players":null},{"server_id":54,"name":"Uncletopia | Warsaw | 6 | Community","name_short":"waw-6","host":"waw-1.pl.uncletopia.com","port":27065,"enabled":true,"region":"eu","cc":"pl","latitude":52.2297,"longitude":21.017532,"reserved":0,"last_update":"0001-01-01T00:00:00Z","name_a2s":"Uncletopia | Warsaw | 6 | Community","protocol":17,"map":"workshop/cp_indulge.ugc528106646","folder":"tf","game":"Team Fortress","app_id":440,"player_count":0,"max_players":24,"Bots":0,"server_type":"Dedicated","server_os":"Linux","password":true,"vac":true,"version":"7961495","steam_id":85568392925397856,"keywords":["cp","nocrits","nodmgspread","uncletopia"],"game_id":440,"stv_port":27066,"stv_name":"Uncletopia | Warsaw | 6 | Community | STV","players":null}]}