{"status":true,"message":"","result":[{"server_id":9,"name":"Uncletopia | Atlanta | 1 | All Maps","name_short":"atl-1","host":"atl-1.us.uncletopia.com","port":27015,"enabled":true,"region":"us-east","cc":"us","latitude":33.753746,"longitude":-84.38633,"reserved":0,"last_update":"0001-01-01T00:00:00Z","name_a2s":"Uncletopia | Atlanta | 1 | All Maps","protocol":17,"map":"koth_cascade","folder":"tf","game":"Team Fortress","app_id":440,"player_count":4,"max_players":24,"Bots":0,"server_type":"Dedicated","server_os":"Linux","password":true,"vac":true,"version":"7757534","steam_id":85568392924469982,"keywords":["cp","nocrits","nodmgspread","uncletopia"],"game_id":440,"stv_port":27016,"stv_name":"Uncletopia | Atlanta | 1 | All Maps | STV","players":[{"user_id":717,"name":"daemon","steam_id":76561198001541433,"connected_time":3731000000000,"state":"active","ping":61},{"user_id":718,"name":"BanditBlue09","steam_id":76561199470216755,"connected_time":3581000000000,"state":"active","ping":72},{"user_id":701,"name":"Cpapi","steam_id":76561198027779564,"connected_time":5853000000000,"state":"active","ping":46},{"user_id":724,"name":"My meme now","steam_id":76561199244327387,"connected_time":2370000000000,"state":"active","ping":171}]},{"server_id":400,"name":"Uncletopia | Atlanta | 3 | Stopwatch Beta","name_short":"atl-3","host":"atl-1.us.uncletopia.com","port":27035,"enabled":true,"region":"us-east","cc":"us","latitude":33.753746,"longitude":-84.38633,"reserved":0,"last_update":"0001-01-01T00:00:00Z","name_a2s":"Uncletopia | Atlanta | 3 | Stopwatch Beta","protocol":17,"map":"workshop/pl_barnblitz_pro7.ugc582280235","folder":"tf","game":"Team Fortress","app_id":440,"player_count":0,"max_players":24,"Bots":0,"server_type":"Dedicated","server_os":"Linux","password":true,"vac":true,"version":"7757534","steam_id":85568392924515187,"keywords":["nocrits","nodmgspread","payload","uncletopia"],"game_id":440,"stv_port":27036,"stv_name":"Uncletopia | Atlanta | 3 | Stopwatch Beta | STV","players":null},{"server_id":401,"name":"Uncletopia | Atlanta | 4 | No Payload","name_short":"atl-4","host":"atl-1.us.uncletopia.com","port":27045,"enabled":true,"region":"us-east","cc":"us","latitude":33.753746,"longitude":-84.38633,"reserved":0,"last_update":"0001-01-01T00:00:00Z","name_a2s":"Uncletopia | Atlanta | 4 | No Payload","protocol":17,"map":"pl_pier","folder":"tf","game":"Team Fortress","app_id":440,"player_count":0,"max_players":24,"Bots":0,"server_type":"Dedicated","server_os":"Linux","password":true,"vac":true,"version":"7723704","steam_id":85568392924515188,"keywords":["nocrits","nodmgspread","payload","uncletopia"],"game_id":440,"stv_port":27046,"stv_name":"Uncletopia | Atlanta | 4 | No Payload | STV","players":null},{"server_id":2,"name":"Uncletopia | Chicago | 1 | All Maps","name_short":"chi-1","host":"chi-1.us.uncletopia.com","port":27015,"enabled":true,"region":"us-central","cc":"us","latitude":41.881832,"longitude":-87.62318,"reserved":0,"last_update":"0001-01-01T00:00:00Z","name_a2s":"Uncletopia | Chicago | 1 | All Maps","protocol":17,"map":"cp_egypt_final","folder":"tf","game":"Team Fortress","app_id":440,"player_count":24,"max_players":24,"Bots":0,"server_type":"Dedicated","server_os":"Linux","password":true,"vac":true,"version":"7757534","steam_id":85568392924469984,"keywords":["cp","nocrits","nodmgspread","uncletopia"],"game_id":440,"stv_port":27016,"stv_name":"Uncletopia | Chicago | 1 | All Maps | STV","players":[{"user_id":1003,"name":"Milano","steam_id":76561198051889174,"connected_time":2018000000000,"state":"active","ping":109},{"user_id":971,"name":"Merci?","steam_id":76561198096823118,"connected_time":4723000000000,"state":"active","ping":68},{"user_id":989,"name":"Vro","steam_id":76561198253396630,"connected_time":2689000000000,"state":"active","ping":96},{"user_id":1011,"name":"Lennu","steam_id":76561198060730154,"connected_time":1756000000000,"state":"active","ping":72},{"user_id":987,"name":"Magic Jack","steam_id":76561198227459488,"connected_time":2993000000000,"state":"active","ping":70},{"user_id":972,"name":"Goobigan","steam_id":76561198072790366,"connected_time":4712000000000,"state":"active","ping":129},{"user_id":992,"name":"YungPercules","steam_id":76561198990681169,"connected_time":2542000000000,"state":"active","ping":110},{"user_id":991,"name":"elyk37","steam_id":76561198124135253,"connected_time":2629000000000,"state":"active","ping":77},{"user_id":970,"name":"Lavender","steam_id":76561198142770666,"connected_time":4760000000000,"state":"active","ping":58},{"user_id":998,"name":"48","steam_id":76561198156422760,"connected_time":2211000000000,"state":"active","ping":59},{"user_id":994,"name":"cryingbaby23","steam_id":76561198130413260,"connected_time":2423000000000,"state":"active","ping":55},{"user_id":1015,"name":"Tarofel","steam_id":76561198051888035,"connected_time":711000000000,"state":"active","ping":53},{"user_id":979,"name":"I make NSFW Art","steam_id":76561198939958767,"connected_time":3605000000000,"state":"active","ping":72},{"user_id":995,"name":"A force to be reckoned with","steam_id":76561198025898570,"connected_time":2360000000000,"state":"active","ping":103},{"user_id":1025,"name":"BitterSweet","steam_id":76561198161342377,"connected_time":10000000000,"state":"spawning","ping":68},{"user_id":1022,"name":"mossy_woods","steam_id":76561198284350370,"connected_time":61000000000,"state":"active","ping":77},{"user_id":1017,"name":"Oddjob","steam_id":76561198976160793,"connected_time":656000000000,"state":"active","ping":78},{"user_id":1002,"name":"Azor554","steam_id":76561198340344220,"connected_time":2076000000000,"state":"active","ping":199},{"user_id":1004,"name":"Hoooowl","steam_id":76561198078300261,"connected_time":1962000000000,"state":"active","ping":75},{"user_id":1005,"name":"jaek","steam_id":76561198072033611,"connected_time":1960000000000,"state":"active","ping":96},{"user_id":1019,"name":"❅WickedBlizzard❅","steam_id":76561198140184499,"connected_time":80000000000,"state":"active","ping":73},{"user_id":1018,"name":"ScoutBox","steam_id":76561198111539895,"connected_time":86000000000,"state":"active","ping":98},{"user_id":1023,"name":"Subway Fan","steam_id":76561198336372790,"connected_time":61000000000,"state":"active","ping":51},{"user_id":1020,"name":"hypermetalsonic5","steam_id":76561198074267655,"connected_time":80000000000,"state":"active","ping":71}]},{"server_id":106,"name":"Uncletopia | Chicago | 2 | All Maps","name_short":"chi-2","host":"chi-1.us.uncletopia.com","port":27025,"enabled":true,"region":"us-central","cc":"us","latitude":41.881832,"longitude":-87.62318,"reserved":0,"last_update":"0001-01-01T00:00:00Z","name_a2s":"Uncletopia | Chicago | 2 | All Maps","protocol":17,"map":"cp_well","folder":"tf","game":"Team Fortress","app_id":440,"player_count":13,"max_players":24,"Bots":0,"server_type":"Dedicated","server_os":"Linux","password":true,"vac":true,"version":"7757534","steam_id":85568392924469985,"keywords":["cp","nocrits","nodmgspread","uncletopia"],"game_id":440,"stv_port":27026,"stv_name":"Uncletopia | Chicago | 2 | All Maps | STV","players":[{"user_id":1037,"name":"Random Dumbass","steam_id":76561198098144550,"connected_time":33000000000,"state":"active","ping":99},{"user_id":1019,"name":"Jack from Jack in The Box","steam_id":76561199083594971,"connected_time":1340000000000,"state":"active","ping":79},{"user_id":926,"name":"gettysburg","steam_id":76561198016157051,"connected_time":8488000000000,"state":"active","ping":74},{"user_id":1034,"name":"pinglefingle","steam_id":76561198216580197,"connected_time":319000000000,"state":"active","ping":82},{"user_id":1022,"name":"Punished Jeff #NeverSimpAgain","steam_id":76561198304252584,"connected_time":1194000000000,"state":"active","ping":100},{"user_id":1035,"name":"twitch.tv/Yoshi21 | TF2Pugs.com","steam_id":76561198002516729,"connected_time":309000000000,"state":"active","ping":64},{"user_id":1000,"name":"Red_Hatkins","steam_id":76561198214004105,"connected_time":2535000000000,"state":"active","ping":87},{"user_id":1023,"name":"Gnome (wanted felon)","steam_id":76561199229771413,"connected_time":1181000000000,"state":"active","ping":85},{"user_id":1036,"name":"aversa","steam_id":76561198840460101,"connected_time":206000000000,"state":"active","ping":66},{"user_id":1008,"name":"MoonWolf","steam_id":76561198095735033,"connected_time":1862000000000,"state":"active","ping":70},{"user_id":1025,"name":"kingofTOAST/ttv","steam_id":76561198079994110,"connected_time":1121000000000,"state":"active","ping":97},{"user_id":1012,"name":"Angel","steam_id":76561198438499067,"connected_time":1816000000000,"state":"active","ping":145},{"user_id":1033,"name":"3pillgal","steam_id":76561198045772168,"connected_time":487000000000,"state":"active","ping":51}]},{"server_id":402,"name":"Uncletopia | Chicago | 3 | All Maps","name_short":"chi-3","host":"chi-1.us.uncletopia.com","port":27035,"enabled":true,"region":"us-central","cc":"us","latitude":41.881832,"longitude":-87.62318,"reserved":0,"last_update":"0001-01-01T00:00:00Z","name_a2s":"Uncletopia | Chicago | 3 | All Maps","protocol":17,"map":"koth_cascade","folder":"tf","game":"Team Fortress","app_id":440,"player_count":0,"max_players":24,"Bots":0,"server_type":"Dedicated","server_os":"Linux","password":true,"vac":true,"version":"7757534","steam_id":85568392924515191,"keywords":["cp","nocrits","nodmgspread","uncletopia"],"game_id":440,"stv_port":27036,"stv_name":"Uncletopia | Chicago | 3 | All Maps | STV","players":null},{"server_id":403,"name":"Uncletopia | Chicago | 4 | All Maps","name_short":"chi-4","host":"chi-1.us.uncletopia.com","port":27045,"enabled":true,"region":"us-central","cc":"us","latitude":41.881832,"longitude":-87.62318,"reserved":0,"last_update":"0001-01-01T00:00:00Z","name_a2s":"Uncletopia | Chicago | 4 | All Maps","protocol":17,"map":"pl_swiftwater_final1","folder":"tf","game":"Team Fortress","app_id":440,"player_count":17,"max_players":24,"Bots":0,"server_type":"Dedicated","server_os":"Linux","password":true,"vac":true,"version":"7757534","steam_id":85568392924515193,"keywords":["nocrits","nodmgspread","payload","uncletopia"],"game_id":440,"stv_port":27046,"stv_name":"Uncletopia | Chicago | 4 | All Maps | STV","players":[{"user_id":794,"name":"Casual","steam_id":76561198377592687,"connected_time":2950000000000,"state":"active","ping":128},{"user_id":818,"name":"nhstefanov","steam_id":76561198811811405,"connected_time":409000000000,"state":"active","ping":158},{"user_id":810,"name":"OtterTank","steam_id":76561198012136570,"connected_time":1261000000000,"state":"active","ping":130},{"user_id":819,"name":"Boyka_32","steam_id":76561199247580780,"connected_time":169000000000,"state":"active","ping":193},{"user_id":813,"name":"Accursed","steam_id":76561198082217768,"connected_time":975000000000,"state":"active","ping":78},{"user_id":820,"name":"a catboy","steam_id":76561198819642001,"connected_time":104000000000,"state":"active","ping":76},{"user_id":709,"name":"KingQuaken","steam_id":76561198140733826,"connected_time":10731000000000,"state":"active","ping":76},{"user_id":821,"name":"JohnnyGitGud","steam_id":76561198401455467,"connected_time":90000000000,"state":"active","ping":104},{"user_id":822,"name":"winterarne","steam_id":76561198825138500,"connected_time":40000000000,"state":"active","ping":147},{"user_id":726,"name":"febfowl","steam_id":76561198023888890,"connected_time":9070000000000,"state":"active","ping":86},{"user_id":812,"name":"Vikep'S","steam_id":76561199002274689,"connected_time":1207000000000,"state":"active","ping":155},{"user_id":817,"name":"Huey","steam_id":76561198972816386,"connected_time":764000000000,"state":"active","ping":75},{"user_id":823,"name":"Mads Mikkelsen","steam_id":76561198083482001,"connected_time":11000000000,"state":"spawning","ping":135},{"user_id":778,"name":"Galactamarx","steam_id":76561198028065755,"connected_time":4936000000000,"state":"active","ping":100},{"user_id":807,"name":"the meme lord","steam_id":76561198279369377,"connected_time":1807000000000,"state":"active","ping":146},{"user_id":707,"name":"mrstealthg","steam_id":76561198059088381,"connected_time":10765000000000,"state":"active","ping":115},{"user_id":725,"name":"Snazzi","steam_id":76561198085208276,"connected_time":9105000000000,"state":"active","ping":82}]},{"server_id":36,"name":"Uncletopia | Chicago | 5 | All Maps","name_short":"chi-5","host":"chi-2.us.uncletopia.com","port":27015,"enabled":true,"region":"us-central","cc":"us","latitude":41.881832,"longitude":-87.62318,"reserved":0,"last_update":"0001-01-01T00:00:00Z","name_a2s":"Uncletopia | Chicago | 5 | All Maps","protocol":17,"map":"koth_viaduct","folder":"tf","game":"Team Fortress","app_id":440,"player_count":0,"max_players":24,"Bots":0,"server_type":"Dedicated","server_os":"Linux","password":true,"vac":true,"version":"7757534","steam_id":85568392924866362,"keywords":["cp","nocrits","nodmgspread","uncletopia"],"game_id":440,"stv_port":27016,"stv_name":"Uncletopia | Chicago | 5 | All Maps | STV","players":null},{"server_id":37,"name":"Uncletopia | Chicago | 6 | All Maps","name_short":"chi-6","host":"chi-2.us.uncletopia.com","port":27025,"enabled":true,"region":"us-central","cc":"us","latitude":41.881832,"longitude":-87.62318,"reserved":0,"last_update":"0001-01-01T00:00:00Z","name_a2s":"Uncletopia | Chicago | 6 | All Maps","protocol":17,"map":"cp_sunshine","folder":"tf","game":"Team Fortress","app_id":440,"player_count":0,"max_players":24,"Bots":0,"server_type":"Dedicated","server_os":"Linux","password":true,"vac":true,"version":"7757534","steam_id":85568392924866363,"keywords":["cp","nocrits","nodmgspread","uncletopia"],"game_id":440,"stv_port":27026,"stv_name":"Uncletopia | Chicago | 6 | All Maps | STV","players":null},{"server_id":38,"name":"Uncletopia | Chicago | 7 | Stopwatch Beta","name_short":"chi-7","host":"chi-2.us.uncletopia.com","port":27035,"enabled":true,"region":"us-central","cc":"us","latitude":41.881832,"longitude":-87.62318,"reserved":0,"last_update":"0001-01-01T00:00:00Z","name_a2s":"Uncletopia | Chicago | 7 | Stopwatch Beta","protocol":17,"map":"workshop/pl_vigil_rc9.ugc1266210012","folder":"tf","game":"Team Fortress","app_id":440,"player_count":0,"max_players":24,"Bots":0,"server_type":"Dedicated","server_os":"Linux","password":true,"vac":true,"version":"7757534","steam_id":85568392924866364,"keywords":["nocrits","nodmgspread","payload","uncletopia"],"game_id":440,"stv_port":27036,"stv_name":"Uncletopia | Chicago | 7 | Stopwatch Beta | STV","players":null},{"server_id":39,"name":"Uncletopia | Chicago | 8 | Community","name_short":"chi-8","host":"chi-2.us.uncletopia.com","port":27045,"enabled":true,"region":"us-central","cc":"us","latitude":41.881832,"longitude":-87.62318,"reserved":0,"last_update":"0001-01-01T00:00:00Z","name_a2s":"Uncletopia | Chicago | 8 | Community","protocol":17,"map":"workshop/koth_bagel_rc5.ugc2514036946","folder":"tf","game":"Team Fortress","app_id":440,"player_count":0,"max_players":24,"Bots":0,"server_type":"Dedicated","server_os":"Linux","password":true,"vac":true,"version":"7757534","steam_id":85568392924866365,"keywords":["cp","nocrits","nodmgspread","uncletopia"],"game_id":440,"stv_port":27046,"stv_name":"Uncletopia | Chicago | 8 | Community | STV","players":null},{"server_id":8,"name":"Uncletopia | Dallas | 1 | All Maps","name_short":"dal-1","host":"dal-1.us.uncletopia.com","port":27015,"enabled":true,"region":"us-central","cc":"us","latitude":32.779167,"longitude":-96.80889,"reserved":0,"last_update":"0001-01-01T00:00:00Z","name_a2s":"Uncletopia | Dallas | 1 | All Maps","protocol":17,"map":"koth_highpass","folder":"tf","game":"Team Fortress","app_id":440,"player_count":0,"max_players":24,"Bots":0,"server_type":"Dedicated","server_os":"Linux","password":true,"vac":true,"version":"7757534","steam_id":85568392924469986,"keywords":["cp","nocrits","nodmgspread","uncletopia"],"game_id":440,"stv_port":27016,"stv_name":"Uncletopia | Dallas | 1 | All Maps | STV","players":null},{"server_id":108,"name":"Uncletopia | Dallas | 2 | All Maps","name_short":"dal-2","host":"dal-1.us.uncletopia.com","port":27025,"enabled":true,"region":"us-central","cc":"us","latitude":32.779167,"longitude":-96.80889,"reserved":0,"last_update":"0001-01-01T00:00:00Z","name_a2s":"Uncletopia | Dallas | 2 | All Maps","protocol":17,"map":"pl_barnblitz","folder":"tf","game":"Team Fortress","app_id":440,"player_count":0,"max_players":24,"Bots":0,"server_type":"Dedicated","server_os":"Linux","password":true,"vac":true,"version":"7757534","steam_id":85568392924469988,"keywords":["nocrits","nodmgspread","payload","uncletopia"],"game_id":440,"stv_port":27026,"stv_name":"Uncletopia | Dallas | 2 | All Maps | STV","players":null},{"server_id":5,"name":"Uncletopia | Frankfurt | 1 | All Maps","name_short":"frk-1","host":"frk-1.de.uncletopia.com","port":27015,"enabled":true,"region":"eu","cc":"de","latitude":50.110924,"longitude":8.682127,"reserved":0,"last_update":"0001-01-01T00:00:00Z","name_a2s":"Uncletopia | Frankfurt | 1 | All Maps","protocol":17,"map":"pl_barnblitz","folder":"tf","game":"Team Fortress","app_id":440,"player_count":23,"max_players":24,"Bots":0,"server_type":"Dedicated","server_os":"Linux","password":true,"vac":true,"version":"7757534","steam_id":85568392924469989,"keywords":["nocrits","nodmgspread","payload","uncletopia"],"game_id":440,"stv_port":27016,"stv_name":"Uncletopia | Frankfurt | 1 | All Maps | STV","players":[{"user_id":21,"name":"fried","steam_id":76561198307522022,"connected_time":3281000000000,"state":"active","ping":56},{"user_id":62,"name":"ivanmixo","steam_id":76561198160213989,"connected_time":833000000000,"state":"active","ping":61},{"user_id":60,"name":"Ledze Shuns Dope","steam_id":76561198049945010,"connected_time":1052000000000,"state":"active","ping":54},{"user_id":65,"name":"flora","steam_id":76561197994492154,"connected_time":801000000000,"state":"active","ping":63},{"user_id":77,"name":"dollar foot long","steam_id":76561199250808808,"connected_time":183000000000,"state":"active","ping":78},{"user_id":16,"name":"Orochi","steam_id":76561198265192382,"connected_time":3469000000000,"state":"active","ping":62},{"user_id":69,"name":"Maximus","steam_id":76561198032472655,"connected_time":736000000000,"state":"active","ping":49},{"user_id":45,"name":"Crab communist","steam_id":76561198368339225,"connected_time":2604000000000,"state":"active","ping":101},{"user_id":67,"name":"Bambas","steam_id":76561198274979955,"connected_time":774000000000,"state":"active","ping":62},{"user_id":35,"name":"Kazz","steam_id":76561199055163044,"connected_time":2843000000000,"state":"active","ping":73},{"user_id":25,"name":"Gnarville","steam_id":76561198006373329,"connected_time":3150000000000,"state":"active","ping":60},{"user_id":26,"name":"Tamamo","steam_id":76561198116789623,"connected_time":3057000000000,"state":"active","ping":59},{"user_id":51,"name":"Laki","steam_id":76561198126078953,"connected_time":1688000000000,"state":"active","ping":112},{"user_id":76,"name":"Pls.do.it!","steam_id":76561198211638119,"connected_time":231000000000,"state":"active","ping":68},{"user_id":52,"name":"dx_xb","steam_id":76561198064878900,"connected_time":1655000000000,"state":"active","ping":60},{"user_id":68,"name":"Silungar","steam_id":76561199043530432,"connected_time":754000000000,"state":"active","ping":56},{"user_id":32,"name":"goktwoxd","steam_id":76561198065114415,"connected_time":2953000000000,"state":"active","ping":66},{"user_id":53,"name":"knyazF","steam_id":76561198163278585,"connected_time":1655000000000,"state":"active","ping":71},{"user_id":59,"name":"KaraBen25","steam_id":76561199141148203,"connected_time":1159000000000,"state":"active","ping":102},{"user_id":38,"name":"Zogg","steam_id":76561198352683491,"connected_time":2798000000000,"state":"active","ping":54},{"user_id":70,"name":"Magg","steam_id":76561198838569207,"connected_time":720000000000,"state":"active","ping":86},{"user_id":50,"name":"pl_badwater","steam_id":76561198875409640,"connected_time":1832000000000,"state":"active","ping":65},{"user_id":73,"name":"risetime","steam_id":76561199232442508,"connected_time":445000000000,"state":"active","ping":75}]},{"server_id":110,"name":"Uncletopia | Frankfurt | 2 | All Maps","name_short":"frk-2","host":"frk-1.de.uncletopia.com","port":27025,"enabled":true,"region":"eu","cc":"de","latitude":50.110924,"longitude":8.682127,"reserved":0,"last_update":"0001-01-01T00:00:00Z","name_a2s":"Uncletopia | Frankfurt | 2 | All Maps","protocol":17,"map":"pl_swiftwater_final1","folder":"tf","game":"Team Fortress","app_id":440,"player_count":21,"max_players":24,"Bots":0,"server_type":"Dedicated","server_os":"Linux","password":true,"vac":true,"version":"7757534","steam_id":85568392924469990,"keywords":["nocrits","nodmgspread","payload","uncletopia"],"game_id":440,"stv_port":27026,"stv_name":"Uncletopia | Frankfurt | 2 | All Maps | STV","players":[{"user_id":4,"name":"icebro","steam_id":76561199123450840,"connected_time":2845000000000,"state":"active","ping":66},{"user_id":5,"name":"☣Strale☣","steam_id":76561198026578820,"connected_time":2609000000000,"state":"active","ping":68},{"user_id":6,"name":"tolis","steam_id":76561198838534804,"connected_time":2403000000000,"state":"active","ping":92},{"user_id":24,"name":"DOS Vs Coughing Baby","steam_id":76561198846784757,"connected_time":1128000000000,"state":"active","ping":72},{"user_id":47,"name":"lun4tic","steam_id":76561198850496647,"connected_time":46000000000,"state":"active","ping":72},{"user_id":11,"name":"SetazeR","steam_id":76561198045639314,"connected_time":1640000000000,"state":"active","ping":88},{"user_id":10,"name":"Taskyy","steam_id":76561198134901175,"connected_time":1666000000000,"state":"active","ping":83},{"user_id":12,"name":"23 days til HL release.","steam_id":76561199176781811,"connected_time":1624000000000,"state":"active","ping":96},{"user_id":43,"name":"Gorlami","steam_id":76561198139623088,"connected_time":319000000000,"state":"active","ping":80},{"user_id":15,"name":"Sauce™","steam_id":76561198155094400,"connected_time":1431000000000,"state":"active","ping":57},{"user_id":16,"name":"Guy with squares as username","steam_id":76561198269524918,"connected_time":1422000000000,"state":"active","ping":61},{"user_id":39,"name":"pussyhunter69","steam_id":76561198246334410,"connected_time":364000000000,"state":"active","ping":62},{"user_id":20,"name":"The Funny Cat-Heaby","steam_id":76561198439978112,"connected_time":1281000000000,"state":"active","ping":109},{"user_id":44,"name":"DOME","steam_id":76561198085155381,"connected_time":214000000000,"state":"active","ping":74},{"user_id":25,"name":"Karsapaali","steam_id":76561198322322739,"connected_time":1051000000000,"state":"active","ping":88},{"user_id":26,"name":"clems17","steam_id":76561199420685482,"connected_time":1023000000000,"state":"active","ping":55},{"user_id":41,"name":"toust","steam_id":76561199103417422,"connected_time":332000000000,"state":"active","ping":47},{"user_id":37,"name":"TTV/pablo_ricco","steam_id":76561198279839318,"connected_time":729000000000,"state":"active","ping":86},{"user_id":30,"name":"bombo112","steam_id":76561198059743551,"connected_time":988000000000,"state":"active","ping":92},{"user_id":46,"name":"AnonTron","steam_id":76561199031895493,"connected_time":87000000000,"state":"active","ping":207},{"user_id":38,"name":"better call selo","steam_id":76561198976793469,"connected_time":522000000000,"state":"active","ping":91}]},{"server_id":308,"name":"Uncletopia | Frankfurt | 3 | All Maps","name_short":"frk-3","host":"frk-1.de.uncletopia.com","port":27035,"enabled":true,"region":"eu","cc":"de","latitude":50.110924,"longitude":8.682127,"reserved":0,"last_update":"0001-01-01T00:00:00Z","name_a2s":"Uncletopia | Frankfurt | 3 | All Maps","protocol":17,"map":"koth_highpass","folder":"tf","game":"Team Fortress","app_id":440,"player_count":0,"max_players":24,"Bots":0,"server_type":"Dedicated","server_os":"Linux","password":true,"vac":true,"version":"7757534","steam_id":85568392924504274,"keywords":["cp","nocrits","nodmgspread","uncletopia"],"game_id":440,"stv_port":27036,"stv_name":"Uncletopia | Frankfurt | 3 | All Maps | STV","players":null},{"server_id":309,"name":"Uncletopia | Frankfurt | 4 | All Maps","name_short":"frk-4","host":"frk-1.de.uncletopia.com","port":27045,"enabled":true,"region":"eu","cc":"de","latitude":50.110924,"longitude":8.682127,"reserved":0,"last_update":"0001-01-01T00:00:00Z","name_a2s":"Uncletopia | Frankfurt | 4 | All Maps","protocol":17,"map":"pl_snowycoast","folder":"tf","game":"Team Fortress","app_id":440,"player_count":0,"max_players":24,"Bots":0,"server_type":"Dedicated","server_os":"Linux","password":true,"vac":true,"version":"7757534","steam_id":85568392924504275,"keywords":["nocrits","nodmgspread","payload","uncletopia"],"game_id":440,"stv_port":27046,"stv_name":"Uncletopia | Frankfurt | 4 | All Maps | STV","players":null},{"server_id":310,"name":"Uncletopia | Frankfurt | 5 | All Maps","name_short":"frk-5","host":"frk-1.de.uncletopia.com","port":27055,"enabled":true,"region":"eu","cc":"de","latitude":50.110924,"longitude":8.682127,"reserved":0,"last_update":"0001-01-01T00:00:00Z","name_a2s":"Uncletopia | Frankfurt | 5 | All Maps","protocol":17,"map":"cp_altitude","folder":"tf","game":"Team Fortress","app_id":440,"player_count":0,"max_players":24,"Bots":0,"server_type":"Dedicated","server_os":"Linux","password":true,"vac":true,"version":"7757534","steam_id":85568392924504277,"keywords":["cp","nocrits","nodmgspread","uncletopia"],"game_id":440,"stv_port":27056,"stv_name":"Uncletopia | Frankfurt | 5 | All Maps | STV","players":null},{"server_id":311,"name":"Uncletopia | Frankfurt | 6 | All Maps","name_short":"frk-6","host":"frk-1.de.uncletopia.com","port":27065,"enabled":true,"region":"eu","cc":"de","latitude":50.110924,"longitude":8.682127,"reserved":0,"last_update":"0001-01-01T00:00:00Z","name_a2s":"Uncletopia | Frankfurt | 6 | All Maps","protocol":17,"map":"koth_highpass","folder":"tf","game":"Team Fortress","app_id":440,"player_count":0,"max_players":24,"Bots":0,"server_type":"Dedicated","server_os":"Linux","password":true,"vac":true,"version":"7757534","steam_id":85568392924504278,"keywords":["cp","nocrits","nodmgspread","uncletopia"],"game_id":440,"stv_port":27066,"stv_name":"Uncletopia | Frankfurt | 6 | All Maps | STV","players":null},{"server_id":23,"name":"Uncletopia | Frankfurt | 7 | Stopwatch Beta","name_short":"frk-7","host":"frk-1.de.uncletopia.com","port":27075,"enabled":true,"region":"eu","cc":"de","latitude":50.110924,"longitude":8.682127,"reserved":0,"last_update":"0001-01-01T00:00:00Z","name_a2s":"Uncletopia | Frankfurt | 7 | Stopwatch Beta","protocol":17,"map":"pl_borneo","folder":"tf","game":"Team Fortress","app_id":440,"player_count":0,"max_players":24,"Bots":0,"server_type":"Dedicated","server_os":"Linux","password":true,"vac":true,"version":"7757534","steam_id":85568392924742827,"keywords":["nocrits","nodmgspread","payload","uncletopia"],"game_id":440,"stv_port":27076,"stv_name":"Uncletopia | Frankfurt | 7 | Stopwatch Beta | STV","players":null},{"server_id":24,"name":"Uncletopia | Frankfurt | 8 | Community","name_short":"frk-8","host":"frk-1.de.uncletopia.com","port":27085,"enabled":true,"region":"eu","cc":"de","latitude":50.110924,"longitude":8.682127,"reserved":0,"last_update":"0001-01-01T00:00:00Z","name_a2s":"Uncletopia | Frankfurt | 8 | Community","protocol":17,"map":"koth_cascade","folder":"tf","game":"Team Fortress","app_id":440,"player_count":0,"max_players":24,"Bots":0,"server_type":"Dedicated","server_os":"Linux","password":true,"vac":true,"version":"7757534","steam_id":85568392924742828,"keywords":["cp","nocrits","nodmgspread","uncletopia"],"game_id":440,"stv_port":27086,"stv_name":"Uncletopia | Frankfurt | 8 | Community | STV","players":null},{"server_id":202,"name":"Uncletopia | Hong Kong | 1 | All Maps","name_short":"hgk-1","host":"hgk-1.hk.uncletopia.com","port":27015,"enabled":true,"region":"asia","cc":"hk","latitude":22.302711,"longitude":114.177216,"reserved":0,"last_update":"0001-01-01T00:00:00Z","name_a2s":"Uncletopia | Hong Kong | 1 | All Maps","protocol":17,"map":"pl_borneo","folder":"tf","game":"Team Fortress","app_id":440,"player_count":24,"max_players":24,"Bots":0,"server_type":"Dedicated","server_os":"Linux","password":true,"vac":true,"version":"7757534","steam_id":85568392924494504,"keywords":["nocrits","nodmgspread","payload","uncletopia"],"game_id":440,"stv_port":27016,"stv_name":"Uncletopia | Hong Kong | 1 | All Maps | STV","players":[{"user_id":344,"name":"sierra","steam_id":76561197969873415,"connected_time":698000000000,"state":"active","ping":108},{"user_id":286,"name":"帕","steam_id":76561198439343999,"connected_time":4550000000000,"state":"active","ping":81},{"user_id":302,"name":"killman47","steam_id":76561198348487408,"connected_time":2348000000000,"state":"active","ping":40},{"user_id":340,"name":"SunShine","steam_id":76561198323642446,"connected_time":722000000000,"state":"active","ping":102},{"user_id":295,"name":"LudE","steam_id":76561198828840546,"connected_time":3824000000000,"state":"active","ping":78},{"user_id":347,"name":"Iron Bomber!!!","steam_id":76561198203073201,"connected_time":686000000000,"state":"active","ping":73},{"user_id":297,"name":"marikina boy","steam_id":76561199085409122,"connected_time":3776000000000,"state":"active","ping":57},{"user_id":225,"name":"Shades on Goggles","steam_id":76561198406067629,"connected_time":12211000000000,"state":"active","ping":59},{"user_id":348,"name":"can we get much higher","steam_id":76561199390507975,"connected_time":606000000000,"state":"active","ping":53},{"user_id":228,"name":"Windmill","steam_id":76561199230997986,"connected_time":12200000000000,"state":"active","ping":80},{"user_id":299,"name":"Cá Tháng 4","steam_id":76561198047162026,"connected_time":3700000000000,"state":"active","ping":77},{"user_id":350,"name":"Peter Python","steam_id":76561198353760830,"connected_time":453000000000,"state":"active","ping":122},{"user_id":342,"name":"17","steam_id":76561198241530712,"connected_time":710000000000,"state":"active","ping":59},{"user_id":289,"name":"irylfaith","steam_id":76561199071455481,"connected_time":4172000000000,"state":"active","ping":82},{"user_id":306,"name":"Bertengkar","steam_id":76561198213031155,"connected_time":2323000000000,"state":"active","ping":100},{"user_id":343,"name":"Muck","steam_id":76561199168204576,"connected_time":706000000000,"state":"active","ping":56},{"user_id":307,"name":"let cook","steam_id":76561198055553140,"connected_time":2266000000000,"state":"active","ping":76},{"user_id":294,"name":"ey","steam_id":76561198413116920,"connected_time":4016000000000,"state":"active","ping":75},{"user_id":301,"name":"Mega 00F","steam_id":76561198962485791,"connected_time":2932000000000,"state":"active","ping":127},{"user_id":296,"name":"greeny the korean jesus","steam_id":76561198024666371,"connected_time":3823000000000,"state":"active","ping":96},{"user_id":179,"name":"loreley","steam_id":76561198230213828,"connected_time":16858000000000,"state":"active","ping":64},{"user_id":284,"name":"Urotsuki","steam_id":76561198074339034,"connected_time":5018000000000,"state":"active","ping":76},{"user_id":269,"name":"Zacy","steam_id":76561198114841670,"connected_time":7873000000000,"state":"active","ping":70},{"user_id":345,"name":"worndelight","steam_id":76561199056960214,"connected_time":695000000000,"state":"active","ping":142}]},{"server_id":1,"name":"Uncletopia | Los Angeles | 1 | All Maps","name_short":"lax-1","host":"lax-1.us.uncletopia.com","port":27015,"enabled":true,"region":"us-west","cc":"us","latitude":33.94279,"longitude":-118.41004,"reserved":0,"last_update":"0001-01-01T00:00:00Z","name_a2s":"Uncletopia | Los Angeles | 1 | All Maps","protocol":17,"map":"cp_sunshine","folder":"tf","game":"Team Fortress","app_id":440,"player_count":0,"max_players":24,"Bots":0,"server_type":"Dedicated","server_os":"Linux","password":true,"vac":true,"version":"7757534","steam_id":85568392924469991,"keywords":["cp","nocrits","nodmgspread","uncletopia"],"game_id":440,"stv_port":27016,"stv_name":"Uncletopia | Los Angeles | 1 | All Maps | STV","players":null},{"server_id":112,"name":"Uncletopia | Los Angeles | 2 | All Maps","name_short":"lax-2","host":"lax-1.us.uncletopia.com","port":27025,"enabled":true,"region":"us-west","cc":"us","latitude":33.94279,"longitude":-118.41004,"reserved":0,"last_update":"0001-01-01T00:00:00Z","name_a2s":"Uncletopia | Los Angeles | 2 | All Maps","protocol":17,"map":"pl_frontier_final","folder":"tf","game":"Team Fortress","app_id":440,"player_count":24,"max_players":24,"Bots":0,"server_type":"Dedicated","server_os":"Linux","password":true,"vac":true,"version":"7757534","steam_id":85568392924469992,"keywords":["nocrits","nodmgspread","payload","uncletopia"],"game_id":440,"stv_port":27026,"stv_name":"Uncletopia | Los Angeles | 2 | All Maps | STV","players":[{"user_id":373,"name":"Dauntless Duelist","steam_id":76561198025056018,"connected_time":2193000000000,"state":"active","ping":76},{"user_id":357,"name":"FAC","steam_id":76561198009818412,"connected_time":3206000000000,"state":"active","ping":90},{"user_id":386,"name":"w key + left click + spacebar","steam_id":76561198319442494,"connected_time":418000000000,"state":"active","ping":53},{"user_id":334,"name":"Victoria","steam_id":76561198283509000,"connected_time":4662000000000,"state":"active","ping":53},{"user_id":356,"name":"TheBrocklobster","steam_id":76561198039682984,"connected_time":3303000000000,"state":"active","ping":65},{"user_id":387,"name":"monjiro","steam_id":76561198239598834,"connected_time":145000000000,"state":"active","ping":98},{"user_id":294,"name":"delight","steam_id":76561197980280272,"connected_time":7867000000000,"state":"active","ping":69},{"user_id":384,"name":"Battery_Included","steam_id":76561198067164431,"connected_time":777000000000,"state":"active","ping":43},{"user_id":381,"name":"dandy","steam_id":76561197967362217,"connected_time":952000000000,"state":"active","ping":50},{"user_id":378,"name":"Discovery","steam_id":76561198841844093,"connected_time":1357000000000,"state":"active","ping":37},{"user_id":379,"name":"EatSomeBEES","steam_id":76561198047334307,"connected_time":1274000000000,"state":"active","ping":64},{"user_id":351,"name":"everythingrhymeswithorange","steam_id":76561198010306193,"connected_time":3557000000000,"state":"active","ping":65},{"user_id":360,"name":"rorywashere /ᐠ - ˕ -マ Ⳋ","steam_id":76561198065825165,"connected_time":3026000000000,"state":"active","ping":96},{"user_id":367,"name":"jrd101721","steam_id":76561198154812975,"connected_time":2588000000000,"state":"active","ping":53},{"user_id":261,"name":"p9 squash","steam_id":76561198150281353,"connected_time":10450000000000,"state":"active","ping":85},{"user_id":382,"name":"rice white","steam_id":76561198320732910,"connected_time":926000000000,"state":"active","ping":118},{"user_id":380,"name":"Sterling Nano","steam_id":76561198048580088,"connected_time":1061000000000,"state":"active","ping":112},{"user_id":309,"name":"oil","steam_id":76561198099980149,"connected_time":7139000000000,"state":"active","ping":47},{"user_id":375,"name":"Altoids?","steam_id":76561197997323720,"connected_time":1905000000000,"state":"active","ping":92},{"user_id":371,"name":"Mercenary Alpha | trade.tf","steam_id":76561198057047071,"connected_time":2495000000000,"state":"active","ping":120},{"user_id":376,"name":"Shortbane","steam_id":76561198247166584,"connected_time":1846000000000,"state":"active","ping":89},{"user_id":315,"name":"The Caretaker","steam_id":76561198125241411,"connected_time":6014000000000,"state":"active","ping":65},{"user_id":383,"name":"xMystic_Fire","steam_id":76561198189961543,"connected_time":899000000000,"state":"active","ping":87},{"user_id":385,"name":"p9 jorts","steam_id":76561199041179985,"connected_time":587000000000,"state":"active","ping":92}]},{"server_id":324,"name":"Uncletopia | Los Angeles | 3 | All Maps","name_short":"lax-3","host":"lax-1.us.uncletopia.com","port":27035,"enabled":true,"region":"us-west","cc":"us","latitude":33.94279,"longitude":-118.41004,"reserved":0,"last_update":"0001-01-01T00:00:00Z","name_a2s":"Uncletopia | Los Angeles | 3 | All Maps","protocol":17,"map":"cp_sunshine","folder":"tf","game":"Team Fortress","app_id":440,"player_count":0,"max_players":24,"Bots":0,"server_type":"Dedicated","server_os":"Linux","password":true,"vac":true,"version":"7757534","steam_id":85568392924510198,"keywords":["cp","nocrits","nodmgspread","uncletopia"],"game_id":440,"stv_port":27036,"stv_name":"Uncletopia | Los Angeles | 3 | All Maps | STV","players":null},{"server_id":25,"name":"Uncletopia | Los Angeles | 4 | Stopwatch Beta","name_short":"lax-4","host":"lax-1.us.uncletopia.com","port":27045,"enabled":true,"region":"us-west","cc":"us","latitude":33.94279,"longitude":-118.41004,"reserved":0,"last_update":"0001-01-01T00:00:00Z","name_a2s":"Uncletopia | Los Angeles | 4 | Stopwatch Beta","protocol":17,"map":"koth_viaduct","folder":"tf","game":"Team Fortress","app_id":440,"player_count":0,"max_players":24,"Bots":0,"server_type":"Dedicated","server_os":"Linux","password":true,"vac":true,"version":"7757534","steam_id":85568392924510199,"keywords":["cp","nocrits","nodmgspread","uncletopia"],"game_id":440,"stv_port":27046,"stv_name":"Uncletopia | Los Angeles | 4 | Stopwatch Beta | STV","players":null},{"server_id":11,"name":"Uncletopia | London | 1 | All Maps","name_short":"lon-1","host":"lon-1.uk.uncletopia.com","port":27015,"enabled":true,"region":"eu","cc":"gb","latitude":51.509865,"longitude":-0.118092,"reserved":0,"last_update":"0001-01-01T00:00:00Z","name_a2s":"Uncletopia | London | 1 | All Maps","protocol":17,"map":"koth_highpass","folder":"tf","game":"Team Fortress","app_id":440,"player_count":22,"max_players":24,"Bots":0,"server_type":"Dedicated","server_os":"Linux","password":true,"vac":true,"version":"7757534","steam_id":85568392924367362,"keywords":["cp","nocrits","nodmgspread","uncletopia"],"game_id":440,"stv_port":27016,"stv_name":"Uncletopia | London | 1 | All Maps | STV","players":[{"user_id":51,"name":"santi","steam_id":76561199074895719,"connected_time":157000000000,"state":"active","ping":113},{"user_id":11,"name":"cob","steam_id":76561199303622823,"connected_time":2812000000000,"state":"active","ping":64},{"user_id":12,"name":"BING CHILLING","steam_id":76561198065438030,"connected_time":2728000000000,"state":"active","ping":120},{"user_id":13,"name":"snooper main","steam_id":76561199073802389,"connected_time":2539000000000,"state":"active","ping":85},{"user_id":39,"name":"Mayor Wank from Wanker Town","steam_id":76561197998253588,"connected_time":895000000000,"state":"active","ping":60},{"user_id":15,"name":"poliakov.noam","steam_id":76561199259322961,"connected_time":2186000000000,"state":"active","ping":101},{"user_id":16,"name":"Purplenoogie","steam_id":76561198081872160,"connected_time":2072000000000,"state":"active","ping":39},{"user_id":17,"name":"Swedde","steam_id":76561198297296440,"connected_time":2041000000000,"state":"active","ping":70},{"user_id":49,"name":"Grinch Gun","steam_id":76561198097789669,"connected_time":414000000000,"state":"active","ping":70},{"user_id":43,"name":"t9","steam_id":76561199031727302,"connected_time":842000000000,"state":"active","ping":117},{"user_id":38,"name":"Bottom of the barrel terrorist","steam_id":76561198929386604,"connected_time":1143000000000,"state":"active","ping":90},{"user_id":40,"name":"tactical783","steam_id":76561199051688560,"connected_time":893000000000,"state":"active","ping":68},{"user_id":23,"name":"Mandele","steam_id":76561199183213205,"connected_time":1843000000000,"state":"active","ping":69},{"user_id":53,"name":"erobrine2","steam_id":76561198173218318,"connected_time":115000000000,"state":"active","ping":45},{"user_id":54,"name":"cyx","steam_id":76561199316310715,"connected_time":109000000000,"state":"active","ping":102},{"user_id":37,"name":"frey`","steam_id":76561197971548290,"connected_time":1440000000000,"state":"active","ping":76},{"user_id":32,"name":"Marcos","steam_id":76561198798925721,"connected_time":1694000000000,"state":"active","ping":80},{"user_id":33,"name":".::[SerafeTTiN]::.","steam_id":76561198009471724,"connected_time":1654000000000,"state":"active","ping":105},{"user_id":34,"name":"Lengard","steam_id":76561198094189180,"connected_time":1610000000000,"state":"active","ping":105},{"user_id":45,"name":"MtnDew","steam_id":76561199100059743,"connected_time":630000000000,"state":"active","ping":113},{"user_id":36,"name":"oepidus","steam_id":76561198963841479,"connected_time":1586000000000,"state":"active","ping":86},{"user_id":55,"name":"Вадим Какашкин","steam_id":76561198383509320,"connected_time":86000000000,"state":"active","ping":90}]},{"server_id":114,"name":"Uncletopia | London | 2 | All Maps","name_short":"lon-2","host":"lon-1.uk.uncletopia.com","port":27025,"enabled":true,"region":"eu","cc":"gb","latitude":51.509865,"longitude":-0.118092,"reserved":0,"last_update":"0001-01-01T00:00:00Z","name_a2s":"Uncletopia | London | 2 | All Maps","protocol":17,"map":"pl_barnblitz","folder":"tf","game":"Team Fortress","app_id":440,"player_count":24,"max_players":24,"Bots":0,"server_type":"Dedicated","server_os":"Linux","password":true,"vac":true,"version":"7757534","steam_id":85568392924470941,"keywords":["nocrits","nodmgspread","payload","uncletopia"],"game_id":440,"stv_port":27026,"stv_name":"Uncletopia | London | 2 | All Maps | STV","players":[{"user_id":193,"name":"dafydd","steam_id":76561198052200325,"connected_time":1962000000000,"state":"active","ping":85},{"user_id":114,"name":"`Fox","steam_id":76561198079000692,"connected_time":6565000000000,"state":"active","ping":146},{"user_id":216,"name":"TheGreenWolf","steam_id":76561198170607033,"connected_time":303000000000,"state":"active","ping":66},{"user_id":217,"name":"Jørn","steam_id":76561199073257952,"connected_time":171000000000,"state":"active","ping":77},{"user_id":188,"name":"Gotta","steam_id":76561198027276027,"connected_time":2638000000000,"state":"active","ping":106},{"user_id":202,"name":"CalicoCat12","steam_id":76561198081933130,"connected_time":1354000000000,"state":"active","ping":59},{"user_id":185,"name":"Az","steam_id":76561198351188724,"connected_time":2859000000000,"state":"active","ping":47},{"user_id":118,"name":"Choruptian","steam_id":76561198017686366,"connected_time":6531000000000,"state":"active","ping":60},{"user_id":162,"name":"_zipfile","steam_id":76561198066133808,"connected_time":4029000000000,"state":"active","ping":72},{"user_id":163,"name":"蓮 Lotus","steam_id":76561198083141117,"connected_time":4029000000000,"state":"active","ping":61},{"user_id":191,"name":"Tata Cobraz0r","steam_id":76561198017693962,"connected_time":2241000000000,"state":"active","ping":80},{"user_id":208,"name":"Johnny Sack","steam_id":76561198364121077,"connected_time":1083000000000,"state":"active","ping":92},{"user_id":16,"name":"Pineapple Okanつ ◕_◕ ༽\ufffd\ufffd","steam_id":76561198069199449,"connected_time":13250000000000,"state":"active","ping":109},{"user_id":183,"name":"GEP Gun","steam_id":76561197981821003,"connected_time":2896000000000,"state":"active","ping":60},{"user_id":211,"name":"Your Lovely Medic","steam_id":76561198039326848,"connected_time":1011000000000,"state":"active","ping":73},{"user_id":212,"name":"tori_spring","steam_id":76561199375975842,"connected_time":720000000000,"state":"active","ping":52},{"user_id":213,"name":"Velly65","steam_id":76561199179828982,"connected_time":620000000000,"state":"active","ping":170},{"user_id":197,"name":"John Daly","steam_id":76561197993849325,"connected_time":1713000000000,"state":"active","ping":79},{"user_id":171,"name":"иван","steam_id":76561198072730591,"connected_time":3951000000000,"state":"active","ping":63},{"user_id":209,"name":"Sakari","steam_id":76561197997811299,"connected_time":1068000000000,"state":"active","ping":61},{"user_id":218,"name":"bAdmon","steam_id":76561197961785793,"connected_time":73000000000,"state":"active","ping":53},{"user_id":176,"name":"Izzermann","steam_id":76561199100131945,"connected_time":3745000000000,"state":"active","ping":48},{"user_id":214,"name":"makarov","steam_id":76561198363892870,"connected_time":575000000000,"state":"active","ping":79},{"user_id":215,"name":"no bitches nigusman","steam_id":76561199466723428,"connected_time":391000000000,"state":"active","ping":88}]},{"server_id":320,"name":"Uncletopia | London | 3 | All Maps","name_short":"lon-3","host":"lon-1.uk.uncletopia.com","port":27035,"enabled":true,"region":"eu","cc":"gb","latitude":51.509865,"longitude":-0.118092,"reserved":0,"last_update":"0001-01-01T00:00:00Z","name_a2s":"Uncletopia | London | 3 | All Maps","protocol":17,"map":"pl_badwater","folder":"tf","game":"Team Fortress","app_id":440,"player_count":0,"max_players":24,"Bots":0,"server_type":"Dedicated","server_os":"Linux","password":true,"vac":true,"version":"7757534","steam_id":85568392924510192,"keywords":["nocrits","nodmgspread","payload","uncletopia"],"game_id":440,"stv_port":27036,"stv_name":"Uncletopia | London | 3 | All Maps | STV","players":null},{"server_id":321,"name":"Uncletopia | London | 4 | All Maps","name_short":"lon-4","host":"lon-1.uk.uncletopia.com","port":27045,"enabled":true,"region":"eu","cc":"gb","latitude":51.509865,"longitude":-0.118092,"reserved":0,"last_update":"0001-01-01T00:00:00Z","name_a2s":"Uncletopia | London | 4 | All Maps","protocol":17,"map":"cp_snakewater_final1","folder":"tf","game":"Team Fortress","app_id":440,"player_count":0,"max_players":24,"Bots":0,"server_type":"Dedicated","server_os":"Linux","password":true,"vac":true,"version":"7757534","steam_id":85568392924510193,"keywords":["cp","nocrits","nodmgspread","uncletopia"],"game_id":440,"stv_port":27046,"stv_name":"Uncletopia | London | 4 | All Maps | STV","players":null},{"server_id":21,"name":"Uncletopia | London | 5 | All Maps","name_short":"lon-5","host":"lon-1.uk.uncletopia.com","port":27055,"enabled":true,"region":"eu","cc":"gb","latitude":51.509865,"longitude":-0.118092,"reserved":0,"last_update":"0001-01-01T00:00:00Z","name_a2s":"Uncletopia | London | 5 | All Maps","protocol":17,"map":"cp_snakewater_final1","folder":"tf","game":"Team Fortress","app_id":440,"player_count":0,"max_players":24,"Bots":0,"server_type":"Dedicated","server_os":"Linux","password":true,"vac":true,"version":"7757534","steam_id":85568392924742829,"keywords":["cp","nocrits","nodmgspread","uncletopia"],"game_id":440,"stv_port":27056,"stv_name":"Uncletopia | London | 5 | All Maps | STV","players":null},{"server_id":22,"name":"Uncletopia | London | 6 | All Maps","name_short":"lon-6","host":"lon-1.uk.uncletopia.com","port":27065,"enabled":true,"region":"eu","cc":"gb","latitude":51.509865,"longitude":-0.118092,"reserved":0,"last_update":"0001-01-01T00:00:00Z","name_a2s":"Uncletopia | London | 6 | All Maps","protocol":17,"map":"pl_snowycoast","folder":"tf","game":"Team Fortress","app_id":440,"player_count":0,"max_players":24,"Bots":0,"server_type":"Dedicated","server_os":"Linux","password":true,"vac":true,"version":"7757534","steam_id":85568392924742830,"keywords":["nocrits","nodmgspread","payload","uncletopia"],"game_id":440,"stv_port":27066,"stv_name":"Uncletopia | London | 6 | All Maps | STV","players":null},{"server_id":40,"name":"Uncletopia | London | 7 | No Payload","name_short":"lon-7","host":"lon-1.uk.uncletopia.com","port":27075,"enabled":true,"region":"eu","cc":"gb","latitude":51.509865,"longitude":-0.118092,"reserved":0,"last_update":"0001-01-01T00:00:00Z","name_a2s":"Uncletopia | London | 7 | No Payload","protocol":17,"map":"koth_harvest_final","folder":"tf","game":"Team Fortress","app_id":440,"player_count":0,"max_players":24,"Bots":0,"server_type":"Dedicated","server_os":"Linux","password":true,"vac":true,"version":"7757534","steam_id":85568392924964314,"keywords":["cp","nocrits","nodmgspread","uncletopia"],"game_id":440,"stv_port":27076,"stv_name":"Uncletopia | London | 7 | No Payload | STV","players":null},{"server_id":41,"name":"Uncletopia | London | 8 | Community","name_short":"lon-8","host":"lon-1.uk.uncletopia.com","port":27085,"enabled":true,"region":"eu","cc":"gb","latitude":51.509865,"longitude":-0.118092,"reserved":0,"last_update":"0001-01-01T00:00:00Z","name_a2s":"Uncletopia | London | 8 | Community","protocol":17,"map":"workshop/koth_ashville_final.ugc2130459942","folder":"tf","game":"Team Fortress","app_id":440,"player_count":0,"max_players":24,"Bots":0,"server_type":"Dedicated","server_os":"Linux","password":true,"vac":true,"version":"7757534","steam_id":85568392924964315,"keywords":["cp","nocrits","nodmgspread","uncletopia"],"game_id":440,"stv_port":27086,"stv_name":"Uncletopia | London | 8 | Community | STV","players":null},{"server_id":300,"name":"Uncletopia | Montréal | 1 | All Maps","name_short":"mtl-1","host":"mtl-1.ca.uncletopia.com","port":27015,"enabled":true,"region":"us-east","cc":"ca","latitude":45.50889,"longitude":-73.56167,"reserved":0,"last_update":"0001-01-01T00:00:00Z","name_a2s":"Uncletopia | Montréal | 1 | All Maps","protocol":17,"map":"koth_highpass","folder":"tf","game":"Team Fortress","app_id":440,"player_count":0,"max_players":24,"Bots":0,"server_type":"Dedicated","server_os":"Linux","password":true,"vac":true,"version":"7757534","steam_id":85568392924500087,"keywords":["cp","nocrits","nodmgspread","uncletopia"],"game_id":440,"stv_port":27016,"stv_name":"Uncletopia | Montréal | 1 | All Maps | STV","players":null},{"server_id":301,"name":"Uncletopia | Montréal | 2 | All Maps","name_short":"mtl-2","host":"mtl-1.ca.uncletopia.com","port":27025,"enabled":true,"region":"us-east","cc":"ca","latitude":45.50889,"longitude":-73.56167,"reserved":0,"last_update":"0001-01-01T00:00:00Z","name_a2s":"Uncletopia | Montréal | 2 | All Maps","protocol":17,"map":"koth_lakeside_final","folder":"tf","game":"Team Fortress","app_id":440,"player_count":0,"max_players":24,"Bots":0,"server_type":"Dedicated","server_os":"Linux","password":true,"vac":true,"version":"7757534","steam_id":85568392924500088,"keywords":["cp","nocrits","nodmgspread","uncletopia"],"game_id":440,"stv_port":27026,"stv_name":"Uncletopia | Montréal | 2 | All Maps | STV","players":null},{"server_id":302,"name":"Uncletopia | Montréal | 3 | All Maps","name_short":"mtl-3","host":"mtl-1.ca.uncletopia.com","port":27035,"enabled":true,"region":"us-east","cc":"ca","latitude":45.50889,"longitude":-73.56167,"reserved":0,"last_update":"0001-01-01T00:00:00Z","name_a2s":"Uncletopia | Montréal | 3 | All Maps","protocol":17,"map":"koth_cascade","folder":"tf","game":"Team Fortress","app_id":440,"player_count":0,"max_players":24,"Bots":0,"server_type":"Dedicated","server_os":"Linux","password":true,"vac":true,"version":"7757534","steam_id":85568392924500089,"keywords":["cp","nocrits","nodmgspread","uncletopia"],"game_id":440,"stv_port":27036,"stv_name":"Uncletopia | Montréal | 3 | All Maps | STV","players":null},{"server_id":303,"name":"Uncletopia | Montréal | 4 | No Payload","name_short":"mtl-4","host":"mtl-1.ca.uncletopia.com","port":27045,"enabled":true,"region":"us-east","cc":"ca","latitude":45.50889,"longitude":-73.56167,"reserved":0,"last_update":"0001-01-01T00:00:00Z","name_a2s":"Uncletopia | Montréal | 4 | No Payload","protocol":17,"map":"koth_lakeside_final","folder":"tf","game":"Team Fortress","app_id":440,"player_count":0,"max_players":24,"Bots":0,"server_type":"Dedicated","server_os":"Linux","password":true,"vac":true,"version":"7757534","steam_id":85568392924500090,"keywords":["cp","nocrits","nodmgspread","uncletopia"],"game_id":440,"stv_port":27046,"stv_name":"Uncletopia | Montréal | 4 | No Payload | STV","players":null},{"server_id":13,"name":"Uncletopia | New York City | 1 | All Maps","name_short":"nyc-1","host":"nyc-1.us.uncletopia.com","port":27015,"enabled":true,"region":"us-east","cc":"us","latitude":40.73061,"longitude":-73.93524,"reserved":0,"last_update":"0001-01-01T00:00:00Z","name_a2s":"Uncletopia | New York City | 1 | All Maps","protocol":17,"map":"cp_snakewater_final1","folder":"tf","game":"Team Fortress","app_id":440,"player_count":0,"max_players":24,"Bots":0,"server_type":"Dedicated","server_os":"Linux","password":true,"vac":true,"version":"7757534","steam_id":85568392924469993,"keywords":["cp","nocrits","nodmgspread","uncletopia"],"game_id":440,"stv_port":27016,"stv_name":"Uncletopia | New York City | 1 | All Maps | STV","players":null},{"server_id":14,"name":"Uncletopia | New York City | 2 | All Maps","name_short":"nyc-2","host":"nyc-1.us.uncletopia.com","port":27025,"enabled":true,"region":"us-east","cc":"us","latitude":40.73061,"longitude":-73.93524,"reserved":0,"last_update":"0001-01-01T00:00:00Z","name_a2s":"Uncletopia | New York City | 2 | All Maps","protocol":17,"map":"cp_snakewater_final1","folder":"tf","game":"Team Fortress","app_id":440,"player_count":0,"max_players":24,"Bots":0,"server_type":"Dedicated","server_os":"Linux","password":true,"vac":true,"version":"7757534","steam_id":85568392924469994,"keywords":["cp","nocrits","nodmgspread","uncletopia"],"game_id":440,"stv_port":27026,"stv_name":"Uncletopia | New York City | 2 | All Maps | STV","players":null},{"server_id":15,"name":"Uncletopia | New York City | 3 | Stopwatch Beta","name_short":"nyc-3","host":"nyc-1.us.uncletopia.com","port":27035,"enabled":true,"region":"us-east","cc":"us","latitude":40.73061,"longitude":-73.93524,"reserved":0,"last_update":"0001-01-01T00:00:00Z","name_a2s":"Uncletopia | New York City | 3 | Stopwatch Beta","protocol":17,"map":"workshop/koth_clearcut_b15.ugc2107050255","folder":"tf","game":"Team Fortress","app_id":440,"player_count":0,"max_players":24,"Bots":0,"server_type":"Dedicated","server_os":"Linux","password":true,"vac":true,"version":"7757534","steam_id":85568392924742820,"keywords":["cp","nocrits","nodmgspread","uncletopia"],"game_id":440,"stv_port":27036,"stv_name":"Uncletopia | New York City | 3 | Stopwatch Beta | STV","players":null},{"server_id":16,"name":"Uncletopia | New York City | 4 | Community","name_short":"nyc-4","host":"nyc-1.us.uncletopia.com","port":27045,"enabled":true,"region":"us-east","cc":"us","latitude":40.73061,"longitude":-73.93524,"reserved":0,"last_update":"0001-01-01T00:00:00Z","name_a2s":"Uncletopia | New York City | 4 | Community","protocol":17,"map":"workshop/pl_barnblitz_pro7.ugc582280235","folder":"tf","game":"Team Fortress","app_id":440,"player_count":0,"max_players":24,"Bots":0,"server_type":"Dedicated","server_os":"Linux","password":true,"vac":true,"version":"7757534","steam_id":85568392924742821,"keywords":["nocrits","nodmgspread","payload","uncletopia"],"game_id":440,"stv_port":27046,"stv_name":"Uncletopia | New York City | 4 | Community | STV","players":null},{"server_id":142,"name":"Uncletopia | São Paulo | 1 | All Maps","name_short":"sao-1","host":"sao-1.br.uncletopia.com","port":27015,"enabled":true,"region":"sa","cc":"br","latitude":-23.533773,"longitude":-46.62529,"reserved":0,"last_update":"0001-01-01T00:00:00Z","name_a2s":"Uncletopia | São Paulo | 1 | All Maps","protocol":17,"map":"pl_snowycoast","folder":"tf","game":"Team Fortress","app_id":440,"player_count":0,"max_players":24,"Bots":0,"server_type":"Dedicated","server_os":"Linux","password":true,"vac":true,"version":"7757534","steam_id":85568392924469996,"keywords":["nocrits","nodmgspread","payload","uncletopia"],"game_id":440,"stv_port":27016,"stv_name":"Uncletopia | São Paulo | 1 | All Maps | STV","players":null},{"server_id":143,"name":"Uncletopia | São Paulo | 2 | All Maps","name_short":"sao-2","host":"sao-2.br.uncletopia.com","port":27015,"enabled":true,"region":"sa","cc":"br","latitude":-23.533773,"longitude":-46.62529,"reserved":0,"last_update":"0001-01-01T00:00:00Z","name_a2s":"Uncletopia | São Paulo | 2 | All Maps","protocol":17,"map":"pl_barnblitz","folder":"tf","game":"Team Fortress","app_id":440,"player_count":0,"max_players":24,"Bots":0,"server_type":"Dedicated","server_os":"Linux","password":true,"vac":true,"version":"7757534","steam_id":85568392924485349,"keywords":["nocrits","nodmgspread","payload","uncletopia"],"game_id":440,"stv_port":27016,"stv_name":"Uncletopia | São Paulo | 2 | All Maps | STV","players":null},{"server_id":7,"name":"Uncletopia | Seattle | 1 | All Maps","name_short":"sea-1","host":"sea-1.us.uncletopia.com","port":27015,"enabled":true,"region":"us-west","cc":"us","latitude":47.608013,"longitude":-122.33517,"reserved":0,"last_update":"0001-01-01T00:00:00Z","name_a2s":"Uncletopia | Seattle | 1 | All Maps","protocol":17,"map":"pl_goldrush","folder":"tf","game":"Team Fortress","app_id":440,"player_count":24,"max_players":24,"Bots":0,"server_type":"Dedicated","server_os":"Linux","password":true,"vac":true,"version":"7757534","steam_id":85568392924469997,"keywords":["nocrits","nodmgspread","payload","uncletopia"],"game_id":440,"stv_port":27016,"stv_name":"Uncletopia | Seattle | 1 | All Maps | STV","players":[{"user_id":919,"name":"Tom Skirrett","steam_id":76561198014600788,"connected_time":3209000000000,"state":"active","ping":69},{"user_id":851,"name":"Arsonist Goose","steam_id":76561198147441830,"connected_time":7581000000000,"state":"active","ping":76},{"user_id":953,"name":"Mr. Electric","steam_id":76561198071962415,"connected_time":273000000000,"state":"active","ping":132},{"user_id":935,"name":"PopcornNinja101","steam_id":76561198330680181,"connected_time":1750000000000,"state":"active","ping":54},{"user_id":933,"name":"dragggg","steam_id":76561198222386220,"connected_time":1772000000000,"state":"active","ping":46},{"user_id":915,"name":"Samantha","steam_id":76561198127578307,"connected_time":3464000000000,"state":"active","ping":96},{"user_id":952,"name":"Sloome Lover","steam_id":76561198299879257,"connected_time":442000000000,"state":"active","ping":68},{"user_id":886,"name":"Xyvanereth","steam_id":76561198844137326,"connected_time":5859000000000,"state":"active","ping":60},{"user_id":928,"name":"goldhed","steam_id":76561198051751133,"connected_time":2590000000000,"state":"active","ping":54},{"user_id":948,"name":"Hifumi Togo","steam_id":76561198074930636,"connected_time":859000000000,"state":"active","ping":91},{"user_id":946,"name":"octavia117","steam_id":76561198163078406,"connected_time":975000000000,"state":"active","ping":123},{"user_id":936,"name":"MonteJT","steam_id":76561198055409360,"connected_time":1735000000000,"state":"active","ping":44},{"user_id":932,"name":"SkyLark","steam_id":76561198303618132,"connected_time":1890000000000,"state":"active","ping":58},{"user_id":903,"name":"Sweets","steam_id":76561198998446307,"connected_time":4850000000000,"state":"active","ping":74},{"user_id":929,"name":"MINI CRIT!999","steam_id":76561198027649268,"connected_time":2549000000000,"state":"active","ping":96},{"user_id":954,"name":"Clownfish","steam_id":76561197991178595,"connected_time":264000000000,"state":"active","ping":69},{"user_id":893,"name":"Cloud","steam_id":76561198272454184,"connected_time":5705000000000,"state":"active","ping":178},{"user_id":957,"name":"shane","steam_id":76561198060491451,"connected_time":226000000000,"state":"active","ping":116},{"user_id":955,"name":"Hakuyer","steam_id":76561198098618247,"connected_time":247000000000,"state":"active","ping":55},{"user_id":951,"name":"kaeru","steam_id":76561198043789098,"connected_time":625000000000,"state":"active","ping":62},{"user_id":941,"name":"Def","steam_id":76561198274777814,"connected_time":1590000000000,"state":"active","ping":69},{"user_id":959,"name":"lavender","steam_id":76561199069518286,"connected_time":171000000000,"state":"active","ping":76},{"user_id":896,"name":"Oomitch","steam_id":76561198071702759,"connected_time":5573000000000,"state":"active","ping":52},{"user_id":958,"name":"Seal","steam_id":76561197970204043,"connected_time":226000000000,"state":"active","ping":41}]},{"server_id":119,"name":"Uncletopia | Seattle | 2 | All Maps","name_short":"sea-2","host":"sea-1.us.uncletopia.com","port":27025,"enabled":true,"region":"us-west","cc":"us","latitude":47.608013,"longitude":-122.33517,"reserved":0,"last_update":"0001-01-01T00:00:00Z","name_a2s":"Uncletopia | Seattle | 2 | All Maps","protocol":17,"map":"pl_upward","folder":"tf","game":"Team Fortress","app_id":440,"player_count":24,"max_players":24,"Bots":0,"server_type":"Dedicated","server_os":"Linux","password":true,"vac":true,"version":"7757534","steam_id":85568392924469998,"keywords":["nocrits","nodmgspread","payload","uncletopia"],"game_id":440,"stv_port":27026,"stv_name":"Uncletopia | Seattle | 2 | All Maps | STV","players":[{"user_id":565,"name":"your friend doge","steam_id":76561199339916575,"connected_time":643000000000,"state":"active","ping":64},{"user_id":553,"name":"IggyYT","steam_id":76561198317980567,"connected_time":1736000000000,"state":"active","ping":116},{"user_id":528,"name":"Cpt. Dingle","steam_id":76561198025720199,"connected_time":3646000000000,"state":"active","ping":65},{"user_id":554,"name":"Moffein","steam_id":76561198016739296,"connected_time":1553000000000,"state":"active","ping":64},{"user_id":557,"name":"CoolBrazilianGuy","steam_id":76561198843338251,"connected_time":1218000000000,"state":"active","ping":176},{"user_id":558,"name":"vareh","steam_id":76561197993190926,"connected_time":1091000000000,"state":"active","ping":58},{"user_id":566,"name":"Cinna Mon","steam_id":76561198005840633,"connected_time":589000000000,"state":"active","ping":57},{"user_id":533,"name":"Twisted Freaking Cyclepath","steam_id":76561198080775161,"connected_time":3148000000000,"state":"active","ping":93},{"user_id":560,"name":"boof^","steam_id":76561198087074444,"connected_time":997000000000,"state":"active","ping":44},{"user_id":561,"name":"dirty30","steam_id":76561198021226566,"connected_time":996000000000,"state":"active","ping":46},{"user_id":562,"name":"Goob","steam_id":76561198256918638,"connected_time":824000000000,"state":"active","ping":61},{"user_id":563,"name":"warrior","steam_id":76561198074500319,"connected_time":818000000000,"state":"active","ping":113},{"user_id":564,"name":"Kaluka","steam_id":76561198036861445,"connected_time":818000000000,"state":"active","ping":133},{"user_id":567,"name":"Stitchu27","steam_id":76561199087081376,"connected_time":575000000000,"state":"active","ping":105},{"user_id":568,"name":"Nalyk","steam_id":76561198043886843,"connected_time":565000000000,"state":"active","ping":55},{"user_id":569,"name":"Petey","steam_id":76561198007339151,"connected_time":540000000000,"state":"active","ping":87},{"user_id":548,"name":"wiz","steam_id":76561198045731206,"connected_time":2369000000000,"state":"active","ping":46},{"user_id":570,"name":"Cosmic","steam_id":76561199210717085,"connected_time":478000000000,"state":"active","ping":108},{"user_id":571,"name":"Saristan","steam_id":76561198093346048,"connected_time":436000000000,"state":"active","ping":121},{"user_id":545,"name":"JJP","steam_id":76561198032914094,"connected_time":2445000000000,"state":"active","ping":61},{"user_id":572,"name":"dzcreeper","steam_id":76561198072250723,"connected_time":343000000000,"state":"active","ping":90},{"user_id":573,"name":"explosives anonymous","steam_id":76561198141862936,"connected_time":279000000000,"state":"active","ping":62},{"user_id":504,"name":"Fu Qian Qian","steam_id":76561199081837220,"connected_time":5801000000000,"state":"active","ping":129},{"user_id":547,"name":"Power-Fusion","steam_id":76561197981220590,"connected_time":2401000000000,"state":"active","ping":63}]},{"server_id":406,"name":"Uncletopia | Seattle | 3 | Stopwatch Beta","name_short":"sea-3","host":"sea-1.us.uncletopia.com","port":27035,"enabled":true,"region":"us-west","cc":"us","latitude":47.608013,"longitude":-122.33517,"reserved":0,"last_update":"0001-01-01T00:00:00Z","name_a2s":"Uncletopia | Seattle | 3 | Stopwatch Beta","protocol":17,"map":"koth_lakeside_final","folder":"tf","game":"Team Fortress","app_id":440,"player_count":0,"max_players":24,"Bots":0,"server_type":"Dedicated","server_os":"Linux","password":true,"vac":true,"version":"7757534","steam_id":85568392924515217,"keywords":["cp","nocrits","nodmgspread","uncletopia"],"game_id":440,"stv_port":27036,"stv_name":"Uncletopia | Seattle | 3 | Stopwatch Beta | STV","players":null},{"server_id":17,"name":"Uncletopia | San Francisco | 1 | All Maps","name_short":"sfo-1","host":"sfo-1.us.uncletopia.com","port":27015,"enabled":true,"region":"us-west","cc":"us","latitude":37.77397,"longitude":-122.4313,"reserved":0,"last_update":"0001-01-01T00:00:00Z","name_a2s":"Uncletopia | San Francisco | 1 | All Maps","protocol":17,"map":"pl_upward","folder":"tf","game":"Team Fortress","app_id":440,"player_count":2,"max_players":24,"Bots":0,"server_type":"Dedicated","server_os":"Linux","password":true,"vac":true,"version":"7757534","steam_id":85568392924469999,"keywords":["nocrits","nodmgspread","payload","uncletopia"],"game_id":440,"stv_port":27016,"stv_name":"Uncletopia | San Francisco | 1 | All Maps | STV","players":[{"user_id":220,"name":"MrBob292","steam_id":76561199347166553,"connected_time":4393000000000,"state":"active","ping":77},{"user_id":240,"name":"Friend.","steam_id":76561199135505576,"connected_time":2602000000000,"state":"active","ping":225}]},{"server_id":18,"name":"Uncletopia | San Francisco | 2 | All Maps","name_short":"sfo-2","host":"sfo-1.us.uncletopia.com","port":27025,"enabled":true,"region":"us-west","cc":"us","latitude":37.77397,"longitude":-122.4313,"reserved":0,"last_update":"0001-01-01T00:00:00Z","name_a2s":"Uncletopia | San Francisco | 2 | All Maps","protocol":17,"map":"cp_snakewater_final1","folder":"tf","game":"Team Fortress","app_id":440,"player_count":0,"max_players":24,"Bots":0,"server_type":"Dedicated","server_os":"Linux","password":true,"vac":true,"version":"7757534","steam_id":85568392924470000,"keywords":["cp","nocrits","nodmgspread","uncletopia"],"game_id":440,"stv_port":27026,"stv_name":"Uncletopia | San Francisco | 2 | All Maps | STV","players":null},{"server_id":19,"name":"Uncletopia | San Francisco | 3 | Stopwatch Beta","name_short":"sfo-3","host":"sfo-1.us.uncletopia.com","port":27035,"enabled":true,"region":"us-west","cc":"us","latitude":37.77397,"longitude":-122.4313,"reserved":0,"last_update":"0001-01-01T00:00:00Z","name_a2s":"Uncletopia | San Francisco | 3 | Stopwatch Beta","protocol":17,"map":"koth_viaduct","folder":"tf","game":"Team Fortress","app_id":440,"player_count":0,"max_players":24,"Bots":0,"server_type":"Dedicated","server_os":"Linux","password":true,"vac":true,"version":"7757534","steam_id":85568392924742824,"keywords":["cp","nocrits","nodmgspread","uncletopia"],"game_id":440,"stv_port":27036,"stv_name":"Uncletopia | San Francisco | 3 | Stopwatch Beta | STV","players":null},{"server_id":20,"name":"Uncletopia | San Francisco | 4 | Community","name_short":"sfo-4","host":"sfo-1.us.uncletopia.com","port":27045,"enabled":true,"region":"us-west","cc":"us","latitude":37.77397,"longitude":-122.4313,"reserved":0,"last_update":"0001-01-01T00:00:00Z","name_a2s":"Uncletopia | San Francisco | 4 | Community","protocol":17,"map":"workshop/koth_slaughter_rc1.ugc1712845210","folder":"tf","game":"Team Fortress","app_id":440,"player_count":0,"max_players":24,"Bots":0,"server_type":"Dedicated","server_os":"Linux","password":true,"vac":true,"version":"7757534","steam_id":85568392924742826,"keywords":["cp","nocrits","nodmgspread","uncletopia"],"game_id":440,"stv_port":27046,"stv_name":"Uncletopia | San Francisco | 4 | Community | STV","players":null},{"server_id":141,"name":"Uncletopia | Sydney | 1 | All Maps","name_short":"syd-1","host":"syd-1.au.uncletopia.com","port":27015,"enabled":true,"region":"au","cc":"au","latitude":-33.865143,"longitude":151.2099,"reserved":0,"last_update":"0001-01-01T00:00:00Z","name_a2s":"Uncletopia | Sydney | 1 | All Maps","protocol":17,"map":"pl_frontier_final","folder":"tf","game":"Team Fortress","app_id":440,"player_count":25,"max_players":24,"Bots":0,"server_type":"Dedicated","server_os":"Linux","password":true,"vac":true,"version":"7757534","steam_id":85568392924470001,"keywords":["nocrits","nodmgspread","payload","uncletopia"],"game_id":440,"stv_port":27016,"stv_name":"Uncletopia | Sydney | 1 | All Maps | STV","players":[{"user_id":312,"name":"Critz Eastwood","steam_id":76561198050094688,"connected_time":1649000000000,"state":"active","ping":56},{"user_id":322,"name":"Jacob","steam_id":76561198059341907,"connected_time":1024000000000,"state":"active","ping":33},{"user_id":315,"name":"Fatass Yoshi","steam_id":76561198033784848,"connected_time":1293000000000,"state":"active","ping":56},{"user_id":291,"name":"Piklz","steam_id":76561198043384139,"connected_time":3030000000000,"state":"active","ping":50},{"user_id":292,"name":"Bobby Bigman","steam_id":76561198044679656,"connected_time":2876000000000,"state":"active","ping":58},{"user_id":219,"name":"jim :)","steam_id":76561198127508905,"connected_time":8312000000000,"state":"active","ping":34},{"user_id":305,"name":"Swiggityswooty","steam_id":76561198045060731,"connected_time":1861000000000,"state":"active","ping":82},{"user_id":325,"name":"Fuzz","steam_id":76561198063077180,"connected_time":761000000000,"state":"active","ping":54},{"user_id":301,"name":"Cup","steam_id":76561198038485845,"connected_time":1989000000000,"state":"active","ping":39},{"user_id":204,"name":"Raven","steam_id":76561198428025966,"connected_time":8879000000000,"state":"active","ping":65},{"user_id":326,"name":"Ganome Chilled","steam_id":76561198064898965,"connected_time":728000000000,"state":"active","ping":89},{"user_id":306,"name":"Whomobile","steam_id":76561198005831324,"connected_time":1842000000000,"state":"active","ping":84},{"user_id":302,"name":"beanpope","steam_id":76561199005815714,"connected_time":1972000000000,"state":"active","ping":66},{"user_id":285,"name":"boostless mobiler","steam_id":76561198200510138,"connected_time":3426000000000,"state":"active","ping":75},{"user_id":308,"name":"jake \u003c3","steam_id":76561198403650653,"connected_time":1745000000000,"state":"active","ping":45},{"user_id":327,"name":"TheNeutrality","steam_id":76561199017954062,"connected_time":517000000000,"state":"active","ping":179},{"user_id":313,"name":"Lv 9 Reborn Nubblet","steam_id":76561198069483103,"connected_time":1643000000000,"state":"active","ping":89},{"user_id":316,"name":"Tim","steam_id":76561198106191230,"connected_time":1244000000000,"state":"active","ping":89},{"user_id":317,"name":"Twelvie","steam_id":76561198164240795,"connected_time":1194000000000,"state":"active","ping":52},{"user_id":318,"name":"Dr. ugs","steam_id":76561198054804209,"connected_time":1181000000000,"state":"active","ping":87},{"user_id":320,"name":"Vergil","steam_id":76561198210726393,"connected_time":1113000000000,"state":"active","ping":74},{"user_id":329,"name":"Hat","steam_id":76561199260847900,"connected_time":5000000000,"state":"spawning","ping":75},{"user_id":321,"name":"Consolidated Fart","steam_id":76561198924101909,"connected_time":1109000000000,"state":"active","ping":66},{"user_id":324,"name":"w4ffl5","steam_id":76561198358111518,"connected_time":955000000000,"state":"active","ping":57},{"user_id":330,"name":"The Bisoneer TF2","steam_id":76561199446773766,"connected_time":5000000000,"state":"spawning","ping":71}]},{"server_id":123,"name":"Uncletopia | Sydney | 2 | All Maps","name_short":"syd-2","host":"syd-1.au.uncletopia.com","port":27025,"enabled":true,"region":"au","cc":"au","latitude":-33.865143,"longitude":151.2099,"reserved":0,"last_update":"0001-01-01T00:00:00Z","name_a2s":"Uncletopia | Sydney | 2 | All Maps","protocol":17,"map":"koth_cascade","folder":"tf","game":"Team Fortress","app_id":440,"player_count":6,"max_players":24,"Bots":0,"server_type":"Dedicated","server_os":"Linux","password":true,"vac":true,"version":"7757534","steam_id":85568392924470002,"keywords":["cp","nocrits","nodmgspread","uncletopia"],"game_id":440,"stv_port":27026,"stv_name":"Uncletopia | Sydney | 2 | All Maps | STV","players":[{"user_id":558,"name":"ThirtyTwelve","steam_id":76561199192513554,"connected_time":239000000000,"state":"active","ping":55},{"user_id":560,"name":"M3rcenary","steam_id":76561199176492601,"connected_time":137000000000,"state":"active","ping":141},{"user_id":561,"name":"Moist","steam_id":76561198110566656,"connected_time":107000000000,"state":"active","ping":52},{"user_id":562,"name":"Yamio","steam_id":76561198157802492,"connected_time":50000000000,"state":"active","ping":49},{"user_id":498,"name":"MikkyD","steam_id":76561198043452962,"connected_time":6043000000000,"state":"active","ping":60},{"user_id":549,"name":"lemur","steam_id":76561198278239170,"connected_time":993000000000,"state":"active","ping":80}]},{"server_id":395,"name":"Uncletopia | Sydney | 3 | All Maps","name_short":"syd-3","host":"syd-1.au.uncletopia.com","port":27035,"enabled":true,"region":"au","cc":"au","latitude":-33.865143,"longitude":151.2099,"reserved":0,"last_update":"0001-01-01T00:00:00Z","name_a2s":"Uncletopia | Sydney | 3 | All Maps","protocol":17,"map":"koth_highpass","folder":"tf","game":"Team Fortress","app_id":440,"player_count":2,"max_players":24,"Bots":0,"server_type":"Dedicated","server_os":"Linux","password":true,"vac":true,"version":"7757534","steam_id":85568392925194467,"keywords":["cp","nocrits","nodmgspread","uncletopia"],"game_id":440,"stv_port":27036,"stv_name":"Uncletopia | Sydney | 3 | All Maps | STV","players":[{"user_id":47,"name":"Lickle em' Lipsons","steam_id":76561199083645515,"connected_time":759000000000,"state":"active","ping":70},{"user_id":48,"name":"CH4 #SAVE TF2","steam_id":76561198047815837,"connected_time":611000000000,"state":"active","ping":85}]},{"server_id":396,"name":"Uncletopia | Sydney | 4 | All Maps","name_short":"syd-4","host":"syd-1.au.uncletopia.com","port":27045,"enabled":true,"region":"au","cc":"au","latitude":-33.865143,"longitude":151.2099,"reserved":0,"last_update":"0001-01-01T00:00:00Z","name_a2s":"Uncletopia | Sydney | 4 | All Maps","protocol":17,"map":"koth_highpass","folder":"tf","game":"Team Fortress","app_id":440,"player_count":0,"max_players":24,"Bots":0,"server_type":"Dedicated","server_os":"Linux","password":true,"vac":true,"version":"7757534","steam_id":85568392925397958,"keywords":["cp","nocrits","nodmgspread","uncletopia"],"game_id":440,"stv_port":27046,"stv_name":"Uncletopia | Sydney | 4 | All Maps | STV","players":null},{"server_id":58,"name":"Uncletopia | Sydney | 5 | Stopwatch Beta","name_short":"syd-5","host":"syd-1.au.uncletopia.com","port":27055,"enabled":true,"region":"au","cc":"au","latitude":-33.865143,"longitude":151.2099,"reserved":0,"last_update":"0001-01-01T00:00:00Z","name_a2s":"Uncletopia | Sydney | 5 | Stopwatch Beta","protocol":17,"map":"pl_barnblitz","folder":"tf","game":"Team Fortress","app_id":440,"player_count":0,"max_players":24,"Bots":0,"server_type":"Dedicated","server_os":"Linux","password":true,"vac":true,"version":"7757534","steam_id":85568392925397959,"keywords":["nocrits","nodmgspread","payload","uncletopia"],"game_id":440,"stv_port":27056,"stv_name":"Uncletopia | Sydney | 5 | Stopwatch Beta | STV","players":null},{"server_id":59,"name":"Uncletopia | Sydney | 6 | Community","name_short":"syd-6","host":"syd-1.au.uncletopia.com","port":27065,"enabled":true,"region":"au","cc":"au","latitude":-33.865143,"longitude":151.2099,"reserved":0,"last_update":"0001-01-01T00:00:00Z","name_a2s":"Uncletopia | Sydney | 6 | Community","protocol":17,"map":"workshop/koth_ashville_final.ugc2130459942","folder":"tf","game":"Team Fortress","app_id":440,"player_count":0,"max_players":24,"Bots":0,"server_type":"Dedicated","server_os":"Linux","password":true,"vac":true,"version":"7757534","steam_id":85568392925397960,"keywords":["cp","nocrits","nodmgspread","uncletopia"],"game_id":440,"stv_port":27066,"stv_name":"Uncletopia | Sydney | 6 | Community | STV","players":null},{"server_id":49,"name":"Uncletopia | Warsaw | 1 | All Maps","name_short":"waw-1","host":"waw-1.pl.uncletopia.com","port":27015,"enabled":true,"region":"eu","cc":"pl","latitude":52.2297,"longitude":21.017532,"reserved":0,"last_update":"0001-01-01T00:00:00Z","name_a2s":"","protocol":0,"map":"","folder":"","game":"","app_id":0,"player_count":0,"max_players":0,"Bots":0,"server_type":"","server_os":"","password":false,"vac":false,"version":"","steam_id":0,"keywords":null,"game_id":0,"stv_port":0,"stv_name":"","players":null},{"server_id":50,"name":"Uncletopia | Warsaw | 2 | All Maps","name_short":"waw-2","host":"waw-1.pl.uncletopia.com","port":27025,"enabled":true,"region":"eu","cc":"pl","latitude":52.2297,"longitude":21.017532,"reserved":0,"last_update":"0001-01-01T00:00:00Z","name_a2s":"Uncletopia | Warsaw | 2 | All Maps","protocol":17,"map":"koth_highpass","folder":"tf","game":"Team Fortress","app_id":440,"player_count":0,"max_players":24,"Bots":0,"server_type":"Dedicated","server_os":"Linux","password":true,"vac":true,"version":"7757534","steam_id":85568392925397851,"keywords":["cp","nocrits","nodmgspread","uncletopia"],"game_id":440,"stv_port":27026,"stv_name":"Uncletopia | Warsaw | 2 | All Maps | STV","players":null},{"server_id":51,"name":"Uncletopia | Warsaw | 3 | All Maps","name_short":"waw-3","host":"waw-1.pl.uncletopia.com","port":27035,"enabled":true,"region":"eu","cc":"pl","latitude":52.2297,"longitude":21.017532,"reserved":0,"last_update":"0001-01-01T00:00:00Z","name_a2s":"Uncletopia | Warsaw | 3 | All Maps","protocol":17,"map":"koth_highpass","folder":"tf","game":"Team Fortress","app_id":440,"player_count":0,"max_players":24,"Bots":0,"server_type":"Dedicated","server_os":"Linux","password":true,"vac":true,"version":"7757534","steam_id":85568392925397852,"keywords":["cp","nocrits","nodmgspread","uncletopia"],"game_id":440,"stv_port":27036,"stv_name":"Uncletopia | Warsaw | 3 | All Maps | STV","players":null},{"server_id":52,"name":"Uncletopia | Warsaw | 4 | All Maps","name_short":"waw-4","host":"waw-1.pl.uncletopia.com","port":27045,"enabled":true,"region":"eu","cc":"pl","latitude":52.2297,"longitude":21.017532,"reserved":0,"last_update":"0001-01-01T00:00:00Z","name_a2s":"Uncletopia | Warsaw | 4 | All Maps","protocol":17,"map":"cp_dustbowl","folder":"tf","game":"Team Fortress","app_id":440,"player_count":0,"max_players":24,"Bots":0,"server_type":"Dedicated","server_os":"Linux","password":true,"vac":true,"version":"7757534","steam_id":85568392925397853,"keywords":["cp","nocrits","nodmgspread","uncletopia"],"game_id":440,"stv_port":27046,"stv_name":"Uncletopia | Warsaw | 4 | All Maps | STV","players":null},{"server_id":53,"name":"Uncletopia | Warsaw | 5 | Stopwatch Beta","name_short":"waw-5","host":"waw-1.pl.uncletopia.com","port":27055,"enabled":true,"region":"eu","cc":"pl","latitude":52.2297,"longitude":21.017532,"reserved":0,"last_update":"0001-01-01T00:00:00Z","name_a2s":"Uncletopia | Warsaw | 5 | Stopwatch Beta","protocol":17,"map":"workshop/pl_barnblitz_pro7.ugc582280235","folder":"tf","game":"Team Fortress","app_id":440,"player_count":0,"max_players":24,"Bots":0,"server_type":"Dedicated","server_os":"Linux","password":true,"vac":true,"version":"7757534","steam_id":85568392925397854,"keywords":["nocrits","nodmgspread","payload","uncletopia"],"game_id":440,"stv_port":27056,"stv_name":"Uncletopia | Warsaw | 5 | Stopwatch Beta | STV","players":null},{"server_id":54,"name":"Uncletopia | Warsaw | 6 | Community","name_short":"waw-6","host":"waw-1.pl.uncletopia.com","port":27065,"enabled":true,"region":"eu","cc":"pl","latitude":52.2297,"longitude":21.017532,"reserved":0,"last_update":"0001-01-01T00:00:00Z","name_a2s":"Uncletopia | Warsaw | 6 | Community","protocol":17,"map":"pl_barnblitz","folder":"tf","game":"Team Fortress","app_id":440,"player_count":0,"max_players":24,"Bots":0,"server_type":"Dedicated","server_os":"Linux","password":true,"vac":true,"version":"7757534","steam_id":85568392925397856,"keywords":["nocrits","nodmgspread","payload","uncletopia"],"game_id":440,"stv_port":27066,"stv_name":"Uncletopia | Warsaw | 6 | Community | STV","players":null}]}