{"status":true,"message":"","result":[{"server_id":9,"name":"Uncletopia | Atlanta | 1 | All Maps","name_short":"atl-1","host":"atl-1.us.uncletopia.com","port":27015,"enabled":true,"region":"us-east","cc":"us","latitude":33.753746,"longitude":-84.38633,"reserved":0,"last_update":"0001-01-01T00:00:00Z","name_a2s":"Uncletopia | Atlanta | 1 | All Maps","protocol":17,"map":"cp_snakewater_final1","folder":"tf","game":"Team Fortress","app_id":440,"player_count":24,"max_players":24,"Bots":0,"server_type":"Dedicated","server_os":"Linux","password":true,"vac":true,"version":"7961495","steam_id":85568392924469982,"keywords":["nocrits","nodmgspread","payload","uncletopia"],"game_id":440,"stv_port":27016,"stv_name":"Uncletopia | Atlanta | 1 | All Maps | STV","players":[{"user_id":335,"name":"Duck","steam_id":76561198303483056,"connected_time":1470000000000,"state":"connecting","ping":100},{"user_id":333,"name":"sansa musa","steam_id":76561198163723555,"connected_time":1699000000000,"state":"connecting","ping":77},{"user_id":318,"name":"Wilhelmktx","steam_id":76561198158102295,"connected_time":4042000000000,"state":"connecting","ping":90},{"user_id":340,"name":"Mr.Unchained","steam_id":76561198043209660,"connected_time":74000000000,"state":"connecting","ping":52},{"user_id":344,"name":"dipp","steam_id":76561198395577807,"connected_time":17000000000,"state":"connecting","ping":81},{"user_id":345,"name":"Dr.Inkmix(femboy medic!)","steam_id":76561198854070384,"connected_time":17000000000,"state":"connecting","ping":113},{"user_id":339,"name":"ATL1 | on my hunting trip","steam_id":76561198315341646,"connected_time":155000000000,"state":"connecting","ping":73},{"user_id":260,"name":"Chernov","steam_id":76561198014463424,"connected_time":8754000000000,"state":"connecting","ping":76},{"user_id":332,"name":"Onyx","steam_id":76561198275349640,"connected_time":1714000000000,"state":"connecting","ping":187},{"user_id":338,"name":"ImWishin","steam_id":76561198277198222,"connected_time":427000000000,"state":"connecting","ping":64},{"user_id":232,"name":"simply","steam_id":76561198215728721,"connected_time":10952000000000,"state":"connecting","ping":68},{"user_id":334,"name":"Uganda Knuckles lll","steam_id":76561199121276474,"connected_time":1699000000000,"state":"connecting","ping":93},{"user_id":171,"name":"Heathcliff","steam_id":76561198044288534,"connected_time":17216000000000,"state":"connecting","ping":75},{"user_id":342,"name":"ATL1 | cola","steam_id":76561198374390458,"connected_time":30000000000,"state":"connecting","ping":59},{"user_id":288,"name":"Yeti","steam_id":76561198176049478,"connected_time":7047000000000,"state":"connecting","ping":78},{"user_id":316,"name":"catgirl giantess in heat","steam_id":76561198439042583,"connected_time":4185000000000,"state":"connecting","ping":85},{"user_id":343,"name":"Squanchy","steam_id":76561198036319676,"connected_time":30000000000,"state":"connecting","ping":39},{"user_id":276,"name":"Tay1Qr","steam_id":76561198082809935,"connected_time":8294000000000,"state":"connecting","ping":76},{"user_id":330,"name":"Im High","steam_id":76561198049954886,"connected_time":1731000000000,"state":"connecting","ping":91}]},{"server_id":104,"name":"Uncletopia | Atlanta | 2 | All Maps","name_short":"atl-2","host":"atl-1.us.uncletopia.com","port":27025,"enabled":true,"region":"us-east","cc":"us","latitude":33.753746,"longitude":-84.38633,"reserved":0,"last_update":"0001-01-01T00:00:00Z","name_a2s":"Uncletopia | Atlanta | 2 | All Maps","protocol":17,"map":"pl_goldrush","folder":"tf","game":"Team Fortress","app_id":440,"player_count":22,"max_players":24,"Bots":0,"server_type":"Dedicated","server_os":"Linux","password":true,"vac":true,"version":"7961495","steam_id":85568392924469983,"keywords":["nocrits","nodmgspread","payload","uncletopia"],"game_id":440,"stv_port":27026,"stv_name":"Uncletopia | Atlanta | 2 | All Maps | STV","players":[{"user_id":16,"name":"tac","steam_id":76561198408477421,"connected_time":7628000000000,"state":"active","ping":94},{"user_id":77,"name":"IGOR","steam_id":76561199128786637,"connected_time":3487000000000,"state":"active","ping":82},{"user_id":79,"name":"Java_Siege_","steam_id":76561199090000728,"connected_time":3464000000000,"state":"active","ping":86},{"user_id":111,"name":"TheSaltRobot","steam_id":76561198839739497,"connected_time":1065000000000,"state":"active","ping":72},{"user_id":117,"name":"Dr. Maybe","steam_id":76561198268304564,"connected_time":661000000000,"state":"active","ping":99},{"user_id":120,"name":"Momki","steam_id":76561198072944509,"connected_time":342000000000,"state":"active","ping":91},{"user_id":121,"name":"Keyboardbreaker","steam_id":76561198372836132,"connected_time":169000000000,"state":"active","ping":126},{"user_id":115,"name":"skrill issue","steam_id":76561198104086771,"connected_time":798000000000,"state":"active","ping":105},{"user_id":101,"name":"Bad Medic Buddy","steam_id":76561198093222632,"connected_time":1624000000000,"state":"active","ping":79},{"user_id":91,"name":"Fred Ott","steam_id":76561198099088693,"connected_time":2728000000000,"state":"active","ping":75},{"user_id":118,"name":"Aglovail","steam_id":76561198276988844,"connected_time":630000000000,"state":"active","ping":107},{"user_id":110,"name":"Opal","steam_id":76561198066642710,"connected_time":1167000000000,"state":"active","ping":77},{"user_id":76,"name":"scout","steam_id":76561198003593070,"connected_time":4646000000000,"state":"active","ping":76},{"user_id":122,"name":"Log4nb43","steam_id":76561198371911794,"connected_time":159000000000,"state":"active","ping":67},{"user_id":113,"name":"gaminpanda52","steam_id":76561199090922778,"connected_time":1021000000000,"state":"active","ping":78},{"user_id":95,"name":"Daisy Le Nerd","steam_id":76561198149350087,"connected_time":1731000000000,"state":"active","ping":173},{"user_id":119,"name":"aaaxel","steam_id":76561198137430598,"connected_time":475000000000,"state":"active","ping":77},{"user_id":98,"name":"mrappledumb","steam_id":76561199133590774,"connected_time":1642000000000,"state":"active","ping":80},{"user_id":102,"name":"TurtleSupremacy","steam_id":76561199053493173,"connected_time":1570000000000,"state":"active","ping":91},{"user_id":88,"name":"Some Guy","steam_id":76561197968945822,"connected_time":3189000000000,"state":"active","ping":45},{"user_id":100,"name":"Servaos","steam_id":76561198113244990,"connected_time":1638000000000,"state":"active","ping":75}]},{"server_id":400,"name":"Uncletopia | Atlanta | 3 | Stopwatch","name_short":"atl-3","host":"atl-1.us.uncletopia.com","port":27035,"enabled":true,"region":"us-east","cc":"us","latitude":33.753746,"longitude":-84.38633,"reserved":0,"last_update":"0001-01-01T00:00:00Z","name_a2s":"Uncletopia | Atlanta | 3 | Stopwatch","protocol":17,"map":"workshop/koth_bagel_rc6.ugc2514036946","folder":"tf","game":"Team Fortress","app_id":440,"player_count":23,"max_players":24,"Bots":0,"server_type":"Dedicated","server_os":"Linux","password":true,"vac":true,"version":"7961495","steam_id":85568392924515187,"keywords":["cp","nocrits","nodmgspread","uncletopia"],"game_id":440,"stv_port":27036,"stv_name":"Uncletopia | Atlanta | 3 | Stopwatch | STV","players":[{"user_id":92,"name":"A Puppy","steam_id":76561198828184456,"connected_time":9904000000000,"state":"active","ping":51},{"user_id":239,"name":"BoyWithTheBeanie","steam_id":76561199435079308,"connected_time":2210000000000,"state":"active","ping":148},{"user_id":265,"name":"Howell at the Moon","steam_id":76561198060827426,"connected_time":786000000000,"state":"active","ping":99},{"user_id":267,"name":"mush","steam_id":76561198310089797,"connected_time":674000000000,"state":"active","ping":77},{"user_id":242,"name":"Delta","steam_id":76561198158985472,"connected_time":2097000000000,"state":"active","ping":103},{"user_id":264,"name":"TheSecretNewbie","steam_id":76561198194671218,"connected_time":973000000000,"state":"active","ping":41},{"user_id":272,"name":"GlingGlop95","steam_id":76561198386865528,"connected_time":154000000000,"state":"active","ping":65},{"user_id":268,"name":"Twilight_O7","steam_id":76561199169825151,"connected_time":651000000000,"state":"active","ping":100},{"user_id":259,"name":"Quay","steam_id":76561198068924418,"connected_time":1072000000000,"state":"active","ping":84},{"user_id":246,"name":"I eat women under 5'7\"","steam_id":76561198093028567,"connected_time":1841000000000,"state":"active","ping":90},{"user_id":227,"name":"s t o n e","steam_id":76561197994525046,"connected_time":3183000000000,"state":"active","ping":75},{"user_id":213,"name":"Пвт Динго","steam_id":76561198119683217,"connected_time":4430000000000,"state":"active","ping":88},{"user_id":269,"name":"lament","steam_id":76561198408747483,"connected_time":594000000000,"state":"active","ping":73},{"user_id":260,"name":"Liver stealer","steam_id":76561199029954287,"connected_time":1053000000000,"state":"active","ping":122},{"user_id":159,"name":"Elijah123","steam_id":76561199037648021,"connected_time":6842000000000,"state":"active","ping":76},{"user_id":255,"name":"Buff McMann","steam_id":76561198050196317,"connected_time":1275000000000,"state":"active","ping":46},{"user_id":251,"name":"always peel your sheep","steam_id":76561198057054984,"connected_time":1561000000000,"state":"active","ping":93},{"user_id":209,"name":"a rabbit with a keyboard","steam_id":76561198129051488,"connected_time":4794000000000,"state":"active","ping":55},{"user_id":228,"name":"damaster","steam_id":76561198192631130,"connected_time":3140000000000,"state":"active","ping":69},{"user_id":270,"name":"chungoose","steam_id":76561198215559840,"connected_time":593000000000,"state":"active","ping":58},{"user_id":271,"name":"sonikro","steam_id":76561197989428692,"connected_time":502000000000,"state":"active","ping":69},{"user_id":263,"name":"legowizdude","steam_id":76561198086688058,"connected_time":991000000000,"state":"active","ping":81},{"user_id":217,"name":"my pitbull eats women under 5'7","steam_id":76561198142756572,"connected_time":4081000000000,"state":"active","ping":46}]},{"server_id":401,"name":"Uncletopia | Atlanta | 4 | Community","name_short":"atl-4","host":"atl-1.us.uncletopia.com","port":27045,"enabled":true,"region":"us-east","cc":"us","latitude":33.753746,"longitude":-84.38633,"reserved":0,"last_update":"0001-01-01T00:00:00Z","name_a2s":"Uncletopia | Atlanta | 4 | Community","protocol":17,"map":"workshop/koth_product_final.ugc454272353","folder":"tf","game":"Team Fortress","app_id":440,"player_count":0,"max_players":24,"Bots":0,"server_type":"Dedicated","server_os":"Linux","password":true,"vac":true,"version":"7961495","steam_id":85568392924515188,"keywords":["cp","nocrits","nodmgspread","uncletopia"],"game_id":440,"stv_port":27046,"stv_name":"Uncletopia | Atlanta | 4 | Community | STV","players":null},{"server_id":2,"name":"Uncletopia | Chicago | 1 | All Maps","name_short":"chi-1","host":"chi-1.us.uncletopia.com","port":27015,"enabled":true,"region":"us-central","cc":"us","latitude":41.881832,"longitude":-87.62318,"reserved":0,"last_update":"0001-01-01T00:00:00Z","name_a2s":"Uncletopia | Chicago | 1 | All Maps","protocol":17,"map":"pl_frontier_final","folder":"tf","game":"Team Fortress","app_id":440,"player_count":24,"max_players":24,"Bots":0,"server_type":"Dedicated","server_os":"Linux","password":true,"vac":true,"version":"7961495","steam_id":85568392924469984,"keywords":["nocrits","nodmgspread","payload","uncletopia"],"game_id":440,"stv_port":27016,"stv_name":"Uncletopia | Chicago | 1 | All Maps | STV","players":[{"user_id":513,"name":"hej","steam_id":76561197996366940,"connected_time":7151000000000,"state":"active","ping":60},{"user_id":535,"name":"TheGreythreat","steam_id":76561198021995538,"connected_time":5651000000000,"state":"active","ping":66},{"user_id":558,"name":"StudioMania (#SAVETF2)","steam_id":76561198211315795,"connected_time":3788000000000,"state":"active","ping":75},{"user_id":554,"name":"Sunshine","steam_id":76561198885528098,"connected_time":3861000000000,"state":"active","ping":74},{"user_id":550,"name":"GreekGoat_Coffee","steam_id":76561198129331088,"connected_time":4088000000000,"state":"active","ping":45},{"user_id":602,"name":"SandHanitizer","steam_id":76561198234676500,"connected_time":62000000000,"state":"active","ping":75},{"user_id":595,"name":"yoodle doodle","steam_id":76561198054897884,"connected_time":970000000000,"state":"active","ping":80},{"user_id":594,"name":"V_","steam_id":76561198147577835,"connected_time":1203000000000,"state":"active","ping":93},{"user_id":567,"name":"seedy iris","steam_id":76561198164420174,"connected_time":3388000000000,"state":"active","ping":47},{"user_id":532,"name":"notdoxed","steam_id":76561197992591404,"connected_time":5888000000000,"state":"active","ping":50},{"user_id":589,"name":"badboy6996","steam_id":76561197969386201,"connected_time":1872000000000,"state":"active","ping":48},{"user_id":557,"name":"Cyber Cylon","steam_id":76561198048972781,"connected_time":3837000000000,"state":"active","ping":58},{"user_id":586,"name":"tonic_tundra","steam_id":76561198081287723,"connected_time":2165000000000,"state":"active","ping":81},{"user_id":591,"name":"Buckler","steam_id":76561197969421355,"connected_time":1612000000000,"state":"active","ping":56},{"user_id":507,"name":"flamingcookies","steam_id":76561198280864779,"connected_time":7948000000000,"state":"active","ping":62},{"user_id":559,"name":"MedRed™ #IATAH","steam_id":76561198002962970,"connected_time":3775000000000,"state":"active","ping":96},{"user_id":560,"name":"Ras","steam_id":76561198123546775,"connected_time":3774000000000,"state":"active","ping":63},{"user_id":601,"name":"Milkmur","steam_id":76561198210043821,"connected_time":206000000000,"state":"active","ping":71},{"user_id":570,"name":"The Doc K","steam_id":76561198035695029,"connected_time":3219000000000,"state":"active","ping":91},{"user_id":537,"name":"RocketRabbit","steam_id":76561198803062131,"connected_time":5471000000000,"state":"active","ping":79},{"user_id":598,"name":"Shoeshocker","steam_id":76561198174302467,"connected_time":780000000000,"state":"active","ping":68},{"user_id":487,"name":"Praise_to_the_Flashlight!","steam_id":76561199001728789,"connected_time":8960000000000,"state":"active","ping":64},{"user_id":600,"name":"Filthy Acts at Reasonable Price","steam_id":76561198354615890,"connected_time":390000000000,"state":"active","ping":97},{"user_id":576,"name":"menk3","steam_id":76561198120888597,"connected_time":2935000000000,"state":"active","ping":79}]},{"server_id":106,"name":"Uncletopia | Chicago | 2 | All Maps","name_short":"chi-2","host":"chi-1.us.uncletopia.com","port":27025,"enabled":true,"region":"us-central","cc":"us","latitude":41.881832,"longitude":-87.62318,"reserved":0,"last_update":"0001-01-01T00:00:00Z","name_a2s":"Uncletopia | Chicago | 2 | All Maps","protocol":17,"map":"pl_badwater","folder":"tf","game":"Team Fortress","app_id":440,"player_count":24,"max_players":24,"Bots":0,"server_type":"Dedicated","server_os":"Linux","password":true,"vac":true,"version":"7961495","steam_id":85568392924469985,"keywords":["nocrits","nodmgspread","payload","uncletopia"],"game_id":440,"stv_port":27026,"stv_name":"Uncletopia | Chicago | 2 | All Maps | STV","players":[{"user_id":438,"name":"ThatOneKnight","steam_id":76561198388583650,"connected_time":570000000000,"state":"active","ping":52},{"user_id":413,"name":"Letters","steam_id":76561198035508148,"connected_time":3292000000000,"state":"active","ping":66},{"user_id":414,"name":"onionaid","steam_id":76561198065266282,"connected_time":2562000000000,"state":"active","ping":75},{"user_id":440,"name":"Capzlockz3","steam_id":76561198310863739,"connected_time":406000000000,"state":"active","ping":65},{"user_id":410,"name":"Ajax","steam_id":76561197962240140,"connected_time":4175000000000,"state":"active","ping":68},{"user_id":435,"name":"Patrick_Star","steam_id":76561198194381963,"connected_time":1119000000000,"state":"active","ping":104},{"user_id":401,"name":"Dave Davidson","steam_id":76561198010802812,"connected_time":4357000000000,"state":"active","ping":60},{"user_id":428,"name":"Church","steam_id":76561199214866732,"connected_time":1237000000000,"state":"active","ping":68},{"user_id":427,"name":"filthy white trash","steam_id":76561198154176367,"connected_time":1261000000000,"state":"active","ping":72},{"user_id":436,"name":"-W3E- grim10465","steam_id":76561198045698581,"connected_time":1009000000000,"state":"active","ping":45},{"user_id":426,"name":"funny","steam_id":76561198034502018,"connected_time":1420000000000,"state":"active","ping":104},{"user_id":234,"name":"Sonic Mania 2 [100 Real Leaked","steam_id":76561198062764039,"connected_time":15422000000000,"state":"active","ping":45},{"user_id":395,"name":"loscemo","steam_id":76561197994884609,"connected_time":4618000000000,"state":"active","ping":72},{"user_id":403,"name":"Silly Shark","steam_id":76561198130714378,"connected_time":4337000000000,"state":"active","ping":115},{"user_id":335,"name":"on that zaza?","steam_id":76561198038713198,"connected_time":8882000000000,"state":"active","ping":74},{"user_id":434,"name":"Flowers","steam_id":76561198031669899,"connected_time":1199000000000,"state":"active","ping":87},{"user_id":411,"name":"gorf?","steam_id":76561198142286417,"connected_time":3870000000000,"state":"active","ping":59},{"user_id":442,"name":"•PixelGhost25•","steam_id":76561197998922428,"connected_time":232000000000,"state":"active","ping":63},{"user_id":437,"name":"Fatpoob","steam_id":76561198056730096,"connected_time":862000000000,"state":"active","ping":55},{"user_id":441,"name":"Griffin_Jr","steam_id":76561198421953311,"connected_time":254000000000,"state":"active","ping":64},{"user_id":443,"name":"I shovel mayonnaise in mouth","steam_id":76561199123118241,"connected_time":223000000000,"state":"active","ping":114},{"user_id":406,"name":"Yarman53","steam_id":76561198099889202,"connected_time":4306000000000,"state":"active","ping":45},{"user_id":429,"name":"anonion","steam_id":76561198056477584,"connected_time":1237000000000,"state":"active","ping":89},{"user_id":397,"name":"Beebo, Son of Beebo","steam_id":76561198055948497,"connected_time":4447000000000,"state":"active","ping":49}]},{"server_id":402,"name":"Uncletopia | Chicago | 3 | All Maps","name_short":"chi-3","host":"chi-1.us.uncletopia.com","port":27035,"enabled":true,"region":"us-central","cc":"us","latitude":41.881832,"longitude":-87.62318,"reserved":0,"last_update":"0001-01-01T00:00:00Z","name_a2s":"Uncletopia | Chicago | 3 | All Maps","protocol":17,"map":"pl_frontier_final","folder":"tf","game":"Team Fortress","app_id":440,"player_count":24,"max_players":24,"Bots":0,"server_type":"Dedicated","server_os":"Linux","password":true,"vac":true,"version":"7961495","steam_id":85568392924515191,"keywords":["nocrits","nodmgspread","payload","uncletopia"],"game_id":440,"stv_port":27036,"stv_name":"Uncletopia | Chicago | 3 | All Maps | STV","players":[{"user_id":351,"name":"RyInc","steam_id":76561198874261643,"connected_time":2310000000000,"state":"active","ping":47},{"user_id":367,"name":"worgeral","steam_id":76561198050781898,"connected_time":1606000000000,"state":"active","ping":149},{"user_id":321,"name":"daffodil","steam_id":76561198049480053,"connected_time":5679000000000,"state":"active","ping":60},{"user_id":336,"name":"cbv sdfjklhweefhrk;","steam_id":76561198304661367,"connected_time":3979000000000,"state":"active","ping":68},{"user_id":374,"name":"Shemply","steam_id":76561198193658910,"connected_time":1472000000000,"state":"active","ping":80},{"user_id":299,"name":"Hooked","steam_id":76561198007302139,"connected_time":6906000000000,"state":"active","ping":77},{"user_id":382,"name":"RusticCarp42989","steam_id":76561198361151865,"connected_time":173000000000,"state":"active","ping":124},{"user_id":383,"name":"H C N","steam_id":76561198106290021,"connected_time":19000000000,"state":"active","ping":85},{"user_id":370,"name":"Shorty","steam_id":76561198044873248,"connected_time":1585000000000,"state":"active","ping":45},{"user_id":379,"name":"NoireThings","steam_id":76561199041728231,"connected_time":456000000000,"state":"active","ping":63},{"user_id":346,"name":"☼ money sittin tall yao ming","steam_id":76561198074180953,"connected_time":3470000000000,"state":"active","ping":61},{"user_id":371,"name":"YOU JUST LOST THE GAME","steam_id":76561198012126625,"connected_time":1569000000000,"state":"active","ping":68},{"user_id":358,"name":"lker","steam_id":76561197976975075,"connected_time":2241000000000,"state":"active","ping":61},{"user_id":347,"name":"playguy carter","steam_id":76561198080679337,"connected_time":3417000000000,"state":"active","ping":57},{"user_id":327,"name":"NovaSc6ut","steam_id":76561198277163301,"connected_time":5094000000000,"state":"active","ping":72},{"user_id":342,"name":"Word To Your Mothership","steam_id":76561198034329138,"connected_time":3660000000000,"state":"active","ping":103},{"user_id":340,"name":"slep.py","steam_id":76561197988287144,"connected_time":3815000000000,"state":"active","ping":57},{"user_id":328,"name":"Anthid","steam_id":76561198074493797,"connected_time":5021000000000,"state":"active","ping":64},{"user_id":348,"name":"disengage","steam_id":76561197992499738,"connected_time":2894000000000,"state":"active","ping":74},{"user_id":354,"name":"The local hobo","steam_id":76561198289650060,"connected_time":2269000000000,"state":"active","ping":92},{"user_id":359,"name":"Asanez3","steam_id":76561198037381436,"connected_time":2223000000000,"state":"active","ping":84},{"user_id":378,"name":"SiltyStar85","steam_id":76561198309175923,"connected_time":692000000000,"state":"active","ping":107},{"user_id":360,"name":"SpongedSocks","steam_id":76561198374009086,"connected_time":2020000000000,"state":"active","ping":73},{"user_id":324,"name":"Lia_Rein","steam_id":76561198151569597,"connected_time":5278000000000,"state":"active","ping":150}]},{"server_id":403,"name":"Uncletopia | Chicago | 4 | All Maps","name_short":"chi-4","host":"chi-1.us.uncletopia.com","port":27045,"enabled":true,"region":"us-central","cc":"us","latitude":41.881832,"longitude":-87.62318,"reserved":0,"last_update":"0001-01-01T00:00:00Z","name_a2s":"Uncletopia | Chicago | 4 | All Maps","protocol":17,"map":"pl_thundermountain","folder":"tf","game":"Team Fortress","app_id":440,"player_count":24,"max_players":24,"Bots":0,"server_type":"Dedicated","server_os":"Linux","password":true,"vac":true,"version":"7961495","steam_id":85568392924515193,"keywords":["nocrits","nodmgspread","payload","uncletopia"],"game_id":440,"stv_port":27046,"stv_name":"Uncletopia | Chicago | 4 | All Maps | STV","players":[{"user_id":215,"name":"augs","steam_id":76561199120607417,"connected_time":4015000000000,"state":"active","ping":67},{"user_id":267,"name":"[DATS➡] Sugar Meowth","steam_id":76561197995251793,"connected_time":163000000000,"state":"active","ping":90},{"user_id":262,"name":"Duncan","steam_id":76561198042148095,"connected_time":564000000000,"state":"active","ping":47},{"user_id":254,"name":"monsterkill4567","steam_id":76561198272986367,"connected_time":1352000000000,"state":"active","ping":112},{"user_id":264,"name":"InstantOzone","steam_id":76561198067556825,"connected_time":389000000000,"state":"active","ping":74},{"user_id":268,"name":"Magical.Puffin","steam_id":76561198129039275,"connected_time":96000000000,"state":"active","ping":104},{"user_id":263,"name":"James K. Polk","steam_id":76561198069735882,"connected_time":558000000000,"state":"active","ping":76},{"user_id":256,"name":"c","steam_id":76561198881665250,"connected_time":910000000000,"state":"active","ping":90},{"user_id":260,"name":"cadian guard drop engineer","steam_id":76561199104829802,"connected_time":732000000000,"state":"active","ping":105},{"user_id":193,"name":"dox","steam_id":76561198838245430,"connected_time":5709000000000,"state":"active","ping":70},{"user_id":199,"name":"fruitslicer","steam_id":76561198100015794,"connected_time":5349000000000,"state":"active","ping":70},{"user_id":250,"name":"Cooki","steam_id":76561198051705314,"connected_time":1876000000000,"state":"active","ping":88},{"user_id":261,"name":"FREAKS","steam_id":76561198285819311,"connected_time":704000000000,"state":"active","ping":103},{"user_id":265,"name":"M4N","steam_id":76561199021460632,"connected_time":389000000000,"state":"active","ping":78},{"user_id":219,"name":"neet","steam_id":76561197968115168,"connected_time":3993000000000,"state":"active","ping":56},{"user_id":255,"name":"Yoi Ishiya","steam_id":76561198041639985,"connected_time":1330000000000,"state":"active","ping":103},{"user_id":246,"name":"Robo Boss","steam_id":76561199067098696,"connected_time":2408000000000,"state":"active","ping":114},{"user_id":257,"name":"Propaniac Gaming ☑","steam_id":76561198133963270,"connected_time":881000000000,"state":"active","ping":60},{"user_id":258,"name":"Muxie","steam_id":76561198268567705,"connected_time":831000000000,"state":"active","ping":120},{"user_id":243,"name":"DOOMBRINGER_","steam_id":76561198038523571,"connected_time":2429000000000,"state":"active","ping":74},{"user_id":244,"name":"momlovie","steam_id":76561198843933742,"connected_time":2429000000000,"state":"active","ping":70},{"user_id":266,"name":"Jungle Boy","steam_id":76561198058278300,"connected_time":348000000000,"state":"active","ping":65},{"user_id":80,"name":"Captain Offencoch","steam_id":76561198121025705,"connected_time":14702000000000,"state":"active","ping":176},{"user_id":248,"name":"Owl Pacino","steam_id":76561197979970666,"connected_time":2235000000000,"state":"active","ping":56}]},{"server_id":36,"name":"Uncletopia | Chicago | 5 | All Maps","name_short":"chi-5","host":"chi-2.us.uncletopia.com","port":27015,"enabled":true,"region":"us-central","cc":"us","latitude":41.881832,"longitude":-87.62318,"reserved":0,"last_update":"0001-01-01T00:00:00Z","name_a2s":"Uncletopia | Chicago | 5 | All Maps","protocol":17,"map":"pl_goldrush","folder":"tf","game":"Team Fortress","app_id":440,"player_count":24,"max_players":24,"Bots":0,"server_type":"Dedicated","server_os":"Linux","password":true,"vac":true,"version":"7961495","steam_id":85568392924866362,"keywords":["nocrits","nodmgspread","payload","uncletopia"],"game_id":440,"stv_port":27016,"stv_name":"Uncletopia | Chicago | 5 | All Maps | STV","players":[{"user_id":333,"name":"Donnie Blasto","steam_id":76561198043432005,"connected_time":1753000000000,"state":"active","ping":49},{"user_id":288,"name":"Zawg","steam_id":76561198346423306,"connected_time":4479000000000,"state":"active","ping":75},{"user_id":356,"name":"johnthecat","steam_id":76561198282257819,"connected_time":640000000000,"state":"active","ping":73},{"user_id":354,"name":"Broken prototype","steam_id":76561198113608004,"connected_time":836000000000,"state":"active","ping":57},{"user_id":313,"name":"Lord of Lizards","steam_id":76561198881852468,"connected_time":3030000000000,"state":"active","ping":82},{"user_id":331,"name":"Miss Star","steam_id":76561199106587693,"connected_time":1973000000000,"state":"active","ping":85},{"user_id":302,"name":"Judge Judy and executioner","steam_id":76561198015235881,"connected_time":3462000000000,"state":"active","ping":67},{"user_id":340,"name":"Gamering_funy","steam_id":76561199006503777,"connected_time":1300000000000,"state":"active","ping":58},{"user_id":357,"name":"Kronk","steam_id":76561198063092125,"connected_time":634000000000,"state":"active","ping":75},{"user_id":353,"name":"viper","steam_id":76561198839942937,"connected_time":899000000000,"state":"active","ping":66},{"user_id":324,"name":"Haveltherock27","steam_id":76561199219844391,"connected_time":2703000000000,"state":"active","ping":107},{"user_id":341,"name":"NerdyEnforcement","steam_id":76561198437710820,"connected_time":1276000000000,"state":"active","ping":72},{"user_id":351,"name":"Bombsgamer","steam_id":76561198350009050,"connected_time":1023000000000,"state":"active","ping":86},{"user_id":359,"name":"Definitely A Cat","steam_id":76561199096948585,"connected_time":406000000000,"state":"active","ping":83},{"user_id":355,"name":"Melk","steam_id":76561199076979946,"connected_time":692000000000,"state":"active","ping":71},{"user_id":343,"name":"Elliot","steam_id":76561198052843856,"connected_time":1243000000000,"state":"active","ping":71},{"user_id":345,"name":"Kyle","steam_id":76561198150061073,"connected_time":1234000000000,"state":"active","ping":57},{"user_id":347,"name":"-","steam_id":76561198057717934,"connected_time":1141000000000,"state":"active","ping":60},{"user_id":309,"name":"Grundle Thunder","steam_id":76561197960790338,"connected_time":3318000000000,"state":"active","ping":90},{"user_id":310,"name":"JtsRes","steam_id":76561197994809241,"connected_time":3165000000000,"state":"active","ping":63},{"user_id":334,"name":"The Washer of Dishes","steam_id":76561198028157625,"connected_time":1727000000000,"state":"active","ping":90},{"user_id":360,"name":"THE ULTIMATE JOHN","steam_id":76561199082758073,"connected_time":26000000000,"state":"spawning","ping":46},{"user_id":352,"name":"Chicken Golem","steam_id":76561198138995247,"connected_time":905000000000,"state":"active","ping":89},{"user_id":358,"name":"Klitz Penischmidt","steam_id":76561198050582941,"connected_time":599000000000,"state":"active","ping":60}]},{"server_id":37,"name":"Uncletopia | Chicago | 6 | All Maps","name_short":"chi-6","host":"chi-2.us.uncletopia.com","port":27025,"enabled":true,"region":"us-central","cc":"us","latitude":41.881832,"longitude":-87.62318,"reserved":0,"last_update":"0001-01-01T00:00:00Z","name_a2s":"Uncletopia | Chicago | 6 | All Maps","protocol":17,"map":"pl_badwater","folder":"tf","game":"Team Fortress","app_id":440,"player_count":24,"max_players":24,"Bots":0,"server_type":"Dedicated","server_os":"Linux","password":true,"vac":true,"version":"7961495","steam_id":85568392924866363,"keywords":["nocrits","nodmgspread","payload","uncletopia"],"game_id":440,"stv_port":27026,"stv_name":"Uncletopia | Chicago | 6 | All Maps | STV","players":[{"user_id":281,"name":"King Cotton","steam_id":76561198292444376,"connected_time":2580000000000,"state":"active","ping":92},{"user_id":313,"name":"Warg","steam_id":76561198040868420,"connected_time":158000000000,"state":"active","ping":59},{"user_id":298,"name":"IcyScrumpy","steam_id":76561198084605065,"connected_time":1240000000000,"state":"active","ping":62},{"user_id":305,"name":"✨✨ BOILING PIZZA ✨✨","steam_id":76561198354108114,"connected_time":1034000000000,"state":"active","ping":83},{"user_id":274,"name":"Shitty Pilot","steam_id":76561198042723469,"connected_time":3252000000000,"state":"active","ping":82},{"user_id":283,"name":"ThatOneKaiser","steam_id":76561198799231254,"connected_time":2542000000000,"state":"active","ping":76},{"user_id":314,"name":"Hunterkio1222","steam_id":76561198240237672,"connected_time":154000000000,"state":"active","ping":64},{"user_id":253,"name":"replaycoding","steam_id":76561198289737954,"connected_time":4077000000000,"state":"active","ping":169},{"user_id":284,"name":"Sprinx","steam_id":76561198112614381,"connected_time":2529000000000,"state":"active","ping":71},{"user_id":304,"name":"Navigatxr","steam_id":76561199185153789,"connected_time":1147000000000,"state":"active","ping":88},{"user_id":315,"name":"fish","steam_id":76561198229957260,"connected_time":145000000000,"state":"active","ping":61},{"user_id":291,"name":"mahoganywyvern","steam_id":76561198077165782,"connected_time":1644000000000,"state":"active","ping":73},{"user_id":294,"name":"你当我傻啊ᕕ(◠ڼ◠)ᕗ","steam_id":76561198155185583,"connected_time":1593000000000,"state":"active","ping":61},{"user_id":300,"name":"Scoot the Burbs","steam_id":76561198079507179,"connected_time":1201000000000,"state":"active","ping":73},{"user_id":295,"name":"Kaiori","steam_id":76561198166480653,"connected_time":1405000000000,"state":"active","ping":78},{"user_id":311,"name":"freedom staff","steam_id":76561199123218315,"connected_time":220000000000,"state":"active","ping":74},{"user_id":316,"name":"Bheem","steam_id":76561198170453459,"connected_time":137000000000,"state":"active","ping":90},{"user_id":302,"name":"Furious George","steam_id":76561198405111646,"connected_time":1166000000000,"state":"active","ping":101},{"user_id":252,"name":"Ua","steam_id":76561198092176972,"connected_time":4475000000000,"state":"active","ping":74},{"user_id":310,"name":"jimmyfnaf172198yay","steam_id":76561198311446636,"connected_time":314000000000,"state":"active","ping":62},{"user_id":307,"name":"drugger. (makster implant)","steam_id":76561198353463585,"connected_time":640000000000,"state":"active","ping":65},{"user_id":303,"name":"Steen","steam_id":76561198122992510,"connected_time":1159000000000,"state":"active","ping":160},{"user_id":306,"name":"leumas","steam_id":76561198240408540,"connected_time":936000000000,"state":"active","ping":58},{"user_id":288,"name":"Wilfrey","steam_id":76561198050449386,"connected_time":2472000000000,"state":"active","ping":68}]},{"server_id":38,"name":"Uncletopia | Chicago | 7 | Stopwatch","name_short":"chi-7","host":"chi-2.us.uncletopia.com","port":27035,"enabled":true,"region":"us-central","cc":"us","latitude":41.881832,"longitude":-87.62318,"reserved":0,"last_update":"0001-01-01T00:00:00Z","name_a2s":"Uncletopia | Chicago | 7 | Stopwatch","protocol":17,"map":"workshop/pl_badwater_pro_v12.ugc2142942074","folder":"tf","game":"Team Fortress","app_id":440,"player_count":23,"max_players":24,"Bots":0,"server_type":"Dedicated","server_os":"Linux","password":true,"vac":true,"version":"7961495","steam_id":85568392924866364,"keywords":["nocrits","nodmgspread","payload","uncletopia"],"game_id":440,"stv_port":27036,"stv_name":"Uncletopia | Chicago | 7 | Stopwatch | STV","players":[{"user_id":204,"name":"Andallfor","steam_id":76561198350143349,"connected_time":73000000000,"state":"active","ping":80},{"user_id":186,"name":"Squirrely Dan","steam_id":76561198125372567,"connected_time":515000000000,"state":"active","ping":87},{"user_id":185,"name":"Eiss","steam_id":76561198343183806,"connected_time":530000000000,"state":"active","ping":72},{"user_id":108,"name":"berserker_tf2 )HE/SHE(","steam_id":76561198303464488,"connected_time":4131000000000,"state":"active","ping":56},{"user_id":205,"name":"Frog","steam_id":76561199165825711,"connected_time":42000000000,"state":"active","ping":86},{"user_id":184,"name":"Tonedeft","steam_id":76561198145220502,"connected_time":574000000000,"state":"active","ping":88},{"user_id":91,"name":"Blue_car_Reid","steam_id":76561198161120719,"connected_time":4801000000000,"state":"active","ping":62},{"user_id":187,"name":"the_pugz","steam_id":76561199179432329,"connected_time":500000000000,"state":"active","ping":88},{"user_id":143,"name":"ethanf","steam_id":76561198103930234,"connected_time":2514000000000,"state":"active","ping":49},{"user_id":188,"name":"Phantom Royal","steam_id":76561199103752265,"connected_time":488000000000,"state":"active","ping":67},{"user_id":192,"name":"A Good Boy","steam_id":76561198066998594,"connected_time":320000000000,"state":"active","ping":83},{"user_id":193,"name":"CapnKris22","steam_id":76561198049010994,"connected_time":318000000000,"state":"active","ping":68},{"user_id":206,"name":"oppenheimer style","steam_id":76561198026664629,"connected_time":42000000000,"state":"active","ping":80},{"user_id":194,"name":"El Sin Cabeza","steam_id":76561198411585363,"connected_time":304000000000,"state":"active","ping":166},{"user_id":173,"name":"MayaBon","steam_id":76561198797968261,"connected_time":954000000000,"state":"active","ping":109},{"user_id":207,"name":"Impressive, very nice","steam_id":76561198046775352,"connected_time":4000000000,"state":"spawning","ping":87},{"user_id":196,"name":"squish","steam_id":76561198147833204,"connected_time":281000000000,"state":"active","ping":114},{"user_id":197,"name":"sen","steam_id":76561198211308328,"connected_time":234000000000,"state":"active","ping":65},{"user_id":153,"name":"Sock","steam_id":76561198315420000,"connected_time":1865000000000,"state":"active","ping":68},{"user_id":200,"name":"Chunk","steam_id":76561198204275251,"connected_time":194000000000,"state":"active","ping":86},{"user_id":201,"name":"Jpxfred","steam_id":76561199414783749,"connected_time":188000000000,"state":"spawning","ping":73},{"user_id":203,"name":"my name jeff","steam_id":76561198179816898,"connected_time":147000000000,"state":"active","ping":80},{"user_id":154,"name":"Pourpel","steam_id":76561198059125470,"connected_time":1844000000000,"state":"active","ping":73}]},{"server_id":39,"name":"Uncletopia | Chicago | 8 | Community","name_short":"chi-8","host":"chi-2.us.uncletopia.com","port":27045,"enabled":true,"region":"us-central","cc":"us","latitude":41.881832,"longitude":-87.62318,"reserved":0,"last_update":"0001-01-01T00:00:00Z","name_a2s":"Uncletopia | Chicago | 8 | Community","protocol":17,"map":"workshop/koth_ramjam_rc1.ugc459778887","folder":"tf","game":"Team Fortress","app_id":440,"player_count":0,"max_players":24,"Bots":0,"server_type":"Dedicated","server_os":"Linux","password":true,"vac":true,"version":"7961495","steam_id":85568392924866365,"keywords":["cp","nocrits","nodmgspread","uncletopia"],"game_id":440,"stv_port":27046,"stv_name":"Uncletopia | Chicago | 8 | Community | STV","players":null},{"server_id":8,"name":"Uncletopia | Dallas | 1 | All Maps","name_short":"dal-1","host":"dal-1.us.uncletopia.com","port":27015,"enabled":true,"region":"us-central","cc":"us","latitude":32.779167,"longitude":-96.80889,"reserved":0,"last_update":"0001-01-01T00:00:00Z","name_a2s":"Uncletopia | Dallas | 1 | All Maps","protocol":17,"map":"pl_upward","folder":"tf","game":"Team Fortress","app_id":440,"player_count":24,"max_players":24,"Bots":0,"server_type":"Dedicated","server_os":"Linux","password":true,"vac":true,"version":"7961495","steam_id":85568392924469986,"keywords":["nocrits","nodmgspread","payload","uncletopia"],"game_id":440,"stv_port":27016,"stv_name":"Uncletopia | Dallas | 1 | All Maps | STV","players":[{"user_id":226,"name":"fire","steam_id":76561198044354279,"connected_time":58000000000,"state":"active","ping":78},{"user_id":224,"name":"Jiggles","steam_id":76561198062014279,"connected_time":92000000000,"state":"active","ping":71},{"user_id":188,"name":"TheGFG","steam_id":76561198166150556,"connected_time":2676000000000,"state":"active","ping":58},{"user_id":190,"name":"firefly","steam_id":76561198151308698,"connected_time":2549000000000,"state":"active","ping":44},{"user_id":227,"name":"Knart","steam_id":76561198053299594,"connected_time":40000000000,"state":"active","ping":66},{"user_id":184,"name":"KhorneBread ︻デ 一","steam_id":76561198097069958,"connected_time":2847000000000,"state":"active","ping":102},{"user_id":200,"name":"Ryzema","steam_id":76561198165594229,"connected_time":1948000000000,"state":"active","ping":87},{"user_id":192,"name":"mbell1199","steam_id":76561198827517736,"connected_time":2378000000000,"state":"active","ping":65},{"user_id":219,"name":"V. G. Sunderland","steam_id":76561198161839980,"connected_time":459000000000,"state":"active","ping":87},{"user_id":204,"name":"Giselle","steam_id":76561198162593640,"connected_time":1603000000000,"state":"active","ping":111},{"user_id":215,"name":"TheGrassMan (He/Him)","steam_id":76561198118984048,"connected_time":591000000000,"state":"active","ping":90},{"user_id":221,"name":"BONK","steam_id":76561198930651186,"connected_time":368000000000,"state":"active","ping":92},{"user_id":178,"name":"THRONGLER","steam_id":76561198198563466,"connected_time":3201000000000,"state":"active","ping":41},{"user_id":210,"name":"Rob","steam_id":76561199187786660,"connected_time":827000000000,"state":"active","ping":54},{"user_id":218,"name":"Dragus","steam_id":76561198032967285,"connected_time":495000000000,"state":"active","ping":74},{"user_id":176,"name":"2.5 Oz of Paprika","steam_id":76561198174647666,"connected_time":3687000000000,"state":"active","ping":106},{"user_id":206,"name":"FanaticSalt","steam_id":76561199380123059,"connected_time":1124000000000,"state":"active","ping":44},{"user_id":203,"name":"Sweet Tooth","steam_id":76561198830158092,"connected_time":1851000000000,"state":"active","ping":88},{"user_id":135,"name":"leesh","steam_id":76561198079603938,"connected_time":6222000000000,"state":"active","ping":61},{"user_id":212,"name":"Pumpkin","steam_id":76561198122135517,"connected_time":773000000000,"state":"active","ping":90},{"user_id":223,"name":"Blue Sea","steam_id":76561198156077339,"connected_time":116000000000,"state":"active","ping":76},{"user_id":202,"name":"A/funny/dream","steam_id":76561198354481597,"connected_time":1921000000000,"state":"active","ping":80},{"user_id":213,"name":"JellyParrot","steam_id":76561199190990163,"connected_time":762000000000,"state":"active","ping":73},{"user_id":198,"name":"Zeeze","steam_id":76561197998153057,"connected_time":2158000000000,"state":"active","ping":75}]},{"server_id":108,"name":"Uncletopia | Dallas | 2 | All Maps","name_short":"dal-2","host":"dal-1.us.uncletopia.com","port":27025,"enabled":true,"region":"us-central","cc":"us","latitude":32.779167,"longitude":-96.80889,"reserved":0,"last_update":"0001-01-01T00:00:00Z","name_a2s":"Uncletopia | Dallas | 2 | All Maps","protocol":17,"map":"pl_pier","folder":"tf","game":"Team Fortress","app_id":440,"player_count":24,"max_players":24,"Bots":0,"server_type":"Dedicated","server_os":"Linux","password":true,"vac":true,"version":"7961495","steam_id":85568392924469988,"keywords":["nocrits","nodmgspread","payload","uncletopia"],"game_id":440,"stv_port":27026,"stv_name":"Uncletopia | Dallas | 2 | All Maps | STV","players":[{"user_id":689,"name":"Spookiest Breakfast","steam_id":76561198995031387,"connected_time":801000000000,"state":"active","ping":65},{"user_id":513,"name":"Brains . . .","steam_id":76561198100249037,"connected_time":15133000000000,"state":"active","ping":60},{"user_id":562,"name":"snail2646","steam_id":76561198061411251,"connected_time":10388000000000,"state":"active","ping":63},{"user_id":684,"name":"VPratt","steam_id":76561198351195424,"connected_time":1879000000000,"state":"active","ping":93},{"user_id":597,"name":"❀lo mein lacht sep chicken❀","steam_id":76561198059580373,"connected_time":7844000000000,"state":"active","ping":101},{"user_id":517,"name":"Hazeyboi","steam_id":76561198130687838,"connected_time":14785000000000,"state":"active","ping":72},{"user_id":670,"name":"hack fraud","steam_id":76561198015036066,"connected_time":2220000000000,"state":"active","ping":79},{"user_id":669,"name":"Neoomus","steam_id":76561198070341699,"connected_time":2671000000000,"state":"active","ping":49},{"user_id":674,"name":"TheBrocklobster","steam_id":76561198039682984,"connected_time":2203000000000,"state":"active","ping":92},{"user_id":688,"name":"Strangelove","steam_id":76561198353773611,"connected_time":895000000000,"state":"active","ping":107},{"user_id":675,"name":"femboy =＾● ⋏ ●＾=","steam_id":76561199052450127,"connected_time":2201000000000,"state":"active","ping":83},{"user_id":666,"name":"Biosock Infiknit","steam_id":76561198072693794,"connected_time":3104000000000,"state":"active","ping":66},{"user_id":678,"name":"Johnny Lawrence #JohnnyMaxxing","steam_id":76561199367141671,"connected_time":2177000000000,"state":"active","ping":88},{"user_id":686,"name":"Dragorf2010","steam_id":76561199238402270,"connected_time":1584000000000,"state":"active","ping":81},{"user_id":638,"name":"JustAnotherHuman","steam_id":76561199018122924,"connected_time":4508000000000,"state":"active","ping":130},{"user_id":679,"name":"LACTAID","steam_id":76561198276585202,"connected_time":2174000000000,"state":"active","ping":77},{"user_id":685,"name":"FUSION","steam_id":76561197972659738,"connected_time":1835000000000,"state":"active","ping":78},{"user_id":665,"name":"jimmy skillet","steam_id":76561198067232126,"connected_time":3149000000000,"state":"active","ping":68},{"user_id":682,"name":"Missing Minus","steam_id":76561198120822928,"connected_time":2117000000000,"state":"active","ping":67},{"user_id":683,"name":"Zaid","steam_id":76561199142840666,"connected_time":2097000000000,"state":"active","ping":149},{"user_id":636,"name":"sappy","steam_id":76561198200749235,"connected_time":4947000000000,"state":"active","ping":75},{"user_id":672,"name":"Sup m8","steam_id":76561198081659121,"connected_time":2219000000000,"state":"active","ping":45},{"user_id":515,"name":"Maximum Flame","steam_id":76561198073682529,"connected_time":14867000000000,"state":"active","ping":62},{"user_id":673,"name":"Blippy","steam_id":76561198225904600,"connected_time":2219000000000,"state":"active","ping":80}]},{"server_id":404,"name":"Uncletopia | Dallas | 3 | All Maps","name_short":"dal-3","host":"dal-1.us.uncletopia.com","port":27035,"enabled":true,"region":"us-central","cc":"us","latitude":32.779167,"longitude":-96.80889,"reserved":0,"last_update":"0001-01-01T00:00:00Z","name_a2s":"Uncletopia | Dallas | 3 | All Maps","protocol":17,"map":"koth_viaduct","folder":"tf","game":"Team Fortress","app_id":440,"player_count":2,"max_players":24,"Bots":0,"server_type":"Dedicated","server_os":"Linux","password":true,"vac":true,"version":"7961495","steam_id":85568392924515219,"keywords":["cp","nocrits","nodmgspread","uncletopia"],"game_id":440,"stv_port":27036,"stv_name":"Uncletopia | Dallas | 3 | All Maps | STV","players":[{"user_id":26,"name":"Aisforlike","steam_id":76561199482110668,"connected_time":553000000000,"state":"active","ping":34},{"user_id":30,"name":"cdstringel","steam_id":76561199216513566,"connected_time":363000000000,"state":"active","ping":135}]},{"server_id":405,"name":"Uncletopia | Dallas | 4 | Community","name_short":"dal-4","host":"dal-1.us.uncletopia.com","port":27045,"enabled":true,"region":"us-central","cc":"us","latitude":32.779167,"longitude":-96.80889,"reserved":0,"last_update":"0001-01-01T00:00:00Z","name_a2s":"Uncletopia | Dallas | 4 | Community","protocol":17,"map":"workshop/cp_hazyfort_rc6.ugc1365963729","folder":"tf","game":"Team Fortress","app_id":440,"player_count":0,"max_players":24,"Bots":0,"server_type":"Dedicated","server_os":"Linux","password":true,"vac":true,"version":"7961495","steam_id":85568392924515220,"keywords":["cp","nocrits","nodmgspread","uncletopia"],"game_id":440,"stv_port":27046,"stv_name":"Uncletopia | Dallas | 4 | Community | STV","players":null},{"server_id":5,"name":"Uncletopia | Frankfurt | 1 | All Maps","name_short":"frk-1","host":"frk-1.de.uncletopia.com","port":27015,"enabled":true,"region":"eu","cc":"de","latitude":50.110924,"longitude":8.682127,"reserved":0,"last_update":"0001-01-01T00:00:00Z","name_a2s":"Uncletopia | Frankfurt | 1 | All Maps","protocol":17,"map":"pl_frontier_final","folder":"tf","game":"Team Fortress","app_id":440,"player_count":0,"max_players":24,"Bots":0,"server_type":"Dedicated","server_os":"Linux","password":true,"vac":true,"version":"7961495","steam_id":85568392924469989,"keywords":["nocrits","nodmgspread","payload","uncletopia"],"game_id":440,"stv_port":27016,"stv_name":"Uncletopia | Frankfurt | 1 | All Maps | STV","players":null},{"server_id":110,"name":"Uncletopia | Frankfurt | 2 | All Maps","name_short":"frk-2","host":"frk-1.de.uncletopia.com","port":27025,"enabled":true,"region":"eu","cc":"de","latitude":50.110924,"longitude":8.682127,"reserved":0,"last_update":"0001-01-01T00:00:00Z","name_a2s":"Uncletopia | Frankfurt | 2 | All Maps","protocol":17,"map":"koth_viaduct","folder":"tf","game":"Team Fortress","app_id":440,"player_count":0,"max_players":24,"Bots":0,"server_type":"Dedicated","server_os":"Linux","password":true,"vac":true,"version":"7961495","steam_id":85568392924469990,"keywords":["cp","nocrits","nodmgspread","uncletopia"],"game_id":440,"stv_port":27026,"stv_name":"Uncletopia | Frankfurt | 2 | All Maps | STV","players":null},{"server_id":308,"name":"Uncletopia | Frankfurt | 3 | All Maps","name_short":"frk-3","host":"frk-1.de.uncletopia.com","port":27035,"enabled":true,"region":"eu","cc":"de","latitude":50.110924,"longitude":8.682127,"reserved":0,"last_update":"0001-01-01T00:00:00Z","name_a2s":"Uncletopia | Frankfurt | 3 | All Maps","protocol":17,"map":"koth_harvest_final","folder":"tf","game":"Team Fortress","app_id":440,"player_count":0,"max_players":24,"Bots":0,"server_type":"Dedicated","server_os":"Linux","password":true,"vac":true,"version":"7961495","steam_id":85568392924504274,"keywords":["cp","nocrits","nodmgspread","uncletopia"],"game_id":440,"stv_port":27036,"stv_name":"Uncletopia | Frankfurt | 3 | All Maps | STV","players":null},{"server_id":309,"name":"Uncletopia | Frankfurt | 4 | All Maps","name_short":"frk-4","host":"frk-1.de.uncletopia.com","port":27045,"enabled":true,"region":"eu","cc":"de","latitude":50.110924,"longitude":8.682127,"reserved":0,"last_update":"0001-01-01T00:00:00Z","name_a2s":"Uncletopia | Frankfurt | 4 | All Maps","protocol":17,"map":"pl_badwater","folder":"tf","game":"Team Fortress","app_id":440,"player_count":0,"max_players":24,"Bots":0,"server_type":"Dedicated","server_os":"Linux","password":true,"vac":true,"version":"7961495","steam_id":85568392924504275,"keywords":["nocrits","nodmgspread","payload","uncletopia"],"game_id":440,"stv_port":27046,"stv_name":"Uncletopia | Frankfurt | 4 | All Maps | STV","players":null},{"server_id":310,"name":"Uncletopia | Frankfurt | 5 | All Maps","name_short":"frk-5","host":"frk-1.de.uncletopia.com","port":27055,"enabled":true,"region":"eu","cc":"de","latitude":50.110924,"longitude":8.682127,"reserved":0,"last_update":"0001-01-01T00:00:00Z","name_a2s":"Uncletopia | Frankfurt | 5 | All Maps","protocol":17,"map":"pl_swiftwater_final1","folder":"tf","game":"Team Fortress","app_id":440,"player_count":0,"max_players":24,"Bots":0,"server_type":"Dedicated","server_os":"Linux","password":true,"vac":true,"version":"7961495","steam_id":85568392924504277,"keywords":["nocrits","nodmgspread","payload","uncletopia"],"game_id":440,"stv_port":27056,"stv_name":"Uncletopia | Frankfurt | 5 | All Maps | STV","players":null},{"server_id":311,"name":"Uncletopia | Frankfurt | 6 | All Maps","name_short":"frk-6","host":"frk-1.de.uncletopia.com","port":27065,"enabled":true,"region":"eu","cc":"de","latitude":50.110924,"longitude":8.682127,"reserved":0,"last_update":"0001-01-01T00:00:00Z","name_a2s":"Uncletopia | Frankfurt | 6 | All Maps","protocol":17,"map":"pl_badwater","folder":"tf","game":"Team Fortress","app_id":440,"player_count":0,"max_players":24,"Bots":0,"server_type":"Dedicated","server_os":"Linux","password":true,"vac":true,"version":"7961495","steam_id":85568392924504278,"keywords":["nocrits","nodmgspread","payload","uncletopia"],"game_id":440,"stv_port":27066,"stv_name":"Uncletopia | Frankfurt | 6 | All Maps | STV","players":null},{"server_id":23,"name":"Uncletopia | Frankfurt | 7 | Stopwatch","name_short":"frk-7","host":"frk-1.de.uncletopia.com","port":27075,"enabled":true,"region":"eu","cc":"de","latitude":50.110924,"longitude":8.682127,"reserved":0,"last_update":"0001-01-01T00:00:00Z","name_a2s":"Uncletopia | Frankfurt | 7 | Stopwatch","protocol":17,"map":"workshop/koth_ashville_final.ugc2130459942","folder":"tf","game":"Team Fortress","app_id":440,"player_count":0,"max_players":24,"Bots":0,"server_type":"Dedicated","server_os":"Linux","password":true,"vac":true,"version":"7961495","steam_id":85568392924742827,"keywords":["cp","nocrits","nodmgspread","uncletopia"],"game_id":440,"stv_port":27076,"stv_name":"Uncletopia | Frankfurt | 7 | Stopwatch | STV","players":null},{"server_id":24,"name":"Uncletopia | Frankfurt | 8 | Community","name_short":"frk-8","host":"frk-1.de.uncletopia.com","port":27085,"enabled":true,"region":"eu","cc":"de","latitude":50.110924,"longitude":8.682127,"reserved":0,"last_update":"0001-01-01T00:00:00Z","name_a2s":"Uncletopia | Frankfurt | 8 | Community","protocol":17,"map":"workshop/koth_slaughter_rc1.ugc1712845210","folder":"tf","game":"Team Fortress","app_id":440,"player_count":0,"max_players":24,"Bots":0,"server_type":"Dedicated","server_os":"Linux","password":true,"vac":true,"version":"7961495","steam_id":85568392924742828,"keywords":["cp","nocrits","nodmgspread","uncletopia"],"game_id":440,"stv_port":27086,"stv_name":"Uncletopia | Frankfurt | 8 | Community | STV","players":null},{"server_id":202,"name":"Uncletopia | Hong Kong | 1 | All Maps","name_short":"hgk-1","host":"hgk-1.hk.uncletopia.com","port":27015,"enabled":true,"region":"asia","cc":"hk","latitude":22.302711,"longitude":114.177216,"reserved":0,"last_update":"0001-01-01T00:00:00Z","name_a2s":"Uncletopia | Hong Kong | 1 | All Maps","protocol":17,"map":"pl_frontier_final","folder":"tf","game":"Team Fortress","app_id":440,"player_count":0,"max_players":24,"Bots":0,"server_type":"Dedicated","server_os":"Linux","password":true,"vac":true,"version":"7961495","steam_id":85568392924494504,"keywords":["nocrits","nodmgspread","payload","uncletopia"],"game_id":440,"stv_port":27016,"stv_name":"Uncletopia | Hong Kong | 1 | All Maps | STV","players":null},{"server_id":1,"name":"Uncletopia | Los Angeles | 1 | All Maps","name_short":"lax-1","host":"lax-1.us.uncletopia.com","port":27015,"enabled":true,"region":"us-west","cc":"us","latitude":33.94279,"longitude":-118.41004,"reserved":0,"last_update":"0001-01-01T00:00:00Z","name_a2s":"Uncletopia | Los Angeles | 1 | All Maps","protocol":17,"map":"pl_barnblitz","folder":"tf","game":"Team Fortress","app_id":440,"player_count":24,"max_players":24,"Bots":0,"server_type":"Dedicated","server_os":"Linux","password":true,"vac":true,"version":"7961495","steam_id":85568392924469991,"keywords":["nocrits","nodmgspread","payload","uncletopia"],"game_id":440,"stv_port":27016,"stv_name":"Uncletopia | Los Angeles | 1 | All Maps | STV","players":[{"user_id":10,"name":"lolzfrdawin21","steam_id":76561199006665979,"connected_time":3520000000000,"state":"active","ping":122},{"user_id":11,"name":"Sul Gutmun","steam_id":76561198308817394,"connected_time":3515000000000,"state":"active","ping":109},{"user_id":12,"name":"cool beans","steam_id":76561198321591685,"connected_time":3511000000000,"state":"active","ping":99},{"user_id":45,"name":"DonoC","steam_id":76561198274473338,"connected_time":1113000000000,"state":"active","ping":93},{"user_id":61,"name":"nnoxx","steam_id":76561198809475851,"connected_time":465000000000,"state":"active","ping":73},{"user_id":43,"name":"LaetitiaLuvr33","steam_id":76561198044493141,"connected_time":1169000000000,"state":"active","ping":76},{"user_id":37,"name":"buhn","steam_id":76561198106117196,"connected_time":1629000000000,"state":"active","ping":49},{"user_id":58,"name":"moe","steam_id":76561198929586245,"connected_time":647000000000,"state":"active","ping":42},{"user_id":59,"name":"Kzjytsugn","steam_id":76561198130241974,"connected_time":564000000000,"state":"active","ping":70},{"user_id":22,"name":"sirFrost","steam_id":76561198072267177,"connected_time":2015000000000,"state":"active","ping":88},{"user_id":23,"name":"Vrita","steam_id":76561198059483641,"connected_time":2002000000000,"state":"active","ping":60},{"user_id":24,"name":"eeellliii1","steam_id":76561198056261636,"connected_time":1995000000000,"state":"active","ping":97},{"user_id":25,"name":"Sixls6DS","steam_id":76561198964374681,"connected_time":1994000000000,"state":"active","ping":110},{"user_id":26,"name":"Hobbes","steam_id":76561197967448497,"connected_time":1976000000000,"state":"active","ping":106},{"user_id":54,"name":"Evo","steam_id":76561197963535524,"connected_time":791000000000,"state":"active","ping":101},{"user_id":28,"name":"BarrowBaron","steam_id":76561198013633236,"connected_time":1812000000000,"state":"active","ping":107},{"user_id":56,"name":"[boykisser esports] cursed 7/11","steam_id":76561198282017726,"connected_time":746000000000,"state":"active","ping":66},{"user_id":39,"name":"Expand Dong","steam_id":76561198048159150,"connected_time":1328000000000,"state":"active","ping":86},{"user_id":31,"name":"MMAD","steam_id":76561198026446420,"connected_time":1791000000000,"state":"active","ping":88},{"user_id":62,"name":"Jokergamma","steam_id":76561198807984541,"connected_time":440000000000,"state":"active","ping":87},{"user_id":33,"name":"Phrog","steam_id":76561198072975322,"connected_time":1745000000000,"state":"active","ping":85},{"user_id":35,"name":"The Foolish Samurai","steam_id":76561198094494945,"connected_time":1675000000000,"state":"active","ping":75},{"user_id":51,"name":"Action-Flash","steam_id":76561198042438122,"connected_time":921000000000,"state":"active","ping":98},{"user_id":42,"name":"SoftballSteven44","steam_id":76561198065842276,"connected_time":1246000000000,"state":"active","ping":107}]},{"server_id":112,"name":"Uncletopia | Los Angeles | 2 | All Maps","name_short":"lax-2","host":"lax-1.us.uncletopia.com","port":27025,"enabled":true,"region":"us-west","cc":"us","latitude":33.94279,"longitude":-118.41004,"reserved":0,"last_update":"0001-01-01T00:00:00Z","name_a2s":"Uncletopia | Los Angeles | 2 | All Maps","protocol":17,"map":"pl_pier","folder":"tf","game":"Team Fortress","app_id":440,"player_count":24,"max_players":24,"Bots":0,"server_type":"Dedicated","server_os":"Linux","password":true,"vac":true,"version":"7961495","steam_id":85568392924469992,"keywords":["nocrits","nodmgspread","payload","uncletopia"],"game_id":440,"stv_port":27026,"stv_name":"Uncletopia | Los Angeles | 2 | All Maps | STV","players":[{"user_id":490,"name":"Furrio","steam_id":76561198174104607,"connected_time":431000000000,"state":"active","ping":99},{"user_id":487,"name":"Sheev Palpatine","steam_id":76561198252332430,"connected_time":488000000000,"state":"active","ping":80},{"user_id":477,"name":"❤ Ashley ❤","steam_id":76561198056428303,"connected_time":1533000000000,"state":"active","ping":49},{"user_id":473,"name":"sobaka","steam_id":76561198116008934,"connected_time":2074000000000,"state":"active","ping":71},{"user_id":437,"name":"roach","steam_id":76561198354811369,"connected_time":5480000000000,"state":"active","ping":47},{"user_id":479,"name":"DV","steam_id":76561198295570806,"connected_time":1517000000000,"state":"active","ping":58},{"user_id":468,"name":"._.","steam_id":76561198300316801,"connected_time":2628000000000,"state":"active","ping":105},{"user_id":448,"name":"Jazpy","steam_id":76561198036872545,"connected_time":3362000000000,"state":"active","ping":77},{"user_id":451,"name":"arkei-mgtg (I♥ZONING)","steam_id":76561198013113138,"connected_time":3340000000000,"state":"active","ping":48},{"user_id":488,"name":"Functional Progaming","steam_id":76561198032310210,"connected_time":473000000000,"state":"active","ping":99},{"user_id":489,"name":"comicconcarne","steam_id":76561198005309469,"connected_time":463000000000,"state":"active","ping":104},{"user_id":494,"name":"Dylan Pulido","steam_id":76561198272681544,"connected_time":93000000000,"state":"active","ping":60},{"user_id":483,"name":"cupsovietxeno","steam_id":76561198997539399,"connected_time":1080000000000,"state":"active","ping":61},{"user_id":444,"name":"darren","steam_id":76561199050155136,"connected_time":3859000000000,"state":"active","ping":52},{"user_id":434,"name":"Sharp","steam_id":76561198044565001,"connected_time":5638000000000,"state":"active","ping":124},{"user_id":474,"name":"Pyrotek⁴","steam_id":76561198072747672,"connected_time":2042000000000,"state":"active","ping":47},{"user_id":486,"name":"proud_asian","steam_id":76561198977973083,"connected_time":603000000000,"state":"active","ping":111},{"user_id":470,"name":"Snivy64","steam_id":76561198423445376,"connected_time":2575000000000,"state":"active","ping":92},{"user_id":471,"name":"BitPieStudios","steam_id":76561198059216393,"connected_time":2480000000000,"state":"active","ping":56},{"user_id":493,"name":"Drapph","steam_id":76561199384213314,"connected_time":298000000000,"state":"active","ping":122},{"user_id":492,"name":"MC_Labs15","steam_id":76561198184017082,"connected_time":362000000000,"state":"active","ping":86},{"user_id":482,"name":"self sufficient kitten","steam_id":76561197960592612,"connected_time":1197000000000,"state":"active","ping":84},{"user_id":495,"name":"sloth","steam_id":76561198318126190,"connected_time":5000000000,"state":"spawning","ping":156},{"user_id":464,"name":"gender fluid IV","steam_id":76561198065662025,"connected_time":2774000000000,"state":"active","ping":61}]},{"server_id":324,"name":"Uncletopia | Los Angeles | 3 | All Maps","name_short":"lax-3","host":"lax-1.us.uncletopia.com","port":27035,"enabled":true,"region":"us-west","cc":"us","latitude":33.94279,"longitude":-118.41004,"reserved":0,"last_update":"0001-01-01T00:00:00Z","name_a2s":"Uncletopia | Los Angeles | 3 | All Maps","protocol":17,"map":"pl_pier","folder":"tf","game":"Team Fortress","app_id":440,"player_count":24,"max_players":24,"Bots":0,"server_type":"Dedicated","server_os":"Linux","password":true,"vac":true,"version":"7961495","steam_id":85568392924510198,"keywords":["nocrits","nodmgspread","payload","uncletopia"],"game_id":440,"stv_port":27036,"stv_name":"Uncletopia | Los Angeles | 3 | All Maps | STV","players":[{"user_id":13,"name":"abolish the federal reserve","steam_id":76561198047796437,"connected_time":3600000000000,"state":"active","ping":75},{"user_id":40,"name":"Manny Heffley","steam_id":76561198135137213,"connected_time":413000000000,"state":"active","ping":81},{"user_id":12,"name":"BiggestHistoryNerd","steam_id":76561198027677672,"connected_time":4186000000000,"state":"active","ping":46},{"user_id":14,"name":"Gramseal","steam_id":76561198181906333,"connected_time":2525000000000,"state":"active","ping":55},{"user_id":25,"name":"Gerbias","steam_id":76561198001002427,"connected_time":1177000000000,"state":"active","ping":68},{"user_id":41,"name":"Altruisticailuridae","steam_id":76561198335295596,"connected_time":398000000000,"state":"active","ping":54},{"user_id":42,"name":"Max Headass","steam_id":76561198964210411,"connected_time":389000000000,"state":"active","ping":50},{"user_id":21,"name":"mrthugpug1732","steam_id":76561198881200768,"connected_time":1395000000000,"state":"active","ping":65},{"user_id":51,"name":"fregley","steam_id":76561198060070002,"connected_time":106000000000,"state":"active","ping":100},{"user_id":43,"name":"HoneyIsCringe","steam_id":76561199011712065,"connected_time":380000000000,"state":"active","ping":72},{"user_id":24,"name":"twitch.tv/rustyorion","steam_id":76561198439186347,"connected_time":1232000000000,"state":"active","ping":87},{"user_id":50,"name":"Mojo","steam_id":76561198985311522,"connected_time":149000000000,"state":"active","ping":95},{"user_id":53,"name":"nonagon infinity","steam_id":76561198397662124,"connected_time":2000000000,"state":"spawning","ping":91},{"user_id":28,"name":"Peepster","steam_id":76561198297854733,"connected_time":965000000000,"state":"active","ping":130},{"user_id":45,"name":"SHANE","steam_id":76561198113500520,"connected_time":330000000000,"state":"active","ping":66},{"user_id":30,"name":"Penne","steam_id":76561198982393756,"connected_time":911000000000,"state":"active","ping":118},{"user_id":31,"name":"Bodhisattva","steam_id":76561198085228896,"connected_time":877000000000,"state":"active","ping":49},{"user_id":46,"name":"beatrice III","steam_id":76561198319897635,"connected_time":328000000000,"state":"active","ping":62},{"user_id":47,"name":"friendly on uncletopia","steam_id":76561198064194222,"connected_time":230000000000,"state":"active","ping":65},{"user_id":35,"name":"OneMisguidedSlyGuy","steam_id":76561198372243261,"connected_time":664000000000,"state":"active","ping":49},{"user_id":36,"name":"guh","steam_id":76561198087200115,"connected_time":631000000000,"state":"active","ping":75},{"user_id":37,"name":"Other Players, My One Weakness","steam_id":76561197989247588,"connected_time":513000000000,"state":"active","ping":79},{"user_id":39,"name":"Mr. Ravioli","steam_id":76561197996625649,"connected_time":490000000000,"state":"active","ping":86},{"user_id":49,"name":"gohadoken","steam_id":76561198430889640,"connected_time":218000000000,"state":"active","ping":117}]},{"server_id":25,"name":"Uncletopia | Los Angeles | 4 | Stopwatch","name_short":"lax-4","host":"lax-1.us.uncletopia.com","port":27045,"enabled":true,"region":"us-west","cc":"us","latitude":33.94279,"longitude":-118.41004,"reserved":0,"last_update":"0001-01-01T00:00:00Z","name_a2s":"Uncletopia | Los Angeles | 4 | Stopwatch","protocol":17,"map":"koth_lakeside_final","folder":"tf","game":"Team Fortress","app_id":440,"player_count":0,"max_players":24,"Bots":0,"server_type":"Dedicated","server_os":"Linux","password":true,"vac":true,"version":"7961495","steam_id":85568392924510199,"keywords":["cp","nocrits","nodmgspread","uncletopia"],"game_id":440,"stv_port":27046,"stv_name":"Uncletopia | Los Angeles | 4 | Stopwatch | STV","players":null},{"server_id":11,"name":"Uncletopia | London | 1 | All Maps","name_short":"lon-1","host":"lon-1.uk.uncletopia.com","port":27015,"enabled":true,"region":"eu","cc":"gb","latitude":51.509865,"longitude":-0.118092,"reserved":0,"last_update":"0001-01-01T00:00:00Z","name_a2s":"Uncletopia | London | 1 | All Maps","protocol":17,"map":"pl_borneo","folder":"tf","game":"Team Fortress","app_id":440,"player_count":0,"max_players":24,"Bots":0,"server_type":"Dedicated","server_os":"Linux","password":true,"vac":true,"version":"7961495","steam_id":85568392924367362,"keywords":["nocrits","nodmgspread","payload","uncletopia"],"game_id":440,"stv_port":27016,"stv_name":"Uncletopia | London | 1 | All Maps | STV","players":null},{"server_id":114,"name":"Uncletopia | London | 2 | All Maps","name_short":"lon-2","host":"lon-1.uk.uncletopia.com","port":27025,"enabled":true,"region":"eu","cc":"gb","latitude":51.509865,"longitude":-0.118092,"reserved":0,"last_update":"0001-01-01T00:00:00Z","name_a2s":"Uncletopia | London | 2 | All Maps","protocol":17,"map":"koth_lakeside_final","folder":"tf","game":"Team Fortress","app_id":440,"player_count":0,"max_players":24,"Bots":0,"server_type":"Dedicated","server_os":"Linux","password":true,"vac":true,"version":"7961495","steam_id":85568392924470941,"keywords":["cp","nocrits","nodmgspread","uncletopia"],"game_id":440,"stv_port":27026,"stv_name":"Uncletopia | London | 2 | All Maps | STV","players":null},{"server_id":320,"name":"Uncletopia | London | 3 | All Maps","name_short":"lon-3","host":"lon-1.uk.uncletopia.com","port":27035,"enabled":true,"region":"eu","cc":"gb","latitude":51.509865,"longitude":-0.118092,"reserved":0,"last_update":"0001-01-01T00:00:00Z","name_a2s":"Uncletopia | London | 3 | All Maps","protocol":17,"map":"pl_frontier_final","folder":"tf","game":"Team Fortress","app_id":440,"player_count":24,"max_players":24,"Bots":0,"server_type":"Dedicated","server_os":"Linux","password":true,"vac":true,"version":"7961495","steam_id":85568392924510192,"keywords":["nocrits","nodmgspread","payload","uncletopia"],"game_id":440,"stv_port":27036,"stv_name":"Uncletopia | London | 3 | All Maps | STV","players":[{"user_id":745,"name":"Winzinf","steam_id":76561198026152232,"connected_time":3557000000000,"state":"active","ping":156},{"user_id":763,"name":"tomyjoh","steam_id":76561198077421906,"connected_time":2470000000000,"state":"active","ping":45},{"user_id":774,"name":"Verdict","steam_id":76561198088226595,"connected_time":1492000000000,"state":"active","ping":80},{"user_id":762,"name":"Borat","steam_id":76561198122226417,"connected_time":2492000000000,"state":"active","ping":43},{"user_id":783,"name":"Testy","steam_id":76561198169996602,"connected_time":793000000000,"state":"active","ping":56},{"user_id":748,"name":"Marker06","steam_id":76561198277310442,"connected_time":3294000000000,"state":"active","ping":61},{"user_id":778,"name":"MuchoBroke","steam_id":76561199389474207,"connected_time":1244000000000,"state":"active","ping":41},{"user_id":766,"name":"neun_o2","steam_id":76561198795862574,"connected_time":2408000000000,"state":"active","ping":133},{"user_id":773,"name":"Ω ScAVENGE Ω","steam_id":76561198034375627,"connected_time":1600000000000,"state":"active","ping":63},{"user_id":775,"name":"Ahmed abdullah","steam_id":76561198343776759,"connected_time":1249000000000,"state":"active","ping":71},{"user_id":779,"name":"BUTTS \u0026 TITS \u0026 $$$","steam_id":76561198049405872,"connected_time":866000000000,"state":"active","ping":46},{"user_id":751,"name":"mümq","steam_id":76561198085153806,"connected_time":3060000000000,"state":"active","ping":49},{"user_id":753,"name":"schubbert","steam_id":76561198346638308,"connected_time":3033000000000,"state":"active","ping":52},{"user_id":772,"name":"Bobirulez","steam_id":76561198009125458,"connected_time":1849000000000,"state":"active","ping":70},{"user_id":755,"name":"Skyrider of Spaceways","steam_id":76561197991678236,"connected_time":3022000000000,"state":"active","ping":119},{"user_id":771,"name":"etc","steam_id":76561197998394797,"connected_time":1916000000000,"state":"active","ping":54},{"user_id":758,"name":"syms","steam_id":76561198066679812,"connected_time":2826000000000,"state":"active","ping":77},{"user_id":785,"name":"Arthur","steam_id":76561198066109166,"connected_time":104000000000,"state":"active","ping":87},{"user_id":782,"name":"Pultow","steam_id":76561198023438448,"connected_time":817000000000,"state":"active","ping":88},{"user_id":769,"name":"robouki","steam_id":76561198168265569,"connected_time":2117000000000,"state":"active","ping":42},{"user_id":784,"name":"Dale ❤","steam_id":76561197995189004,"connected_time":726000000000,"state":"active","ping":53},{"user_id":760,"name":"H-say","steam_id":76561198177400362,"connected_time":2821000000000,"state":"active","ping":102},{"user_id":777,"name":"noseb","steam_id":76561199480942903,"connected_time":1248000000000,"state":"active","ping":74},{"user_id":761,"name":"amedspor","steam_id":76561198116530769,"connected_time":2819000000000,"state":"active","ping":96}]},{"server_id":321,"name":"Uncletopia | London | 4 | All Maps","name_short":"lon-4","host":"lon-1.uk.uncletopia.com","port":27045,"enabled":true,"region":"eu","cc":"gb","latitude":51.509865,"longitude":-0.118092,"reserved":0,"last_update":"0001-01-01T00:00:00Z","name_a2s":"Uncletopia | London | 4 | All Maps","protocol":17,"map":"koth_viaduct","folder":"tf","game":"Team Fortress","app_id":440,"player_count":0,"max_players":24,"Bots":0,"server_type":"Dedicated","server_os":"Linux","password":true,"vac":true,"version":"7961495","steam_id":85568392924510193,"keywords":["cp","nocrits","nodmgspread","uncletopia"],"game_id":440,"stv_port":27046,"stv_name":"Uncletopia | London | 4 | All Maps | STV","players":null},{"server_id":21,"name":"Uncletopia | London | 5 | All Maps","name_short":"lon-5","host":"lon-1.uk.uncletopia.com","port":27055,"enabled":true,"region":"eu","cc":"gb","latitude":51.509865,"longitude":-0.118092,"reserved":0,"last_update":"0001-01-01T00:00:00Z","name_a2s":"Uncletopia | London | 5 | All Maps","protocol":17,"map":"cp_sunshine","folder":"tf","game":"Team Fortress","app_id":440,"player_count":0,"max_players":24,"Bots":0,"server_type":"Dedicated","server_os":"Linux","password":true,"vac":true,"version":"7961495","steam_id":85568392924742829,"keywords":["cp","nocrits","nodmgspread","uncletopia"],"game_id":440,"stv_port":27056,"stv_name":"Uncletopia | London | 5 | All Maps | STV","players":null},{"server_id":22,"name":"Uncletopia | London | 6 | All Maps","name_short":"lon-6","host":"lon-1.uk.uncletopia.com","port":27065,"enabled":true,"region":"eu","cc":"gb","latitude":51.509865,"longitude":-0.118092,"reserved":0,"last_update":"0001-01-01T00:00:00Z","name_a2s":"Uncletopia | London | 6 | All Maps","protocol":17,"map":"cp_dustbowl","folder":"tf","game":"Team Fortress","app_id":440,"player_count":18,"max_players":24,"Bots":0,"server_type":"Dedicated","server_os":"Linux","password":true,"vac":true,"version":"7961495","steam_id":85568392924742830,"keywords":["cp","nocrits","nodmgspread","uncletopia"],"game_id":440,"stv_port":27066,"stv_name":"Uncletopia | London | 6 | All Maps | STV","players":[{"user_id":609,"name":"scott steiners strongest warrio","steam_id":76561198148888622,"connected_time":38000000000,"state":"active","ping":49},{"user_id":583,"name":"Shamwise","steam_id":76561198147577158,"connected_time":2173000000000,"state":"active","ping":61},{"user_id":606,"name":"Shoesuke","steam_id":76561198928490121,"connected_time":328000000000,"state":"active","ping":49},{"user_id":551,"name":"yuno appreciator","steam_id":76561198083286511,"connected_time":5655000000000,"state":"active","ping":32},{"user_id":582,"name":"Iris","steam_id":76561198430295815,"connected_time":2536000000000,"state":"active","ping":69},{"user_id":596,"name":"Mr. Fox","steam_id":76561198803610709,"connected_time":1178000000000,"state":"active","ping":116},{"user_id":588,"name":"Blungus","steam_id":76561198223329688,"connected_time":1689000000000,"state":"active","ping":50},{"user_id":589,"name":"la tempete qui approche","steam_id":76561198826468580,"connected_time":1484000000000,"state":"active","ping":45},{"user_id":603,"name":"DicyPicky","steam_id":76561198078873335,"connected_time":444000000000,"state":"active","ping":65},{"user_id":604,"name":"Wardaddy","steam_id":76561198087531038,"connected_time":380000000000,"state":"active","ping":99},{"user_id":600,"name":"Minty","steam_id":76561198068729748,"connected_time":602000000000,"state":"active","ping":69},{"user_id":598,"name":"Lupine Primogen","steam_id":76561198028921204,"connected_time":976000000000,"state":"active","ping":94},{"user_id":601,"name":"Cpt. Cinnabun","steam_id":76561198199117446,"connected_time":585000000000,"state":"active","ping":45},{"user_id":602,"name":"Kiz","steam_id":76561198811732820,"connected_time":469000000000,"state":"active","ping":77},{"user_id":605,"name":"Mr.Angel","steam_id":76561198036891516,"connected_time":379000000000,"state":"active","ping":97},{"user_id":607,"name":"Violetvibin","steam_id":76561199278524276,"connected_time":285000000000,"state":"active","ping":135},{"user_id":608,"name":"Proud Jojo Fan #TF2SP","steam_id":76561198847327216,"connected_time":126000000000,"state":"active","ping":68},{"user_id":610,"name":"Fintinbin","steam_id":76561198055362839,"connected_time":17000000000,"state":"active","ping":57}]},{"server_id":40,"name":"Uncletopia | London | 7 | Stopwatch","name_short":"lon-7","host":"lon-1.uk.uncletopia.com","port":27075,"enabled":true,"region":"eu","cc":"gb","latitude":51.509865,"longitude":-0.118092,"reserved":0,"last_update":"0001-01-01T00:00:00Z","name_a2s":"Uncletopia | London | 7 | Stopwatch","protocol":17,"map":"workshop/koth_product_final.ugc454272353","folder":"tf","game":"Team Fortress","app_id":440,"player_count":0,"max_players":24,"Bots":0,"server_type":"Dedicated","server_os":"Linux","password":true,"vac":true,"version":"7961495","steam_id":85568392924964314,"keywords":["cp","nocrits","nodmgspread","uncletopia"],"game_id":440,"stv_port":27076,"stv_name":"Uncletopia | London | 7 | Stopwatch | STV","players":null},{"server_id":41,"name":"Uncletopia | London | 8 | Community","name_short":"lon-8","host":"lon-1.uk.uncletopia.com","port":27085,"enabled":true,"region":"eu","cc":"gb","latitude":51.509865,"longitude":-0.118092,"reserved":0,"last_update":"0001-01-01T00:00:00Z","name_a2s":"Uncletopia | London | 8 | Community","protocol":17,"map":"workshop/pl_shoreleave_rc2.ugc1238849347","folder":"tf","game":"Team Fortress","app_id":440,"player_count":0,"max_players":24,"Bots":0,"server_type":"Dedicated","server_os":"Linux","password":true,"vac":true,"version":"7961495","steam_id":85568392924964315,"keywords":["nocrits","nodmgspread","payload","uncletopia"],"game_id":440,"stv_port":27086,"stv_name":"Uncletopia | London | 8 | Community | STV","players":null},{"server_id":300,"name":"Uncletopia | Montréal | 1 | One Thousand Uncles","name_short":"mtl-1","host":"mtl-1.ca.uncletopia.com","port":27015,"enabled":true,"region":"us-east","cc":"ca","latitude":45.50889,"longitude":-73.56167,"reserved":0,"last_update":"0001-01-01T00:00:00Z","name_a2s":"","protocol":0,"map":"","folder":"","game":"","app_id":0,"player_count":0,"max_players":0,"Bots":0,"server_type":"","server_os":"","password":false,"vac":false,"version":"","steam_id":0,"keywords":null,"game_id":0,"stv_port":0,"stv_name":"","players":null},{"server_id":301,"name":"Uncletopia | Montréal | 2 | One Thousand Uncles","name_short":"mtl-2","host":"mtl-1.ca.uncletopia.com","port":27025,"enabled":true,"region":"us-east","cc":"ca","latitude":45.50889,"longitude":-73.56167,"reserved":0,"last_update":"0001-01-01T00:00:00Z","name_a2s":"","protocol":0,"map":"","folder":"","game":"","app_id":0,"player_count":9,"max_players":0,"Bots":0,"server_type":"","server_os":"","password":false,"vac":false,"version":"","steam_id":0,"keywords":null,"game_id":0,"stv_port":0,"stv_name":"","players":[{"user_id":168,"name":"Terratrox","steam_id":76561198207115731,"connected_time":1541000000000,"state":"active","ping":75},{"user_id":169,"name":"Lots0","steam_id":76561198043143145,"connected_time":1484000000000,"state":"active","ping":93},{"user_id":103,"name":"JustANormalOlive-ia","steam_id":76561198809645656,"connected_time":6787000000000,"state":"active","ping":97},{"user_id":170,"name":"DarkJesterofit","steam_id":76561198438092461,"connected_time":949000000000,"state":"active","ping":120},{"user_id":104,"name":"Arachna.cadabra","steam_id":76561198039437427,"connected_time":6605000000000,"state":"active","ping":110},{"user_id":171,"name":"eepy kitty uwu","steam_id":76561198106313563,"connected_time":590000000000,"state":"active","ping":75},{"user_id":121,"name":"Sgt. Pepper","steam_id":76561198063674627,"connected_time":3688000000000,"state":"active","ping":100},{"user_id":172,"name":"iamtheSpicer","steam_id":76561198263557044,"connected_time":464000000000,"state":"active","ping":122},{"user_id":123,"name":"DeepDive","steam_id":76561198140542184,"connected_time":3602000000000,"state":"active","ping":57}]},{"server_id":302,"name":"Uncletopia | Montréal | 3 | One Thousand Uncles","name_short":"mtl-3","host":"mtl-1.ca.uncletopia.com","port":27035,"enabled":true,"region":"us-east","cc":"ca","latitude":45.50889,"longitude":-73.56167,"reserved":0,"last_update":"0001-01-01T00:00:00Z","name_a2s":"","protocol":0,"map":"","folder":"","game":"","app_id":0,"player_count":0,"max_players":0,"Bots":0,"server_type":"","server_os":"","password":false,"vac":false,"version":"","steam_id":0,"keywords":null,"game_id":0,"stv_port":0,"stv_name":"","players":null},{"server_id":13,"name":"Uncletopia | New York City | 1 | All Maps","name_short":"nyc-1","host":"nyc-1.us.uncletopia.com","port":27015,"enabled":true,"region":"us-east","cc":"us","latitude":40.73061,"longitude":-73.93524,"reserved":0,"last_update":"0001-01-01T00:00:00Z","name_a2s":"Uncletopia | New York City | 1 | All Maps","protocol":17,"map":"pl_borneo","folder":"tf","game":"Team Fortress","app_id":440,"player_count":24,"max_players":24,"Bots":0,"server_type":"Dedicated","server_os":"Linux","password":true,"vac":true,"version":"7961495","steam_id":85568392924469993,"keywords":["nocrits","nodmgspread","payload","uncletopia"],"game_id":440,"stv_port":27016,"stv_name":"Uncletopia | New York City | 1 | All Maps | STV","players":[{"user_id":465,"name":"Queso2469","steam_id":76561197993024580,"connected_time":1967000000000,"state":"active","ping":40},{"user_id":497,"name":"Crouching Noob Hidden Sniper","steam_id":76561197971328473,"connected_time":24000000000,"state":"active","ping":87},{"user_id":472,"name":"Coca162","steam_id":76561198230656540,"connected_time":1525000000000,"state":"active","ping":110},{"user_id":480,"name":"FrostStorm","steam_id":76561198142685151,"connected_time":1231000000000,"state":"active","ping":74},{"user_id":494,"name":"flm","steam_id":76561198144052860,"connected_time":273000000000,"state":"active","ping":88},{"user_id":492,"name":"custodian","steam_id":76561198058793778,"connected_time":279000000000,"state":"active","ping":57},{"user_id":474,"name":"AMistake","steam_id":76561199379196708,"connected_time":1472000000000,"state":"active","ping":67},{"user_id":485,"name":"sam","steam_id":76561198088504281,"connected_time":627000000000,"state":"active","ping":58},{"user_id":491,"name":"googa","steam_id":76561198133130452,"connected_time":490000000000,"state":"active","ping":45},{"user_id":489,"name":"Xrath","steam_id":76561198220741860,"connected_time":521000000000,"state":"active","ping":60},{"user_id":481,"name":"ndvr","steam_id":76561199379200102,"connected_time":1049000000000,"state":"active","ping":56},{"user_id":445,"name":"Lemoncurry","steam_id":76561198045356414,"connected_time":3689000000000,"state":"active","ping":81},{"user_id":447,"name":"Coffee Instant Type 2","steam_id":76561198307845869,"connected_time":3491000000000,"state":"active","ping":58},{"user_id":467,"name":"Voracious Puma","steam_id":76561197963621649,"connected_time":1738000000000,"state":"active","ping":91},{"user_id":488,"name":"Duncan Idaho","steam_id":76561197988963861,"connected_time":607000000000,"state":"active","ping":78},{"user_id":476,"name":"Kevin Edwards","steam_id":76561197998808319,"connected_time":1420000000000,"state":"active","ping":70},{"user_id":463,"name":"Hellmonger","steam_id":76561198016058155,"connected_time":2198000000000,"state":"active","ping":66},{"user_id":482,"name":"Torbjön","steam_id":76561198087592749,"connected_time":833000000000,"state":"active","ping":56},{"user_id":490,"name":"SpaceSanctum","steam_id":76561198805242305,"connected_time":505000000000,"state":"active","ping":44},{"user_id":495,"name":"KGAMER blw.tf","steam_id":76561199087940594,"connected_time":205000000000,"state":"active","ping":44},{"user_id":451,"name":"Oopsie Daisy ❋","steam_id":76561198042144492,"connected_time":3384000000000,"state":"active","ping":81},{"user_id":462,"name":"Rowmaster","steam_id":76561198271659574,"connected_time":2288000000000,"state":"active","ping":106},{"user_id":461,"name":"Yuzu","steam_id":76561198417913035,"connected_time":2491000000000,"state":"active","ping":75},{"user_id":469,"name":"UnlivingSkunk","steam_id":76561198324517387,"connected_time":1596000000000,"state":"active","ping":53}]},{"server_id":14,"name":"Uncletopia | New York City | 2 | All Maps","name_short":"nyc-2","host":"nyc-1.us.uncletopia.com","port":27025,"enabled":true,"region":"us-east","cc":"us","latitude":40.73061,"longitude":-73.93524,"reserved":0,"last_update":"0001-01-01T00:00:00Z","name_a2s":"Uncletopia | New York City | 2 | All Maps","protocol":17,"map":"pl_barnblitz","folder":"tf","game":"Team Fortress","app_id":440,"player_count":24,"max_players":24,"Bots":0,"server_type":"Dedicated","server_os":"Linux","password":true,"vac":true,"version":"7961495","steam_id":85568392924469994,"keywords":["nocrits","nodmgspread","payload","uncletopia"],"game_id":440,"stv_port":27026,"stv_name":"Uncletopia | New York City | 2 | All Maps | STV","players":[{"user_id":341,"name":"wool","steam_id":76561198869689933,"connected_time":4492000000000,"state":"active","ping":53},{"user_id":394,"name":"sketch","steam_id":76561198138216669,"connected_time":404000000000,"state":"active","ping":76},{"user_id":370,"name":"bobbymcbobington","steam_id":76561199089411172,"connected_time":2525000000000,"state":"active","ping":120},{"user_id":366,"name":"Dareu","steam_id":76561198081781710,"connected_time":2645000000000,"state":"active","ping":46},{"user_id":363,"name":"DetL","steam_id":76561198375053315,"connected_time":3077000000000,"state":"active","ping":73},{"user_id":393,"name":"daemon","steam_id":76561198001541433,"connected_time":412000000000,"state":"active","ping":64},{"user_id":398,"name":"JYNACCI","steam_id":76561198100942212,"connected_time":47000000000,"state":"active","ping":75},{"user_id":362,"name":"The One True Luke","steam_id":76561198180891187,"connected_time":3207000000000,"state":"active","ping":59},{"user_id":372,"name":"The Big","steam_id":76561198078572184,"connected_time":2489000000000,"state":"active","ping":84},{"user_id":343,"name":"Random Shonen Smear","steam_id":76561198397873029,"connected_time":4143000000000,"state":"active","ping":68},{"user_id":389,"name":"Anthony","steam_id":76561198112571953,"connected_time":1250000000000,"state":"active","ping":73},{"user_id":345,"name":"chicken nucket","steam_id":76561198042831480,"connected_time":3968000000000,"state":"active","ping":83},{"user_id":395,"name":"Strange Festive Femboy","steam_id":76561198050385093,"connected_time":391000000000,"state":"active","ping":71},{"user_id":375,"name":"Blade Racer","steam_id":76561198155896703,"connected_time":2428000000000,"state":"active","ping":67},{"user_id":391,"name":"MrEdman4","steam_id":76561198062233923,"connected_time":1040000000000,"state":"active","ping":52},{"user_id":364,"name":"Grify","steam_id":76561198012292317,"connected_time":3021000000000,"state":"active","ping":86},{"user_id":374,"name":"All Monsters Are Real","steam_id":76561198026986192,"connected_time":2453000000000,"state":"active","ping":76},{"user_id":361,"name":"taigaxx","steam_id":76561198202669250,"connected_time":3230000000000,"state":"active","ping":74},{"user_id":396,"name":"Krissy","steam_id":76561197960848174,"connected_time":375000000000,"state":"active","ping":54},{"user_id":346,"name":"the zoo","steam_id":76561198013732450,"connected_time":3958000000000,"state":"active","ping":82},{"user_id":384,"name":"FLOOB","steam_id":76561198333094092,"connected_time":1702000000000,"state":"active","ping":86},{"user_id":385,"name":"DiscoTraveler","steam_id":76561199240168088,"connected_time":1702000000000,"state":"active","ping":54},{"user_id":392,"name":"BigMan","steam_id":76561198277150955,"connected_time":562000000000,"state":"active","ping":54},{"user_id":365,"name":"saurhead","steam_id":76561198132937722,"connected_time":3021000000000,"state":"active","ping":45}]},{"server_id":15,"name":"Uncletopia | New York City | 3 | Stopwatch","name_short":"nyc-3","host":"nyc-1.us.uncletopia.com","port":27035,"enabled":true,"region":"us-east","cc":"us","latitude":40.73061,"longitude":-73.93524,"reserved":0,"last_update":"0001-01-01T00:00:00Z","name_a2s":"Uncletopia | New York City | 3 | Stopwatch","protocol":17,"map":"pl_upward","folder":"tf","game":"Team Fortress","app_id":440,"player_count":0,"max_players":24,"Bots":0,"server_type":"Dedicated","server_os":"Linux","password":true,"vac":true,"version":"7961495","steam_id":85568392924742820,"keywords":["nocrits","nodmgspread","payload","uncletopia"],"game_id":440,"stv_port":27036,"stv_name":"Uncletopia | New York City | 3 | Stopwatch | STV","players":null},{"server_id":16,"name":"Uncletopia | New York City | 4 | Community","name_short":"nyc-4","host":"nyc-1.us.uncletopia.com","port":27045,"enabled":true,"region":"us-east","cc":"us","latitude":40.73061,"longitude":-73.93524,"reserved":0,"last_update":"0001-01-01T00:00:00Z","name_a2s":"Uncletopia | New York City | 4 | Community","protocol":17,"map":"workshop/rd_asteroid_redux_b1.ugc2154902912","folder":"tf","game":"Team Fortress","app_id":440,"player_count":0,"max_players":24,"Bots":0,"server_type":"Dedicated","server_os":"Linux","password":true,"vac":true,"version":"7961495","steam_id":85568392924742821,"keywords":["beta","nocrits","nodmgspread","rd","uncletopia"],"game_id":440,"stv_port":27046,"stv_name":"Uncletopia | New York City | 4 | Community | STV","players":null},{"server_id":142,"name":"Uncletopia | São Paulo | 1 | All Maps","name_short":"sao-1","host":"sao-1.br.uncletopia.com","port":27015,"enabled":true,"region":"sa","cc":"br","latitude":-23.533773,"longitude":-46.62529,"reserved":0,"last_update":"0001-01-01T00:00:00Z","name_a2s":"Uncletopia | São Paulo | 1 | All Maps","protocol":17,"map":"koth_highpass","folder":"tf","game":"Team Fortress","app_id":440,"player_count":0,"max_players":24,"Bots":0,"server_type":"Dedicated","server_os":"Linux","password":true,"vac":true,"version":"7961495","steam_id":85568392924469996,"keywords":["cp","nocrits","nodmgspread","uncletopia"],"game_id":440,"stv_port":27016,"stv_name":"Uncletopia | São Paulo | 1 | All Maps | STV","players":null},{"server_id":143,"name":"Uncletopia | São Paulo | 2 | Community","name_short":"sao-2","host":"sao-2.br.uncletopia.com","port":27015,"enabled":true,"region":"sa","cc":"br","latitude":-23.533773,"longitude":-46.62529,"reserved":0,"last_update":"0001-01-01T00:00:00Z","name_a2s":"Uncletopia | São Paulo | 2 | Community","protocol":17,"map":"workshop/cp_bruhstbowl_b6.ugc2878604990","folder":"tf","game":"Team Fortress","app_id":440,"player_count":0,"max_players":24,"Bots":0,"server_type":"Dedicated","server_os":"Linux","password":true,"vac":true,"version":"7961495","steam_id":85568392924485349,"keywords":["cp","nocrits","nodmgspread","uncletopia"],"game_id":440,"stv_port":27016,"stv_name":"Uncletopia | São Paulo | 2 | Community | STV","players":null},{"server_id":7,"name":"Uncletopia | Seattle | 1 | All Maps","name_short":"sea-1","host":"sea-1.us.uncletopia.com","port":27015,"enabled":true,"region":"us-west","cc":"us","latitude":47.608013,"longitude":-122.33517,"reserved":0,"last_update":"0001-01-01T00:00:00Z","name_a2s":"Uncletopia | Seattle | 1 | All Maps","protocol":17,"map":"pl_frontier_final","folder":"tf","game":"Team Fortress","app_id":440,"player_count":24,"max_players":24,"Bots":0,"server_type":"Dedicated","server_os":"Linux","password":true,"vac":true,"version":"7961495","steam_id":85568392924469997,"keywords":["nocrits","nodmgspread","payload","uncletopia"],"game_id":440,"stv_port":27016,"stv_name":"Uncletopia | Seattle | 1 | All Maps | STV","players":[{"user_id":294,"name":"imasheep","steam_id":76561198210322871,"connected_time":4518000000000,"state":"active","ping":91},{"user_id":292,"name":"moomin","steam_id":76561198336244269,"connected_time":4565000000000,"state":"active","ping":75},{"user_id":281,"name":"Attrition","steam_id":76561197969881916,"connected_time":4802000000000,"state":"active","ping":49},{"user_id":324,"name":"owl","steam_id":76561198088403016,"connected_time":3066000000000,"state":"active","ping":155},{"user_id":309,"name":"mooney","steam_id":76561199110622484,"connected_time":3709000000000,"state":"active","ping":55},{"user_id":295,"name":"chunkysquare","steam_id":76561199076468383,"connected_time":4489000000000,"state":"active","ping":61},{"user_id":283,"name":"Alchemist","steam_id":76561198094238189,"connected_time":4774000000000,"state":"active","ping":89},{"user_id":349,"name":"fwoov","steam_id":76561198129166260,"connected_time":132000000000,"state":"active","ping":76},{"user_id":293,"name":"Qas","steam_id":76561198067564482,"connected_time":4545000000000,"state":"active","ping":68},{"user_id":346,"name":"lfk thunderous prophet","steam_id":76561198131166135,"connected_time":495000000000,"state":"active","ping":45},{"user_id":314,"name":"lshleo","steam_id":76561198366975960,"connected_time":3628000000000,"state":"active","ping":158},{"user_id":333,"name":"Mignyanne :3","steam_id":76561198048754056,"connected_time":2224000000000,"state":"active","ping":65},{"user_id":342,"name":"zee","steam_id":76561198148876424,"connected_time":641000000000,"state":"active","ping":60},{"user_id":344,"name":"SHADOW","steam_id":76561198207768148,"connected_time":624000000000,"state":"active","ping":64},{"user_id":331,"name":"PvZ Enthusiast","steam_id":76561199089562026,"connected_time":2249000000000,"state":"active","ping":41},{"user_id":345,"name":"[BBC] myr","steam_id":76561198200786939,"connected_time":615000000000,"state":"active","ping":42},{"user_id":348,"name":"LammyOW","steam_id":76561198816094950,"connected_time":259000000000,"state":"active","ping":53},{"user_id":347,"name":"CashGordon","steam_id":76561197975594096,"connected_time":384000000000,"state":"active","ping":40},{"user_id":340,"name":"R5-D4","steam_id":76561198025196439,"connected_time":644000000000,"state":"active","ping":56},{"user_id":350,"name":"John Calibur","steam_id":76561197999986606,"connected_time":65000000000,"state":"active","ping":97},{"user_id":320,"name":"Spectre","steam_id":76561198037535169,"connected_time":3457000000000,"state":"active","ping":74},{"user_id":319,"name":"Daz","steam_id":76561198041431938,"connected_time":3547000000000,"state":"active","ping":51},{"user_id":341,"name":"jacix3 [silly doggie :3]","steam_id":76561198205004165,"connected_time":644000000000,"state":"active","ping":58},{"user_id":280,"name":"Dog","steam_id":76561198041841128,"connected_time":5595000000000,"state":"active","ping":83}]},{"server_id":119,"name":"Uncletopia | Seattle | 2 | All Maps","name_short":"sea-2","host":"sea-1.us.uncletopia.com","port":27025,"enabled":true,"region":"us-west","cc":"us","latitude":47.608013,"longitude":-122.33517,"reserved":0,"last_update":"0001-01-01T00:00:00Z","name_a2s":"Uncletopia | Seattle | 2 | All Maps","protocol":17,"map":"pl_borneo","folder":"tf","game":"Team Fortress","app_id":440,"player_count":24,"max_players":24,"Bots":0,"server_type":"Dedicated","server_os":"Linux","password":true,"vac":true,"version":"7961495","steam_id":85568392924469998,"keywords":["nocrits","nodmgspread","payload","uncletopia"],"game_id":440,"stv_port":27026,"stv_name":"Uncletopia | Seattle | 2 | All Maps | STV","players":[{"user_id":91,"name":"jizz gaming","steam_id":76561198984762462,"connected_time":136000000000,"state":"active","ping":70},{"user_id":92,"name":"0","steam_id":76561198301885443,"connected_time":126000000000,"state":"active","ping":66},{"user_id":95,"name":"GardenOfStone","steam_id":76561199069870534,"connected_time":81000000000,"state":"active","ping":34},{"user_id":80,"name":"Russell","steam_id":76561198024159373,"connected_time":1510000000000,"state":"active","ping":120},{"user_id":68,"name":"Spicy Chicken","steam_id":76561198074209737,"connected_time":2353000000000,"state":"active","ping":92},{"user_id":50,"name":"goos  e","steam_id":76561198036774894,"connected_time":2970000000000,"state":"active","ping":62},{"user_id":99,"name":"cielael","steam_id":76561198043971956,"connected_time":15000000000,"state":"active","ping":76},{"user_id":52,"name":"Dosario","steam_id":76561198298095535,"connected_time":2841000000000,"state":"active","ping":48},{"user_id":85,"name":"zinnk","steam_id":76561198092081825,"connected_time":938000000000,"state":"active","ping":59},{"user_id":87,"name":"GreenApples","steam_id":76561198120559543,"connected_time":257000000000,"state":"active","ping":70},{"user_id":56,"name":"merkury731","steam_id":76561198110565430,"connected_time":2602000000000,"state":"active","ping":98},{"user_id":57,"name":"Snootzdog","steam_id":76561198835737236,"connected_time":2592000000000,"state":"active","ping":105},{"user_id":60,"name":"a familiar cat","steam_id":76561198080046542,"connected_time":2531000000000,"state":"active","ping":50},{"user_id":89,"name":"SolarusD","steam_id":76561198029279861,"connected_time":157000000000,"state":"active","ping":65},{"user_id":84,"name":"Skaði","steam_id":76561198063949642,"connected_time":946000000000,"state":"active","ping":44},{"user_id":77,"name":"Dr. Medicine","steam_id":76561198165309820,"connected_time":1677000000000,"state":"active","ping":79},{"user_id":64,"name":"Dreamzapp","steam_id":76561199084936632,"connected_time":2381000000000,"state":"active","ping":84},{"user_id":96,"name":"enhanced with disney's FastPlay","steam_id":76561198164134387,"connected_time":79000000000,"state":"active","ping":47},{"user_id":97,"name":"Digitic","steam_id":76561198080295536,"connected_time":77000000000,"state":"active","ping":115},{"user_id":88,"name":"fish (2:3)","steam_id":76561198134331073,"connected_time":220000000000,"state":"active","ping":49},{"user_id":69,"name":"porksoda","steam_id":76561198021451377,"connected_time":2328000000000,"state":"active","ping":44},{"user_id":73,"name":"ilun","steam_id":76561198042913843,"connected_time":2056000000000,"state":"active","ping":58},{"user_id":100,"name":"fancyfreak","steam_id":76561198326466375,"connected_time":14000000000,"state":"spawning","ping":87},{"user_id":72,"name":"hyaz, +rep.","steam_id":76561199100342013,"connected_time":2316000000000,"state":"active","ping":74}]},{"server_id":406,"name":"Uncletopia | Seattle | 3 | Stopwatch","name_short":"sea-3","host":"sea-1.us.uncletopia.com","port":27035,"enabled":true,"region":"us-west","cc":"us","latitude":47.608013,"longitude":-122.33517,"reserved":0,"last_update":"0001-01-01T00:00:00Z","name_a2s":"Uncletopia | Seattle | 3 | Stopwatch","protocol":17,"map":"workshop/koth_ashville_final.ugc2130459942","folder":"tf","game":"Team Fortress","app_id":440,"player_count":0,"max_players":24,"Bots":0,"server_type":"Dedicated","server_os":"Linux","password":true,"vac":true,"version":"7961495","steam_id":85568392924515217,"keywords":["cp","nocrits","nodmgspread","uncletopia"],"game_id":440,"stv_port":27036,"stv_name":"Uncletopia | Seattle | 3 | Stopwatch | STV","players":null},{"server_id":17,"name":"Uncletopia | San Francisco | 1 | All Maps","name_short":"sfo-1","host":"sfo-1.us.uncletopia.com","port":27015,"enabled":true,"region":"us-west","cc":"us","latitude":37.77397,"longitude":-122.4313,"reserved":0,"last_update":"0001-01-01T00:00:00Z","name_a2s":"Uncletopia | San Francisco | 1 | All Maps","protocol":17,"map":"cp_snakewater_final1","folder":"tf","game":"Team Fortress","app_id":440,"player_count":6,"max_players":24,"Bots":0,"server_type":"Dedicated","server_os":"Linux","password":true,"vac":true,"version":"7961495","steam_id":85568392924469999,"keywords":["cp","nocrits","nodmgspread","uncletopia"],"game_id":440,"stv_port":27016,"stv_name":"Uncletopia | San Francisco | 1 | All Maps | STV","players":[{"user_id":23,"name":"omnislime","steam_id":76561199382475668,"connected_time":2588000000000,"state":"active","ping":91},{"user_id":30,"name":"PixelsofFear","steam_id":76561198077787508,"connected_time":702000000000,"state":"active","ping":74},{"user_id":31,"name":"Halibard","steam_id":76561198011239659,"connected_time":285000000000,"state":"active","ping":89},{"user_id":32,"name":"St. Michael","steam_id":76561198037611052,"connected_time":282000000000,"state":"active","ping":82},{"user_id":33,"name":"sleePI","steam_id":76561198450073779,"connected_time":171000000000,"state":"active","ping":57},{"user_id":34,"name":"shawnkelester","steam_id":76561199502649220,"connected_time":163000000000,"state":"active","ping":59}]},{"server_id":18,"name":"Uncletopia | San Francisco | 2 | All Maps","name_short":"sfo-2","host":"sfo-1.us.uncletopia.com","port":27025,"enabled":true,"region":"us-west","cc":"us","latitude":37.77397,"longitude":-122.4313,"reserved":0,"last_update":"0001-01-01T00:00:00Z","name_a2s":"Uncletopia | San Francisco | 2 | All Maps","protocol":17,"map":"pl_frontier_final","folder":"tf","game":"Team Fortress","app_id":440,"player_count":0,"max_players":24,"Bots":0,"server_type":"Dedicated","server_os":"Linux","password":true,"vac":true,"version":"7961495","steam_id":85568392924470000,"keywords":["nocrits","nodmgspread","payload","uncletopia"],"game_id":440,"stv_port":27026,"stv_name":"Uncletopia | San Francisco | 2 | All Maps | STV","players":null},{"server_id":19,"name":"Uncletopia | San Francisco | 3 | Stopwatch","name_short":"sfo-3","host":"sfo-1.us.uncletopia.com","port":27035,"enabled":true,"region":"us-west","cc":"us","latitude":37.77397,"longitude":-122.4313,"reserved":0,"last_update":"0001-01-01T00:00:00Z","name_a2s":"Uncletopia | San Francisco | 3 | Stopwatch","protocol":17,"map":"pl_pier","folder":"tf","game":"Team Fortress","app_id":440,"player_count":0,"max_players":24,"Bots":0,"server_type":"Dedicated","server_os":"Linux","password":true,"vac":true,"version":"7961495","steam_id":85568392924742824,"keywords":["nocrits","nodmgspread","payload","uncletopia"],"game_id":440,"stv_port":27036,"stv_name":"Uncletopia | San Francisco | 3 | Stopwatch | STV","players":null},{"server_id":20,"name":"Uncletopia | San Francisco | 4 | Community","name_short":"sfo-4","host":"sfo-1.us.uncletopia.com","port":27045,"enabled":true,"region":"us-west","cc":"us","latitude":37.77397,"longitude":-122.4313,"reserved":0,"last_update":"0001-01-01T00:00:00Z","name_a2s":"Uncletopia | San Francisco | 4 | Community","protocol":17,"map":"workshop/cp_croissant_final.ugc458840209","folder":"tf","game":"Team Fortress","app_id":440,"player_count":18,"max_players":24,"Bots":0,"server_type":"Dedicated","server_os":"Linux","password":true,"vac":true,"version":"7961495","steam_id":85568392924742826,"keywords":["cp","nocrits","nodmgspread","uncletopia"],"game_id":440,"stv_port":27046,"stv_name":"Uncletopia | San Francisco | 4 | Community | STV","players":[{"user_id":120,"name":"Glanderson booper","steam_id":76561198021223747,"connected_time":1590000000000,"state":"active","ping":70},{"user_id":154,"name":"Mom","steam_id":76561198207936000,"connected_time":21000000000,"state":"active","ping":45},{"user_id":150,"name":"CherriKat","steam_id":76561198821297512,"connected_time":290000000000,"state":"active","ping":47},{"user_id":152,"name":"master_minion","steam_id":76561198170693990,"connected_time":75000000000,"state":"active","ping":58},{"user_id":136,"name":"TacoMan4Life","steam_id":76561198832562728,"connected_time":1000000000000,"state":"active","ping":66},{"user_id":118,"name":"Vitae Kakon","steam_id":76561198307440313,"connected_time":1960000000000,"state":"active","ping":46},{"user_id":113,"name":"Nickanader","steam_id":76561199122027856,"connected_time":2056000000000,"state":"active","ping":157},{"user_id":114,"name":"Piss Man","steam_id":76561199446367874,"connected_time":2040000000000,"state":"active","ping":82},{"user_id":148,"name":"RootedApollo8","steam_id":76561199013654735,"connected_time":415000000000,"state":"active","ping":72},{"user_id":88,"name":"Proto","steam_id":76561197984119828,"connected_time":3413000000000,"state":"active","ping":63},{"user_id":143,"name":"Quixzy","steam_id":76561199351529514,"connected_time":708000000000,"state":"active","ping":125},{"user_id":127,"name":"Harmonica Boy","steam_id":76561198984179092,"connected_time":1340000000000,"state":"active","ping":107},{"user_id":109,"name":"Fireheart","steam_id":76561198171109323,"connected_time":2215000000000,"state":"active","ping":59},{"user_id":151,"name":"katze \u003c3","steam_id":76561198207796324,"connected_time":246000000000,"state":"active","ping":71},{"user_id":141,"name":"Xexat","steam_id":76561198041668498,"connected_time":930000000000,"state":"active","ping":60},{"user_id":144,"name":"Frontier Psychiatrist","steam_id":76561198038689088,"connected_time":627000000000,"state":"active","ping":118},{"user_id":145,"name":"pyrotechnic","steam_id":76561198043558709,"connected_time":548000000000,"state":"active","ping":61},{"user_id":81,"name":"Context","steam_id":76561197972634187,"connected_time":4495000000000,"state":"active","ping":30}]},{"server_id":141,"name":"Uncletopia | Sydney | 1 | All Maps","name_short":"syd-1","host":"syd-1.au.uncletopia.com","port":27015,"enabled":true,"region":"au","cc":"au","latitude":-33.865143,"longitude":151.2099,"reserved":0,"last_update":"0001-01-01T00:00:00Z","name_a2s":"Uncletopia | Sydney | 1 | All Maps","protocol":17,"map":"koth_viaduct","folder":"tf","game":"Team Fortress","app_id":440,"player_count":0,"max_players":24,"Bots":0,"server_type":"Dedicated","server_os":"Linux","password":true,"vac":true,"version":"7961495","steam_id":85568392924470001,"keywords":["cp","nocrits","nodmgspread","uncletopia"],"game_id":440,"stv_port":27016,"stv_name":"Uncletopia | Sydney | 1 | All Maps | STV","players":null},{"server_id":123,"name":"Uncletopia | Sydney | 2 | All Maps","name_short":"syd-2","host":"syd-1.au.uncletopia.com","port":27025,"enabled":true,"region":"au","cc":"au","latitude":-33.865143,"longitude":151.2099,"reserved":0,"last_update":"0001-01-01T00:00:00Z","name_a2s":"Uncletopia | Sydney | 2 | All Maps","protocol":17,"map":"koth_lakeside_final","folder":"tf","game":"Team Fortress","app_id":440,"player_count":0,"max_players":24,"Bots":0,"server_type":"Dedicated","server_os":"Linux","password":true,"vac":true,"version":"7961495","steam_id":85568392924470002,"keywords":["cp","nocrits","nodmgspread","uncletopia"],"game_id":440,"stv_port":27026,"stv_name":"Uncletopia | Sydney | 2 | All Maps | STV","players":null},{"server_id":395,"name":"Uncletopia | Sydney | 3 | All Maps","name_short":"syd-3","host":"syd-1.au.uncletopia.com","port":27035,"enabled":true,"region":"au","cc":"au","latitude":-33.865143,"longitude":151.2099,"reserved":0,"last_update":"0001-01-01T00:00:00Z","name_a2s":"Uncletopia | Sydney | 3 | All Maps","protocol":17,"map":"pl_frontier_final","folder":"tf","game":"Team Fortress","app_id":440,"player_count":0,"max_players":24,"Bots":0,"server_type":"Dedicated","server_os":"Linux","password":true,"vac":true,"version":"7961495","steam_id":85568392925194467,"keywords":["nocrits","nodmgspread","payload","uncletopia"],"game_id":440,"stv_port":27036,"stv_name":"Uncletopia | Sydney | 3 | All Maps | STV","players":null},{"server_id":396,"name":"Uncletopia | Sydney | 4 | All Maps","name_short":"syd-4","host":"syd-1.au.uncletopia.com","port":27045,"enabled":true,"region":"au","cc":"au","latitude":-33.865143,"longitude":151.2099,"reserved":0,"last_update":"0001-01-01T00:00:00Z","name_a2s":"Uncletopia | Sydney | 4 | All Maps","protocol":17,"map":"koth_lakeside_final","folder":"tf","game":"Team Fortress","app_id":440,"player_count":0,"max_players":24,"Bots":0,"server_type":"Dedicated","server_os":"Linux","password":true,"vac":true,"version":"7961495","steam_id":85568392925397958,"keywords":["cp","nocrits","nodmgspread","uncletopia"],"game_id":440,"stv_port":27046,"stv_name":"Uncletopia | Sydney | 4 | All Maps | STV","players":null},{"server_id":58,"name":"Uncletopia | Sydney | 5 | Stopwatch","name_short":"syd-5","host":"syd-1.au.uncletopia.com","port":27055,"enabled":true,"region":"au","cc":"au","latitude":-33.865143,"longitude":151.2099,"reserved":0,"last_update":"0001-01-01T00:00:00Z","name_a2s":"Uncletopia | Sydney | 5 | Stopwatch","protocol":17,"map":"pl_frontier_final","folder":"tf","game":"Team Fortress","app_id":440,"player_count":0,"max_players":24,"Bots":0,"server_type":"Dedicated","server_os":"Linux","password":true,"vac":true,"version":"7961495","steam_id":85568392925397959,"keywords":["nocrits","nodmgspread","payload","uncletopia"],"game_id":440,"stv_port":27056,"stv_name":"Uncletopia | Sydney | 5 | Stopwatch | STV","players":null},{"server_id":59,"name":"Uncletopia | Sydney | 6 | Community","name_short":"syd-6","host":"syd-1.au.uncletopia.com","port":27065,"enabled":true,"region":"au","cc":"au","latitude":-33.865143,"longitude":151.2099,"reserved":0,"last_update":"0001-01-01T00:00:00Z","name_a2s":"Uncletopia | Sydney | 6 | Community","protocol":17,"map":"cp_sunshine","folder":"tf","game":"Team Fortress","app_id":440,"player_count":0,"max_players":24,"Bots":0,"server_type":"Dedicated","server_os":"Linux","password":true,"vac":true,"version":"7961495","steam_id":85568392925397960,"keywords":["cp","nocrits","nodmgspread","uncletopia"],"game_id":440,"stv_port":27066,"stv_name":"Uncletopia | Sydney | 6 | Community | STV","players":null},{"server_id":49,"name":"Uncletopia | Warsaw | 1 | One Thousand Uncles","name_short":"waw-1","host":"waw-1.pl.uncletopia.com","port":27015,"enabled":true,"region":"eu","cc":"pl","latitude":52.2297,"longitude":21.017532,"reserved":0,"last_update":"0001-01-01T00:00:00Z","name_a2s":"Uncletopia | Warsaw | 1 | One Thousand Uncles","protocol":17,"map":"cp_mossrock","folder":"tf","game":"Team Fortress","app_id":440,"player_count":0,"max_players":32,"Bots":0,"server_type":"Dedicated","server_os":"Linux","password":true,"vac":true,"version":"7961495","steam_id":85568392925397850,"keywords":["alltalk","cp","danepve","increased_maxplayers","nocrits","norespawntime","uncletopia"],"game_id":440,"stv_port":0,"stv_name":"","players":null},{"server_id":50,"name":"Uncletopia | Warsaw | 2 | One Thousand Uncles","name_short":"waw-2","host":"waw-1.pl.uncletopia.com","port":27025,"enabled":true,"region":"eu","cc":"pl","latitude":52.2297,"longitude":21.017532,"reserved":0,"last_update":"0001-01-01T00:00:00Z","name_a2s":"Uncletopia | Warsaw | 2 | One Thousand Uncles","protocol":17,"map":"pl_hoodoo_final","folder":"tf","game":"Team Fortress","app_id":440,"player_count":0,"max_players":32,"Bots":0,"server_type":"Dedicated","server_os":"Linux","password":true,"vac":true,"version":"7961495","steam_id":85568392925397851,"keywords":["alltalk","danepve","increased_maxplayers","nocrits","norespawntime","payload","uncletopia"],"game_id":440,"stv_port":0,"stv_name":"","players":null},{"server_id":51,"name":"Uncletopia | Warsaw | 3 | All Maps","name_short":"waw-3","host":"waw-1.pl.uncletopia.com","port":27035,"enabled":true,"region":"eu","cc":"pl","latitude":52.2297,"longitude":21.017532,"reserved":0,"last_update":"0001-01-01T00:00:00Z","name_a2s":"Uncletopia | Warsaw | 3 | All Maps","protocol":17,"map":"plr_pipeline","folder":"tf","game":"Team Fortress","app_id":440,"player_count":0,"max_players":24,"Bots":0,"server_type":"Dedicated","server_os":"Linux","password":true,"vac":true,"version":"7961495","steam_id":85568392925397852,"keywords":["nocrits","nodmgspread","payload","uncletopia"],"game_id":440,"stv_port":27036,"stv_name":"Uncletopia | Warsaw | 3 | All Maps | STV","players":null},{"server_id":52,"name":"Uncletopia | Warsaw | 4 | All Maps","name_short":"waw-4","host":"waw-1.pl.uncletopia.com","port":27045,"enabled":true,"region":"eu","cc":"pl","latitude":52.2297,"longitude":21.017532,"reserved":0,"last_update":"0001-01-01T00:00:00Z","name_a2s":"Uncletopia | Warsaw | 4 | All Maps","protocol":17,"map":"koth_viaduct","folder":"tf","game":"Team Fortress","app_id":440,"player_count":0,"max_players":24,"Bots":0,"server_type":"Dedicated","server_os":"Linux","password":true,"vac":true,"version":"7961495","steam_id":85568392925397853,"keywords":["cp","nocrits","nodmgspread","uncletopia"],"game_id":440,"stv_port":27046,"stv_name":"Uncletopia | Warsaw | 4 | All Maps | STV","players":null},{"server_id":53,"name":"Uncletopia | Warsaw | 5 | Stopwatch","name_short":"waw-5","host":"waw-1.pl.uncletopia.com","port":27055,"enabled":true,"region":"eu","cc":"pl","latitude":52.2297,"longitude":21.017532,"reserved":0,"last_update":"0001-01-01T00:00:00Z","name_a2s":"Uncletopia | Warsaw | 5 | Stopwatch","protocol":17,"map":"workshop/koth_ramjam_rc1.ugc459778887","folder":"tf","game":"Team Fortress","app_id":440,"player_count":0,"max_players":24,"Bots":0,"server_type":"Dedicated","server_os":"Linux","password":true,"vac":true,"version":"7961495","steam_id":85568392925397854,"keywords":["cp","nocrits","nodmgspread","uncletopia"],"game_id":440,"stv_port":27056,"stv_name":"Uncletopia | Warsaw | 5 | Stopwatch | STV","players":null},{"server_id":54,"name":"Uncletopia | Warsaw | 6 | Community","name_short":"waw-6","host":"waw-1.pl.uncletopia.com","port":27065,"enabled":true,"region":"eu","cc":"pl","latitude":52.2297,"longitude":21.017532,"reserved":0,"last_update":"0001-01-01T00:00:00Z","name_a2s":"Uncletopia | Warsaw | 6 | Community","protocol":17,"map":"workshop/koth_trenchfoot_ab1.ugc731436616","folder":"tf","game":"Team Fortress","app_id":440,"player_count":0,"max_players":24,"Bots":0,"server_type":"Dedicated","server_os":"Linux","password":true,"vac":true,"version":"7961495","steam_id":85568392925397856,"keywords":["cp","nocrits","nodmgspread","uncletopia"],"game_id":440,"stv_port":27066,"stv_name":"Uncletopia | Warsaw | 6 | Community | STV","players":null}]}