{"status":true,"message":"","result":[{"server_id":9,"name":"Uncletopia | Atlanta | 1 | All Maps","name_short":"atl-1","host":"atl-1.us.uncletopia.com","port":27015,"enabled":true,"region":"us-east","cc":"us","latitude":33.753746,"longitude":-84.38633,"reserved":0,"last_update":"0001-01-01T00:00:00Z","name_a2s":"Uncletopia | Atlanta | 1 | All Maps","protocol":17,"map":"pl_badwater","folder":"tf","game":"Team Fortress","app_id":440,"player_count":24,"max_players":24,"Bots":0,"server_type":"Dedicated","server_os":"Linux","password":true,"vac":true,"version":"7695204","steam_id":85568392924469982,"keywords":["nocrits","nodmgspread","payload","uncletopia"],"game_id":440,"stv_port":27016,"stv_name":"Uncletopia | Atlanta | 1 | All Maps | STV","players":[{"user_id":254,"name":"Klee","steam_id":76561198419619684,"connected_time":2364000000000,"state":"active","ping":59},{"user_id":231,"name":"SLaPPy- oNaSiS","steam_id":76561198009286862,"connected_time":5096000000000,"state":"active","ping":82},{"user_id":265,"name":"Festive Fire Starting Rock","steam_id":76561198066547582,"connected_time":1121000000000,"state":"active","ping":103},{"user_id":273,"name":"joe lft","steam_id":76561198045781320,"connected_time":249000000000,"state":"active","ping":60},{"user_id":275,"name":"plastiq","steam_id":76561198008721198,"connected_time":92000000000,"state":"active","ping":57},{"user_id":268,"name":"Memed2Much","steam_id":76561199032248010,"connected_time":613000000000,"state":"active","ping":66},{"user_id":195,"name":"CassandraRC7","steam_id":76561198094123940,"connected_time":8120000000000,"state":"active","ping":50},{"user_id":241,"name":"Sgt","steam_id":76561198139818111,"connected_time":3795000000000,"state":"active","ping":74},{"user_id":251,"name":"ATL1 | merryy","steam_id":76561198968001329,"connected_time":2452000000000,"state":"active","ping":45},{"user_id":249,"name":"ATL1 | eish","steam_id":76561198089463603,"connected_time":2887000000000,"state":"active","ping":113},{"user_id":274,"name":"Mr.Mug (Festive)","steam_id":76561199282207802,"connected_time":199000000000,"state":"active","ping":80},{"user_id":267,"name":"KingMando","steam_id":76561198462240323,"connected_time":618000000000,"state":"active","ping":116},{"user_id":256,"name":"Zeetch","steam_id":76561198110579765,"connected_time":2189000000000,"state":"active","ping":73},{"user_id":263,"name":"Chubmundo","steam_id":76561198132710768,"connected_time":1154000000000,"state":"active","ping":46},{"user_id":271,"name":"Cereal","steam_id":76561198045889032,"connected_time":547000000000,"state":"active","ping":108},{"user_id":248,"name":"luxin","steam_id":76561198399383047,"connected_time":2959000000000,"state":"active","ping":46},{"user_id":272,"name":"ATL6 loot","steam_id":76561198069954956,"connected_time":416000000000,"state":"active","ping":46},{"user_id":190,"name":"ktkoffroth","steam_id":76561198037384107,"connected_time":8555000000000,"state":"active","ping":48},{"user_id":258,"name":"Wumbologist","steam_id":76561198188729514,"connected_time":2084000000000,"state":"active","ping":49},{"user_id":264,"name":"menarestrongersowhat","steam_id":76561198164405201,"connected_time":1128000000000,"state":"active","ping":109},{"user_id":270,"name":"dipp","steam_id":76561198395577807,"connected_time":554000000000,"state":"active","ping":78},{"user_id":262,"name":"ATL1 | spoonful","steam_id":76561198927517471,"connected_time":1648000000000,"state":"active","ping":53},{"user_id":253,"name":"ATL1 | on my hunting trip","steam_id":76561198315341646,"connected_time":2372000000000,"state":"active","ping":68},{"user_id":266,"name":"p_picklelol","steam_id":76561198129434533,"connected_time":679000000000,"state":"active","ping":64}]},{"server_id":400,"name":"Uncletopia | Atlanta | 3 | All Maps","name_short":"atl-3","host":"atl-1.us.uncletopia.com","port":27035,"enabled":true,"region":"us-east","cc":"us","latitude":33.753746,"longitude":-84.38633,"reserved":0,"last_update":"0001-01-01T00:00:00Z","name_a2s":"Uncletopia | Atlanta | 3 | All Maps","protocol":17,"map":"pl_pier","folder":"tf","game":"Team Fortress","app_id":440,"player_count":24,"max_players":24,"Bots":0,"server_type":"Dedicated","server_os":"Linux","password":true,"vac":true,"version":"7695204","steam_id":85568392924515187,"keywords":["nocrits","nodmgspread","payload","uncletopia"],"game_id":440,"stv_port":27036,"stv_name":"Uncletopia | Atlanta | 3 | All Maps | STV","players":[{"user_id":365,"name":"flappyflap2","steam_id":76561198285048973,"connected_time":978000000000,"state":"active","ping":60},{"user_id":367,"name":"Jerry","steam_id":76561198851602451,"connected_time":391000000000,"state":"active","ping":62},{"user_id":357,"name":"Œ®","steam_id":76561198293893486,"connected_time":1557000000000,"state":"active","ping":70},{"user_id":343,"name":"‚ùÑAdmiral Pete‚ùÑ The Penguin","steam_id":76561198452656581,"connected_time":2240000000000,"state":"active","ping":88},{"user_id":355,"name":"Macko","steam_id":76561198452005461,"connected_time":1571000000000,"state":"active","ping":53},{"user_id":377,"name":"The Power","steam_id":76561198060566884,"connected_time":11000000000,"state":"spawning","ping":140},{"user_id":371,"name":"footoftheday","steam_id":76561198052712449,"connected_time":371000000000,"state":"active","ping":63},{"user_id":368,"name":"HellRaiser","steam_id":76561199051660033,"connected_time":383000000000,"state":"active","ping":88},{"user_id":366,"name":"fig","steam_id":76561198337045136,"connected_time":971000000000,"state":"active","ping":78},{"user_id":233,"name":"shit is gruesome!","steam_id":76561198080034976,"connected_time":10218000000000,"state":"active","ping":147},{"user_id":234,"name":"Graham Crackers","steam_id":76561198089314125,"connected_time":10211000000000,"state":"active","ping":74},{"user_id":359,"name":"IRON MAN SEX (OFFICIAL)","steam_id":76561198025389851,"connected_time":1502000000000,"state":"active","ping":72},{"user_id":361,"name":"thebestblob12","steam_id":76561198238266564,"connected_time":1443000000000,"state":"active","ping":114},{"user_id":369,"name":"Ben","steam_id":76561198129254533,"connected_time":378000000000,"state":"active","ping":67},{"user_id":374,"name":"MissRaptor","steam_id":76561198105613110,"connected_time":160000000000,"state":"active","ping":71},{"user_id":364,"name":"Casper","steam_id":76561198012055967,"connected_time":1031000000000,"state":"active","ping":67},{"user_id":356,"name":"Joker Joestar","steam_id":76561198115696839,"connected_time":1565000000000,"state":"active","ping":99},{"user_id":376,"name":"hacker man","steam_id":76561198060477131,"connected_time":65000000000,"state":"active","ping":63},{"user_id":362,"name":"Lemony Lilly (She/Her)","steam_id":76561198042479066,"connected_time":1319000000000,"state":"active","ping":60},{"user_id":337,"name":"Some Dough","steam_id":76561198003827633,"connected_time":3101000000000,"state":"active","ping":101},{"user_id":373,"name":"Soliton","steam_id":76561198085286373,"connected_time":292000000000,"state":"active","ping":61},{"user_id":293,"name":"killerdragon130","steam_id":76561198899790922,"connected_time":6575000000000,"state":"active","ping":93},{"user_id":370,"name":"The Lush","steam_id":76561198089459425,"connected_time":375000000000,"state":"active","ping":136},{"user_id":363,"name":"Psych03","steam_id":76561198061753667,"connected_time":1215000000000,"state":"active","ping":97}]},{"server_id":401,"name":"Uncletopia | Atlanta | 4 | No Payload","name_short":"atl-4","host":"atl-1.us.uncletopia.com","port":27045,"enabled":true,"region":"us-east","cc":"us","latitude":33.753746,"longitude":-84.38633,"reserved":0,"last_update":"0001-01-01T00:00:00Z","name_a2s":"Uncletopia | Atlanta | 4 | No Payload","protocol":17,"map":"cp_yukon_final","folder":"tf","game":"Team Fortress","app_id":440,"player_count":0,"max_players":24,"Bots":0,"server_type":"Dedicated","server_os":"Linux","password":true,"vac":true,"version":"7695204","steam_id":85568392924515188,"keywords":["cp","nocrits","nodmgspread","uncletopia"],"game_id":440,"stv_port":27046,"stv_name":"Uncletopia | Atlanta | 4 | No Payload | STV","players":null},{"server_id":2,"name":"Uncletopia | Chicago | 1 | All Maps","name_short":"chi-1","host":"chi-1.us.uncletopia.com","port":27015,"enabled":true,"region":"us-central","cc":"us","latitude":41.881832,"longitude":-87.62318,"reserved":0,"last_update":"0001-01-01T00:00:00Z","name_a2s":"Uncletopia | Chicago | 1 | All Maps","protocol":17,"map":"cp_5gorge","folder":"tf","game":"Team Fortress","app_id":440,"player_count":20,"max_players":24,"Bots":0,"server_type":"Dedicated","server_os":"Linux","password":true,"vac":true,"version":"7695204","steam_id":85568392924469984,"keywords":["cp","nocrits","nodmgspread","uncletopia"],"game_id":440,"stv_port":27016,"stv_name":"Uncletopia | Chicago | 1 | All Maps | STV","players":[{"user_id":481,"name":"john \"eater of worlds\" smith","steam_id":76561198123878798,"connected_time":3727000000000,"state":"active","ping":45},{"user_id":512,"name":"Daddy Long Legs","steam_id":76561198928187404,"connected_time":86000000000,"state":"active","ping":82},{"user_id":489,"name":"Ras","steam_id":76561198123546775,"connected_time":2354000000000,"state":"active","ping":59},{"user_id":500,"name":"LeBron James","steam_id":76561198097160898,"connected_time":914000000000,"state":"active","ping":45},{"user_id":511,"name":"tacofever","steam_id":76561198010966507,"connected_time":95000000000,"state":"active","ping":104},{"user_id":513,"name":"MARIOPARTYDSFAN","steam_id":76561198872122117,"connected_time":82000000000,"state":"active","ping":65},{"user_id":515,"name":"Medic Man","steam_id":76561198123021247,"connected_time":22000000000,"state":"active","ping":69},{"user_id":475,"name":"spinglebarp","steam_id":76561198091472345,"connected_time":3811000000000,"state":"active","ping":76},{"user_id":498,"name":"spaps","steam_id":76561198123364734,"connected_time":1035000000000,"state":"active","ping":61},{"user_id":452,"name":"Legion","steam_id":76561199036242643,"connected_time":4973000000000,"state":"active","ping":61},{"user_id":517,"name":"ThePizzaBoy","steam_id":76561198275797198,"connected_time":4000000000,"state":"spawning","ping":58},{"user_id":476,"name":"Fudgely","steam_id":76561198039425862,"connected_time":3803000000000,"state":"active","ping":80},{"user_id":516,"name":"Superstarjoe","steam_id":76561198206915477,"connected_time":21000000000,"state":"active","ping":203},{"user_id":518,"name":"Casual Costanza","steam_id":76561198024409325,"connected_time":4000000000,"state":"spawning","ping":59},{"user_id":478,"name":"Schlooper","steam_id":76561198879313485,"connected_time":3791000000000,"state":"active","ping":78},{"user_id":505,"name":"‚òòÔ∏èNACHO_üçÄ","steam_id":76561198076618089,"connected_time":451000000000,"state":"active","ping":74},{"user_id":480,"name":"DuckMaster","steam_id":76561199099069161,"connected_time":3752000000000,"state":"active","ping":60},{"user_id":465,"name":"Phos","steam_id":76561198122339506,"connected_time":4545000000000,"state":"active","ping":73},{"user_id":484,"name":"Kinbo2487","steam_id":76561198184714198,"connected_time":3686000000000,"state":"active","ping":66},{"user_id":507,"name":"Jerry Bondle","steam_id":76561198337512213,"connected_time":340000000000,"state":"active","ping":61}]},{"server_id":106,"name":"Uncletopia | Chicago | 2 | All Maps","name_short":"chi-2","host":"chi-1.us.uncletopia.com","port":27025,"enabled":true,"region":"us-central","cc":"us","latitude":41.881832,"longitude":-87.62318,"reserved":0,"last_update":"0001-01-01T00:00:00Z","name_a2s":"Uncletopia | Chicago | 2 | All Maps","protocol":17,"map":"pl_snowycoast","folder":"tf","game":"Team Fortress","app_id":440,"player_count":23,"max_players":24,"Bots":0,"server_type":"Dedicated","server_os":"Linux","password":true,"vac":true,"version":"7695204","steam_id":85568392924469985,"keywords":["nocrits","nodmgspread","payload","uncletopia"],"game_id":440,"stv_port":27026,"stv_name":"Uncletopia | Chicago | 2 | All Maps | STV","players":[{"user_id":325,"name":"TallBit","steam_id":76561199059748976,"connected_time":4159000000000,"state":"active","ping":56},{"user_id":397,"name":"Wally The Fukn Walrus","steam_id":76561198019034045,"connected_time":27000000000,"state":"active","ping":51},{"user_id":396,"name":"hidden_games","steam_id":76561198149683392,"connected_time":56000000000,"state":"active","ping":49},{"user_id":371,"name":"spim","steam_id":76561198991982630,"connected_time":1261000000000,"state":"active","ping":83},{"user_id":382,"name":"Slumpest Duckest","steam_id":76561198170170606,"connected_time":765000000000,"state":"active","ping":51},{"user_id":368,"name":"for your safety","steam_id":76561198023459066,"connected_time":1429000000000,"state":"active","ping":66},{"user_id":317,"name":"hej","steam_id":76561197996366940,"connected_time":4638000000000,"state":"active","ping":60},{"user_id":394,"name":"Joshy","steam_id":76561198061405421,"connected_time":158000000000,"state":"active","ping":84},{"user_id":355,"name":"eredyn","steam_id":76561198868116439,"connected_time":1691000000000,"state":"active","ping":56},{"user_id":385,"name":"Sploosh","steam_id":76561198160544636,"connected_time":557000000000,"state":"active","ping":94},{"user_id":281,"name":"MedRed‚Ñ¢ #IATAH","steam_id":76561198002962970,"connected_time":7536000000000,"state":"active","ping":98},{"user_id":387,"name":"SLiPpeRyJoe.nosound","steam_id":76561197977206359,"connected_time":496000000000,"state":"active","ping":66},{"user_id":389,"name":"MasterSheep","steam_id":76561198082157948,"connected_time":337000000000,"state":"active","ping":77},{"user_id":334,"name":"marcie","steam_id":76561198170642407,"connected_time":3325000000000,"state":"active","ping":71},{"user_id":332,"name":"money squared","steam_id":76561198046775352,"connected_time":3723000000000,"state":"active","ping":94},{"user_id":356,"name":"Kid named download","steam_id":76561199192074448,"connected_time":1687000000000,"state":"active","ping":70},{"user_id":327,"name":"fuzze","steam_id":76561198214461775,"connected_time":4138000000000,"state":"active","ping":75},{"user_id":391,"name":"ShadowisE","steam_id":76561197990144848,"connected_time":282000000000,"state":"active","ping":51},{"user_id":380,"name":"Lil B (Based God)","steam_id":76561198058485742,"connected_time":860000000000,"state":"active","ping":59},{"user_id":359,"name":"how do i control my guy?","steam_id":76561198158855211,"connected_time":1644000000000,"state":"active","ping":96},{"user_id":376,"name":"Femboys R Us","steam_id":76561198071239843,"connected_time":948000000000,"state":"active","ping":89},{"user_id":381,"name":"porcelain slightly","steam_id":76561198111259720,"connected_time":855000000000,"state":"active","ping":76},{"user_id":367,"name":"onyxmckoy","steam_id":76561198047037902,"connected_time":1505000000000,"state":"active","ping":91}]},{"server_id":402,"name":"Uncletopia | Chicago | 3 | All Maps","name_short":"chi-3","host":"chi-1.us.uncletopia.com","port":27035,"enabled":true,"region":"us-central","cc":"us","latitude":41.881832,"longitude":-87.62318,"reserved":0,"last_update":"0001-01-01T00:00:00Z","name_a2s":"Uncletopia | Chicago | 3 | All Maps","protocol":17,"map":"cp_steel","folder":"tf","game":"Team Fortress","app_id":440,"player_count":24,"max_players":24,"Bots":0,"server_type":"Dedicated","server_os":"Linux","password":true,"vac":true,"version":"7695204","steam_id":85568392924515191,"keywords":["cp","nocrits","nodmgspread","uncletopia"],"game_id":440,"stv_port":27036,"stv_name":"Uncletopia | Chicago | 3 | All Maps | STV","players":[{"user_id":395,"name":"Pharma","steam_id":76561198258475476,"connected_time":446000000000,"state":"active","ping":72},{"user_id":399,"name":"[SK] Punish ‚ô• ÁâßÊøëÁ∫¢ËéâÊ†ñ","steam_id":76561198207987376,"connected_time":115000000000,"state":"active","ping":54},{"user_id":361,"name":"AWNukaCola","steam_id":76561198127676665,"connected_time":3538000000000,"state":"active","ping":94},{"user_id":315,"name":"A Pikachu Ninja","steam_id":76561198378348699,"connected_time":6572000000000,"state":"active","ping":61},{"user_id":383,"name":"Jamie Hyneman","steam_id":76561199196036481,"connected_time":1321000000000,"state":"active","ping":80},{"user_id":381,"name":"Medic","steam_id":76561198067869016,"connected_time":1501000000000,"state":"active","ping":39},{"user_id":386,"name":"Gaming Leaves","steam_id":76561199229704161,"connected_time":1300000000000,"state":"active","ping":77},{"user_id":385,"name":"Smiles","steam_id":76561199229626037,"connected_time":1316000000000,"state":"active","ping":102},{"user_id":360,"name":"b1uepie","steam_id":76561198055765666,"connected_time":3589000000000,"state":"active","ping":88},{"user_id":343,"name":"Kevin Y.","steam_id":76561198364331423,"connected_time":4763000000000,"state":"active","ping":81},{"user_id":393,"name":"twistedwizard","steam_id":76561199151888352,"connected_time":854000000000,"state":"active","ping":75},{"user_id":397,"name":"Question Mark","steam_id":76561199433313023,"connected_time":276000000000,"state":"active","ping":76},{"user_id":402,"name":"triple eco","steam_id":76561198079892116,"connected_time":20000000000,"state":"spawning","ping":86},{"user_id":388,"name":"sea","steam_id":76561197995014796,"connected_time":1227000000000,"state":"active","ping":41},{"user_id":391,"name":"Capt.Swag","steam_id":76561198088340994,"connected_time":953000000000,"state":"active","ping":73},{"user_id":367,"name":"OmniXVII","steam_id":76561198027183394,"connected_time":2652000000000,"state":"active","ping":85},{"user_id":371,"name":"Do Moose go Moo?","steam_id":76561198073550620,"connected_time":2155000000000,"state":"active","ping":45},{"user_id":377,"name":"Snazzi","steam_id":76561198085208276,"connected_time":1724000000000,"state":"active","ping":80},{"user_id":332,"name":"Stressmelo","steam_id":76561199204445185,"connected_time":5419000000000,"state":"active","ping":68},{"user_id":400,"name":"Ver","steam_id":76561198212493080,"connected_time":87000000000,"state":"active","ping":68},{"user_id":313,"name":"Brad Robbins","steam_id":76561198007716500,"connected_time":6856000000000,"state":"active","ping":50},{"user_id":378,"name":"GreatColorGreen","steam_id":76561198284546954,"connected_time":1718000000000,"state":"active","ping":47},{"user_id":359,"name":"Rabbi Gubsy","steam_id":76561197995205397,"connected_time":3737000000000,"state":"active","ping":94},{"user_id":314,"name":"egirl","steam_id":76561198025289549,"connected_time":6671000000000,"state":"active","ping":115}]},{"server_id":403,"name":"Uncletopia | Chicago | 4 | All Maps","name_short":"chi-4","host":"chi-1.us.uncletopia.com","port":27045,"enabled":true,"region":"us-central","cc":"us","latitude":41.881832,"longitude":-87.62318,"reserved":0,"last_update":"0001-01-01T00:00:00Z","name_a2s":"Uncletopia | Chicago | 4 | All Maps","protocol":17,"map":"pl_swiftwater_final1","folder":"tf","game":"Team Fortress","app_id":440,"player_count":24,"max_players":24,"Bots":0,"server_type":"Dedicated","server_os":"Linux","password":true,"vac":true,"version":"7695204","steam_id":85568392924515193,"keywords":["nocrits","nodmgspread","payload","uncletopia"],"game_id":440,"stv_port":27046,"stv_name":"Uncletopia | Chicago | 4 | All Maps | STV","players":[{"user_id":247,"name":"mushroom taco","steam_id":76561198097554694,"connected_time":139000000000,"state":"active","ping":62},{"user_id":183,"name":"JimmySquid","steam_id":76561198254242530,"connected_time":6323000000000,"state":"active","ping":53},{"user_id":244,"name":"Depresso Amber","steam_id":76561198074209737,"connected_time":701000000000,"state":"active","ping":60},{"user_id":250,"name":"RNG","steam_id":76561198156413369,"connected_time":116000000000,"state":"active","ping":80},{"user_id":211,"name":"JimmY","steam_id":76561198386339252,"connected_time":3294000000000,"state":"active","ping":103},{"user_id":246,"name":"thomasdee725","steam_id":76561199189526173,"connected_time":175000000000,"state":"active","ping":78},{"user_id":215,"name":"Jordicr100","steam_id":76561198030999491,"connected_time":3118000000000,"state":"active","ping":132},{"user_id":248,"name":"Snowfall","steam_id":76561198081729993,"connected_time":138000000000,"state":"active","ping":77},{"user_id":224,"name":"Justis","steam_id":76561197963835016,"connected_time":2852000000000,"state":"active","ping":67},{"user_id":208,"name":"fennec_zak_","steam_id":76561198125406216,"connected_time":3805000000000,"state":"active","ping":103},{"user_id":209,"name":"Chode Mode","steam_id":76561198353840477,"connected_time":3636000000000,"state":"active","ping":59},{"user_id":234,"name":"Quansen","steam_id":76561198151594550,"connected_time":2065000000000,"state":"active","ping":60},{"user_id":189,"name":"Zokie0","steam_id":76561198056035567,"connected_time":5635000000000,"state":"active","ping":71},{"user_id":252,"name":"Nuren","steam_id":76561198111190489,"connected_time":103000000000,"state":"active","ping":83},{"user_id":245,"name":"skanky ass hoe","steam_id":76561198799353406,"connected_time":259000000000,"state":"active","ping":74},{"user_id":212,"name":"SliFox115","steam_id":76561198006657143,"connected_time":3238000000000,"state":"active","ping":71},{"user_id":249,"name":"DJ Chalice","steam_id":76561197974872458,"connected_time":133000000000,"state":"active","ping":64},{"user_id":210,"name":"A Rhino with Coronavirus","steam_id":76561197999451366,"connected_time":3413000000000,"state":"active","ping":70},{"user_id":240,"name":"Big Siege","steam_id":76561198002276803,"connected_time":1005000000000,"state":"active","ping":80},{"user_id":231,"name":"Candy Sparkles","steam_id":76561198126871264,"connected_time":2184000000000,"state":"active","ping":83},{"user_id":238,"name":"supreme flex machine","steam_id":76561198435286999,"connected_time":1945000000000,"state":"active","ping":92},{"user_id":251,"name":"esoobac","steam_id":76561198010370396,"connected_time":113000000000,"state":"active","ping":48},{"user_id":214,"name":"Xuey","steam_id":76561199120960187,"connected_time":3207000000000,"state":"active","ping":56},{"user_id":253,"name":"heywix","steam_id":76561198147446578,"connected_time":92000000000,"state":"active","ping":104}]},{"server_id":36,"name":"Uncletopia | Chicago | 5 | All Maps","name_short":"chi-5","host":"chi-2.us.uncletopia.com","port":27015,"enabled":true,"region":"us-central","cc":"us","latitude":41.881832,"longitude":-87.62318,"reserved":0,"last_update":"0001-01-01T00:00:00Z","name_a2s":"Uncletopia | Chicago | 5 | All Maps","protocol":17,"map":"koth_cascade","folder":"tf","game":"Team Fortress","app_id":440,"player_count":0,"max_players":24,"Bots":0,"server_type":"Dedicated","server_os":"Linux","password":true,"vac":true,"version":"7695204","steam_id":85568392924866362,"keywords":["cp","nocrits","nodmgspread","uncletopia"],"game_id":440,"stv_port":27016,"stv_name":"Uncletopia | Chicago | 5 | All Maps | STV","players":null},{"server_id":37,"name":"Uncletopia | Chicago | 6 | All Maps","name_short":"chi-6","host":"chi-2.us.uncletopia.com","port":27025,"enabled":true,"region":"us-central","cc":"us","latitude":41.881832,"longitude":-87.62318,"reserved":0,"last_update":"0001-01-01T00:00:00Z","name_a2s":"Uncletopia | Chicago | 6 | All Maps","protocol":17,"map":"koth_lakeside_final","folder":"tf","game":"Team Fortress","app_id":440,"player_count":0,"max_players":24,"Bots":0,"server_type":"Dedicated","server_os":"Linux","password":true,"vac":true,"version":"7695204","steam_id":85568392924866363,"keywords":["cp","nocrits","nodmgspread","uncletopia"],"game_id":440,"stv_port":27026,"stv_name":"Uncletopia | Chicago | 6 | All Maps | STV","players":null},{"server_id":38,"name":"Uncletopia | Chicago | 7 | No Payload","name_short":"chi-7","host":"chi-2.us.uncletopia.com","port":27035,"enabled":true,"region":"us-central","cc":"us","latitude":41.881832,"longitude":-87.62318,"reserved":0,"last_update":"0001-01-01T00:00:00Z","name_a2s":"Uncletopia | Chicago | 7 | No Payload","protocol":17,"map":"cp_metalworks","folder":"tf","game":"Team Fortress","app_id":440,"player_count":19,"max_players":24,"Bots":0,"server_type":"Dedicated","server_os":"Linux","password":true,"vac":true,"version":"7695204","steam_id":85568392924866364,"keywords":["cp","nocrits","nodmgspread","uncletopia"],"game_id":440,"stv_port":27036,"stv_name":"Uncletopia | Chicago | 7 | No Payload | STV","players":[{"user_id":278,"name":"SSBM Pelican","steam_id":76561198040697907,"connected_time":86000000000,"state":"active","ping":75},{"user_id":277,"name":"FrozenOver5","steam_id":76561198805805097,"connected_time":156000000000,"state":"active","ping":54},{"user_id":279,"name":"Liquid Metal Slime from DQ9","steam_id":76561198061621275,"connected_time":62000000000,"state":"active","ping":74},{"user_id":273,"name":"IxMic88","steam_id":76561198018552479,"connected_time":335000000000,"state":"active","ping":66},{"user_id":258,"name":"Stupid frogs!","steam_id":76561198069415057,"connected_time":1761000000000,"state":"active","ping":90},{"user_id":257,"name":"Scarceblue","steam_id":76561198107882998,"connected_time":1840000000000,"state":"active","ping":53},{"user_id":223,"name":"Soap","steam_id":76561198074619142,"connected_time":3678000000000,"state":"active","ping":54},{"user_id":173,"name":"Yeti","steam_id":76561198035450920,"connected_time":6127000000000,"state":"active","ping":82},{"user_id":227,"name":"1ncel","steam_id":76561198950243192,"connected_time":3401000000000,"state":"active","ping":77},{"user_id":264,"name":"Skippies","steam_id":76561198131280715,"connected_time":1255000000000,"state":"active","ping":66},{"user_id":262,"name":"Duncan Slamwell, B-Ball Attorne","steam_id":76561197994924793,"connected_time":1436000000000,"state":"active","ping":71},{"user_id":274,"name":"Stormz64","steam_id":76561198239036482,"connected_time":301000000000,"state":"active","ping":33},{"user_id":240,"name":"zombs","steam_id":76561198359456881,"connected_time":3111000000000,"state":"active","ping":61},{"user_id":172,"name":"Evan","steam_id":76561197972292926,"connected_time":6242000000000,"state":"active","ping":72},{"user_id":265,"name":"Sharmat","steam_id":76561198103492042,"connected_time":1236000000000,"state":"active","ping":61},{"user_id":260,"name":"Goopie","steam_id":76561198169914947,"connected_time":1548000000000,"state":"active","ping":93},{"user_id":268,"name":"Fish","steam_id":76561198301879740,"connected_time":626000000000,"state":"active","ping":102},{"user_id":203,"name":"Zo","steam_id":76561198018758753,"connected_time":4789000000000,"state":"active","ping":46},{"user_id":275,"name":"DeathToCats","steam_id":76561198092238353,"connected_time":293000000000,"state":"active","ping":60}]},{"server_id":39,"name":"Uncletopia | Chicago | 8 | Community","name_short":"chi-8","host":"chi-2.us.uncletopia.com","port":27045,"enabled":true,"region":"us-central","cc":"us","latitude":41.881832,"longitude":-87.62318,"reserved":0,"last_update":"0001-01-01T00:00:00Z","name_a2s":"Uncletopia | Chicago | 8 | Community","protocol":17,"map":"workshop/koth_slaughter_rc1.ugc1712845210","folder":"tf","game":"Team Fortress","app_id":440,"player_count":0,"max_players":24,"Bots":0,"server_type":"Dedicated","server_os":"Linux","password":true,"vac":true,"version":"7695204","steam_id":85568392924866365,"keywords":["cp","nocrits","nodmgspread","uncletopia"],"game_id":440,"stv_port":27046,"stv_name":"Uncletopia | Chicago | 8 | Community | STV","players":null},{"server_id":8,"name":"Uncletopia | Dallas | 1 | All Maps","name_short":"dal-1","host":"dal-1.us.uncletopia.com","port":27015,"enabled":true,"region":"us-central","cc":"us","latitude":32.779167,"longitude":-96.80889,"reserved":0,"last_update":"0001-01-01T00:00:00Z","name_a2s":"Uncletopia | Dallas | 1 | All Maps","protocol":17,"map":"pl_upward","folder":"tf","game":"Team Fortress","app_id":440,"player_count":0,"max_players":24,"Bots":0,"server_type":"Dedicated","server_os":"Linux","password":true,"vac":true,"version":"7695204","steam_id":85568392924469986,"keywords":["nocrits","nodmgspread","payload","uncletopia"],"game_id":440,"stv_port":27016,"stv_name":"Uncletopia | Dallas | 1 | All Maps | STV","players":null},{"server_id":108,"name":"Uncletopia | Dallas | 2 | All Maps","name_short":"dal-2","host":"dal-1.us.uncletopia.com","port":27025,"enabled":true,"region":"us-central","cc":"us","latitude":32.779167,"longitude":-96.80889,"reserved":0,"last_update":"0001-01-01T00:00:00Z","name_a2s":"Uncletopia | Dallas | 2 | All Maps","protocol":17,"map":"pl_upward","folder":"tf","game":"Team Fortress","app_id":440,"player_count":25,"max_players":24,"Bots":0,"server_type":"Dedicated","server_os":"Linux","password":true,"vac":true,"version":"7695204","steam_id":85568392924469988,"keywords":["nocrits","nodmgspread","payload","uncletopia"],"game_id":440,"stv_port":27026,"stv_name":"Uncletopia | Dallas | 2 | All Maps | STV","players":[{"user_id":72,"name":"Capt on PC","steam_id":76561198396814154,"connected_time":383000000000,"state":"active","ping":97},{"user_id":50,"name":"Eightyy  Fourr","steam_id":76561197960374225,"connected_time":1524000000000,"state":"active","ping":45},{"user_id":76,"name":"¬°ayudame!","steam_id":76561198071421094,"connected_time":100000000000,"state":"active","ping":90},{"user_id":31,"name":"Lezabel","steam_id":76561198970753261,"connected_time":2489000000000,"state":"active","ping":73},{"user_id":8,"name":"Maranata","steam_id":76561198830158092,"connected_time":3497000000000,"state":"active","ping":77},{"user_id":10,"name":"BuhByeFalecia","steam_id":76561198364710587,"connected_time":3329000000000,"state":"active","ping":48},{"user_id":11,"name":"Midnight-AG","steam_id":76561198115714484,"connected_time":3227000000000,"state":"active","ping":106},{"user_id":70,"name":"BeerPowder","steam_id":76561198058129400,"connected_time":838000000000,"state":"active","ping":82},{"user_id":65,"name":"‚ù§ Ashley ‚ù§","steam_id":76561198056428303,"connected_time":977000000000,"state":"active","ping":75},{"user_id":19,"name":"yeyoi","steam_id":76561198069821885,"connected_time":2663000000000,"state":"active","ping":79},{"user_id":67,"name":"iluvtoust","steam_id":76561198869269207,"connected_time":893000000000,"state":"active","ping":55},{"user_id":52,"name":"Sneetch [sRb]","steam_id":76561197996693506,"connected_time":1381000000000,"state":"active","ping":62},{"user_id":77,"name":"Alice in Rubberland","steam_id":76561198087328346,"connected_time":90000000000,"state":"connecting","ping":0},{"user_id":53,"name":"look up","steam_id":76561198057487880,"connected_time":1334000000000,"state":"active","ping":56},{"user_id":78,"name":"SGT Disoriented","steam_id":76561198058177958,"connected_time":84000000000,"state":"active","ping":56},{"user_id":62,"name":"queer linux user","steam_id":76561199208765424,"connected_time":1137000000000,"state":"active","ping":105},{"user_id":59,"name":"Reclipser","steam_id":76561198093697554,"connected_time":1158000000000,"state":"active","ping":65},{"user_id":80,"name":"giura","steam_id":76561197986794525,"connected_time":47000000000,"state":"active","ping":71},{"user_id":26,"name":"emerald6","steam_id":76561198141978758,"connected_time":2577000000000,"state":"active","ping":88},{"user_id":71,"name":"Bonweth","steam_id":76561198065437421,"connected_time":465000000000,"state":"active","ping":47},{"user_id":69,"name":"JDizzle","steam_id":76561199122696841,"connected_time":875000000000,"state":"active","ping":75},{"user_id":75,"name":"[LINUX] F2P=S*(M/B)+H || Spy!","steam_id":76561198093538786,"connected_time":113000000000,"state":"active","ping":46},{"user_id":57,"name":"mattchu","steam_id":76561197967618225,"connected_time":1191000000000,"state":"active","ping":81},{"user_id":64,"name":"weewa","steam_id":76561198064876090,"connected_time":1087000000000,"state":"active","ping":76},{"user_id":79,"name":"Nelly the Nels","steam_id":76561198196623638,"connected_time":81000000000,"state":"active","ping":56}]},{"server_id":5,"name":"Uncletopia | Frankfurt | 1 | All Maps","name_short":"frk-1","host":"frk-1.de.uncletopia.com","port":27015,"enabled":true,"region":"eu","cc":"de","latitude":50.110924,"longitude":8.682127,"reserved":0,"last_update":"0001-01-01T00:00:00Z","name_a2s":"Uncletopia | Frankfurt | 1 | All Maps","protocol":17,"map":"pl_barnblitz","folder":"tf","game":"Team Fortress","app_id":440,"player_count":0,"max_players":24,"Bots":0,"server_type":"Dedicated","server_os":"Linux","password":true,"vac":true,"version":"7695204","steam_id":85568392924469989,"keywords":["nocrits","nodmgspread","payload","uncletopia"],"game_id":440,"stv_port":27016,"stv_name":"Uncletopia | Frankfurt | 1 | All Maps | STV","players":null},{"server_id":110,"name":"Uncletopia | Frankfurt | 2 | All Maps","name_short":"frk-2","host":"frk-1.de.uncletopia.com","port":27025,"enabled":true,"region":"eu","cc":"de","latitude":50.110924,"longitude":8.682127,"reserved":0,"last_update":"0001-01-01T00:00:00Z","name_a2s":"Uncletopia | Frankfurt | 2 | All Maps","protocol":17,"map":"pl_badwater","folder":"tf","game":"Team Fortress","app_id":440,"player_count":1,"max_players":24,"Bots":0,"server_type":"Dedicated","server_os":"Linux","password":true,"vac":true,"version":"7695204","steam_id":85568392924469990,"keywords":["nocrits","nodmgspread","payload","uncletopia"],"game_id":440,"stv_port":27026,"stv_name":"Uncletopia | Frankfurt | 2 | All Maps | STV","players":[{"user_id":619,"name":"you're cute","steam_id":76561198154715811,"connected_time":1705000000000,"state":"active","ping":110}]},{"server_id":308,"name":"Uncletopia | Frankfurt | 3 | All Maps","name_short":"frk-3","host":"frk-1.de.uncletopia.com","port":27035,"enabled":true,"region":"eu","cc":"de","latitude":50.110924,"longitude":8.682127,"reserved":0,"last_update":"0001-01-01T00:00:00Z","name_a2s":"Uncletopia | Frankfurt | 3 | All Maps","protocol":17,"map":"pl_upward","folder":"tf","game":"Team Fortress","app_id":440,"player_count":24,"max_players":24,"Bots":0,"server_type":"Dedicated","server_os":"Linux","password":true,"vac":true,"version":"7695204","steam_id":85568392924504274,"keywords":["nocrits","nodmgspread","payload","uncletopia"],"game_id":440,"stv_port":27036,"stv_name":"Uncletopia | Frankfurt | 3 | All Maps | STV","players":[{"user_id":663,"name":"hananamanna","steam_id":76561198006570285,"connected_time":881000000000,"state":"active","ping":118},{"user_id":655,"name":"quake \u0026 bake","steam_id":76561198102462576,"connected_time":1303000000000,"state":"active","ping":96},{"user_id":616,"name":"F2P gameing","steam_id":76561198834713682,"connected_time":5211000000000,"state":"active","ping":71},{"user_id":641,"name":"skitsv√•r att h√∂ra","steam_id":76561198216544293,"connected_time":2719000000000,"state":"active","ping":75},{"user_id":649,"name":"Udinese Dion","steam_id":76561198067931573,"connected_time":2447000000000,"state":"active","ping":46},{"user_id":664,"name":"nedilya","steam_id":76561198039692077,"connected_time":869000000000,"state":"active","ping":68},{"user_id":662,"name":"uu","steam_id":76561197994492154,"connected_time":892000000000,"state":"active","ping":60},{"user_id":665,"name":"weed dragon of rad","steam_id":76561198064342804,"connected_time":864000000000,"state":"active","ping":75},{"user_id":658,"name":"Pats","steam_id":76561198418538887,"connected_time":1056000000000,"state":"active","ping":97},{"user_id":653,"name":"I Laugh After Every Kill","steam_id":76561198029044617,"connected_time":1848000000000,"state":"active","ping":63},{"user_id":666,"name":"Satan","steam_id":76561198067950770,"connected_time":849000000000,"state":"active","ping":92},{"user_id":667,"name":"marty","steam_id":76561198082934864,"connected_time":843000000000,"state":"active","ping":72},{"user_id":632,"name":"Lena ^^","steam_id":76561199435586696,"connected_time":3075000000000,"state":"active","ping":93},{"user_id":675,"name":"Average","steam_id":76561198158411479,"connected_time":692000000000,"state":"active","ping":81},{"user_id":669,"name":"Not Steven","steam_id":76561198051881261,"connected_time":813000000000,"state":"active","ping":67},{"user_id":676,"name":"HERISSON","steam_id":76561199062194778,"connected_time":340000000000,"state":"active","ping":83},{"user_id":656,"name":"M2rtRa","steam_id":76561198111036466,"connected_time":1159000000000,"state":"active","ping":63},{"user_id":671,"name":"insanitY","steam_id":76561198055666742,"connected_time":788000000000,"state":"active","ping":110},{"user_id":570,"name":"Vershal Smershal","steam_id":76561198116223995,"connected_time":9191000000000,"state":"active","ping":61},{"user_id":645,"name":"muppi","steam_id":76561198067765324,"connected_time":2680000000000,"state":"active","ping":75},{"user_id":606,"name":"Yangus","steam_id":76561198147796010,"connected_time":5654000000000,"state":"active","ping":59},{"user_id":657,"name":"Soviet Onion","steam_id":76561198299693038,"connected_time":1129000000000,"state":"active","ping":70},{"user_id":672,"name":"snow cash","steam_id":76561198255500981,"connected_time":787000000000,"state":"active","ping":57},{"user_id":674,"name":"Andrew Tate TF2EASY.COM","steam_id":76561198408907123,"connected_time":733000000000,"state":"active","ping":75}]},{"server_id":309,"name":"Uncletopia | Frankfurt | 4 | All Maps","name_short":"frk-4","host":"frk-1.de.uncletopia.com","port":27045,"enabled":true,"region":"eu","cc":"de","latitude":50.110924,"longitude":8.682127,"reserved":0,"last_update":"0001-01-01T00:00:00Z","name_a2s":"Uncletopia | Frankfurt | 4 | All Maps","protocol":17,"map":"cp_sunshine","folder":"tf","game":"Team Fortress","app_id":440,"player_count":0,"max_players":24,"Bots":0,"server_type":"Dedicated","server_os":"Linux","password":true,"vac":true,"version":"7695204","steam_id":85568392924504275,"keywords":["cp","nocrits","nodmgspread","uncletopia"],"game_id":440,"stv_port":27046,"stv_name":"Uncletopia | Frankfurt | 4 | All Maps | STV","players":null},{"server_id":310,"name":"Uncletopia | Frankfurt | 5 | All Maps","name_short":"frk-5","host":"frk-1.de.uncletopia.com","port":27055,"enabled":true,"region":"eu","cc":"de","latitude":50.110924,"longitude":8.682127,"reserved":0,"last_update":"0001-01-01T00:00:00Z","name_a2s":"Uncletopia | Frankfurt | 5 | All Maps","protocol":17,"map":"pl_snowycoast","folder":"tf","game":"Team Fortress","app_id":440,"player_count":24,"max_players":24,"Bots":0,"server_type":"Dedicated","server_os":"Linux","password":true,"vac":true,"version":"7695204","steam_id":85568392924504277,"keywords":["nocrits","nodmgspread","payload","uncletopia"],"game_id":440,"stv_port":27056,"stv_name":"Uncletopia | Frankfurt | 5 | All Maps | STV","players":[{"user_id":168,"name":"Super Cell Scootz","steam_id":76561198018491455,"connected_time":2338000000000,"state":"active","ping":67},{"user_id":205,"name":"my mom","steam_id":76561199225201569,"connected_time":308000000000,"state":"active","ping":137},{"user_id":193,"name":"Sabour","steam_id":76561197963965445,"connected_time":1136000000000,"state":"active","ping":59},{"user_id":185,"name":"$t@rscr3@mRD","steam_id":76561199122087824,"connected_time":1754000000000,"state":"active","ping":171},{"user_id":189,"name":"LadyMissfit","steam_id":76561198042236349,"connected_time":1454000000000,"state":"active","ping":77},{"user_id":190,"name":"Artur ‚òª","steam_id":76561198264297604,"connected_time":1373000000000,"state":"active","ping":82},{"user_id":180,"name":"MekBlue","steam_id":76561198047680770,"connected_time":1964000000000,"state":"active","ping":74},{"user_id":206,"name":"Nyarley","steam_id":76561197961152751,"connected_time":176000000000,"state":"active","ping":47},{"user_id":181,"name":"Bushy","steam_id":76561198076552735,"connected_time":1959000000000,"state":"active","ping":83},{"user_id":188,"name":"Shakesbeer","steam_id":76561198045578305,"connected_time":1582000000000,"state":"active","ping":53},{"user_id":197,"name":"SuntanPikachu","steam_id":76561198121242476,"connected_time":1038000000000,"state":"active","ping":84},{"user_id":195,"name":"ACY","steam_id":76561198060846160,"connected_time":1092000000000,"state":"active","ping":81},{"user_id":196,"name":"DrExplosive","steam_id":76561198063678579,"connected_time":1082000000000,"state":"active","ping":54},{"user_id":143,"name":"Dunboi","steam_id":76561198120949216,"connected_time":4237000000000,"state":"active","ping":61},{"user_id":111,"name":"Yachox","steam_id":76561198158259745,"connected_time":6095000000000,"state":"active","ping":90},{"user_id":198,"name":"Some dude who plays tf2","steam_id":76561199257287496,"connected_time":1037000000000,"state":"active","ping":140},{"user_id":199,"name":"tets","steam_id":76561198154734428,"connected_time":1024000000000,"state":"active","ping":103},{"user_id":141,"name":"Micha≈Ç","steam_id":76561198320346362,"connected_time":4397000000000,"state":"active","ping":71},{"user_id":163,"name":"PWizard","steam_id":76561198026458489,"connected_time":2689000000000,"state":"active","ping":85},{"user_id":201,"name":"caf√®","steam_id":76561198037938833,"connected_time":907000000000,"state":"active","ping":60},{"user_id":115,"name":"Pudd of The Pompous Tophats","steam_id":76561198014468443,"connected_time":6018000000000,"state":"active","ping":73},{"user_id":202,"name":"herbal tea","steam_id":76561197980736364,"connected_time":806000000000,"state":"active","ping":77},{"user_id":120,"name":"Jamba Sparabo","steam_id":76561198131647600,"connected_time":5879000000000,"state":"active","ping":45},{"user_id":187,"name":"lowcostfish.co.uk","steam_id":76561198126022039,"connected_time":1709000000000,"state":"active","ping":72}]},{"server_id":311,"name":"Uncletopia | Frankfurt | 6 | All Maps","name_short":"frk-6","host":"frk-1.de.uncletopia.com","port":27065,"enabled":true,"region":"eu","cc":"de","latitude":50.110924,"longitude":8.682127,"reserved":0,"last_update":"0001-01-01T00:00:00Z","name_a2s":"Uncletopia | Frankfurt | 6 | All Maps","protocol":17,"map":"pl_upward","folder":"tf","game":"Team Fortress","app_id":440,"player_count":24,"max_players":24,"Bots":0,"server_type":"Dedicated","server_os":"Linux","password":true,"vac":true,"version":"7695204","steam_id":85568392924504278,"keywords":["nocrits","nodmgspread","payload","uncletopia"],"game_id":440,"stv_port":27066,"stv_name":"Uncletopia | Frankfurt | 6 | All Maps | STV","players":[{"user_id":653,"name":"rummy","steam_id":76561197997573379,"connected_time":2385000000000,"state":"active","ping":60},{"user_id":664,"name":"Crusty Toast","steam_id":76561199040353112,"connected_time":2102000000000,"state":"active","ping":149},{"user_id":668,"name":"Efmixos","steam_id":76561198393929835,"connected_time":1731000000000,"state":"active","ping":106},{"user_id":677,"name":"D D","steam_id":76561198257836694,"connected_time":791000000000,"state":"active","ping":56},{"user_id":619,"name":"dustee","steam_id":76561198023486582,"connected_time":4409000000000,"state":"active","ping":81},{"user_id":645,"name":"Aregularhuman","steam_id":76561198343319848,"connected_time":2593000000000,"state":"active","ping":42},{"user_id":646,"name":"New","steam_id":76561198402195911,"connected_time":2585000000000,"state":"active","ping":111},{"user_id":591,"name":"breedable","steam_id":76561198010300032,"connected_time":5130000000000,"state":"active","ping":61},{"user_id":654,"name":"sex slapper","steam_id":76561198078625819,"connected_time":2335000000000,"state":"active","ping":47},{"user_id":655,"name":"–¢—Ä—É–ø –í–æ–ª–æ–¥—è","steam_id":76561198035718457,"connected_time":2331000000000,"state":"active","ping":94},{"user_id":674,"name":"Sweetcheesus","steam_id":76561198022299033,"connected_time":1032000000000,"state":"active","ping":59},{"user_id":620,"name":"Beans on toast","steam_id":76561198007308717,"connected_time":4349000000000,"state":"active","ping":66},{"user_id":673,"name":"jaMie","steam_id":76561198170148783,"connected_time":1198000000000,"state":"active","ping":57},{"user_id":600,"name":"Proto-arc","steam_id":76561198012776747,"connected_time":4809000000000,"state":"active","ping":60},{"user_id":656,"name":"Speibsackerl","steam_id":76561198058135257,"connected_time":2298000000000,"state":"active","ping":60},{"user_id":683,"name":"porridge","steam_id":76561198044585737,"connected_time":152000000000,"state":"active","ping":65},{"user_id":678,"name":"Zerfesh","steam_id":76561198117534358,"connected_time":713000000000,"state":"active","ping":84},{"user_id":682,"name":"Listerine Larry","steam_id":76561198093229786,"connected_time":550000000000,"state":"active","ping":66},{"user_id":604,"name":"galaxy","steam_id":76561198164819022,"connected_time":4765000000000,"state":"active","ping":54},{"user_id":671,"name":"Redmailbox","steam_id":76561198042930322,"connected_time":1522000000000,"state":"active","ping":60},{"user_id":606,"name":"Fat Pigeon","steam_id":76561198817940142,"connected_time":4756000000000,"state":"active","ping":55},{"user_id":681,"name":"DarkWolper","steam_id":76561198053833908,"connected_time":648000000000,"state":"active","ping":80},{"user_id":662,"name":"gamer_","steam_id":76561198094125769,"connected_time":2188000000000,"state":"active","ping":79},{"user_id":684,"name":"Luo Lang","steam_id":76561197988802856,"connected_time":40000000000,"state":"active","ping":64}]},{"server_id":23,"name":"Uncletopia | Frankfurt | 7 | No Payload","name_short":"frk-7","host":"frk-1.de.uncletopia.com","port":27075,"enabled":true,"region":"eu","cc":"de","latitude":50.110924,"longitude":8.682127,"reserved":0,"last_update":"0001-01-01T00:00:00Z","name_a2s":"Uncletopia | Frankfurt | 7 | No Payload","protocol":17,"map":"cp_fastlane","folder":"tf","game":"Team Fortress","app_id":440,"player_count":0,"max_players":24,"Bots":0,"server_type":"Dedicated","server_os":"Linux","password":true,"vac":true,"version":"7695204","steam_id":85568392924742827,"keywords":["cp","nocrits","nodmgspread","uncletopia"],"game_id":440,"stv_port":27076,"stv_name":"Uncletopia | Frankfurt | 7 | No Payload | STV","players":null},{"server_id":24,"name":"Uncletopia | Frankfurt | 8 | Community","name_short":"frk-8","host":"frk-1.de.uncletopia.com","port":27085,"enabled":true,"region":"eu","cc":"de","latitude":50.110924,"longitude":8.682127,"reserved":0,"last_update":"0001-01-01T00:00:00Z","name_a2s":"Uncletopia | Frankfurt | 8 | Community","protocol":17,"map":"workshop/koth_bagel_rc5.ugc2514036946","folder":"tf","game":"Team Fortress","app_id":440,"player_count":0,"max_players":24,"Bots":0,"server_type":"Dedicated","server_os":"Linux","password":true,"vac":true,"version":"7695204","steam_id":85568392924742828,"keywords":["cp","nocrits","nodmgspread","uncletopia"],"game_id":440,"stv_port":27086,"stv_name":"Uncletopia | Frankfurt | 8 | Community | STV","players":null},{"server_id":202,"name":"Uncletopia | Hong Kong | 1 | All Maps","name_short":"hgk-1","host":"hgk-1.hk.uncletopia.com","port":27015,"enabled":true,"region":"asia","cc":"hk","latitude":22.302711,"longitude":114.177216,"reserved":0,"last_update":"0001-01-01T00:00:00Z","name_a2s":"Uncletopia | Hong Kong | 1 | All Maps","protocol":17,"map":"pl_upward","folder":"tf","game":"Team Fortress","app_id":440,"player_count":0,"max_players":24,"Bots":0,"server_type":"Dedicated","server_os":"Linux","password":true,"vac":true,"version":"7695204","steam_id":85568392924494504,"keywords":["nocrits","nodmgspread","payload","uncletopia"],"game_id":440,"stv_port":0,"stv_name":"","players":null},{"server_id":1,"name":"Uncletopia | Los Angeles | 1 | All Maps","name_short":"lax-1","host":"lax-1.us.uncletopia.com","port":27015,"enabled":true,"region":"us-west","cc":"us","latitude":33.94279,"longitude":-118.41004,"reserved":0,"last_update":"0001-01-01T00:00:00Z","name_a2s":"Uncletopia | Los Angeles | 1 | All Maps","protocol":17,"map":"pl_upward","folder":"tf","game":"Team Fortress","app_id":440,"player_count":20,"max_players":24,"Bots":0,"server_type":"Dedicated","server_os":"Linux","password":true,"vac":true,"version":"7695204","steam_id":85568392924469991,"keywords":["nocrits","nodmgspread","payload","uncletopia"],"game_id":440,"stv_port":27016,"stv_name":"Uncletopia | Los Angeles | 1 | All Maps | STV","players":[{"user_id":39,"name":"Walter White","steam_id":76561199088715889,"connected_time":2281000000000,"state":"active","ping":79},{"user_id":40,"name":"FBI","steam_id":76561199127005171,"connected_time":2246000000000,"state":"active","ping":61},{"user_id":82,"name":"haley","steam_id":76561199102391736,"connected_time":99000000000,"state":"active","ping":45},{"user_id":78,"name":"MrLeftTurn","steam_id":76561198856743969,"connected_time":271000000000,"state":"active","ping":100},{"user_id":60,"name":"mao zedong","steam_id":76561199060687332,"connected_time":856000000000,"state":"active","ping":42},{"user_id":44,"name":"sophacles","steam_id":76561198953893481,"connected_time":1673000000000,"state":"active","ping":122},{"user_id":64,"name":"toodles","steam_id":76561198025463883,"connected_time":688000000000,"state":"active","ping":66},{"user_id":83,"name":"1_SANTI","steam_id":76561199216396182,"connected_time":67000000000,"state":"active","ping":73},{"user_id":79,"name":"WM1 PYRO","steam_id":76561198045893896,"connected_time":244000000000,"state":"active","ping":73},{"user_id":84,"name":"poop rocks","steam_id":76561198135404020,"connected_time":34000000000,"state":"active","ping":94},{"user_id":54,"name":"Fish Lambert","steam_id":76561198098279668,"connected_time":1087000000000,"state":"active","ping":60},{"user_id":55,"name":"yummyham2","steam_id":76561199006339325,"connected_time":986000000000,"state":"active","ping":48},{"user_id":57,"name":"ASCII | kymeira","steam_id":76561198340743816,"connected_time":889000000000,"state":"active","ping":44},{"user_id":59,"name":"George_Bush37@aol.com","steam_id":76561199042025324,"connected_time":862000000000,"state":"active","ping":45},{"user_id":66,"name":"Kazuhira Leandoer98","steam_id":76561198054697958,"connected_time":681000000000,"state":"active","ping":67},{"user_id":77,"name":"kenZino","steam_id":76561197967971192,"connected_time":382000000000,"state":"active","ping":60},{"user_id":80,"name":"cielael","steam_id":76561198043971956,"connected_time":211000000000,"state":"active","ping":50},{"user_id":75,"name":"wzgd","steam_id":76561198342480009,"connected_time":446000000000,"state":"active","ping":49},{"user_id":85,"name":"trans gaming troll (she/her)","steam_id":76561198085410622,"connected_time":31000000000,"state":"active","ping":79},{"user_id":81,"name":"fulcrum","steam_id":76561198363821364,"connected_time":170000000000,"state":"active","ping":51}]},{"server_id":112,"name":"Uncletopia | Los Angeles | 2 | All Maps","name_short":"lax-2","host":"lax-1.us.uncletopia.com","port":27025,"enabled":true,"region":"us-west","cc":"us","latitude":33.94279,"longitude":-118.41004,"reserved":0,"last_update":"0001-01-01T00:00:00Z","name_a2s":"Uncletopia | Los Angeles | 2 | All Maps","protocol":17,"map":"pl_badwater","folder":"tf","game":"Team Fortress","app_id":440,"player_count":0,"max_players":24,"Bots":0,"server_type":"Dedicated","server_os":"Linux","password":true,"vac":true,"version":"7695204","steam_id":85568392924469992,"keywords":["nocrits","nodmgspread","payload","uncletopia"],"game_id":440,"stv_port":27026,"stv_name":"Uncletopia | Los Angeles | 2 | All Maps | STV","players":null},{"server_id":324,"name":"Uncletopia | Los Angeles | 3 | All Maps","name_short":"lax-3","host":"lax-1.us.uncletopia.com","port":27035,"enabled":true,"region":"us-west","cc":"us","latitude":33.94279,"longitude":-118.41004,"reserved":0,"last_update":"0001-01-01T00:00:00Z","name_a2s":"Uncletopia | Los Angeles | 3 | All Maps","protocol":17,"map":"pl_pier","folder":"tf","game":"Team Fortress","app_id":440,"player_count":0,"max_players":24,"Bots":0,"server_type":"Dedicated","server_os":"Linux","password":true,"vac":true,"version":"7695204","steam_id":85568392924510198,"keywords":["nocrits","nodmgspread","payload","uncletopia"],"game_id":440,"stv_port":27036,"stv_name":"Uncletopia | Los Angeles | 3 | All Maps | STV","players":null},{"server_id":25,"name":"Uncletopia | Los Angeles | 4 | No Payload","name_short":"lax-4","host":"lax-1.us.uncletopia.com","port":27045,"enabled":true,"region":"us-west","cc":"us","latitude":33.94279,"longitude":-118.41004,"reserved":0,"last_update":"0001-01-01T00:00:00Z","name_a2s":"Uncletopia | Los Angeles | 4 | No Payload","protocol":17,"map":"koth_highpass","folder":"tf","game":"Team Fortress","app_id":440,"player_count":0,"max_players":24,"Bots":0,"server_type":"Dedicated","server_os":"Linux","password":true,"vac":true,"version":"7695204","steam_id":85568392924510199,"keywords":["cp","nocrits","nodmgspread","uncletopia"],"game_id":440,"stv_port":27046,"stv_name":"Uncletopia | Los Angeles | 4 | No Payload | STV","players":null},{"server_id":11,"name":"Uncletopia | London | 1 | All Maps","name_short":"lon-1","host":"lon-1.uk.uncletopia.com","port":27015,"enabled":true,"region":"eu","cc":"gb","latitude":51.509865,"longitude":-0.118092,"reserved":0,"last_update":"0001-01-01T00:00:00Z","name_a2s":"Uncletopia | London | 1 | All Maps","protocol":17,"map":"cp_process_final","folder":"tf","game":"Team Fortress","app_id":440,"player_count":24,"max_players":24,"Bots":0,"server_type":"Dedicated","server_os":"Linux","password":true,"vac":true,"version":"7695204","steam_id":85568392924367362,"keywords":["cp","nocrits","nodmgspread","uncletopia"],"game_id":440,"stv_port":27016,"stv_name":"Uncletopia | London | 1 | All Maps | STV","players":[{"user_id":634,"name":"‚ú™ J","steam_id":76561198094911581,"connected_time":3442000000000,"state":"active","ping":48},{"user_id":654,"name":"JE-HESSIE'S WITNESS","steam_id":76561198443798981,"connected_time":1620000000000,"state":"active","ping":74},{"user_id":600,"name":"Kokas","steam_id":76561197996786353,"connected_time":5603000000000,"state":"active","ping":74},{"user_id":596,"name":"whimsmas.","steam_id":76561198878171763,"connected_time":6045000000000,"state":"active","ping":55},{"user_id":649,"name":"‚ô•‡∂ûlily‡∂û‚ô•","steam_id":76561198049840460,"connected_time":2382000000000,"state":"active","ping":50},{"user_id":627,"name":"Mango","steam_id":76561198139555709,"connected_time":3938000000000,"state":"active","ping":55},{"user_id":655,"name":"Zoran Snajper","steam_id":76561198312564061,"connected_time":1372000000000,"state":"active","ping":75},{"user_id":626,"name":"RedFragment","steam_id":76561198147492385,"connected_time":3962000000000,"state":"active","ping":43},{"user_id":585,"name":"Cabbch","steam_id":76561198045955679,"connected_time":7234000000000,"state":"active","ping":45},{"user_id":661,"name":"BadFemboy","steam_id":76561198072320671,"connected_time":708000000000,"state":"active","ping":34},{"user_id":597,"name":"Sad Slut","steam_id":76561198838277022,"connected_time":5878000000000,"state":"active","ping":73},{"user_id":628,"name":"Piteras","steam_id":76561198858532207,"connected_time":3809000000000,"state":"active","ping":81},{"user_id":581,"name":"merry beebo","steam_id":76561199120277007,"connected_time":7408000000000,"state":"active","ping":39},{"user_id":657,"name":"Steen","steam_id":76561198122992510,"connected_time":1345000000000,"state":"active","ping":45},{"user_id":663,"name":"chrissy","steam_id":76561198096547662,"connected_time":87000000000,"state":"active","ping":58},{"user_id":653,"name":"festivized goth girl","steam_id":76561198118989010,"connected_time":1979000000000,"state":"active","ping":46},{"user_id":548,"name":"festive jones","steam_id":76561198073975078,"connected_time":9503000000000,"state":"active","ping":46},{"user_id":662,"name":"Gety0","steam_id":76561198044387185,"connected_time":463000000000,"state":"active","ping":75},{"user_id":652,"name":"mat","steam_id":76561198824697295,"connected_time":2024000000000,"state":"active","ping":90},{"user_id":620,"name":"Bones","steam_id":76561198065081225,"connected_time":4567000000000,"state":"active","ping":41},{"user_id":664,"name":"christmasEmmy","steam_id":76561198066298422,"connected_time":56000000000,"state":"spawning","ping":168},{"user_id":621,"name":"Gnarville","steam_id":76561198006373329,"connected_time":4429000000000,"state":"active","ping":44},{"user_id":646,"name":"Dale ‚ù§","steam_id":76561197995189004,"connected_time":2531000000000,"state":"active","ping":59},{"user_id":648,"name":"Owlet","steam_id":76561198065613974,"connected_time":2409000000000,"state":"active","ping":66}]},{"server_id":114,"name":"Uncletopia | London | 2 | All Maps","name_short":"lon-2","host":"lon-1.uk.uncletopia.com","port":27025,"enabled":true,"region":"eu","cc":"gb","latitude":51.509865,"longitude":-0.118092,"reserved":0,"last_update":"0001-01-01T00:00:00Z","name_a2s":"Uncletopia | London | 2 | All Maps","protocol":17,"map":"cp_dustbowl","folder":"tf","game":"Team Fortress","app_id":440,"player_count":0,"max_players":24,"Bots":0,"server_type":"Dedicated","server_os":"Linux","password":true,"vac":true,"version":"7695204","steam_id":85568392924470941,"keywords":["cp","nocrits","nodmgspread","uncletopia"],"game_id":440,"stv_port":27026,"stv_name":"Uncletopia | London | 2 | All Maps | STV","players":null},{"server_id":320,"name":"Uncletopia | London | 3 | All Maps","name_short":"lon-3","host":"lon-1.uk.uncletopia.com","port":27035,"enabled":true,"region":"eu","cc":"gb","latitude":51.509865,"longitude":-0.118092,"reserved":0,"last_update":"0001-01-01T00:00:00Z","name_a2s":"Uncletopia | London | 3 | All Maps","protocol":17,"map":"pl_pier","folder":"tf","game":"Team Fortress","app_id":440,"player_count":24,"max_players":24,"Bots":0,"server_type":"Dedicated","server_os":"Linux","password":true,"vac":true,"version":"7695204","steam_id":85568392924510192,"keywords":["nocrits","nodmgspread","payload","uncletopia"],"game_id":440,"stv_port":27036,"stv_name":"Uncletopia | London | 3 | All Maps | STV","players":[{"user_id":859,"name":"jams","steam_id":76561198010380786,"connected_time":580000000000,"state":"active","ping":45},{"user_id":857,"name":"Foot Fighters","steam_id":76561199173022572,"connected_time":1536000000000,"state":"active","ping":148},{"user_id":860,"name":"Rudebwoyyy","steam_id":76561199387956486,"connected_time":562000000000,"state":"active","ping":57},{"user_id":861,"name":"Eden","steam_id":76561198180281859,"connected_time":511000000000,"state":"active","ping":61},{"user_id":801,"name":"Quartermistress","steam_id":76561198140199123,"connected_time":5807000000000,"state":"active","ping":36},{"user_id":862,"name":"Economic crisis","steam_id":76561198063562843,"connected_time":495000000000,"state":"active","ping":61},{"user_id":851,"name":"yazub","steam_id":76561199095742895,"connected_time":1960000000000,"state":"active","ping":155},{"user_id":863,"name":"Garfield","steam_id":76561198047209790,"connected_time":450000000000,"state":"active","ping":44},{"user_id":832,"name":"Darky","steam_id":76561198004733239,"connected_time":4407000000000,"state":"active","ping":43},{"user_id":864,"name":"calum92","steam_id":76561197992188760,"connected_time":394000000000,"state":"active","ping":64},{"user_id":834,"name":"Weeb","steam_id":76561198297928869,"connected_time":4375000000000,"state":"active","ping":45},{"user_id":865,"name":"cu_tee_x","steam_id":76561198355788237,"connected_time":381000000000,"state":"active","ping":49},{"user_id":855,"name":"gremlin GOD","steam_id":76561198169972571,"connected_time":1599000000000,"state":"active","ping":56},{"user_id":866,"name":"Mondocane","steam_id":76561199233979726,"connected_time":374000000000,"state":"active","ping":92},{"user_id":867,"name":"w+m1","steam_id":76561198010428082,"connected_time":340000000000,"state":"active","ping":78},{"user_id":868,"name":"Joomig","steam_id":76561198798066767,"connected_time":318000000000,"state":"active","ping":59},{"user_id":871,"name":"amen, gr","steam_id":76561198088201976,"connected_time":226000000000,"state":"active","ping":39},{"user_id":870,"name":"order66.exe","steam_id":76561198057558449,"connected_time":313000000000,"state":"active","ping":50},{"user_id":841,"name":"Hansiboo","steam_id":76561198332823809,"connected_time":3842000000000,"state":"active","ping":50},{"user_id":686,"name":"pryate","steam_id":76561198135960359,"connected_time":14538000000000,"state":"active","ping":37},{"user_id":854,"name":"RealNeato","steam_id":76561198050515739,"connected_time":1862000000000,"state":"active","ping":51},{"user_id":837,"name":"Prox","steam_id":76561197982874458,"connected_time":4328000000000,"state":"active","ping":63},{"user_id":838,"name":"BD[PL]","steam_id":76561198115995871,"connected_time":4265000000000,"state":"active","ping":87},{"user_id":858,"name":"god","steam_id":76561198095681561,"connected_time":1408000000000,"state":"active","ping":99}]},{"server_id":321,"name":"Uncletopia | London | 4 | All Maps","name_short":"lon-4","host":"lon-1.uk.uncletopia.com","port":27045,"enabled":true,"region":"eu","cc":"gb","latitude":51.509865,"longitude":-0.118092,"reserved":0,"last_update":"0001-01-01T00:00:00Z","name_a2s":"Uncletopia | London | 4 | All Maps","protocol":17,"map":"pl_snowycoast","folder":"tf","game":"Team Fortress","app_id":440,"player_count":24,"max_players":24,"Bots":0,"server_type":"Dedicated","server_os":"Linux","password":true,"vac":true,"version":"7695204","steam_id":85568392924510193,"keywords":["nocrits","nodmgspread","payload","uncletopia"],"game_id":440,"stv_port":27046,"stv_name":"Uncletopia | London | 4 | All Maps | STV","players":[{"user_id":221,"name":"Beanbag","steam_id":76561198121061559,"connected_time":139000000000,"state":"active","ping":147},{"user_id":209,"name":"gajo","steam_id":76561199172260370,"connected_time":767000000000,"state":"active","ping":73},{"user_id":207,"name":"cagi","steam_id":76561198059806422,"connected_time":871000000000,"state":"active","ping":62},{"user_id":212,"name":",","steam_id":76561199174579733,"connected_time":601000000000,"state":"active","ping":130},{"user_id":222,"name":"Billy Genie","steam_id":76561198061724014,"connected_time":131000000000,"state":"active","ping":38},{"user_id":225,"name":"sit","steam_id":76561198119534303,"connected_time":91000000000,"state":"active","ping":48},{"user_id":191,"name":"the state of michigan (liquid)","steam_id":76561198846784757,"connected_time":1844000000000,"state":"active","ping":53},{"user_id":211,"name":"john fluidmasterballwasher doe","steam_id":76561199006462039,"connected_time":662000000000,"state":"active","ping":66},{"user_id":214,"name":"daimao622","steam_id":76561198042082838,"connected_time":488000000000,"state":"active","ping":62},{"user_id":194,"name":"T K","steam_id":76561198134256917,"connected_time":1765000000000,"state":"active","ping":68},{"user_id":215,"name":"bubblojoe","steam_id":76561198044534119,"connected_time":471000000000,"state":"active","ping":60},{"user_id":179,"name":"Kronixos","steam_id":76561199041303937,"connected_time":2347000000000,"state":"active","ping":61},{"user_id":216,"name":"random_player691","steam_id":76561199209946306,"connected_time":402000000000,"state":"active","ping":53},{"user_id":200,"name":"Aaron","steam_id":76561197990046953,"connected_time":1210000000000,"state":"active","ping":54},{"user_id":217,"name":"1 rayteon fan","steam_id":76561198393698349,"connected_time":399000000000,"state":"active","ping":31},{"user_id":218,"name":"SnickerK√∂ning","steam_id":76561198062553790,"connected_time":350000000000,"state":"active","ping":41},{"user_id":219,"name":"gamer","steam_id":76561198052344629,"connected_time":196000000000,"state":"active","ping":32},{"user_id":220,"name":"Ghost of pl_frontier","steam_id":76561198040444697,"connected_time":182000000000,"state":"active","ping":113},{"user_id":223,"name":"E1s","steam_id":76561198894958917,"connected_time":128000000000,"state":"active","ping":60},{"user_id":224,"name":"val","steam_id":76561198324316160,"connected_time":127000000000,"state":"active","ping":55},{"user_id":196,"name":"nejurnia","steam_id":76561198010360372,"connected_time":1611000000000,"state":"active","ping":60},{"user_id":193,"name":"tralalaOuiOui","steam_id":76561197963471507,"connected_time":1809000000000,"state":"active","ping":50},{"user_id":226,"name":"tweechie","steam_id":76561198213062408,"connected_time":72000000000,"state":"active","ping":65},{"user_id":227,"name":"CAMON ENGELAND","steam_id":76561198054301125,"connected_time":33000000000,"state":"active","ping":85}]},{"server_id":21,"name":"Uncletopia | London | 5 | All Maps","name_short":"lon-5","host":"lon-1.uk.uncletopia.com","port":27055,"enabled":true,"region":"eu","cc":"gb","latitude":51.509865,"longitude":-0.118092,"reserved":0,"last_update":"0001-01-01T00:00:00Z","name_a2s":"Uncletopia | London | 5 | All Maps","protocol":17,"map":"pl_borneo","folder":"tf","game":"Team Fortress","app_id":440,"player_count":0,"max_players":24,"Bots":0,"server_type":"Dedicated","server_os":"Linux","password":true,"vac":true,"version":"7695204","steam_id":85568392924742829,"keywords":["nocrits","nodmgspread","payload","uncletopia"],"game_id":440,"stv_port":27056,"stv_name":"Uncletopia | London | 5 | All Maps | STV","players":null},{"server_id":22,"name":"Uncletopia | London | 6 | All Maps","name_short":"lon-6","host":"lon-1.uk.uncletopia.com","port":27065,"enabled":true,"region":"eu","cc":"gb","latitude":51.509865,"longitude":-0.118092,"reserved":0,"last_update":"0001-01-01T00:00:00Z","name_a2s":"Uncletopia | London | 6 | All Maps","protocol":17,"map":"cp_gorge","folder":"tf","game":"Team Fortress","app_id":440,"player_count":24,"max_players":24,"Bots":0,"server_type":"Dedicated","server_os":"Linux","password":true,"vac":true,"version":"7695204","steam_id":85568392924742830,"keywords":["cp","nocrits","nodmgspread","uncletopia"],"game_id":440,"stv_port":27066,"stv_name":"Uncletopia | London | 6 | All Maps | STV","players":[{"user_id":339,"name":"Dr.Disrespect","steam_id":76561198043820228,"connected_time":291000000000,"state":"active","ping":61},{"user_id":313,"name":"ball sniffer","steam_id":76561199022705805,"connected_time":2005000000000,"state":"active","ping":46},{"user_id":340,"name":"Frank","steam_id":76561198086672774,"connected_time":269000000000,"state":"active","ping":43},{"user_id":337,"name":"A delicious Ph√¥","steam_id":76561198859709451,"connected_time":381000000000,"state":"active","ping":44},{"user_id":254,"name":"Tengu","steam_id":76561198024146649,"connected_time":7221000000000,"state":"active","ping":42},{"user_id":263,"name":"The Tengu Wrangler","steam_id":76561198138560080,"connected_time":5999000000000,"state":"active","ping":143},{"user_id":303,"name":"Mega","steam_id":76561197970389664,"connected_time":2805000000000,"state":"active","ping":61},{"user_id":334,"name":"Gbus","steam_id":76561198072335838,"connected_time":800000000000,"state":"active","ping":50},{"user_id":347,"name":"luser","steam_id":76561199186893169,"connected_time":137000000000,"state":"active","ping":143},{"user_id":341,"name":"Xbox Live","steam_id":76561198012263719,"connected_time":222000000000,"state":"active","ping":75},{"user_id":349,"name":"Samus","steam_id":76561198045943019,"connected_time":44000000000,"state":"active","ping":64},{"user_id":335,"name":"help","steam_id":76561199056338917,"connected_time":452000000000,"state":"active","ping":153},{"user_id":259,"name":"pandeux","steam_id":76561198343527617,"connected_time":6462000000000,"state":"active","ping":66},{"user_id":274,"name":"Glass Kon","steam_id":76561198000042666,"connected_time":5066000000000,"state":"active","ping":129},{"user_id":312,"name":"63756d","steam_id":76561198808699024,"connected_time":2106000000000,"state":"active","ping":71},{"user_id":309,"name":"csnipery","steam_id":76561199435280050,"connected_time":2539000000000,"state":"active","ping":77},{"user_id":343,"name":"Captain Alex","steam_id":76561198876918502,"connected_time":196000000000,"state":"active","ping":116},{"user_id":344,"name":"Korki","steam_id":76561198146829203,"connected_time":191000000000,"state":"active","ping":72},{"user_id":329,"name":"Wake","steam_id":76561198989166237,"connected_time":1333000000000,"state":"active","ping":63},{"user_id":345,"name":"Ferore","steam_id":76561198152824336,"connected_time":179000000000,"state":"active","ping":46},{"user_id":346,"name":"I HATE THE ANTI-CHRIST","steam_id":76561198106441033,"connected_time":150000000000,"state":"active","ping":90},{"user_id":333,"name":"Lewylow","steam_id":76561198005425686,"connected_time":1008000000000,"state":"active","ping":68},{"user_id":348,"name":"“ì√âire","steam_id":76561199174322517,"connected_time":75000000000,"state":"active","ping":47},{"user_id":331,"name":"JustNoSkill","steam_id":76561198399115995,"connected_time":1259000000000,"state":"active","ping":121}]},{"server_id":40,"name":"Uncletopia | London | 7 | No Payload","name_short":"lon-7","host":"lon-1.uk.uncletopia.com","port":27075,"enabled":true,"region":"eu","cc":"gb","latitude":51.509865,"longitude":-0.118092,"reserved":0,"last_update":"0001-01-01T00:00:00Z","name_a2s":"Uncletopia | London | 7 | No Payload","protocol":17,"map":"koth_lakeside_final","folder":"tf","game":"Team Fortress","app_id":440,"player_count":0,"max_players":24,"Bots":0,"server_type":"Dedicated","server_os":"Linux","password":true,"vac":true,"version":"7695204","steam_id":85568392924964314,"keywords":["cp","nocrits","nodmgspread","uncletopia"],"game_id":440,"stv_port":27076,"stv_name":"Uncletopia | London | 7 | No Payload | STV","players":null},{"server_id":41,"name":"Uncletopia | London | 8 | Community","name_short":"lon-8","host":"lon-1.uk.uncletopia.com","port":27085,"enabled":true,"region":"eu","cc":"gb","latitude":51.509865,"longitude":-0.118092,"reserved":0,"last_update":"0001-01-01T00:00:00Z","name_a2s":"Uncletopia | London | 8 | Community","protocol":17,"map":"workshop/koth_slaughter_rc1.ugc1712845210","folder":"tf","game":"Team Fortress","app_id":440,"player_count":0,"max_players":24,"Bots":0,"server_type":"Dedicated","server_os":"Linux","password":true,"vac":true,"version":"7695204","steam_id":85568392924964315,"keywords":["cp","nocrits","nodmgspread","uncletopia"],"game_id":440,"stv_port":27086,"stv_name":"Uncletopia | London | 8 | Community | STV","players":null},{"server_id":300,"name":"Uncletopia | Montr√©al | 1 | All Maps","name_short":"mtl-1","host":"mtl-1.ca.uncletopia.com","port":27015,"enabled":true,"region":"us-east","cc":"ca","latitude":45.50889,"longitude":-73.56167,"reserved":0,"last_update":"0001-01-01T00:00:00Z","name_a2s":"Uncletopia | Montr√©al | 1 | All Maps","protocol":17,"map":"koth_highpass","folder":"tf","game":"Team Fortress","app_id":440,"player_count":0,"max_players":24,"Bots":0,"server_type":"Dedicated","server_os":"Linux","password":true,"vac":true,"version":"7695204","steam_id":85568392924500087,"keywords":["cp","nocrits","nodmgspread","uncletopia"],"game_id":440,"stv_port":27016,"stv_name":"Uncletopia | Montr√©al | 1 | All Maps | STV","players":null},{"server_id":301,"name":"Uncletopia | Montr√©al | 2 | All Maps","name_short":"mtl-2","host":"mtl-1.ca.uncletopia.com","port":27025,"enabled":true,"region":"us-east","cc":"ca","latitude":45.50889,"longitude":-73.56167,"reserved":0,"last_update":"0001-01-01T00:00:00Z","name_a2s":"Uncletopia | Montr√©al | 2 | All Maps","protocol":17,"map":"koth_viaduct","folder":"tf","game":"Team Fortress","app_id":440,"player_count":0,"max_players":24,"Bots":0,"server_type":"Dedicated","server_os":"Linux","password":true,"vac":true,"version":"7695204","steam_id":85568392924500088,"keywords":["cp","nocrits","nodmgspread","uncletopia"],"game_id":440,"stv_port":27026,"stv_name":"Uncletopia | Montr√©al | 2 | All Maps | STV","players":null},{"server_id":302,"name":"Uncletopia | Montr√©al | 3 | All Maps","name_short":"mtl-3","host":"mtl-1.ca.uncletopia.com","port":27035,"enabled":true,"region":"us-east","cc":"ca","latitude":45.50889,"longitude":-73.56167,"reserved":0,"last_update":"0001-01-01T00:00:00Z","name_a2s":"Uncletopia | Montr√©al | 3 | All Maps","protocol":17,"map":"koth_viaduct","folder":"tf","game":"Team Fortress","app_id":440,"player_count":0,"max_players":24,"Bots":0,"server_type":"Dedicated","server_os":"Linux","password":true,"vac":true,"version":"7695204","steam_id":85568392924500089,"keywords":["cp","nocrits","nodmgspread","uncletopia"],"game_id":440,"stv_port":0,"stv_name":"","players":null},{"server_id":303,"name":"Uncletopia | Montr√©al | 4 | No Payload","name_short":"mtl-4","host":"mtl-1.ca.uncletopia.com","port":27045,"enabled":true,"region":"us-east","cc":"ca","latitude":45.50889,"longitude":-73.56167,"reserved":0,"last_update":"0001-01-01T00:00:00Z","name_a2s":"Uncletopia | Montr√©al | 4 | No Payload","protocol":17,"map":"plr_nightfall_final","folder":"tf","game":"Team Fortress","app_id":440,"player_count":0,"max_players":24,"Bots":0,"server_type":"Dedicated","server_os":"Linux","password":true,"vac":true,"version":"7695204","steam_id":85568392924500090,"keywords":["nocrits","nodmgspread","payload","uncletopia"],"game_id":440,"stv_port":27046,"stv_name":"Uncletopia | Montr√©al | 4 | No Payload | STV","players":null},{"server_id":13,"name":"Uncletopia | New York City | 1 | All Maps","name_short":"nyc-1","host":"nyc-1.us.uncletopia.com","port":27015,"enabled":true,"region":"us-east","cc":"us","latitude":40.73061,"longitude":-73.93524,"reserved":0,"last_update":"0001-01-01T00:00:00Z","name_a2s":"Uncletopia | New York City | 1 | All Maps","protocol":17,"map":"pl_upward","folder":"tf","game":"Team Fortress","app_id":440,"player_count":23,"max_players":24,"Bots":0,"server_type":"Dedicated","server_os":"Linux","password":true,"vac":true,"version":"7695204","steam_id":85568392924469993,"keywords":["nocrits","nodmgspread","payload","uncletopia"],"game_id":440,"stv_port":27016,"stv_name":"Uncletopia | New York City | 1 | All Maps | STV","players":[{"user_id":403,"name":"Miramar","steam_id":76561198022057653,"connected_time":2150000000000,"state":"active","ping":69},{"user_id":407,"name":"Ddonut gamer","steam_id":76561198858852245,"connected_time":1613000000000,"state":"active","ping":117},{"user_id":430,"name":"CaptainAwesome","steam_id":76561198030377233,"connected_time":413000000000,"state":"active","ping":102},{"user_id":433,"name":"Censure","steam_id":76561198850891374,"connected_time":239000000000,"state":"active","ping":46},{"user_id":429,"name":"--_Cook_--","steam_id":76561198080855748,"connected_time":694000000000,"state":"active","ping":45},{"user_id":417,"name":"BNTF","steam_id":76561198062740087,"connected_time":1172000000000,"state":"active","ping":75},{"user_id":434,"name":"Alice in Rubberland","steam_id":76561198087328346,"connected_time":53000000000,"state":"active","ping":61},{"user_id":418,"name":"H0rr0rH0g","steam_id":76561199389376127,"connected_time":1143000000000,"state":"active","ping":123},{"user_id":428,"name":"Essentially_Someone","steam_id":76561199435588199,"connected_time":740000000000,"state":"active","ping":81},{"user_id":435,"name":"LW | [wrd]HaloLagann","steam_id":76561198047561568,"connected_time":47000000000,"state":"active","ping":45},{"user_id":393,"name":"Godmode","steam_id":76561198076240365,"connected_time":2400000000000,"state":"active","ping":71},{"user_id":405,"name":"All 24 Pok√©mon movies at once","steam_id":76561198164738311,"connected_time":1970000000000,"state":"active","ping":77},{"user_id":357,"name":"Uncle Kalashnikov","steam_id":76561198028608120,"connected_time":4277000000000,"state":"active","ping":61},{"user_id":388,"name":"Eviscerator","steam_id":76561197980073637,"connected_time":2488000000000,"state":"active","ping":86},{"user_id":421,"name":"squirtlegend88","steam_id":76561198099452746,"connected_time":1062000000000,"state":"active","ping":84},{"user_id":436,"name":"Greg","steam_id":76561198803498467,"connected_time":43000000000,"state":"active","ping":120},{"user_id":431,"name":"lol emoji","steam_id":76561198072796208,"connected_time":409000000000,"state":"active","ping":128},{"user_id":437,"name":"sleepy","steam_id":76561198450003554,"connected_time":16000000000,"state":"active","ping":73},{"user_id":427,"name":"Big Thrust","steam_id":76561198038173702,"connected_time":758000000000,"state":"active","ping":64},{"user_id":438,"name":"werfu","steam_id":76561198154065888,"connected_time":4000000000,"state":"spawning","ping":58},{"user_id":426,"name":"Monkey","steam_id":76561198031015186,"connected_time":924000000000,"state":"active","ping":50},{"user_id":402,"name":"Slondermin","steam_id":76561198320301349,"connected_time":2151000000000,"state":"active","ping":48},{"user_id":424,"name":"Loyal Goon","steam_id":76561198056343341,"connected_time":981000000000,"state":"active","ping":67}]},{"server_id":14,"name":"Uncletopia | New York City | 2 | All Maps","name_short":"nyc-2","host":"nyc-1.us.uncletopia.com","port":27025,"enabled":true,"region":"us-east","cc":"us","latitude":40.73061,"longitude":-73.93524,"reserved":0,"last_update":"0001-01-01T00:00:00Z","name_a2s":"Uncletopia | New York City | 2 | All Maps","protocol":17,"map":"cp_steel","folder":"tf","game":"Team Fortress","app_id":440,"player_count":24,"max_players":24,"Bots":0,"server_type":"Dedicated","server_os":"Linux","password":true,"vac":true,"version":"7695204","steam_id":85568392924469994,"keywords":["cp","nocrits","nodmgspread","uncletopia"],"game_id":440,"stv_port":27026,"stv_name":"Uncletopia | New York City | 2 | All Maps | STV","players":[{"user_id":328,"name":"Karma","steam_id":76561198030565234,"connected_time":425000000000,"state":"active","ping":46},{"user_id":298,"name":"p00l","steam_id":76561198060142652,"connected_time":1951000000000,"state":"active","ping":46},{"user_id":332,"name":"M17","steam_id":76561198124771378,"connected_time":121000000000,"state":"active","ping":44},{"user_id":331,"name":"halls enthusiast [XJAY]","steam_id":76561198283669604,"connected_time":209000000000,"state":"active","ping":74},{"user_id":321,"name":"ThePirateKenway","steam_id":76561198115156181,"connected_time":817000000000,"state":"active","ping":85},{"user_id":318,"name":"Kelpy","steam_id":76561198294906383,"connected_time":1134000000000,"state":"active","ping":58},{"user_id":299,"name":"Fewny","steam_id":76561198225977000,"connected_time":1878000000000,"state":"active","ping":68},{"user_id":316,"name":"Hector Salamanca","steam_id":76561198093836635,"connected_time":1517000000000,"state":"active","ping":118},{"user_id":315,"name":"toastman","steam_id":76561198207073088,"connected_time":1573000000000,"state":"active","ping":75},{"user_id":300,"name":"xd Clover","steam_id":76561198038905361,"connected_time":1870000000000,"state":"active","ping":47},{"user_id":333,"name":"tOMA","steam_id":76561198075583376,"connected_time":73000000000,"state":"active","ping":80},{"user_id":277,"name":"eldritchsigns","steam_id":76561198380930571,"connected_time":4167000000000,"state":"active","ping":88},{"user_id":323,"name":"Scita","steam_id":76561198066861559,"connected_time":650000000000,"state":"active","ping":54},{"user_id":261,"name":"Expert Scrunger","steam_id":76561198799293845,"connected_time":5223000000000,"state":"active","ping":93},{"user_id":273,"name":"RedNax","steam_id":76561198427967575,"connected_time":4573000000000,"state":"active","ping":86},{"user_id":303,"name":"DuckyDave","steam_id":76561199080644355,"connected_time":1850000000000,"state":"active","ping":76},{"user_id":325,"name":"Jeemers ;P","steam_id":76561198880573799,"connected_time":557000000000,"state":"active","ping":81},{"user_id":308,"name":"s0ng","steam_id":76561198087456578,"connected_time":1736000000000,"state":"active","ping":61},{"user_id":334,"name":"Xbox_Pro_2016","steam_id":76561198176126519,"connected_time":41000000000,"state":"active","ping":52},{"user_id":335,"name":"‚ô•SoaringSnail‚ô•","steam_id":76561198038397374,"connected_time":29000000000,"state":"active","ping":76},{"user_id":330,"name":"goo addict","steam_id":76561198036108965,"connected_time":281000000000,"state":"active","ping":49},{"user_id":336,"name":"Floattube","steam_id":76561198005720144,"connected_time":16000000000,"state":"spawning","ping":83},{"user_id":329,"name":"MrBajaBlast","steam_id":76561199052471047,"connected_time":425000000000,"state":"active","ping":75},{"user_id":317,"name":"CuSO4","steam_id":76561199278147589,"connected_time":1515000000000,"state":"active","ping":41}]},{"server_id":15,"name":"Uncletopia | New York City | 3 | All Maps","name_short":"nyc-3","host":"nyc-1.us.uncletopia.com","port":27035,"enabled":true,"region":"us-east","cc":"us","latitude":40.73061,"longitude":-73.93524,"reserved":0,"last_update":"0001-01-01T00:00:00Z","name_a2s":"Uncletopia | New York City | 3 | All Maps","protocol":17,"map":"koth_lakeside_final","folder":"tf","game":"Team Fortress","app_id":440,"player_count":0,"max_players":24,"Bots":0,"server_type":"Dedicated","server_os":"Linux","password":true,"vac":true,"version":"7695204","steam_id":85568392924742820,"keywords":["cp","nocrits","nodmgspread","uncletopia"],"game_id":440,"stv_port":27036,"stv_name":"Uncletopia | New York City | 3 | All Maps | STV","players":null},{"server_id":16,"name":"Uncletopia | New York City | 4 | Community","name_short":"nyc-4","host":"nyc-1.us.uncletopia.com","port":27045,"enabled":true,"region":"us-east","cc":"us","latitude":40.73061,"longitude":-73.93524,"reserved":0,"last_update":"0001-01-01T00:00:00Z","name_a2s":"Uncletopia | New York City | 4 | Community","protocol":17,"map":"workshop/cp_overgrown_rc7b.ugc503939302","folder":"tf","game":"Team Fortress","app_id":440,"player_count":24,"max_players":24,"Bots":0,"server_type":"Dedicated","server_os":"Linux","password":true,"vac":true,"version":"7695204","steam_id":85568392924742821,"keywords":["cp","nocrits","nodmgspread","uncletopia"],"game_id":440,"stv_port":27046,"stv_name":"Uncletopia | New York City | 4 | Community | STV","players":[{"user_id":146,"name":"Yse","steam_id":76561198844464681,"connected_time":676000000000,"state":"active","ping":57},{"user_id":92,"name":"\"InsertWittyNameHere\"","steam_id":76561198273918841,"connected_time":3853000000000,"state":"active","ping":57},{"user_id":132,"name":"Rock Kickass","steam_id":76561198450510841,"connected_time":978000000000,"state":"active","ping":125},{"user_id":143,"name":"A Pigeon","steam_id":76561198380671480,"connected_time":768000000000,"state":"active","ping":78},{"user_id":133,"name":"daddabob12","steam_id":76561198414515070,"connected_time":966000000000,"state":"active","ping":150},{"user_id":144,"name":"Rusted Cake","steam_id":76561198209755931,"connected_time":735000000000,"state":"active","ping":103},{"user_id":129,"name":"Fat Man","steam_id":76561198118957055,"connected_time":1039000000000,"state":"active","ping":38},{"user_id":112,"name":"crippling fumo addiction","steam_id":76561198115874625,"connected_time":2004000000000,"state":"active","ping":52},{"user_id":140,"name":"enderhendrix","steam_id":76561198124206574,"connected_time":835000000000,"state":"active","ping":59},{"user_id":119,"name":"aimee","steam_id":76561198834309212,"connected_time":1616000000000,"state":"active","ping":54},{"user_id":121,"name":"Bumbo Blast","steam_id":76561198061498882,"connected_time":1559000000000,"state":"active","ping":61},{"user_id":122,"name":"Kick Down Door 6:00AM TUCK‚òÉRO","steam_id":76561197976146738,"connected_time":1520000000000,"state":"active","ping":84},{"user_id":136,"name":"Jules","steam_id":76561199065191952,"connected_time":907000000000,"state":"active","ping":91},{"user_id":150,"name":"kayky21","steam_id":76561198330638899,"connected_time":397000000000,"state":"active","ping":117},{"user_id":141,"name":"flyingcube","steam_id":76561197960865187,"connected_time":821000000000,"state":"active","ping":63},{"user_id":123,"name":"MichelangeloStark","steam_id":76561197976489900,"connected_time":1518000000000,"state":"active","ping":81},{"user_id":90,"name":"rato","steam_id":76561198993641831,"connected_time":4527000000000,"state":"active","ping":54},{"user_id":147,"name":"cblu","steam_id":76561199207457676,"connected_time":639000000000,"state":"active","ping":97},{"user_id":138,"name":"Chechens Spotted","steam_id":76561199028910893,"connected_time":896000000000,"state":"active","ping":67},{"user_id":77,"name":"Ace Chromatica","steam_id":76561198042211131,"connected_time":5827000000000,"state":"active","ping":83},{"user_id":125,"name":"vekinuma","steam_id":76561198946972267,"connected_time":1449000000000,"state":"active","ping":61},{"user_id":142,"name":"TF2's 1st Openly Gay Character","steam_id":76561198066540238,"connected_time":818000000000,"state":"active","ping":71},{"user_id":149,"name":"Gorg Wason","steam_id":76561198086556424,"connected_time":532000000000,"state":"active","ping":42},{"user_id":82,"name":"picolol","steam_id":76561198249598784,"connected_time":5636000000000,"state":"active","ping":125}]},{"server_id":142,"name":"Uncletopia | S√£o Paulo | 1 | All Maps","name_short":"sao-1","host":"sao-1.br.uncletopia.com","port":27015,"enabled":true,"region":"sa","cc":"br","latitude":-23.533773,"longitude":-46.62529,"reserved":0,"last_update":"0001-01-01T00:00:00Z","name_a2s":"Uncletopia | S√£o Paulo | 1 | All Maps","protocol":17,"map":"koth_highpass","folder":"tf","game":"Team Fortress","app_id":440,"player_count":1,"max_players":24,"Bots":0,"server_type":"Dedicated","server_os":"Linux","password":true,"vac":true,"version":"7695204","steam_id":85568392924469996,"keywords":["cp","nocrits","nodmgspread","uncletopia"],"game_id":440,"stv_port":27016,"stv_name":"Uncletopia | S√£o Paulo | 1 | All Maps | STV","players":[{"user_id":64,"name":"CJAIME01345","steam_id":76561199091599141,"connected_time":32000000000,"state":"active","ping":86}]},{"server_id":143,"name":"Uncletopia | S√£o Paulo | 2 | All Maps","name_short":"sao-2","host":"sao-2.br.uncletopia.com","port":27015,"enabled":true,"region":"sa","cc":"br","latitude":-23.533773,"longitude":-46.62529,"reserved":0,"last_update":"0001-01-01T00:00:00Z","name_a2s":"Uncletopia | S√£o Paulo | 2 | All Maps","protocol":17,"map":"cp_snakewater_final1","folder":"tf","game":"Team Fortress","app_id":440,"player_count":24,"max_players":24,"Bots":0,"server_type":"Dedicated","server_os":"Linux","password":true,"vac":true,"version":"7695204","steam_id":85568392924485349,"keywords":["cp","nocrits","nodmgspread","uncletopia"],"game_id":440,"stv_port":27016,"stv_name":"Uncletopia | S√£o Paulo | 2 | All Maps | STV","players":[{"user_id":284,"name":"Gogoyle50","steam_id":76561198148524228,"connected_time":1718000000000,"state":"active","ping":54},{"user_id":221,"name":"Jumpman","steam_id":76561198069655588,"connected_time":6655000000000,"state":"active","ping":110},{"user_id":295,"name":"NenF | Yatosemtato","steam_id":76561199066360306,"connected_time":775000000000,"state":"active","ping":86},{"user_id":285,"name":"Lockz","steam_id":76561198245478154,"connected_time":1606000000000,"state":"active","ping":42},{"user_id":307,"name":"Leo","steam_id":76561198146075321,"connected_time":499000000000,"state":"active","ping":47},{"user_id":283,"name":"ayumi","steam_id":76561197977365746,"connected_time":1751000000000,"state":"active","ping":45},{"user_id":300,"name":"yrk","steam_id":76561198332577325,"connected_time":735000000000,"state":"active","ping":45},{"user_id":250,"name":"Pathetic","steam_id":76561198051056987,"connected_time":4813000000000,"state":"active","ping":60},{"user_id":187,"name":"F‚ôØ A‚ôØ ‚àû","steam_id":76561198118943620,"connected_time":10248000000000,"state":"active","ping":39},{"user_id":254,"name":"ped","steam_id":76561198102185886,"connected_time":4608000000000,"state":"active","ping":45},{"user_id":306,"name":"SPYRYTTS","steam_id":76561197983312920,"connected_time":591000000000,"state":"active","ping":60},{"user_id":240,"name":"MarcV","steam_id":76561198329742255,"connected_time":5502000000000,"state":"active","ping":52},{"user_id":244,"name":"mimimito","steam_id":76561198002565927,"connected_time":5000000000000,"state":"active","ping":44},{"user_id":290,"name":"Cherry Cupcake","steam_id":76561198012448942,"connected_time":1480000000000,"state":"active","ping":45},{"user_id":236,"name":"Wlamimir","steam_id":76561198060832275,"connected_time":5751000000000,"state":"active","ping":85},{"user_id":255,"name":"CRIMSON VIBES","steam_id":76561198866969619,"connected_time":4605000000000,"state":"active","ping":57},{"user_id":308,"name":"afiliado gold hotmart","steam_id":76561198095813297,"connected_time":216000000000,"state":"active","ping":86},{"user_id":302,"name":"Yogurt male","steam_id":76561198339348223,"connected_time":672000000000,"state":"active","ping":44},{"user_id":262,"name":"VÃ¥ÕõÃíÕÉÃ¢ÃòÕï_Rupt","steam_id":76561198056688070,"connected_time":3854000000000,"state":"active","ping":60},{"user_id":219,"name":"Pistoleiro Sem Dedo","steam_id":76561198050492991,"connected_time":6718000000000,"state":"active","ping":63},{"user_id":298,"name":"Pendrive is Insane","steam_id":76561199427354854,"connected_time":761000000000,"state":"active","ping":47},{"user_id":266,"name":"debossan","steam_id":76561198072814766,"connected_time":2699000000000,"state":"active","ping":42},{"user_id":304,"name":"Mujet","steam_id":76561198063542912,"connected_time":660000000000,"state":"active","ping":46},{"user_id":207,"name":"Heisenmatt","steam_id":76561198308358530,"connected_time":7363000000000,"state":"active","ping":53}]},{"server_id":7,"name":"Uncletopia | Seattle | 1 | All Maps","name_short":"sea-1","host":"sea-1.us.uncletopia.com","port":27015,"enabled":true,"region":"us-west","cc":"us","latitude":47.608013,"longitude":-122.33517,"reserved":0,"last_update":"0001-01-01T00:00:00Z","name_a2s":"Uncletopia | Seattle | 1 | All Maps","protocol":17,"map":"pl_frontier_final","folder":"tf","game":"Team Fortress","app_id":440,"player_count":24,"max_players":24,"Bots":0,"server_type":"Dedicated","server_os":"Linux","password":true,"vac":true,"version":"7695204","steam_id":85568392924469997,"keywords":["nocrits","nodmgspread","payload","uncletopia"],"game_id":440,"stv_port":27016,"stv_name":"Uncletopia | Seattle | 1 | All Maps | STV","players":[{"user_id":160,"name":"DrD","steam_id":76561198067266383,"connected_time":1436000000000,"state":"active","ping":38},{"user_id":140,"name":"Juntao","steam_id":76561199389584938,"connected_time":3037000000000,"state":"active","ping":43},{"user_id":117,"name":"Sock Thief","steam_id":76561198044199374,"connected_time":4406000000000,"state":"active","ping":127},{"user_id":164,"name":"TROY","steam_id":76561197983852176,"connected_time":551000000000,"state":"active","ping":75},{"user_id":165,"name":"Pneumo.","steam_id":76561197987911883,"connected_time":433000000000,"state":"active","ping":54},{"user_id":135,"name":"–≥—Ä—É—Å—Ç–Ω—ã–π","steam_id":76561198274550638,"connected_time":3425000000000,"state":"active","ping":107},{"user_id":94,"name":"fL0","steam_id":76561197990989939,"connected_time":5467000000000,"state":"active","ping":47},{"user_id":163,"name":"Django","steam_id":76561197971158403,"connected_time":881000000000,"state":"active","ping":121},{"user_id":138,"name":"Tom Skirrett","steam_id":76561198014600788,"connected_time":3119000000000,"state":"active","ping":68},{"user_id":114,"name":"Raian","steam_id":76561199138048671,"connected_time":4498000000000,"state":"active","ping":74},{"user_id":132,"name":"NotAWeeb","steam_id":76561198165530739,"connected_time":3701000000000,"state":"active","ping":64},{"user_id":166,"name":"Level 99 Mudcrab","steam_id":76561198077452771,"connected_time":9000000000,"state":"spawning","ping":44},{"user_id":150,"name":"Mr.Thirteen","steam_id":76561198047468836,"connected_time":2188000000000,"state":"active","ping":68},{"user_id":149,"name":"The Super Mario Bros. Movie","steam_id":76561198871692156,"connected_time":2216000000000,"state":"active","ping":51},{"user_id":158,"name":"Sweatpants","steam_id":76561198097188001,"connected_time":1540000000000,"state":"active","ping":53},{"user_id":142,"name":"MAXIMUS","steam_id":76561198025747866,"connected_time":2965000000000,"state":"active","ping":46},{"user_id":63,"name":"Grungus","steam_id":76561198047700230,"connected_time":8082000000000,"state":"active","ping":70},{"user_id":152,"name":"Sad Sapling","steam_id":76561198075612150,"connected_time":2085000000000,"state":"active","ping":78},{"user_id":146,"name":"SyntaxicalEcho","steam_id":76561198872278168,"connected_time":2475000000000,"state":"active","ping":109},{"user_id":153,"name":"Mischief of Rats","steam_id":76561198106307068,"connected_time":2063000000000,"state":"active","ping":104},{"user_id":156,"name":"Master Of Whales","steam_id":76561198349104889,"connected_time":1957000000000,"state":"active","ping":87},{"user_id":161,"name":"drive","steam_id":76561198041818185,"connected_time":994000000000,"state":"active","ping":160},{"user_id":159,"name":"azureglxy","steam_id":76561198861388315,"connected_time":1448000000000,"state":"active","ping":70},{"user_id":111,"name":"rat gets the cheese","steam_id":76561198031234032,"connected_time":4707000000000,"state":"active","ping":100}]},{"server_id":119,"name":"Uncletopia | Seattle | 2 | All Maps","name_short":"sea-2","host":"sea-1.us.uncletopia.com","port":27025,"enabled":true,"region":"us-west","cc":"us","latitude":47.608013,"longitude":-122.33517,"reserved":0,"last_update":"0001-01-01T00:00:00Z","name_a2s":"Uncletopia | Seattle | 2 | All Maps","protocol":17,"map":"pl_thundermountain","folder":"tf","game":"Team Fortress","app_id":440,"player_count":23,"max_players":24,"Bots":0,"server_type":"Dedicated","server_os":"Linux","password":true,"vac":true,"version":"7695204","steam_id":85568392924469998,"keywords":["nocrits","nodmgspread","payload","uncletopia"],"game_id":440,"stv_port":27026,"stv_name":"Uncletopia | Seattle | 2 | All Maps | STV","players":[{"user_id":267,"name":"oil","steam_id":76561198099980149,"connected_time":1243000000000,"state":"active","ping":74},{"user_id":282,"name":"Xrt","steam_id":76561199049515724,"connected_time":640000000000,"state":"active","ping":114},{"user_id":268,"name":"THExplosion24","steam_id":76561198862908879,"connected_time":1203000000000,"state":"active","ping":68},{"user_id":256,"name":"Grim","steam_id":76561198016978310,"connected_time":2360000000000,"state":"active","ping":82},{"user_id":289,"name":"C0D","steam_id":76561198340544460,"connected_time":217000000000,"state":"active","ping":54},{"user_id":264,"name":"Coacha Cola","steam_id":76561199013476388,"connected_time":1412000000000,"state":"active","ping":90},{"user_id":235,"name":"IgroSome","steam_id":76561198325586557,"connected_time":4292000000000,"state":"active","ping":62},{"user_id":248,"name":"dust","steam_id":76561198045218909,"connected_time":3197000000000,"state":"active","ping":31},{"user_id":276,"name":"Level 2 Fat Scout (KaiserArc)","steam_id":76561198201702142,"connected_time":853000000000,"state":"active","ping":70},{"user_id":245,"name":"ryghehn","steam_id":76561198195359229,"connected_time":3609000000000,"state":"active","ping":45},{"user_id":291,"name":"ubiquitous man","steam_id":76561198073782350,"connected_time":99000000000,"state":"active","ping":120},{"user_id":285,"name":"Skeel","steam_id":76561198089049258,"connected_time":546000000000,"state":"active","ping":95},{"user_id":290,"name":"Ama","steam_id":76561198077883218,"connected_time":213000000000,"state":"active","ping":93},{"user_id":210,"name":"‚òÜNebula-Belt‚òÜ","steam_id":76561198151250806,"connected_time":5761000000000,"state":"active","ping":144},{"user_id":292,"name":"Shah","steam_id":76561198047508851,"connected_time":13000000000,"state":"spawning","ping":94},{"user_id":288,"name":"Lazarus","steam_id":76561198116973457,"connected_time":359000000000,"state":"active","ping":94},{"user_id":155,"name":"Little Linguine","steam_id":76561198816986370,"connected_time":9344000000000,"state":"active","ping":150},{"user_id":234,"name":"PP_PhD","steam_id":76561198168851111,"connected_time":4294000000000,"state":"active","ping":50},{"user_id":244,"name":"a chicken","steam_id":76561198313121580,"connected_time":3997000000000,"state":"active","ping":79},{"user_id":271,"name":"A UsedNom","steam_id":76561198402832756,"connected_time":1107000000000,"state":"active","ping":63},{"user_id":239,"name":"Kzjytsugn","steam_id":76561198130241974,"connected_time":4246000000000,"state":"active","ping":45},{"user_id":284,"name":"JON","steam_id":76561198057971005,"connected_time":622000000000,"state":"active","ping":35},{"user_id":247,"name":"ejschild745","steam_id":76561199013388867,"connected_time":3475000000000,"state":"active","ping":68}]},{"server_id":17,"name":"Uncletopia | San Francisco | 1 | All Maps","name_short":"sfo-1","host":"sfo-1.us.uncletopia.com","port":27015,"enabled":true,"region":"us-west","cc":"us","latitude":37.77397,"longitude":-122.4313,"reserved":0,"last_update":"0001-01-01T00:00:00Z","name_a2s":"Uncletopia | San Francisco | 1 | All Maps","protocol":17,"map":"pl_swiftwater_final1","folder":"tf","game":"Team Fortress","app_id":440,"player_count":24,"max_players":24,"Bots":0,"server_type":"Dedicated","server_os":"Linux","password":true,"vac":true,"version":"7695204","steam_id":85568392924469999,"keywords":["nocrits","nodmgspread","payload","uncletopia"],"game_id":440,"stv_port":27016,"stv_name":"Uncletopia | San Francisco | 1 | All Maps | STV","players":[{"user_id":494,"name":"Largedong McGillicuddy","steam_id":76561198082955430,"connected_time":410000000000,"state":"active","ping":33},{"user_id":483,"name":"Ngsterson","steam_id":76561198162108154,"connected_time":1989000000000,"state":"active","ping":62},{"user_id":462,"name":"ULTRAHORRAN","steam_id":76561198126029630,"connected_time":3207000000000,"state":"active","ping":117},{"user_id":475,"name":"Many Bees' Chilling","steam_id":76561198079641282,"connected_time":2252000000000,"state":"active","ping":75},{"user_id":467,"name":"June","steam_id":76561198141803658,"connected_time":3038000000000,"state":"active","ping":56},{"user_id":492,"name":"Harold","steam_id":76561198057317770,"connected_time":601000000000,"state":"active","ping":40},{"user_id":501,"name":"SarinaraMauce","steam_id":76561198189483978,"connected_time":113000000000,"state":"active","ping":59},{"user_id":488,"name":"Pills","steam_id":76561198826486840,"connected_time":1331000000000,"state":"active","ping":64},{"user_id":442,"name":"Sabaman55","steam_id":76561198212267979,"connected_time":5247000000000,"state":"active","ping":84},{"user_id":464,"name":":3","steam_id":76561198098099826,"connected_time":3132000000000,"state":"active","ping":64},{"user_id":497,"name":"Bacon Stripper","steam_id":76561198012828731,"connected_time":275000000000,"state":"active","ping":96},{"user_id":495,"name":"BigGoose","steam_id":76561198833281392,"connected_time":339000000000,"state":"active","ping":76},{"user_id":493,"name":"Jaegerwolf90","steam_id":76561198079001649,"connected_time":545000000000,"state":"active","ping":77},{"user_id":369,"name":"benglengler","steam_id":76561198150137369,"connected_time":9680000000000,"state":"active","ping":60},{"user_id":498,"name":"Clas62","steam_id":76561199013226067,"connected_time":204000000000,"state":"active","ping":107},{"user_id":485,"name":"hoOmIN","steam_id":76561198334947079,"connected_time":1938000000000,"state":"active","ping":47},{"user_id":478,"name":"Res","steam_id":76561198167207112,"connected_time":2225000000000,"state":"active","ping":85},{"user_id":474,"name":"Crispy","steam_id":76561198443040315,"connected_time":2352000000000,"state":"active","ping":60},{"user_id":481,"name":"Genius Meme","steam_id":76561198162911254,"connected_time":2190000000000,"state":"active","ping":79},{"user_id":499,"name":"Luffy (real)","steam_id":76561198056301018,"connected_time":192000000000,"state":"active","ping":90},{"user_id":500,"name":"Ryver","steam_id":76561199082197266,"connected_time":178000000000,"state":"active","ping":96},{"user_id":503,"name":"Queen Frau the Round","steam_id":76561197999942134,"connected_time":38000000000,"state":"active","ping":92},{"user_id":502,"name":"Frongus","steam_id":76561197979056451,"connected_time":90000000000,"state":"active","ping":64},{"user_id":449,"name":"S√°bado Gigante","steam_id":76561197994685971,"connected_time":4456000000000,"state":"active","ping":65}]},{"server_id":18,"name":"Uncletopia | San Francisco | 2 | All Maps","name_short":"sfo-2","host":"sfo-1.us.uncletopia.com","port":27025,"enabled":true,"region":"us-west","cc":"us","latitude":37.77397,"longitude":-122.4313,"reserved":0,"last_update":"0001-01-01T00:00:00Z","name_a2s":"Uncletopia | San Francisco | 2 | All Maps","protocol":17,"map":"koth_lakeside_final","folder":"tf","game":"Team Fortress","app_id":440,"player_count":0,"max_players":24,"Bots":0,"server_type":"Dedicated","server_os":"Linux","password":true,"vac":true,"version":"7695204","steam_id":85568392924470000,"keywords":["cp","nocrits","nodmgspread","uncletopia"],"game_id":440,"stv_port":27026,"stv_name":"Uncletopia | San Francisco | 2 | All Maps | STV","players":null},{"server_id":19,"name":"Uncletopia | San Francisco | 3 | No Payload","name_short":"sfo-3","host":"sfo-1.us.uncletopia.com","port":27035,"enabled":true,"region":"us-west","cc":"us","latitude":37.77397,"longitude":-122.4313,"reserved":0,"last_update":"0001-01-01T00:00:00Z","name_a2s":"Uncletopia | San Francisco | 3 | No Payload","protocol":17,"map":"ctf_well","folder":"tf","game":"Team Fortress","app_id":440,"player_count":0,"max_players":24,"Bots":0,"server_type":"Dedicated","server_os":"Linux","password":true,"vac":true,"version":"7695204","steam_id":85568392924742824,"keywords":["ctf","nocrits","nodmgspread","uncletopia"],"game_id":440,"stv_port":27036,"stv_name":"Uncletopia | San Francisco | 3 | No Payload | STV","players":null},{"server_id":20,"name":"Uncletopia | San Francisco | 4 | Community","name_short":"sfo-4","host":"sfo-1.us.uncletopia.com","port":27045,"enabled":true,"region":"us-west","cc":"us","latitude":37.77397,"longitude":-122.4313,"reserved":0,"last_update":"0001-01-01T00:00:00Z","name_a2s":"Uncletopia | San Francisco | 4 | Community","protocol":17,"map":"koth_highpass","folder":"tf","game":"Team Fortress","app_id":440,"player_count":0,"max_players":24,"Bots":0,"server_type":"Dedicated","server_os":"Linux","password":true,"vac":true,"version":"7695204","steam_id":85568392924742826,"keywords":["cp","nocrits","nodmgspread","uncletopia"],"game_id":440,"stv_port":0,"stv_name":"","players":null},{"server_id":141,"name":"Uncletopia | Sydney | 1 | All Maps","name_short":"syd-1","host":"syd-1.au.uncletopia.com","port":27015,"enabled":true,"region":"au","cc":"au","latitude":-33.865143,"longitude":151.2099,"reserved":0,"last_update":"0001-01-01T00:00:00Z","name_a2s":"Uncletopia | Sydney | 1 | All Maps","protocol":17,"map":"koth_lakeside_final","folder":"tf","game":"Team Fortress","app_id":440,"player_count":5,"max_players":24,"Bots":0,"server_type":"Dedicated","server_os":"Linux","password":true,"vac":true,"version":"7695204","steam_id":85568392924470001,"keywords":["cp","nocrits","nodmgspread","uncletopia"],"game_id":440,"stv_port":27016,"stv_name":"Uncletopia | Sydney | 1 | All Maps | STV","players":[{"user_id":4,"name":"cakey","steam_id":76561198173746761,"connected_time":3253000000000,"state":"active","ping":44},{"user_id":21,"name":"synthemesc","steam_id":76561198046712125,"connected_time":430000000000,"state":"active","ping":42},{"user_id":22,"name":"anuk.hitt","steam_id":76561199439970358,"connected_time":162000000000,"state":"active","ping":61},{"user_id":13,"name":"Mr.pringle","steam_id":76561199224066095,"connected_time":2228000000000,"state":"active","ping":401},{"user_id":12,"name":"SilverPenguin","steam_id":76561199025744213,"connected_time":2402000000000,"state":"active","ping":91}]},{"server_id":123,"name":"Uncletopia | Sydney | 2 | All Maps","name_short":"syd-2","host":"syd-1.au.uncletopia.com","port":27025,"enabled":true,"region":"au","cc":"au","latitude":-33.865143,"longitude":151.2099,"reserved":0,"last_update":"0001-01-01T00:00:00Z","name_a2s":"Uncletopia | Sydney | 2 | All Maps","protocol":17,"map":"cp_process_final","folder":"tf","game":"Team Fortress","app_id":440,"player_count":0,"max_players":24,"Bots":0,"server_type":"Dedicated","server_os":"Linux","password":true,"vac":true,"version":"7695204","steam_id":85568392924470002,"keywords":["cp","nocrits","nodmgspread","uncletopia"],"game_id":440,"stv_port":0,"stv_name":"","players":null},{"server_id":395,"name":"Uncletopia | Sydney | 3 | All Maps","name_short":"syd-3","host":"syd-1.au.uncletopia.com","port":27035,"enabled":true,"region":"au","cc":"au","latitude":-33.865143,"longitude":151.2099,"reserved":0,"last_update":"0001-01-01T00:00:00Z","name_a2s":"Uncletopia | Sydney | 3 | All Maps","protocol":17,"map":"cp_sunshine","folder":"tf","game":"Team Fortress","app_id":440,"player_count":0,"max_players":24,"Bots":0,"server_type":"Dedicated","server_os":"Linux","password":true,"vac":true,"version":"7695204","steam_id":85568392925194467,"keywords":["cp","nocrits","nodmgspread","uncletopia"],"game_id":440,"stv_port":27036,"stv_name":"Uncletopia | Sydney | 3 | All Maps | STV","players":null},{"server_id":396,"name":"Uncletopia | Sydney | 4 | All Maps","name_short":"syd-4","host":"syd-1.au.uncletopia.com","port":27045,"enabled":true,"region":"au","cc":"au","latitude":-33.865143,"longitude":151.2099,"reserved":0,"last_update":"0001-01-01T00:00:00Z","name_a2s":"Uncletopia | Sydney | 4 | All Maps","protocol":17,"map":"pl_swiftwater_final1","folder":"tf","game":"Team Fortress","app_id":440,"player_count":0,"max_players":24,"Bots":0,"server_type":"Dedicated","server_os":"Linux","password":true,"vac":true,"version":"7695204","steam_id":85568392925397958,"keywords":["nocrits","nodmgspread","payload","uncletopia"],"game_id":440,"stv_port":0,"stv_name":"","players":null},{"server_id":58,"name":"Uncletopia | Sydney | 5 | No Payload","name_short":"syd-5","host":"syd-1.au.uncletopia.com","port":27055,"enabled":true,"region":"au","cc":"au","latitude":-33.865143,"longitude":151.2099,"reserved":0,"last_update":"0001-01-01T00:00:00Z","name_a2s":"Uncletopia | Sydney | 5 | No Payload","protocol":17,"map":"koth_viaduct","folder":"tf","game":"Team Fortress","app_id":440,"player_count":0,"max_players":24,"Bots":0,"server_type":"Dedicated","server_os":"Linux","password":true,"vac":true,"version":"7695204","steam_id":85568392925397959,"keywords":["cp","nocrits","nodmgspread","uncletopia"],"game_id":440,"stv_port":0,"stv_name":"","players":null},{"server_id":59,"name":"Uncletopia | Sydney | 6 | Community","name_short":"syd-6","host":"syd-1.au.uncletopia.com","port":27065,"enabled":true,"region":"au","cc":"au","latitude":-33.865143,"longitude":151.2099,"reserved":0,"last_update":"0001-01-01T00:00:00Z","name_a2s":"Uncletopia | Sydney | 6 | Community","protocol":17,"map":"workshop/cp_logjam_rc12.ugc454812035","folder":"tf","game":"Team Fortress","app_id":440,"player_count":0,"max_players":24,"Bots":0,"server_type":"Dedicated","server_os":"Linux","password":true,"vac":true,"version":"7695204","steam_id":85568392925397960,"keywords":["cp","nocrits","nodmgspread","uncletopia"],"game_id":440,"stv_port":27066,"stv_name":"Uncletopia | Sydney | 6 | Community | STV","players":null},{"server_id":49,"name":"Uncletopia | Warsaw | 1 | All Maps","name_short":"waw-1","host":"waw-1.pl.uncletopia.com","port":27015,"enabled":true,"region":"eu","cc":"pl","latitude":52.2297,"longitude":21.017532,"reserved":0,"last_update":"0001-01-01T00:00:00Z","name_a2s":"Uncletopia | Warsaw | 1 | All Maps","protocol":17,"map":"koth_viaduct","folder":"tf","game":"Team Fortress","app_id":440,"player_count":0,"max_players":24,"Bots":0,"server_type":"Dedicated","server_os":"Linux","password":true,"vac":true,"version":"7695204","steam_id":85568392925397850,"keywords":["cp","nocrits","nodmgspread","uncletopia"],"game_id":440,"stv_port":27016,"stv_name":"Uncletopia | Warsaw | 1 | All Maps | STV","players":null},{"server_id":50,"name":"Uncletopia | Warsaw | 2 | All Maps","name_short":"waw-2","host":"waw-1.pl.uncletopia.com","port":27025,"enabled":true,"region":"eu","cc":"pl","latitude":52.2297,"longitude":21.017532,"reserved":0,"last_update":"0001-01-01T00:00:00Z","name_a2s":"Uncletopia | Warsaw | 2 | All Maps","protocol":17,"map":"koth_highpass","folder":"tf","game":"Team Fortress","app_id":440,"player_count":0,"max_players":24,"Bots":0,"server_type":"Dedicated","server_os":"Linux","password":true,"vac":true,"version":"7695204","steam_id":85568392925397851,"keywords":["cp","nocrits","nodmgspread","uncletopia"],"game_id":440,"stv_port":27026,"stv_name":"Uncletopia | Warsaw | 2 | All Maps | STV","players":null},{"server_id":51,"name":"Uncletopia | Warsaw | 3 | All Maps","name_short":"waw-3","host":"waw-1.pl.uncletopia.com","port":27035,"enabled":true,"region":"eu","cc":"pl","latitude":52.2297,"longitude":21.017532,"reserved":0,"last_update":"0001-01-01T00:00:00Z","name_a2s":"Uncletopia | Warsaw | 3 | All Maps","protocol":17,"map":"koth_viaduct","folder":"tf","game":"Team Fortress","app_id":440,"player_count":0,"max_players":24,"Bots":0,"server_type":"Dedicated","server_os":"Linux","password":true,"vac":true,"version":"7695204","steam_id":85568392925397852,"keywords":["cp","nocrits","nodmgspread","uncletopia"],"game_id":440,"stv_port":27036,"stv_name":"Uncletopia | Warsaw | 3 | All Maps | STV","players":null},{"server_id":52,"name":"Uncletopia | Warsaw | 4 | All Maps","name_short":"waw-4","host":"waw-1.pl.uncletopia.com","port":27045,"enabled":true,"region":"eu","cc":"pl","latitude":52.2297,"longitude":21.017532,"reserved":0,"last_update":"0001-01-01T00:00:00Z","name_a2s":"Uncletopia | Warsaw | 4 | All Maps","protocol":17,"map":"pl_barnblitz","folder":"tf","game":"Team Fortress","app_id":440,"player_count":0,"max_players":24,"Bots":0,"server_type":"Dedicated","server_os":"Linux","password":true,"vac":true,"version":"7695204","steam_id":85568392925397853,"keywords":["nocrits","nodmgspread","payload","uncletopia"],"game_id":440,"stv_port":27046,"stv_name":"Uncletopia | Warsaw | 4 | All Maps | STV","players":null},{"server_id":53,"name":"Uncletopia | Warsaw | 5 | No Payload","name_short":"waw-5","host":"waw-1.pl.uncletopia.com","port":27055,"enabled":true,"region":"eu","cc":"pl","latitude":52.2297,"longitude":21.017532,"reserved":0,"last_update":"0001-01-01T00:00:00Z","name_a2s":"Uncletopia | Warsaw | 5 | No Payload","protocol":17,"map":"koth_highpass","folder":"tf","game":"Team Fortress","app_id":440,"player_count":0,"max_players":24,"Bots":0,"server_type":"Dedicated","server_os":"Linux","password":true,"vac":true,"version":"7695204","steam_id":85568392925397854,"keywords":["cp","nocrits","nodmgspread","uncletopia"],"game_id":440,"stv_port":27056,"stv_name":"Uncletopia | Warsaw | 5 | No Payload | STV","players":null},{"server_id":54,"name":"Uncletopia | Warsaw | 6 | Community","name_short":"waw-6","host":"waw-1.pl.uncletopia.com","port":27065,"enabled":true,"region":"eu","cc":"pl","latitude":52.2297,"longitude":21.017532,"reserved":0,"last_update":"0001-01-01T00:00:00Z","name_a2s":"Uncletopia | Warsaw | 6 | Community","protocol":17,"map":"workshop/rd_asteroid_redux_rc9.ugc2154902912","folder":"tf","game":"Team Fortress","app_id":440,"player_count":0,"max_players":24,"Bots":0,"server_type":"Dedicated","server_os":"Linux","password":true,"vac":true,"version":"7695204","steam_id":85568392925397856,"keywords":["beta","nocrits","nodmgspread","rd","uncletopia"],"game_id":440,"stv_port":27066,"stv_name":"Uncletopia | Warsaw | 6 | Community | STV","players":null}]}