{"status":true,"message":"","result":[{"server_id":9,"name":"Uncletopia | Atlanta | 1 | All Maps","name_short":"atl-1","host":"atl-1.us.uncletopia.com","port":27015,"enabled":true,"region":"us-east","cc":"us","latitude":33.753746,"longitude":-84.38633,"reserved":0,"last_update":"0001-01-01T00:00:00Z","name_a2s":"Uncletopia | Atlanta | 1 | All Maps","protocol":17,"map":"pl_upward","folder":"tf","game":"Team Fortress","app_id":440,"player_count":15,"max_players":24,"Bots":0,"server_type":"Dedicated","server_os":"Linux","password":true,"vac":true,"version":"7961495","steam_id":85568392924469982,"keywords":["nocrits","nodmgspread","payload","uncletopia"],"game_id":440,"stv_port":27016,"stv_name":"Uncletopia | Atlanta | 1 | All Maps | STV","players":[{"user_id":6,"name":"in the balls","steam_id":76561199196015973,"connected_time":1595000000000,"state":"active","ping":165},{"user_id":7,"name":"Bitter","steam_id":76561198146532457,"connected_time":1547000000000,"state":"active","ping":82},{"user_id":8,"name":"TamerMushroom64","steam_id":76561199128190180,"connected_time":1478000000000,"state":"active","ping":119},{"user_id":9,"name":"Kuri","steam_id":76561199037050183,"connected_time":1405000000000,"state":"active","ping":77},{"user_id":25,"name":"Dmonic Plays","steam_id":76561198006572380,"connected_time":235000000000,"state":"active","ping":79},{"user_id":27,"name":"lu","steam_id":76561198080731872,"connected_time":70000000000,"state":"active","ping":65},{"user_id":26,"name":"MinimanC","steam_id":76561198071475084,"connected_time":217000000000,"state":"active","ping":60},{"user_id":28,"name":"JAKandBEL","steam_id":76561198213060931,"connected_time":54000000000,"state":"active","ping":69},{"user_id":14,"name":"Jesus Burgess","steam_id":76561199343316814,"connected_time":815000000000,"state":"active","ping":45},{"user_id":15,"name":"the pest","steam_id":76561198826298849,"connected_time":760000000000,"state":"active","ping":59},{"user_id":17,"name":"Bucket Hat Trick","steam_id":76561198381785132,"connected_time":687000000000,"state":"active","ping":67},{"user_id":29,"name":"Obelisk","steam_id":76561198049416866,"connected_time":22000000000,"state":"active","ping":46},{"user_id":20,"name":"SiskoSenpai","steam_id":76561198053701833,"connected_time":381000000000,"state":"active","ping":92},{"user_id":21,"name":"JakeTheSnake2007","steam_id":76561199101642283,"connected_time":366000000000,"state":"active","ping":58},{"user_id":23,"name":"Milk Curdle","steam_id":76561198305106477,"connected_time":266000000000,"state":"active","ping":62}]},{"server_id":104,"name":"Uncletopia | Atlanta | 2 | All Maps","name_short":"atl-2","host":"atl-1.us.uncletopia.com","port":27025,"enabled":true,"region":"us-east","cc":"us","latitude":33.753746,"longitude":-84.38633,"reserved":0,"last_update":"0001-01-01T00:00:00Z","name_a2s":"Uncletopia | Atlanta | 2 | All Maps","protocol":17,"map":"pl_upward","folder":"tf","game":"Team Fortress","app_id":440,"player_count":0,"max_players":24,"Bots":0,"server_type":"Dedicated","server_os":"Linux","password":true,"vac":true,"version":"7961495","steam_id":85568392924469983,"keywords":["nocrits","nodmgspread","payload","uncletopia"],"game_id":440,"stv_port":27026,"stv_name":"Uncletopia | Atlanta | 2 | All Maps | STV","players":null},{"server_id":400,"name":"Uncletopia | Atlanta | 3 | Stopwatch","name_short":"atl-3","host":"atl-1.us.uncletopia.com","port":27035,"enabled":true,"region":"us-east","cc":"us","latitude":33.753746,"longitude":-84.38633,"reserved":0,"last_update":"0001-01-01T00:00:00Z","name_a2s":"Uncletopia | Atlanta | 3 | Stopwatch","protocol":17,"map":"workshop/koth_ashville_final.ugc2130459942","folder":"tf","game":"Team Fortress","app_id":440,"player_count":0,"max_players":24,"Bots":0,"server_type":"Dedicated","server_os":"Linux","password":true,"vac":true,"version":"7961495","steam_id":85568392924515187,"keywords":["cp","nocrits","nodmgspread","uncletopia"],"game_id":440,"stv_port":27036,"stv_name":"Uncletopia | Atlanta | 3 | Stopwatch | STV","players":null},{"server_id":401,"name":"Uncletopia | Atlanta | 4 | Community","name_short":"atl-4","host":"atl-1.us.uncletopia.com","port":27045,"enabled":true,"region":"us-east","cc":"us","latitude":33.753746,"longitude":-84.38633,"reserved":0,"last_update":"0001-01-01T00:00:00Z","name_a2s":"Uncletopia | Atlanta | 4 | Community","protocol":17,"map":"workshop/koth_slaughter_rc1.ugc1712845210","folder":"tf","game":"Team Fortress","app_id":440,"player_count":0,"max_players":24,"Bots":0,"server_type":"Dedicated","server_os":"Linux","password":true,"vac":true,"version":"7961495","steam_id":85568392924515188,"keywords":["cp","nocrits","nodmgspread","uncletopia"],"game_id":440,"stv_port":27046,"stv_name":"Uncletopia | Atlanta | 4 | Community | STV","players":null},{"server_id":2,"name":"Uncletopia | Chicago | 1 | All Maps","name_short":"chi-1","host":"chi-1.us.uncletopia.com","port":27015,"enabled":true,"region":"us-central","cc":"us","latitude":41.881832,"longitude":-87.62318,"reserved":0,"last_update":"0001-01-01T00:00:00Z","name_a2s":"Uncletopia | Chicago | 1 | All Maps","protocol":17,"map":"pl_frontier_final","folder":"tf","game":"Team Fortress","app_id":440,"player_count":22,"max_players":24,"Bots":0,"server_type":"Dedicated","server_os":"Linux","password":true,"vac":true,"version":"7961495","steam_id":85568392924469984,"keywords":["nocrits","nodmgspread","payload","uncletopia"],"game_id":440,"stv_port":27016,"stv_name":"Uncletopia | Chicago | 1 | All Maps | STV","players":[{"user_id":201,"name":"BLOCKHEAD","steam_id":76561198808224331,"connected_time":1464000000000,"state":"spawning","ping":341},{"user_id":222,"name":"dr peppah chug!","steam_id":76561198068835693,"connected_time":5000000000,"state":"spawning","ping":243},{"user_id":203,"name":"roto","steam_id":76561198138735860,"connected_time":1423000000000,"state":"spawning","ping":144},{"user_id":219,"name":"a bellhop","steam_id":76561198046797995,"connected_time":313000000000,"state":"spawning","ping":151},{"user_id":166,"name":"Tala\u003c3","steam_id":76561198169200739,"connected_time":5043000000000,"state":"spawning","ping":177},{"user_id":204,"name":"Jake","steam_id":76561198303046970,"connected_time":1413000000000,"state":"spawning","ping":145},{"user_id":211,"name":"Flavortown Thanos","steam_id":76561198004853966,"connected_time":1211000000000,"state":"spawning","ping":243},{"user_id":205,"name":"guy","steam_id":76561198079925551,"connected_time":1404000000000,"state":"spawning","ping":221},{"user_id":206,"name":"SuperCeleste❤️Trans Rights","steam_id":76561198167207053,"connected_time":1384000000000,"state":"spawning","ping":197},{"user_id":175,"name":"Albino Jellyfish","steam_id":76561198208561097,"connected_time":3888000000000,"state":"spawning","ping":187},{"user_id":200,"name":"Prsm","steam_id":76561198053344995,"connected_time":1482000000000,"state":"spawning","ping":128},{"user_id":189,"name":"Lennu","steam_id":76561198060730154,"connected_time":3165000000000,"state":"spawning","ping":233},{"user_id":221,"name":"Lettuce_Plays","steam_id":76561198872255639,"connected_time":11000000000,"state":"spawning","ping":292},{"user_id":207,"name":"Orb","steam_id":76561198353963523,"connected_time":1376000000000,"state":"spawning","ping":279},{"user_id":217,"name":"ThatGamingKiwi","steam_id":76561199170522237,"connected_time":733000000000,"state":"spawning","ping":192},{"user_id":193,"name":"Chaos","steam_id":76561199068325065,"connected_time":2843000000000,"state":"spawning","ping":150},{"user_id":216,"name":"Drapph","steam_id":76561199384213314,"connected_time":866000000000,"state":"spawning","ping":130},{"user_id":214,"name":"CHAI","steam_id":76561198119556082,"connected_time":1063000000000,"state":"spawning","ping":141},{"user_id":210,"name":"Rode hard, put away wet","steam_id":76561198062764039,"connected_time":1272000000000,"state":"spawning","ping":209},{"user_id":195,"name":"Makima Enjoyer","steam_id":76561198852044774,"connected_time":2585000000000,"state":"spawning","ping":305},{"user_id":215,"name":"B.","steam_id":76561198040445907,"connected_time":998000000000,"state":"spawning","ping":235},{"user_id":218,"name":"Provocator","steam_id":76561197961830410,"connected_time":594000000000,"state":"spawning","ping":220}]},{"server_id":106,"name":"Uncletopia | Chicago | 2 | All Maps","name_short":"chi-2","host":"chi-1.us.uncletopia.com","port":27025,"enabled":true,"region":"us-central","cc":"us","latitude":41.881832,"longitude":-87.62318,"reserved":0,"last_update":"0001-01-01T00:00:00Z","name_a2s":"Uncletopia | Chicago | 2 | All Maps","protocol":17,"map":"pl_pier","folder":"tf","game":"Team Fortress","app_id":440,"player_count":0,"max_players":24,"Bots":0,"server_type":"Dedicated","server_os":"Linux","password":true,"vac":true,"version":"7961495","steam_id":85568392924469985,"keywords":["nocrits","nodmgspread","payload","uncletopia"],"game_id":440,"stv_port":27026,"stv_name":"Uncletopia | Chicago | 2 | All Maps | STV","players":null},{"server_id":402,"name":"Uncletopia | Chicago | 3 | All Maps","name_short":"chi-3","host":"chi-1.us.uncletopia.com","port":27035,"enabled":true,"region":"us-central","cc":"us","latitude":41.881832,"longitude":-87.62318,"reserved":0,"last_update":"0001-01-01T00:00:00Z","name_a2s":"Uncletopia | Chicago | 3 | All Maps","protocol":17,"map":"plr_pipeline","folder":"tf","game":"Team Fortress","app_id":440,"player_count":0,"max_players":24,"Bots":0,"server_type":"Dedicated","server_os":"Linux","password":true,"vac":true,"version":"7961495","steam_id":85568392924515191,"keywords":["nocrits","nodmgspread","payload","uncletopia"],"game_id":440,"stv_port":27036,"stv_name":"Uncletopia | Chicago | 3 | All Maps | STV","players":null},{"server_id":403,"name":"Uncletopia | Chicago | 4 | All Maps","name_short":"chi-4","host":"chi-1.us.uncletopia.com","port":27045,"enabled":true,"region":"us-central","cc":"us","latitude":41.881832,"longitude":-87.62318,"reserved":0,"last_update":"0001-01-01T00:00:00Z","name_a2s":"Uncletopia | Chicago | 4 | All Maps","protocol":17,"map":"pl_rumford_event","folder":"tf","game":"Team Fortress","app_id":440,"player_count":0,"max_players":24,"Bots":0,"server_type":"Dedicated","server_os":"Linux","password":true,"vac":true,"version":"7961495","steam_id":85568392924515193,"keywords":["nocrits","nodmgspread","payload","uncletopia"],"game_id":440,"stv_port":27046,"stv_name":"Uncletopia | Chicago | 4 | All Maps | STV","players":null},{"server_id":36,"name":"Uncletopia | Chicago | 5 | All Maps","name_short":"chi-5","host":"chi-2.us.uncletopia.com","port":27015,"enabled":true,"region":"us-central","cc":"us","latitude":41.881832,"longitude":-87.62318,"reserved":0,"last_update":"0001-01-01T00:00:00Z","name_a2s":"Uncletopia | Chicago | 5 | All Maps","protocol":17,"map":"pl_borneo","folder":"tf","game":"Team Fortress","app_id":440,"player_count":0,"max_players":24,"Bots":0,"server_type":"Dedicated","server_os":"Linux","password":true,"vac":true,"version":"7961495","steam_id":85568392924866362,"keywords":["nocrits","nodmgspread","payload","uncletopia"],"game_id":440,"stv_port":27016,"stv_name":"Uncletopia | Chicago | 5 | All Maps | STV","players":null},{"server_id":37,"name":"Uncletopia | Chicago | 6 | All Maps","name_short":"chi-6","host":"chi-2.us.uncletopia.com","port":27025,"enabled":true,"region":"us-central","cc":"us","latitude":41.881832,"longitude":-87.62318,"reserved":0,"last_update":"0001-01-01T00:00:00Z","name_a2s":"Uncletopia | Chicago | 6 | All Maps","protocol":17,"map":"pl_pier","folder":"tf","game":"Team Fortress","app_id":440,"player_count":24,"max_players":24,"Bots":0,"server_type":"Dedicated","server_os":"Linux","password":true,"vac":true,"version":"7961495","steam_id":85568392924866363,"keywords":["nocrits","nodmgspread","payload","uncletopia"],"game_id":440,"stv_port":27026,"stv_name":"Uncletopia | Chicago | 6 | All Maps | STV","players":[{"user_id":101,"name":"Housecoat Hero","steam_id":76561197981290558,"connected_time":82000000000,"state":"active","ping":61},{"user_id":99,"name":"-.-","steam_id":76561199239412094,"connected_time":307000000000,"state":"active","ping":138},{"user_id":66,"name":"Pixeled","steam_id":76561198088917077,"connected_time":1508000000000,"state":"active","ping":75},{"user_id":45,"name":"dantheman","steam_id":76561199486390813,"connected_time":2898000000000,"state":"active","ping":99},{"user_id":7,"name":"TurboHossBoss","steam_id":76561198052457735,"connected_time":5779000000000,"state":"active","ping":76},{"user_id":70,"name":"wooby","steam_id":76561198004610133,"connected_time":1195000000000,"state":"active","ping":72},{"user_id":68,"name":"motherfucker 2.0","steam_id":76561198141189209,"connected_time":1463000000000,"state":"active","ping":61},{"user_id":86,"name":"SanitysEdge","steam_id":76561198130732813,"connected_time":805000000000,"state":"active","ping":100},{"user_id":72,"name":"living in mushroom park","steam_id":76561198097588802,"connected_time":1155000000000,"state":"active","ping":45},{"user_id":90,"name":"Raine","steam_id":76561199081937889,"connected_time":712000000000,"state":"active","ping":72},{"user_id":74,"name":"Lord_Manship","steam_id":76561198045168765,"connected_time":1114000000000,"state":"active","ping":73},{"user_id":75,"name":"donnie | iysmitl.xyz","steam_id":76561198148956323,"connected_time":1063000000000,"state":"active","ping":69},{"user_id":76,"name":"UNIT 220","steam_id":76561198042243497,"connected_time":1062000000000,"state":"active","ping":69},{"user_id":77,"name":"everything is a lie (wake up)","steam_id":76561198144436132,"connected_time":1052000000000,"state":"active","ping":78},{"user_id":65,"name":"poe.ai","steam_id":76561198155720118,"connected_time":1861000000000,"state":"active","ping":59},{"user_id":97,"name":"J O S H³²","steam_id":76561198122603779,"connected_time":374000000000,"state":"active","ping":105},{"user_id":89,"name":"Instinegenix","steam_id":76561198189446127,"connected_time":721000000000,"state":"active","ping":92},{"user_id":91,"name":"fly","steam_id":76561199003715735,"connected_time":687000000000,"state":"active","ping":108},{"user_id":81,"name":"ORANGE","steam_id":76561198000401769,"connected_time":999000000000,"state":"active","ping":92},{"user_id":98,"name":"Acro","steam_id":76561198092451804,"connected_time":372000000000,"state":"active","ping":83},{"user_id":92,"name":"A better name","steam_id":76561198357330520,"connected_time":687000000000,"state":"active","ping":90},{"user_id":83,"name":"Always Here for You","steam_id":76561198219252313,"connected_time":975000000000,"state":"active","ping":73},{"user_id":84,"name":"Charlie","steam_id":76561199098209171,"connected_time":958000000000,"state":"active","ping":75},{"user_id":95,"name":"roma","steam_id":76561198028811916,"connected_time":621000000000,"state":"active","ping":65}]},{"server_id":38,"name":"Uncletopia | Chicago | 7 | Stopwatch","name_short":"chi-7","host":"chi-2.us.uncletopia.com","port":27035,"enabled":true,"region":"us-central","cc":"us","latitude":41.881832,"longitude":-87.62318,"reserved":0,"last_update":"0001-01-01T00:00:00Z","name_a2s":"Uncletopia | Chicago | 7 | Stopwatch","protocol":17,"map":"cp_snakewater_final1","folder":"tf","game":"Team Fortress","app_id":440,"player_count":0,"max_players":24,"Bots":0,"server_type":"Dedicated","server_os":"Linux","password":true,"vac":true,"version":"7961495","steam_id":85568392924866364,"keywords":["cp","nocrits","nodmgspread","uncletopia"],"game_id":440,"stv_port":27036,"stv_name":"Uncletopia | Chicago | 7 | Stopwatch | STV","players":null},{"server_id":39,"name":"Uncletopia | Chicago | 8 | Community","name_short":"chi-8","host":"chi-2.us.uncletopia.com","port":27045,"enabled":true,"region":"us-central","cc":"us","latitude":41.881832,"longitude":-87.62318,"reserved":0,"last_update":"0001-01-01T00:00:00Z","name_a2s":"Uncletopia | Chicago | 8 | Community","protocol":17,"map":"workshop/koth_slaughter_rc1.ugc1712845210","folder":"tf","game":"Team Fortress","app_id":440,"player_count":0,"max_players":24,"Bots":0,"server_type":"Dedicated","server_os":"Linux","password":true,"vac":true,"version":"7961495","steam_id":85568392924866365,"keywords":["cp","nocrits","nodmgspread","uncletopia"],"game_id":440,"stv_port":27046,"stv_name":"Uncletopia | Chicago | 8 | Community | STV","players":null},{"server_id":8,"name":"Uncletopia | Dallas | 1 | All Maps","name_short":"dal-1","host":"dal-1.us.uncletopia.com","port":27015,"enabled":true,"region":"us-central","cc":"us","latitude":32.779167,"longitude":-96.80889,"reserved":0,"last_update":"0001-01-01T00:00:00Z","name_a2s":"Uncletopia | Dallas | 1 | All Maps","protocol":17,"map":"pl_badwater","folder":"tf","game":"Team Fortress","app_id":440,"player_count":24,"max_players":24,"Bots":0,"server_type":"Dedicated","server_os":"Linux","password":true,"vac":true,"version":"7961495","steam_id":85568392924469986,"keywords":["nocrits","nodmgspread","payload","uncletopia"],"game_id":440,"stv_port":27016,"stv_name":"Uncletopia | Dallas | 1 | All Maps | STV","players":[{"user_id":86,"name":"RoyalDrum","steam_id":76561198124224197,"connected_time":189000000000,"state":"active","ping":42},{"user_id":73,"name":"YoyoMama","steam_id":76561198260113828,"connected_time":1048000000000,"state":"active","ping":88},{"user_id":30,"name":"Soapbar","steam_id":76561198081714169,"connected_time":3400000000000,"state":"active","ping":71},{"user_id":69,"name":"Nestor","steam_id":76561198070782619,"connected_time":1354000000000,"state":"active","ping":75},{"user_id":16,"name":"Nickslink","steam_id":76561198140172650,"connected_time":3876000000000,"state":"active","ping":93},{"user_id":87,"name":"Captain Buggy","steam_id":76561198024444448,"connected_time":167000000000,"state":"active","ping":90},{"user_id":67,"name":"Cofi","steam_id":76561199026721822,"connected_time":1843000000000,"state":"active","ping":89},{"user_id":84,"name":"THE CUMEST LORD","steam_id":76561198061412592,"connected_time":413000000000,"state":"active","ping":76},{"user_id":15,"name":"[COS]SonneyDonkeh","steam_id":76561198091284496,"connected_time":4226000000000,"state":"active","ping":118},{"user_id":81,"name":"Dude Time","steam_id":76561198269551204,"connected_time":541000000000,"state":"active","ping":45},{"user_id":68,"name":"DeeAyche.TTV","steam_id":76561198881909299,"connected_time":1813000000000,"state":"active","ping":71},{"user_id":61,"name":"Mr. Noodle","steam_id":76561198037803087,"connected_time":2391000000000,"state":"active","ping":65},{"user_id":77,"name":"Fecal Feaster","steam_id":76561198386649656,"connected_time":616000000000,"state":"active","ping":92},{"user_id":78,"name":"Ulrich Stern","steam_id":76561198101739682,"connected_time":613000000000,"state":"active","ping":66},{"user_id":76,"name":"Window Licker #pride","steam_id":76561198386717007,"connected_time":743000000000,"state":"active","ping":77},{"user_id":70,"name":"meat on bone","steam_id":76561199195104977,"connected_time":1322000000000,"state":"active","ping":100},{"user_id":38,"name":"fishies :)","steam_id":76561198317943203,"connected_time":3120000000000,"state":"active","ping":52},{"user_id":82,"name":"Slashuur","steam_id":76561198157385316,"connected_time":536000000000,"state":"active","ping":69},{"user_id":72,"name":"Journey Of A Weeb Spy","steam_id":76561199228751836,"connected_time":1230000000000,"state":"active","ping":77},{"user_id":59,"name":"skrt","steam_id":76561198233984300,"connected_time":2483000000000,"state":"active","ping":75},{"user_id":75,"name":"Zetta","steam_id":76561198045710113,"connected_time":988000000000,"state":"active","ping":75},{"user_id":80,"name":"DualiTea","steam_id":76561198081733870,"connected_time":585000000000,"state":"active","ping":72},{"user_id":83,"name":"Moose","steam_id":76561198096311227,"connected_time":507000000000,"state":"active","ping":63},{"user_id":88,"name":"rad killl raccoon","steam_id":76561198980975595,"connected_time":166000000000,"state":"active","ping":101}]},{"server_id":108,"name":"Uncletopia | Dallas | 2 | All Maps","name_short":"dal-2","host":"dal-1.us.uncletopia.com","port":27025,"enabled":true,"region":"us-central","cc":"us","latitude":32.779167,"longitude":-96.80889,"reserved":0,"last_update":"0001-01-01T00:00:00Z","name_a2s":"Uncletopia | Dallas | 2 | All Maps","protocol":17,"map":"cp_mountainlab","folder":"tf","game":"Team Fortress","app_id":440,"player_count":0,"max_players":24,"Bots":0,"server_type":"Dedicated","server_os":"Linux","password":true,"vac":true,"version":"7961495","steam_id":85568392924469988,"keywords":["cp","nocrits","nodmgspread","uncletopia"],"game_id":440,"stv_port":27026,"stv_name":"Uncletopia | Dallas | 2 | All Maps | STV","players":null},{"server_id":404,"name":"Uncletopia | Dallas | 3 | All Maps","name_short":"dal-3","host":"dal-1.us.uncletopia.com","port":27035,"enabled":true,"region":"us-central","cc":"us","latitude":32.779167,"longitude":-96.80889,"reserved":0,"last_update":"0001-01-01T00:00:00Z","name_a2s":"Uncletopia | Dallas | 3 | All Maps","protocol":17,"map":"cp_coldfront","folder":"tf","game":"Team Fortress","app_id":440,"player_count":0,"max_players":24,"Bots":0,"server_type":"Dedicated","server_os":"Linux","password":true,"vac":true,"version":"7961495","steam_id":85568392924515219,"keywords":["cp","nocrits","nodmgspread","uncletopia"],"game_id":440,"stv_port":27036,"stv_name":"Uncletopia | Dallas | 3 | All Maps | STV","players":null},{"server_id":405,"name":"Uncletopia | Dallas | 4 | Community","name_short":"dal-4","host":"dal-1.us.uncletopia.com","port":27045,"enabled":true,"region":"us-central","cc":"us","latitude":32.779167,"longitude":-96.80889,"reserved":0,"last_update":"0001-01-01T00:00:00Z","name_a2s":"Uncletopia | Dallas | 4 | Community","protocol":17,"map":"workshop/koth_synthetic_rc6a.ugc1549817316","folder":"tf","game":"Team Fortress","app_id":440,"player_count":0,"max_players":24,"Bots":0,"server_type":"Dedicated","server_os":"Linux","password":true,"vac":true,"version":"7961495","steam_id":85568392924515220,"keywords":["cp","nocrits","nodmgspread","uncletopia"],"game_id":440,"stv_port":27046,"stv_name":"Uncletopia | Dallas | 4 | Community | STV","players":null},{"server_id":5,"name":"Uncletopia | Frankfurt | 1 | All Maps","name_short":"frk-1","host":"frk-1.de.uncletopia.com","port":27015,"enabled":true,"region":"eu","cc":"de","latitude":50.110924,"longitude":8.682127,"reserved":0,"last_update":"0001-01-01T00:00:00Z","name_a2s":"Uncletopia | Frankfurt | 1 | All Maps","protocol":17,"map":"pl_badwater","folder":"tf","game":"Team Fortress","app_id":440,"player_count":24,"max_players":24,"Bots":0,"server_type":"Dedicated","server_os":"Linux","password":true,"vac":true,"version":"7961495","steam_id":85568392924469989,"keywords":["nocrits","nodmgspread","payload","uncletopia"],"game_id":440,"stv_port":27016,"stv_name":"Uncletopia | Frankfurt | 1 | All Maps | STV","players":[{"user_id":220,"name":"Walle","steam_id":76561197995148937,"connected_time":1004000000000,"state":"active","ping":64},{"user_id":234,"name":"collxpse","steam_id":76561198010854110,"connected_time":201000000000,"state":"active","ping":54},{"user_id":158,"name":"TheShadowScribe","steam_id":76561199037525945,"connected_time":7126000000000,"state":"active","ping":73},{"user_id":222,"name":"bob","steam_id":76561198448135228,"connected_time":984000000000,"state":"active","ping":81},{"user_id":212,"name":"The Creator Of Sex","steam_id":76561198385989487,"connected_time":1663000000000,"state":"active","ping":91},{"user_id":232,"name":"Toasty5050","steam_id":76561198073540881,"connected_time":446000000000,"state":"active","ping":45},{"user_id":223,"name":"Mike","steam_id":76561198228455736,"connected_time":970000000000,"state":"active","ping":78},{"user_id":233,"name":"Veirū Viseris","steam_id":76561197989857176,"connected_time":321000000000,"state":"active","ping":74},{"user_id":197,"name":"Super medyk","steam_id":76561198170125887,"connected_time":2821000000000,"state":"active","ping":60},{"user_id":129,"name":"takumi fujara","steam_id":76561198078928120,"connected_time":8911000000000,"state":"active","ping":71},{"user_id":221,"name":"snake kryptonite","steam_id":76561197998673784,"connected_time":1000000000000,"state":"active","ping":44},{"user_id":198,"name":"Zulik92","steam_id":76561198152442373,"connected_time":2794000000000,"state":"active","ping":47},{"user_id":216,"name":"Lazor","steam_id":76561198310376869,"connected_time":1090000000000,"state":"active","ping":97},{"user_id":203,"name":"Burak","steam_id":76561198441622971,"connected_time":2664000000000,"state":"active","ping":87},{"user_id":217,"name":"henoadam","steam_id":76561198151350377,"connected_time":1086000000000,"state":"active","ping":45},{"user_id":201,"name":"Gangwolf","steam_id":76561198043868575,"connected_time":2727000000000,"state":"active","ping":45},{"user_id":188,"name":"willfonjr","steam_id":76561198850388985,"connected_time":3663000000000,"state":"active","ping":68},{"user_id":231,"name":"Radegast the Brown","steam_id":76561198075489505,"connected_time":481000000000,"state":"active","ping":65},{"user_id":224,"name":"Dolcelatte","steam_id":76561198038501770,"connected_time":966000000000,"state":"active","ping":56},{"user_id":235,"name":"UCC bock","steam_id":76561198971554341,"connected_time":145000000000,"state":"active","ping":45},{"user_id":228,"name":"underTaker","steam_id":76561198000948648,"connected_time":792000000000,"state":"active","ping":68},{"user_id":236,"name":"radu","steam_id":76561198067346802,"connected_time":125000000000,"state":"active","ping":76},{"user_id":214,"name":"Doriian","steam_id":76561198071438810,"connected_time":1525000000000,"state":"active","ping":79},{"user_id":229,"name":"Visphiric - All Muted","steam_id":76561198071938027,"connected_time":719000000000,"state":"active","ping":51}]},{"server_id":110,"name":"Uncletopia | Frankfurt | 2 | All Maps","name_short":"frk-2","host":"frk-1.de.uncletopia.com","port":27025,"enabled":true,"region":"eu","cc":"de","latitude":50.110924,"longitude":8.682127,"reserved":0,"last_update":"0001-01-01T00:00:00Z","name_a2s":"Uncletopia | Frankfurt | 2 | All Maps","protocol":17,"map":"cp_dustbowl","folder":"tf","game":"Team Fortress","app_id":440,"player_count":24,"max_players":24,"Bots":0,"server_type":"Dedicated","server_os":"Linux","password":true,"vac":true,"version":"7961495","steam_id":85568392924469990,"keywords":["cp","nocrits","nodmgspread","uncletopia"],"game_id":440,"stv_port":27026,"stv_name":"Uncletopia | Frankfurt | 2 | All Maps | STV","players":[{"user_id":233,"name":"RealGuyWhoIsReal","steam_id":76561198821743257,"connected_time":1254000000000,"state":"active","ping":79},{"user_id":248,"name":"Pan Pan","steam_id":76561199074670515,"connected_time":2000000000,"state":"spawning","ping":79},{"user_id":212,"name":"Rei Ayanami","steam_id":76561198405980575,"connected_time":2171000000000,"state":"active","ping":78},{"user_id":182,"name":"dfcv rftgvb ghtb","steam_id":76561198397764042,"connected_time":5133000000000,"state":"active","ping":89},{"user_id":238,"name":"Grubebluete","steam_id":76561197977830853,"connected_time":965000000000,"state":"active","ping":51},{"user_id":200,"name":"Waffel","steam_id":76561198113552009,"connected_time":3475000000000,"state":"active","ping":97},{"user_id":208,"name":"Gamer Local","steam_id":76561198084157459,"connected_time":2673000000000,"state":"active","ping":47},{"user_id":214,"name":"h","steam_id":76561199117830682,"connected_time":2056000000000,"state":"active","ping":101},{"user_id":245,"name":"Someone","steam_id":76561199030195879,"connected_time":123000000000,"state":"active","ping":43},{"user_id":215,"name":"TotallyRealRunarTvålfager™","steam_id":76561198018228013,"connected_time":2018000000000,"state":"active","ping":55},{"user_id":243,"name":"grr","steam_id":76561199429407130,"connected_time":190000000000,"state":"active","ping":81},{"user_id":244,"name":"JujuBalu","steam_id":76561198207253071,"connected_time":146000000000,"state":"active","ping":40},{"user_id":216,"name":"Glada Snickaren","steam_id":76561198019037458,"connected_time":2007000000000,"state":"active","ping":58},{"user_id":246,"name":"bolunia","steam_id":76561198305866363,"connected_time":86000000000,"state":"active","ping":87},{"user_id":220,"name":"else1","steam_id":76561197996558319,"connected_time":1928000000000,"state":"active","ping":78},{"user_id":228,"name":"THIS","steam_id":76561198103269397,"connected_time":1728000000000,"state":"active","ping":60},{"user_id":242,"name":"Storm's Foreshadow","steam_id":76561198098462526,"connected_time":241000000000,"state":"active","ping":60},{"user_id":226,"name":"Tumajarbisaun","steam_id":76561198029296012,"connected_time":1760000000000,"state":"active","ping":48},{"user_id":227,"name":"[dopijus]","steam_id":76561198943009513,"connected_time":1760000000000,"state":"active","ping":82},{"user_id":230,"name":"laido riteris","steam_id":76561199098499873,"connected_time":1614000000000,"state":"active","ping":65},{"user_id":180,"name":"Faxter","steam_id":76561198011771605,"connected_time":5209000000000,"state":"active","ping":52},{"user_id":207,"name":"Ziomek","steam_id":76561199131735098,"connected_time":2865000000000,"state":"active","ping":60},{"user_id":206,"name":"cuddles","steam_id":76561198805181599,"connected_time":2909000000000,"state":"active","ping":53},{"user_id":235,"name":"AlanWillson","steam_id":76561198043975413,"connected_time":1249000000000,"state":"active","ping":57}]},{"server_id":308,"name":"Uncletopia | Frankfurt | 3 | All Maps","name_short":"frk-3","host":"frk-1.de.uncletopia.com","port":27035,"enabled":true,"region":"eu","cc":"de","latitude":50.110924,"longitude":8.682127,"reserved":0,"last_update":"0001-01-01T00:00:00Z","name_a2s":"Uncletopia | Frankfurt | 3 | All Maps","protocol":17,"map":"pl_barnblitz","folder":"tf","game":"Team Fortress","app_id":440,"player_count":0,"max_players":24,"Bots":0,"server_type":"Dedicated","server_os":"Linux","password":true,"vac":true,"version":"7961495","steam_id":85568392924504274,"keywords":["nocrits","nodmgspread","payload","uncletopia"],"game_id":440,"stv_port":27036,"stv_name":"Uncletopia | Frankfurt | 3 | All Maps | STV","players":null},{"server_id":309,"name":"Uncletopia | Frankfurt | 4 | All Maps","name_short":"frk-4","host":"frk-1.de.uncletopia.com","port":27045,"enabled":true,"region":"eu","cc":"de","latitude":50.110924,"longitude":8.682127,"reserved":0,"last_update":"0001-01-01T00:00:00Z","name_a2s":"Uncletopia | Frankfurt | 4 | All Maps","protocol":17,"map":"cp_dustbowl","folder":"tf","game":"Team Fortress","app_id":440,"player_count":0,"max_players":24,"Bots":0,"server_type":"Dedicated","server_os":"Linux","password":true,"vac":true,"version":"7961495","steam_id":85568392924504275,"keywords":["cp","nocrits","nodmgspread","uncletopia"],"game_id":440,"stv_port":27046,"stv_name":"Uncletopia | Frankfurt | 4 | All Maps | STV","players":null},{"server_id":310,"name":"Uncletopia | Frankfurt | 5 | All Maps","name_short":"frk-5","host":"frk-1.de.uncletopia.com","port":27055,"enabled":true,"region":"eu","cc":"de","latitude":50.110924,"longitude":8.682127,"reserved":0,"last_update":"0001-01-01T00:00:00Z","name_a2s":"Uncletopia | Frankfurt | 5 | All Maps","protocol":17,"map":"koth_highpass","folder":"tf","game":"Team Fortress","app_id":440,"player_count":1,"max_players":24,"Bots":0,"server_type":"Dedicated","server_os":"Linux","password":true,"vac":true,"version":"7961495","steam_id":85568392924504277,"keywords":["cp","nocrits","nodmgspread","uncletopia"],"game_id":440,"stv_port":27056,"stv_name":"Uncletopia | Frankfurt | 5 | All Maps | STV","players":[{"user_id":41,"name":"Interview A","steam_id":76561199012566222,"connected_time":23000000000,"state":"spawning","ping":48}]},{"server_id":311,"name":"Uncletopia | Frankfurt | 6 | All Maps","name_short":"frk-6","host":"frk-1.de.uncletopia.com","port":27065,"enabled":true,"region":"eu","cc":"de","latitude":50.110924,"longitude":8.682127,"reserved":0,"last_update":"0001-01-01T00:00:00Z","name_a2s":"Uncletopia | Frankfurt | 6 | All Maps","protocol":17,"map":"plr_pipeline","folder":"tf","game":"Team Fortress","app_id":440,"player_count":24,"max_players":24,"Bots":0,"server_type":"Dedicated","server_os":"Linux","password":true,"vac":true,"version":"7961495","steam_id":85568392924504278,"keywords":["nocrits","nodmgspread","payload","uncletopia"],"game_id":440,"stv_port":27066,"stv_name":"Uncletopia | Frankfurt | 6 | All Maps | STV","players":[{"user_id":181,"name":"Sheriff Graham","steam_id":76561198062668942,"connected_time":4425000000000,"state":"active","ping":45},{"user_id":182,"name":"Outlaw Sniff Gluer","steam_id":76561198263263692,"connected_time":4422000000000,"state":"active","ping":67},{"user_id":183,"name":"jojo reference","steam_id":76561198864161505,"connected_time":4419000000000,"state":"active","ping":66},{"user_id":184,"name":"Mozzaza","steam_id":76561198156316111,"connected_time":4280000000000,"state":"active","ping":129},{"user_id":238,"name":"Reiyo the Interloper","steam_id":76561198155092485,"connected_time":416000000000,"state":"active","ping":51},{"user_id":186,"name":"SalCrabber deluxe","steam_id":76561198275942961,"connected_time":4213000000000,"state":"active","ping":41},{"user_id":224,"name":"Dark Wizart","steam_id":76561198377689439,"connected_time":2154000000000,"state":"active","ping":66},{"user_id":189,"name":"Worm","steam_id":76561198296497176,"connected_time":4020000000000,"state":"active","ping":60},{"user_id":236,"name":"Bill Clinton","steam_id":76561198060011032,"connected_time":671000000000,"state":"active","ping":49},{"user_id":200,"name":"Enigma","steam_id":76561198248221296,"connected_time":3610000000000,"state":"active","ping":50},{"user_id":231,"name":"PENGUN","steam_id":76561199015156956,"connected_time":1007000000000,"state":"active","ping":99},{"user_id":214,"name":"Sylvain","steam_id":76561198113385271,"connected_time":2946000000000,"state":"active","ping":149},{"user_id":215,"name":"Jonkheervanflep","steam_id":76561198006853101,"connected_time":2916000000000,"state":"active","ping":58},{"user_id":234,"name":"wee nut","steam_id":76561198083288197,"connected_time":745000000000,"state":"active","ping":66},{"user_id":199,"name":"Yimir","steam_id":76561198122584400,"connected_time":3629000000000,"state":"active","ping":47},{"user_id":201,"name":"Mr Fruitypebbles","steam_id":76561198133823242,"connected_time":3608000000000,"state":"active","ping":69},{"user_id":216,"name":"The Dutiful Dasein","steam_id":76561198003269215,"connected_time":2763000000000,"state":"active","ping":78},{"user_id":222,"name":"willus212","steam_id":76561199182615246,"connected_time":2406000000000,"state":"active","ping":71},{"user_id":227,"name":"Ar|es","steam_id":76561198819160313,"connected_time":1402000000000,"state":"active","ping":74},{"user_id":213,"name":"Happy Broccol","steam_id":76561198180667795,"connected_time":2971000000000,"state":"active","ping":74},{"user_id":233,"name":"The One (and only)","steam_id":76561198827193499,"connected_time":760000000000,"state":"active","ping":54},{"user_id":210,"name":"MayISuckAFartOutOfYourAss","steam_id":76561199043933182,"connected_time":3165000000000,"state":"active","ping":140},{"user_id":211,"name":"LeGerooo","steam_id":76561199110422160,"connected_time":3077000000000,"state":"active","ping":77},{"user_id":212,"name":"Dirocks","steam_id":76561198138494815,"connected_time":3074000000000,"state":"active","ping":75}]},{"server_id":23,"name":"Uncletopia | Frankfurt | 7 | Stopwatch","name_short":"frk-7","host":"frk-1.de.uncletopia.com","port":27075,"enabled":true,"region":"eu","cc":"de","latitude":50.110924,"longitude":8.682127,"reserved":0,"last_update":"0001-01-01T00:00:00Z","name_a2s":"Uncletopia | Frankfurt | 7 | Stopwatch","protocol":17,"map":"workshop/koth_clearcut_b15.ugc2107050255","folder":"tf","game":"Team Fortress","app_id":440,"player_count":11,"max_players":24,"Bots":0,"server_type":"Dedicated","server_os":"Linux","password":true,"vac":true,"version":"7961495","steam_id":85568392924742827,"keywords":["cp","nocrits","nodmgspread","uncletopia"],"game_id":440,"stv_port":27076,"stv_name":"Uncletopia | Frankfurt | 7 | Stopwatch | STV","players":[{"user_id":131,"name":"Godjan","steam_id":76561198077554447,"connected_time":654000000000,"state":"active","ping":121},{"user_id":132,"name":"Egor Pomidor","steam_id":76561199175688390,"connected_time":580000000000,"state":"active","ping":66},{"user_id":128,"name":"Rodak","steam_id":76561199135986344,"connected_time":1083000000000,"state":"active","ping":55},{"user_id":133,"name":"[HOL] Solringen","steam_id":76561198003584681,"connected_time":385000000000,"state":"active","ping":71},{"user_id":129,"name":"Yobopan","steam_id":76561198088064860,"connected_time":1025000000000,"state":"active","ping":55},{"user_id":130,"name":"Daan77","steam_id":76561198129940468,"connected_time":922000000000,"state":"active","ping":58},{"user_id":137,"name":"typomen","steam_id":76561198405351951,"connected_time":139000000000,"state":"active","ping":72},{"user_id":135,"name":"Doecheldorf","steam_id":76561198291628630,"connected_time":301000000000,"state":"active","ping":52},{"user_id":136,"name":"mbx8_rt","steam_id":76561198025742526,"connected_time":286000000000,"state":"active","ping":157},{"user_id":138,"name":"Janis","steam_id":76561198415397745,"connected_time":27000000000,"state":"active","ping":85},{"user_id":139,"name":"sokige","steam_id":76561198167112371,"connected_time":21000000000,"state":"active","ping":97}]},{"server_id":24,"name":"Uncletopia | Frankfurt | 8 | Community","name_short":"frk-8","host":"frk-1.de.uncletopia.com","port":27085,"enabled":true,"region":"eu","cc":"de","latitude":50.110924,"longitude":8.682127,"reserved":0,"last_update":"0001-01-01T00:00:00Z","name_a2s":"Uncletopia | Frankfurt | 8 | Community","protocol":17,"map":"workshop/pl_boundary_final1.ugc456799153","folder":"tf","game":"Team Fortress","app_id":440,"player_count":0,"max_players":24,"Bots":0,"server_type":"Dedicated","server_os":"Linux","password":true,"vac":true,"version":"7961495","steam_id":85568392924742828,"keywords":["nocrits","nodmgspread","payload","uncletopia"],"game_id":440,"stv_port":27086,"stv_name":"Uncletopia | Frankfurt | 8 | Community | STV","players":null},{"server_id":202,"name":"Uncletopia | Hong Kong | 1 | All Maps","name_short":"hgk-1","host":"hgk-1.hk.uncletopia.com","port":27015,"enabled":true,"region":"asia","cc":"hk","latitude":22.302711,"longitude":114.177216,"reserved":0,"last_update":"0001-01-01T00:00:00Z","name_a2s":"Uncletopia | Hong Kong | 1 | All Maps","protocol":17,"map":"cp_altitude","folder":"tf","game":"Team Fortress","app_id":440,"player_count":13,"max_players":24,"Bots":0,"server_type":"Dedicated","server_os":"Linux","password":true,"vac":true,"version":"7961495","steam_id":85568392924494504,"keywords":["cp","nocrits","nodmgspread","uncletopia"],"game_id":440,"stv_port":27016,"stv_name":"Uncletopia | Hong Kong | 1 | All Maps | STV","players":[{"user_id":199,"name":"Vani","steam_id":76561198353980390,"connected_time":566000000000,"state":"active","ping":154},{"user_id":187,"name":"김광만","steam_id":76561198295279503,"connected_time":2184000000000,"state":"active","ping":100},{"user_id":202,"name":"【SpookyLid】sine90","steam_id":76561198973950684,"connected_time":4000000000,"state":"spawning","ping":32},{"user_id":201,"name":"pablo.gaming_2014","steam_id":76561198965473654,"connected_time":369000000000,"state":"active","ping":70},{"user_id":185,"name":"killman47","steam_id":76561198348487408,"connected_time":2842000000000,"state":"active","ping":39},{"user_id":191,"name":"Wx","steam_id":76561199217780897,"connected_time":1464000000000,"state":"active","ping":79},{"user_id":197,"name":"13MAN","steam_id":76561198900023603,"connected_time":916000000000,"state":"active","ping":78},{"user_id":182,"name":"煙海 | Enkai","steam_id":76561198050460825,"connected_time":2972000000000,"state":"active","ping":73},{"user_id":149,"name":"derek.patriarca30","steam_id":76561199427230206,"connected_time":5832000000000,"state":"active","ping":57},{"user_id":194,"name":"toad???????????????????????????","steam_id":76561198082199290,"connected_time":1389000000000,"state":"active","ping":39},{"user_id":165,"name":"母の肉団子@hao123.com","steam_id":76561198069561896,"connected_time":4189000000000,"state":"active","ping":32},{"user_id":64,"name":"Azi","steam_id":76561198147872523,"connected_time":13358000000000,"state":"active","ping":62},{"user_id":186,"name":"Skyler White yo","steam_id":76561198895193247,"connected_time":2791000000000,"state":"active","ping":70}]},{"server_id":1,"name":"Uncletopia | Los Angeles | 1 | All Maps","name_short":"lax-1","host":"lax-1.us.uncletopia.com","port":27015,"enabled":true,"region":"us-west","cc":"us","latitude":33.94279,"longitude":-118.41004,"reserved":0,"last_update":"0001-01-01T00:00:00Z","name_a2s":"Uncletopia | Los Angeles | 1 | All Maps","protocol":17,"map":"cp_gorge","folder":"tf","game":"Team Fortress","app_id":440,"player_count":0,"max_players":24,"Bots":0,"server_type":"Dedicated","server_os":"Linux","password":true,"vac":true,"version":"7961495","steam_id":85568392924469991,"keywords":["cp","nocrits","nodmgspread","uncletopia"],"game_id":440,"stv_port":27016,"stv_name":"Uncletopia | Los Angeles | 1 | All Maps | STV","players":null},{"server_id":112,"name":"Uncletopia | Los Angeles | 2 | All Maps","name_short":"lax-2","host":"lax-1.us.uncletopia.com","port":27025,"enabled":true,"region":"us-west","cc":"us","latitude":33.94279,"longitude":-118.41004,"reserved":0,"last_update":"0001-01-01T00:00:00Z","name_a2s":"Uncletopia | Los Angeles | 2 | All Maps","protocol":17,"map":"koth_cascade","folder":"tf","game":"Team Fortress","app_id":440,"player_count":0,"max_players":24,"Bots":0,"server_type":"Dedicated","server_os":"Linux","password":true,"vac":true,"version":"7961495","steam_id":85568392924469992,"keywords":["cp","nocrits","nodmgspread","uncletopia"],"game_id":440,"stv_port":27026,"stv_name":"Uncletopia | Los Angeles | 2 | All Maps | STV","players":null},{"server_id":324,"name":"Uncletopia | Los Angeles | 3 | All Maps","name_short":"lax-3","host":"lax-1.us.uncletopia.com","port":27035,"enabled":true,"region":"us-west","cc":"us","latitude":33.94279,"longitude":-118.41004,"reserved":0,"last_update":"0001-01-01T00:00:00Z","name_a2s":"Uncletopia | Los Angeles | 3 | All Maps","protocol":17,"map":"pl_hoodoo_final","folder":"tf","game":"Team Fortress","app_id":440,"player_count":0,"max_players":24,"Bots":0,"server_type":"Dedicated","server_os":"Linux","password":true,"vac":true,"version":"7961495","steam_id":85568392924510198,"keywords":["nocrits","nodmgspread","payload","uncletopia"],"game_id":440,"stv_port":27036,"stv_name":"Uncletopia | Los Angeles | 3 | All Maps | STV","players":null},{"server_id":25,"name":"Uncletopia | Los Angeles | 4 | Stopwatch","name_short":"lax-4","host":"lax-1.us.uncletopia.com","port":27045,"enabled":true,"region":"us-west","cc":"us","latitude":33.94279,"longitude":-118.41004,"reserved":0,"last_update":"0001-01-01T00:00:00Z","name_a2s":"Uncletopia | Los Angeles | 4 | Stopwatch","protocol":17,"map":"pl_upward","folder":"tf","game":"Team Fortress","app_id":440,"player_count":0,"max_players":24,"Bots":0,"server_type":"Dedicated","server_os":"Linux","password":true,"vac":true,"version":"7961495","steam_id":85568392924510199,"keywords":["nocrits","nodmgspread","payload","uncletopia"],"game_id":440,"stv_port":27046,"stv_name":"Uncletopia | Los Angeles | 4 | Stopwatch | STV","players":null},{"server_id":11,"name":"Uncletopia | London | 1 | All Maps","name_short":"lon-1","host":"lon-1.uk.uncletopia.com","port":27015,"enabled":true,"region":"eu","cc":"gb","latitude":51.509865,"longitude":-0.118092,"reserved":0,"last_update":"0001-01-01T00:00:00Z","name_a2s":"Uncletopia | London | 1 | All Maps","protocol":17,"map":"pl_thundermountain","folder":"tf","game":"Team Fortress","app_id":440,"player_count":24,"max_players":24,"Bots":0,"server_type":"Dedicated","server_os":"Linux","password":true,"vac":true,"version":"7961495","steam_id":85568392924367362,"keywords":["nocrits","nodmgspread","payload","uncletopia"],"game_id":440,"stv_port":27016,"stv_name":"Uncletopia | London | 1 | All Maps | STV","players":[{"user_id":222,"name":"Woman (Real)","steam_id":76561199151823932,"connected_time":855000000000,"state":"active","ping":75},{"user_id":172,"name":"George7231","steam_id":76561198136490042,"connected_time":4535000000000,"state":"active","ping":32},{"user_id":212,"name":"mertefe","steam_id":76561199237126613,"connected_time":1708000000000,"state":"active","ping":94},{"user_id":208,"name":"GamerPanda","steam_id":76561198061454277,"connected_time":2177000000000,"state":"active","ping":68},{"user_id":221,"name":"noobpwner2005","steam_id":76561199499628067,"connected_time":970000000000,"state":"active","ping":117},{"user_id":180,"name":"GoblinGaming (Albert Fan)","steam_id":76561198360395476,"connected_time":3891000000000,"state":"active","ping":30},{"user_id":179,"name":"Titut11","steam_id":76561198392505656,"connected_time":3920000000000,"state":"active","ping":74},{"user_id":205,"name":"Andreus","steam_id":76561199403926001,"connected_time":2619000000000,"state":"active","ping":89},{"user_id":223,"name":"4:38","steam_id":76561198072892783,"connected_time":838000000000,"state":"active","ping":71},{"user_id":197,"name":"Mangosaus","steam_id":76561198400198044,"connected_time":2964000000000,"state":"active","ping":75},{"user_id":211,"name":"cactusj4","steam_id":76561199243398487,"connected_time":1730000000000,"state":"active","ping":51},{"user_id":214,"name":"albert","steam_id":76561198353496134,"connected_time":1563000000000,"state":"active","ping":51},{"user_id":198,"name":"FURY AND RAGE AND ANGER!","steam_id":76561198845046853,"connected_time":2957000000000,"state":"active","ping":49},{"user_id":141,"name":"ZANNABLUKE","steam_id":76561198013534336,"connected_time":6414000000000,"state":"active","ping":58},{"user_id":210,"name":"Diogenes Swagus","steam_id":76561198006293325,"connected_time":1732000000000,"state":"active","ping":87},{"user_id":225,"name":"GazerBazer","steam_id":76561198879107565,"connected_time":19000000000,"state":"spawning","ping":48},{"user_id":224,"name":"map","steam_id":76561198370196400,"connected_time":36000000000,"state":"active","ping":88},{"user_id":216,"name":"jimmy bob","steam_id":76561198319583692,"connected_time":1442000000000,"state":"active","ping":60},{"user_id":140,"name":"T.K","steam_id":76561198085233735,"connected_time":6535000000000,"state":"active","ping":45},{"user_id":145,"name":"cp lover (beta tester)","steam_id":76561198413275515,"connected_time":5973000000000,"state":"active","ping":78},{"user_id":218,"name":"⚧aura⚧","steam_id":76561198066258544,"connected_time":1036000000000,"state":"active","ping":66},{"user_id":196,"name":"Siegmeyer","steam_id":76561198328543549,"connected_time":3102000000000,"state":"active","ping":95},{"user_id":203,"name":"whimsy. (live)","steam_id":76561198878171763,"connected_time":2796000000000,"state":"active","ping":53}]},{"server_id":114,"name":"Uncletopia | London | 2 | All Maps","name_short":"lon-2","host":"lon-1.uk.uncletopia.com","port":27025,"enabled":true,"region":"eu","cc":"gb","latitude":51.509865,"longitude":-0.118092,"reserved":0,"last_update":"0001-01-01T00:00:00Z","name_a2s":"Uncletopia | London | 2 | All Maps","protocol":17,"map":"cp_process_final","folder":"tf","game":"Team Fortress","app_id":440,"player_count":24,"max_players":24,"Bots":0,"server_type":"Dedicated","server_os":"Linux","password":true,"vac":true,"version":"7961495","steam_id":85568392924470941,"keywords":["cp","nocrits","nodmgspread","uncletopia"],"game_id":440,"stv_port":27026,"stv_name":"Uncletopia | London | 2 | All Maps | STV","players":[{"user_id":171,"name":"Wigfrid","steam_id":76561198121820360,"connected_time":6177000000000,"state":"active","ping":46},{"user_id":174,"name":"Wayan","steam_id":76561198354695464,"connected_time":5488000000000,"state":"active","ping":130},{"user_id":214,"name":"fichey S","steam_id":76561198035380064,"connected_time":1843000000000,"state":"active","ping":59},{"user_id":185,"name":"Supercoxylac","steam_id":76561198376300138,"connected_time":4420000000000,"state":"active","ping":55},{"user_id":231,"name":"DaLuigi","steam_id":76561198054486188,"connected_time":684000000000,"state":"active","ping":52},{"user_id":215,"name":"c la qualitey","steam_id":76561198138789964,"connected_time":1835000000000,"state":"active","ping":49},{"user_id":204,"name":"compact disc","steam_id":76561198154677956,"connected_time":2364000000000,"state":"active","ping":72},{"user_id":233,"name":"GMsU | Rebikas","steam_id":76561198077053764,"connected_time":652000000000,"state":"active","ping":50},{"user_id":232,"name":"bryophyta","steam_id":76561197968945306,"connected_time":673000000000,"state":"active","ping":61},{"user_id":234,"name":"pajer0","steam_id":76561198002913482,"connected_time":652000000000,"state":"active","ping":105},{"user_id":235,"name":"Ergas","steam_id":76561198860861032,"connected_time":649000000000,"state":"active","ping":73},{"user_id":206,"name":"Cosmetic brain","steam_id":76561198055936410,"connected_time":2327000000000,"state":"active","ping":85},{"user_id":236,"name":"Forsén","steam_id":76561199131971501,"connected_time":629000000000,"state":"active","ping":61},{"user_id":224,"name":"BeanyBen","steam_id":76561198150585233,"connected_time":1450000000000,"state":"active","ping":46},{"user_id":209,"name":"Perpetual Pub Push","steam_id":76561198256714846,"connected_time":2224000000000,"state":"active","ping":44},{"user_id":200,"name":"quickfast","steam_id":76561199438900919,"connected_time":3509000000000,"state":"active","ping":44},{"user_id":240,"name":"Assassin+","steam_id":76561197994310420,"connected_time":19000000000,"state":"active","ping":70},{"user_id":229,"name":"Michael","steam_id":76561198003146906,"connected_time":766000000000,"state":"active","ping":46},{"user_id":230,"name":"smn","steam_id":76561198170092065,"connected_time":716000000000,"state":"active","ping":51},{"user_id":237,"name":"KLAMA  ❤","steam_id":76561198351549661,"connected_time":612000000000,"state":"active","ping":76},{"user_id":239,"name":"Caliban","steam_id":76561197999696839,"connected_time":42000000000,"state":"active","ping":93},{"user_id":119,"name":"★Lily","steam_id":76561198014774371,"connected_time":9472000000000,"state":"active","ping":46},{"user_id":211,"name":"lawn (evil arc)","steam_id":76561198001243486,"connected_time":2150000000000,"state":"active","ping":45},{"user_id":221,"name":"32","steam_id":76561199382978934,"connected_time":1623000000000,"state":"active","ping":98}]},{"server_id":320,"name":"Uncletopia | London | 3 | All Maps","name_short":"lon-3","host":"lon-1.uk.uncletopia.com","port":27035,"enabled":true,"region":"eu","cc":"gb","latitude":51.509865,"longitude":-0.118092,"reserved":0,"last_update":"0001-01-01T00:00:00Z","name_a2s":"Uncletopia | London | 3 | All Maps","protocol":17,"map":"koth_lakeside_final","folder":"tf","game":"Team Fortress","app_id":440,"player_count":0,"max_players":24,"Bots":0,"server_type":"Dedicated","server_os":"Linux","password":true,"vac":true,"version":"7961495","steam_id":85568392924510192,"keywords":["cp","nocrits","nodmgspread","uncletopia"],"game_id":440,"stv_port":27036,"stv_name":"Uncletopia | London | 3 | All Maps | STV","players":null},{"server_id":321,"name":"Uncletopia | London | 4 | All Maps","name_short":"lon-4","host":"lon-1.uk.uncletopia.com","port":27045,"enabled":true,"region":"eu","cc":"gb","latitude":51.509865,"longitude":-0.118092,"reserved":0,"last_update":"0001-01-01T00:00:00Z","name_a2s":"Uncletopia | London | 4 | All Maps","protocol":17,"map":"pl_badwater","folder":"tf","game":"Team Fortress","app_id":440,"player_count":23,"max_players":24,"Bots":0,"server_type":"Dedicated","server_os":"Linux","password":true,"vac":true,"version":"7961495","steam_id":85568392924510193,"keywords":["nocrits","nodmgspread","payload","uncletopia"],"game_id":440,"stv_port":27046,"stv_name":"Uncletopia | London | 4 | All Maps | STV","players":[{"user_id":216,"name":"Pineappleman","steam_id":76561199074651648,"connected_time":585000000000,"state":"active","ping":31},{"user_id":232,"name":"AsianPersuasion","steam_id":76561198202112536,"connected_time":78000000000,"state":"active","ping":67},{"user_id":166,"name":"joosssh","steam_id":76561198072130805,"connected_time":4569000000000,"state":"active","ping":53},{"user_id":199,"name":"Plep","steam_id":76561198840259819,"connected_time":1755000000000,"state":"active","ping":60},{"user_id":206,"name":"cister0","steam_id":76561198130195469,"connected_time":1279000000000,"state":"active","ping":76},{"user_id":202,"name":"faccboi","steam_id":76561198137816642,"connected_time":1679000000000,"state":"active","ping":53},{"user_id":160,"name":"mr.resetti","steam_id":76561198974520642,"connected_time":4852000000000,"state":"active","ping":64},{"user_id":223,"name":"wiserclub6","steam_id":76561198312144351,"connected_time":373000000000,"state":"active","ping":95},{"user_id":228,"name":"supercow","steam_id":76561198163201973,"connected_time":160000000000,"state":"active","ping":75},{"user_id":184,"name":"bigeon","steam_id":76561198078601337,"connected_time":2451000000000,"state":"active","ping":93},{"user_id":219,"name":"Twik","steam_id":76561198023835056,"connected_time":519000000000,"state":"active","ping":59},{"user_id":229,"name":"Tomato","steam_id":76561199124472513,"connected_time":158000000000,"state":"active","ping":106},{"user_id":226,"name":"HarmlessCanine2","steam_id":76561198389475312,"connected_time":177000000000,"state":"active","ping":43},{"user_id":204,"name":"Imperial City Guard","steam_id":76561198083355845,"connected_time":1564000000000,"state":"active","ping":53},{"user_id":230,"name":"toad (ungodly gigantic)","steam_id":76561198870327755,"connected_time":151000000000,"state":"active","ping":71},{"user_id":233,"name":"caramel❤","steam_id":76561198819353867,"connected_time":76000000000,"state":"active","ping":44},{"user_id":176,"name":"Goldoche","steam_id":76561197995065045,"connected_time":3502000000000,"state":"active","ping":126},{"user_id":170,"name":"A Very Disappointing Salad","steam_id":76561198020277939,"connected_time":4020000000000,"state":"active","ping":45},{"user_id":207,"name":"Paint","steam_id":76561198166823873,"connected_time":1147000000000,"state":"active","ping":56},{"user_id":231,"name":"Kaek","steam_id":76561197960283484,"connected_time":143000000000,"state":"active","ping":84},{"user_id":138,"name":"azzy","steam_id":76561198061293740,"connected_time":6924000000000,"state":"active","ping":78},{"user_id":220,"name":"WomenBeardLike","steam_id":76561198390184314,"connected_time":509000000000,"state":"active","ping":64},{"user_id":182,"name":"Suo.Txt","steam_id":76561199247349744,"connected_time":2794000000000,"state":"active","ping":75}]},{"server_id":21,"name":"Uncletopia | London | 5 | All Maps","name_short":"lon-5","host":"lon-1.uk.uncletopia.com","port":27055,"enabled":true,"region":"eu","cc":"gb","latitude":51.509865,"longitude":-0.118092,"reserved":0,"last_update":"0001-01-01T00:00:00Z","name_a2s":"Uncletopia | London | 5 | All Maps","protocol":17,"map":"koth_harvest_final","folder":"tf","game":"Team Fortress","app_id":440,"player_count":24,"max_players":24,"Bots":0,"server_type":"Dedicated","server_os":"Linux","password":true,"vac":true,"version":"7961495","steam_id":85568392924742829,"keywords":["cp","nocrits","nodmgspread","uncletopia"],"game_id":440,"stv_port":27056,"stv_name":"Uncletopia | London | 5 | All Maps | STV","players":[{"user_id":9,"name":"IndigoJones","steam_id":76561198050284262,"connected_time":7071000000000,"state":"active","ping":49},{"user_id":76,"name":"bitkomet","steam_id":76561198058232147,"connected_time":768000000000,"state":"active","ping":76},{"user_id":11,"name":"Shapeshifter","steam_id":76561198052898368,"connected_time":6789000000000,"state":"active","ping":82},{"user_id":87,"name":"waahh im baby gugu gaga im cry","steam_id":76561198190583242,"connected_time":413000000000,"state":"active","ping":90},{"user_id":48,"name":"Packet","steam_id":76561199173195875,"connected_time":1350000000000,"state":"active","ping":75},{"user_id":28,"name":"Warrior555MainsGanon","steam_id":76561198388627786,"connected_time":2641000000000,"state":"active","ping":56},{"user_id":71,"name":"Villdjack","steam_id":76561197999480096,"connected_time":868000000000,"state":"active","ping":56},{"user_id":90,"name":"FishD.ck_47","steam_id":76561198114773103,"connected_time":191000000000,"state":"active","ping":60},{"user_id":84,"name":"tiamat","steam_id":76561198116027948,"connected_time":479000000000,"state":"active","ping":82},{"user_id":77,"name":"Domcxz","steam_id":76561198291703984,"connected_time":756000000000,"state":"active","ping":71},{"user_id":29,"name":"Duktigafred","steam_id":76561199211222396,"connected_time":2469000000000,"state":"active","ping":62},{"user_id":79,"name":"xarks","steam_id":76561198026236701,"connected_time":639000000000,"state":"active","ping":61},{"user_id":38,"name":"Tavish","steam_id":76561197971486686,"connected_time":1849000000000,"state":"active","ping":50},{"user_id":80,"name":"Keroz1n","steam_id":76561197998681491,"connected_time":632000000000,"state":"active","ping":75},{"user_id":44,"name":"❖ RazzorBee","steam_id":76561198092493838,"connected_time":1499000000000,"state":"active","ping":106},{"user_id":45,"name":"Haghehog","steam_id":76561198075729793,"connected_time":1493000000000,"state":"active","ping":141},{"user_id":91,"name":"BeefHammer","steam_id":76561198078426223,"connected_time":68000000000,"state":"active","ping":89},{"user_id":56,"name":"A simple berry picker","steam_id":76561198091969871,"connected_time":1213000000000,"state":"active","ping":70},{"user_id":85,"name":"The Funny Cat-Heaby","steam_id":76561198439978112,"connected_time":468000000000,"state":"active","ping":95},{"user_id":59,"name":"Jeffrey Harpen","steam_id":76561199073314677,"connected_time":1151000000000,"state":"active","ping":70},{"user_id":81,"name":"vegetable_lover_45","steam_id":76561198361621766,"connected_time":600000000000,"state":"active","ping":44},{"user_id":92,"name":"nordstream bomber","steam_id":76561199401283123,"connected_time":61000000000,"state":"active","ping":38},{"user_id":64,"name":"uthgarthegiant","steam_id":76561198348616230,"connected_time":1094000000000,"state":"active","ping":135},{"user_id":65,"name":"heavy the chicken kiev","steam_id":76561198109988166,"connected_time":1078000000000,"state":"active","ping":45}]},{"server_id":22,"name":"Uncletopia | London | 6 | All Maps","name_short":"lon-6","host":"lon-1.uk.uncletopia.com","port":27065,"enabled":true,"region":"eu","cc":"gb","latitude":51.509865,"longitude":-0.118092,"reserved":0,"last_update":"0001-01-01T00:00:00Z","name_a2s":"Uncletopia | London | 6 | All Maps","protocol":17,"map":"cp_process_final","folder":"tf","game":"Team Fortress","app_id":440,"player_count":24,"max_players":24,"Bots":0,"server_type":"Dedicated","server_os":"Linux","password":true,"vac":true,"version":"7961495","steam_id":85568392924742830,"keywords":["cp","nocrits","nodmgspread","uncletopia"],"game_id":440,"stv_port":27066,"stv_name":"Uncletopia | London | 6 | All Maps | STV","players":[{"user_id":143,"name":"Gregor Samsa","steam_id":76561198973069177,"connected_time":1554000000000,"state":"active","ping":59},{"user_id":160,"name":"Fischer101","steam_id":76561198301481739,"connected_time":332000000000,"state":"active","ping":52},{"user_id":153,"name":"co","steam_id":76561198188225497,"connected_time":903000000000,"state":"active","ping":50},{"user_id":77,"name":"R8N - Obismal","steam_id":76561198007482714,"connected_time":6109000000000,"state":"active","ping":75},{"user_id":112,"name":"Macci - Obismal","steam_id":76561198050485404,"connected_time":4375000000000,"state":"active","ping":85},{"user_id":139,"name":"r^f butter","steam_id":76561198130814770,"connected_time":1644000000000,"state":"active","ping":68},{"user_id":147,"name":"ⓅⓁⓈ | Pink Panther","steam_id":76561198046434381,"connected_time":1471000000000,"state":"active","ping":45},{"user_id":152,"name":"birdy","steam_id":76561198088409212,"connected_time":1119000000000,"state":"active","ping":45},{"user_id":117,"name":"Caruzon - Obismal","steam_id":76561198036211170,"connected_time":3858000000000,"state":"active","ping":85},{"user_id":134,"name":"Poosniff Gaming","steam_id":76561198086132840,"connected_time":2179000000000,"state":"active","ping":46},{"user_id":61,"name":"Ullr","steam_id":76561198140547483,"connected_time":7307000000000,"state":"active","ping":45},{"user_id":115,"name":"DHD - Obismal","steam_id":76561198000356530,"connected_time":3885000000000,"state":"active","ping":76},{"user_id":100,"name":"Blar","steam_id":76561198042438229,"connected_time":4724000000000,"state":"active","ping":42},{"user_id":142,"name":"P3rsErkki","steam_id":76561198063093495,"connected_time":1621000000000,"state":"active","ping":60},{"user_id":144,"name":"Omyskull","steam_id":76561198131711758,"connected_time":1545000000000,"state":"active","ping":53},{"user_id":110,"name":"TBT","steam_id":76561198971318994,"connected_time":4494000000000,"state":"active","ping":148},{"user_id":102,"name":"aSourLemonade","steam_id":76561198872382968,"connected_time":4671000000000,"state":"active","ping":58},{"user_id":146,"name":"Sunshine","steam_id":76561198885528098,"connected_time":1504000000000,"state":"active","ping":119},{"user_id":161,"name":"Mr. Hunts","steam_id":76561197981910397,"connected_time":198000000000,"state":"active","ping":60},{"user_id":163,"name":"Dude Time","steam_id":76561198092991160,"connected_time":111000000000,"state":"active","ping":160},{"user_id":103,"name":"cl_skillissue 1","steam_id":76561199286764992,"connected_time":4661000000000,"state":"active","ping":77},{"user_id":123,"name":":)","steam_id":76561198039964082,"connected_time":3745000000000,"state":"active","ping":67},{"user_id":129,"name":"ShadowTwin","steam_id":76561198046658200,"connected_time":2959000000000,"state":"active","ping":44},{"user_id":159,"name":"Tyren","steam_id":76561198993747516,"connected_time":359000000000,"state":"active","ping":51}]},{"server_id":40,"name":"Uncletopia | London | 7 | Stopwatch","name_short":"lon-7","host":"lon-1.uk.uncletopia.com","port":27075,"enabled":true,"region":"eu","cc":"gb","latitude":51.509865,"longitude":-0.118092,"reserved":0,"last_update":"0001-01-01T00:00:00Z","name_a2s":"Uncletopia | London | 7 | Stopwatch","protocol":17,"map":"workshop/koth_clearcut_b15.ugc2107050255","folder":"tf","game":"Team Fortress","app_id":440,"player_count":0,"max_players":24,"Bots":0,"server_type":"Dedicated","server_os":"Linux","password":true,"vac":true,"version":"7961495","steam_id":85568392924964314,"keywords":["cp","nocrits","nodmgspread","uncletopia"],"game_id":440,"stv_port":27076,"stv_name":"Uncletopia | London | 7 | Stopwatch | STV","players":null},{"server_id":41,"name":"Uncletopia | London | 8 | Community","name_short":"lon-8","host":"lon-1.uk.uncletopia.com","port":27085,"enabled":true,"region":"eu","cc":"gb","latitude":51.509865,"longitude":-0.118092,"reserved":0,"last_update":"0001-01-01T00:00:00Z","name_a2s":"Uncletopia | London | 8 | Community","protocol":17,"map":"workshop/cp_bruhstbowl_b6.ugc2878604990","folder":"tf","game":"Team Fortress","app_id":440,"player_count":0,"max_players":24,"Bots":0,"server_type":"Dedicated","server_os":"Linux","password":true,"vac":true,"version":"7961495","steam_id":85568392924964315,"keywords":["cp","nocrits","nodmgspread","uncletopia"],"game_id":440,"stv_port":27086,"stv_name":"Uncletopia | London | 8 | Community | STV","players":null},{"server_id":300,"name":"Uncletopia | Montréal | 1 | One Thousand Uncles","name_short":"mtl-1","host":"mtl-1.ca.uncletopia.com","port":27015,"enabled":true,"region":"us-east","cc":"ca","latitude":45.50889,"longitude":-73.56167,"reserved":0,"last_update":"0001-01-01T00:00:00Z","name_a2s":"Uncletopia | Montréal | 1 | One Thousand Uncles","protocol":17,"map":"pl_chilly","folder":"tf","game":"Team Fortress","app_id":440,"player_count":0,"max_players":32,"Bots":0,"server_type":"Dedicated","server_os":"Linux","password":true,"vac":true,"version":"7961495","steam_id":85568392924500087,"keywords":["alltalk","danepve","increased_maxplayers","norespawntime","payload","uncletopia"],"game_id":440,"stv_port":0,"stv_name":"","players":null},{"server_id":301,"name":"Uncletopia | Montréal | 2 | One Thousand Uncles","name_short":"mtl-2","host":"mtl-1.ca.uncletopia.com","port":27025,"enabled":true,"region":"us-east","cc":"ca","latitude":45.50889,"longitude":-73.56167,"reserved":0,"last_update":"0001-01-01T00:00:00Z","name_a2s":"Uncletopia | Montréal | 2 | One Thousand Uncles","protocol":17,"map":"pl_chilly","folder":"tf","game":"Team Fortress","app_id":440,"player_count":0,"max_players":32,"Bots":0,"server_type":"Dedicated","server_os":"Linux","password":true,"vac":true,"version":"7961495","steam_id":85568392924500088,"keywords":["alltalk","danepve","increased_maxplayers","norespawntime","payload","uncletopia"],"game_id":440,"stv_port":0,"stv_name":"","players":null},{"server_id":302,"name":"Uncletopia | Montréal | 3 | One Thousand Uncles","name_short":"mtl-3","host":"mtl-1.ca.uncletopia.com","port":27035,"enabled":true,"region":"us-east","cc":"ca","latitude":45.50889,"longitude":-73.56167,"reserved":0,"last_update":"0001-01-01T00:00:00Z","name_a2s":"Uncletopia | Montréal | 3 | One Thousand Uncles","protocol":17,"map":"pl_upward","folder":"tf","game":"Team Fortress","app_id":440,"player_count":0,"max_players":32,"Bots":0,"server_type":"Dedicated","server_os":"Linux","password":true,"vac":true,"version":"7961495","steam_id":85568392924500089,"keywords":["alltalk","danepve","increased_maxplayers","norespawntime","payload","uncletopia"],"game_id":440,"stv_port":0,"stv_name":"","players":null},{"server_id":13,"name":"Uncletopia | New York City | 1 | All Maps","name_short":"nyc-1","host":"nyc-1.us.uncletopia.com","port":27015,"enabled":true,"region":"us-east","cc":"us","latitude":40.73061,"longitude":-73.93524,"reserved":0,"last_update":"0001-01-01T00:00:00Z","name_a2s":"Uncletopia | New York City | 1 | All Maps","protocol":17,"map":"koth_brazil","folder":"tf","game":"Team Fortress","app_id":440,"player_count":0,"max_players":24,"Bots":0,"server_type":"Dedicated","server_os":"Linux","password":true,"vac":true,"version":"7961495","steam_id":85568392924469993,"keywords":["cp","nocrits","nodmgspread","uncletopia"],"game_id":440,"stv_port":27016,"stv_name":"Uncletopia | New York City | 1 | All Maps | STV","players":null},{"server_id":14,"name":"Uncletopia | New York City | 2 | All Maps","name_short":"nyc-2","host":"nyc-1.us.uncletopia.com","port":27025,"enabled":true,"region":"us-east","cc":"us","latitude":40.73061,"longitude":-73.93524,"reserved":0,"last_update":"0001-01-01T00:00:00Z","name_a2s":"Uncletopia | New York City | 2 | All Maps","protocol":17,"map":"cp_granary","folder":"tf","game":"Team Fortress","app_id":440,"player_count":0,"max_players":24,"Bots":0,"server_type":"Dedicated","server_os":"Linux","password":true,"vac":true,"version":"7961495","steam_id":85568392924469994,"keywords":["cp","nocrits","nodmgspread","uncletopia"],"game_id":440,"stv_port":27026,"stv_name":"Uncletopia | New York City | 2 | All Maps | STV","players":null},{"server_id":15,"name":"Uncletopia | New York City | 3 | Stopwatch","name_short":"nyc-3","host":"nyc-1.us.uncletopia.com","port":27035,"enabled":true,"region":"us-east","cc":"us","latitude":40.73061,"longitude":-73.93524,"reserved":0,"last_update":"0001-01-01T00:00:00Z","name_a2s":"Uncletopia | New York City | 3 | Stopwatch","protocol":17,"map":"workshop/cp_reckoner_rc6.ugc674719999","folder":"tf","game":"Team Fortress","app_id":440,"player_count":0,"max_players":24,"Bots":0,"server_type":"Dedicated","server_os":"Linux","password":true,"vac":true,"version":"7961495","steam_id":85568392924742820,"keywords":["cp","nocrits","nodmgspread","uncletopia"],"game_id":440,"stv_port":27036,"stv_name":"Uncletopia | New York City | 3 | Stopwatch | STV","players":null},{"server_id":16,"name":"Uncletopia | New York City | 4 | Community","name_short":"nyc-4","host":"nyc-1.us.uncletopia.com","port":27045,"enabled":true,"region":"us-east","cc":"us","latitude":40.73061,"longitude":-73.93524,"reserved":0,"last_update":"0001-01-01T00:00:00Z","name_a2s":"Uncletopia | New York City | 4 | Community","protocol":17,"map":"workshop/cp_indulge.ugc528106646","folder":"tf","game":"Team Fortress","app_id":440,"player_count":0,"max_players":24,"Bots":0,"server_type":"Dedicated","server_os":"Linux","password":true,"vac":true,"version":"7961495","steam_id":85568392924742821,"keywords":["cp","nocrits","nodmgspread","uncletopia"],"game_id":440,"stv_port":27046,"stv_name":"Uncletopia | New York City | 4 | Community | STV","players":null},{"server_id":142,"name":"Uncletopia | São Paulo | 1 | All Maps","name_short":"sao-1","host":"sao-1.br.uncletopia.com","port":27015,"enabled":true,"region":"sa","cc":"br","latitude":-23.533773,"longitude":-46.62529,"reserved":0,"last_update":"0001-01-01T00:00:00Z","name_a2s":"Uncletopia | São Paulo | 1 | All Maps","protocol":17,"map":"cp_granary","folder":"tf","game":"Team Fortress","app_id":440,"player_count":0,"max_players":24,"Bots":0,"server_type":"Dedicated","server_os":"Linux","password":true,"vac":true,"version":"7961495","steam_id":85568392924469996,"keywords":["cp","nocrits","nodmgspread","uncletopia"],"game_id":440,"stv_port":27016,"stv_name":"Uncletopia | São Paulo | 1 | All Maps | STV","players":null},{"server_id":143,"name":"Uncletopia | São Paulo | 2 | Community","name_short":"sao-2","host":"sao-2.br.uncletopia.com","port":27015,"enabled":true,"region":"sa","cc":"br","latitude":-23.533773,"longitude":-46.62529,"reserved":0,"last_update":"0001-01-01T00:00:00Z","name_a2s":"Uncletopia | São Paulo | 2 | Community","protocol":17,"map":"workshop/cp_croissant_final.ugc458840209","folder":"tf","game":"Team Fortress","app_id":440,"player_count":0,"max_players":24,"Bots":0,"server_type":"Dedicated","server_os":"Linux","password":true,"vac":true,"version":"7961495","steam_id":85568392924485349,"keywords":["cp","nocrits","nodmgspread","uncletopia"],"game_id":440,"stv_port":27016,"stv_name":"Uncletopia | São Paulo | 2 | Community | STV","players":null},{"server_id":7,"name":"Uncletopia | Seattle | 1 | All Maps","name_short":"sea-1","host":"sea-1.us.uncletopia.com","port":27015,"enabled":true,"region":"us-west","cc":"us","latitude":47.608013,"longitude":-122.33517,"reserved":0,"last_update":"0001-01-01T00:00:00Z","name_a2s":"Uncletopia | Seattle | 1 | All Maps","protocol":17,"map":"koth_cascade","folder":"tf","game":"Team Fortress","app_id":440,"player_count":0,"max_players":24,"Bots":0,"server_type":"Dedicated","server_os":"Linux","password":true,"vac":true,"version":"7961495","steam_id":85568392924469997,"keywords":["cp","nocrits","nodmgspread","uncletopia"],"game_id":440,"stv_port":27016,"stv_name":"Uncletopia | Seattle | 1 | All Maps | STV","players":null},{"server_id":119,"name":"Uncletopia | Seattle | 2 | All Maps","name_short":"sea-2","host":"sea-1.us.uncletopia.com","port":27025,"enabled":true,"region":"us-west","cc":"us","latitude":47.608013,"longitude":-122.33517,"reserved":0,"last_update":"0001-01-01T00:00:00Z","name_a2s":"Uncletopia | Seattle | 2 | All Maps","protocol":17,"map":"koth_lakeside_final","folder":"tf","game":"Team Fortress","app_id":440,"player_count":0,"max_players":24,"Bots":0,"server_type":"Dedicated","server_os":"Linux","password":true,"vac":true,"version":"7961495","steam_id":85568392924469998,"keywords":["cp","nocrits","nodmgspread","uncletopia"],"game_id":440,"stv_port":27026,"stv_name":"Uncletopia | Seattle | 2 | All Maps | STV","players":null},{"server_id":406,"name":"Uncletopia | Seattle | 3 | Stopwatch","name_short":"sea-3","host":"sea-1.us.uncletopia.com","port":27035,"enabled":true,"region":"us-west","cc":"us","latitude":47.608013,"longitude":-122.33517,"reserved":0,"last_update":"0001-01-01T00:00:00Z","name_a2s":"Uncletopia | Seattle | 3 | Stopwatch","protocol":17,"map":"cp_gullywash_final1","folder":"tf","game":"Team Fortress","app_id":440,"player_count":0,"max_players":24,"Bots":0,"server_type":"Dedicated","server_os":"Linux","password":true,"vac":true,"version":"7961495","steam_id":85568392924515217,"keywords":["cp","nocrits","nodmgspread","uncletopia"],"game_id":440,"stv_port":27036,"stv_name":"Uncletopia | Seattle | 3 | Stopwatch | STV","players":null},{"server_id":17,"name":"Uncletopia | San Francisco | 1 | All Maps","name_short":"sfo-1","host":"sfo-1.us.uncletopia.com","port":27015,"enabled":true,"region":"us-west","cc":"us","latitude":37.77397,"longitude":-122.4313,"reserved":0,"last_update":"0001-01-01T00:00:00Z","name_a2s":"Uncletopia | San Francisco | 1 | All Maps","protocol":17,"map":"koth_highpass","folder":"tf","game":"Team Fortress","app_id":440,"player_count":0,"max_players":24,"Bots":0,"server_type":"Dedicated","server_os":"Linux","password":true,"vac":true,"version":"7961495","steam_id":85568392924469999,"keywords":["cp","nocrits","nodmgspread","uncletopia"],"game_id":440,"stv_port":27016,"stv_name":"Uncletopia | San Francisco | 1 | All Maps | STV","players":null},{"server_id":18,"name":"Uncletopia | San Francisco | 2 | All Maps","name_short":"sfo-2","host":"sfo-1.us.uncletopia.com","port":27025,"enabled":true,"region":"us-west","cc":"us","latitude":37.77397,"longitude":-122.4313,"reserved":0,"last_update":"0001-01-01T00:00:00Z","name_a2s":"Uncletopia | San Francisco | 2 | All Maps","protocol":17,"map":"cp_dustbowl","folder":"tf","game":"Team Fortress","app_id":440,"player_count":0,"max_players":24,"Bots":0,"server_type":"Dedicated","server_os":"Linux","password":true,"vac":true,"version":"7961495","steam_id":85568392924470000,"keywords":["cp","nocrits","nodmgspread","uncletopia"],"game_id":440,"stv_port":27026,"stv_name":"Uncletopia | San Francisco | 2 | All Maps | STV","players":null},{"server_id":19,"name":"Uncletopia | San Francisco | 3 | Stopwatch","name_short":"sfo-3","host":"sfo-1.us.uncletopia.com","port":27035,"enabled":true,"region":"us-west","cc":"us","latitude":37.77397,"longitude":-122.4313,"reserved":0,"last_update":"0001-01-01T00:00:00Z","name_a2s":"Uncletopia | San Francisco | 3 | Stopwatch","protocol":17,"map":"workshop/koth_product_final.ugc454272353","folder":"tf","game":"Team Fortress","app_id":440,"player_count":0,"max_players":24,"Bots":0,"server_type":"Dedicated","server_os":"Linux","password":true,"vac":true,"version":"7961495","steam_id":85568392924742824,"keywords":["cp","nocrits","nodmgspread","uncletopia"],"game_id":440,"stv_port":27036,"stv_name":"Uncletopia | San Francisco | 3 | Stopwatch | STV","players":null},{"server_id":20,"name":"Uncletopia | San Francisco | 4 | Community","name_short":"sfo-4","host":"sfo-1.us.uncletopia.com","port":27045,"enabled":true,"region":"us-west","cc":"us","latitude":37.77397,"longitude":-122.4313,"reserved":0,"last_update":"0001-01-01T00:00:00Z","name_a2s":"Uncletopia | San Francisco | 4 | Community","protocol":17,"map":"workshop/pl_cactuscanyon_redux_final2.ugc2579644293","folder":"tf","game":"Team Fortress","app_id":440,"player_count":0,"max_players":24,"Bots":0,"server_type":"Dedicated","server_os":"Linux","password":true,"vac":true,"version":"7961495","steam_id":85568392924742826,"keywords":["nocrits","nodmgspread","payload","uncletopia"],"game_id":440,"stv_port":27046,"stv_name":"Uncletopia | San Francisco | 4 | Community | STV","players":null},{"server_id":141,"name":"Uncletopia | Sydney | 1 | All Maps","name_short":"syd-1","host":"syd-1.au.uncletopia.com","port":27015,"enabled":true,"region":"au","cc":"au","latitude":-33.865143,"longitude":151.2099,"reserved":0,"last_update":"0001-01-01T00:00:00Z","name_a2s":"Uncletopia | Sydney | 1 | All Maps","protocol":17,"map":"ctf_turbine","folder":"tf","game":"Team Fortress","app_id":440,"player_count":0,"max_players":24,"Bots":0,"server_type":"Dedicated","server_os":"Linux","password":true,"vac":true,"version":"7961495","steam_id":85568392924470001,"keywords":["ctf","nocrits","nodmgspread","uncletopia"],"game_id":440,"stv_port":27016,"stv_name":"Uncletopia | Sydney | 1 | All Maps | STV","players":null},{"server_id":123,"name":"Uncletopia | Sydney | 2 | All Maps","name_short":"syd-2","host":"syd-1.au.uncletopia.com","port":27025,"enabled":true,"region":"au","cc":"au","latitude":-33.865143,"longitude":151.2099,"reserved":0,"last_update":"0001-01-01T00:00:00Z","name_a2s":"Uncletopia | Sydney | 2 | All Maps","protocol":17,"map":"pl_pier","folder":"tf","game":"Team Fortress","app_id":440,"player_count":0,"max_players":24,"Bots":0,"server_type":"Dedicated","server_os":"Linux","password":true,"vac":true,"version":"7961495","steam_id":85568392924470002,"keywords":["nocrits","nodmgspread","payload","uncletopia"],"game_id":440,"stv_port":27026,"stv_name":"Uncletopia | Sydney | 2 | All Maps | STV","players":null},{"server_id":395,"name":"Uncletopia | Sydney | 3 | All Maps","name_short":"syd-3","host":"syd-1.au.uncletopia.com","port":27035,"enabled":true,"region":"au","cc":"au","latitude":-33.865143,"longitude":151.2099,"reserved":0,"last_update":"0001-01-01T00:00:00Z","name_a2s":"Uncletopia | Sydney | 3 | All Maps","protocol":17,"map":"cp_metalworks","folder":"tf","game":"Team Fortress","app_id":440,"player_count":0,"max_players":24,"Bots":0,"server_type":"Dedicated","server_os":"Linux","password":true,"vac":true,"version":"7961495","steam_id":85568392925194467,"keywords":["cp","nocrits","nodmgspread","uncletopia"],"game_id":440,"stv_port":27036,"stv_name":"Uncletopia | Sydney | 3 | All Maps | STV","players":null},{"server_id":396,"name":"Uncletopia | Sydney | 4 | All Maps","name_short":"syd-4","host":"syd-1.au.uncletopia.com","port":27045,"enabled":true,"region":"au","cc":"au","latitude":-33.865143,"longitude":151.2099,"reserved":0,"last_update":"0001-01-01T00:00:00Z","name_a2s":"Uncletopia | Sydney | 4 | All Maps","protocol":17,"map":"koth_cascade","folder":"tf","game":"Team Fortress","app_id":440,"player_count":0,"max_players":24,"Bots":0,"server_type":"Dedicated","server_os":"Linux","password":true,"vac":true,"version":"7961495","steam_id":85568392925397958,"keywords":["cp","nocrits","nodmgspread","uncletopia"],"game_id":440,"stv_port":27046,"stv_name":"Uncletopia | Sydney | 4 | All Maps | STV","players":null},{"server_id":58,"name":"Uncletopia | Sydney | 5 | Stopwatch","name_short":"syd-5","host":"syd-1.au.uncletopia.com","port":27055,"enabled":true,"region":"au","cc":"au","latitude":-33.865143,"longitude":151.2099,"reserved":0,"last_update":"0001-01-01T00:00:00Z","name_a2s":"Uncletopia | Sydney | 5 | Stopwatch","protocol":17,"map":"cp_sunshine","folder":"tf","game":"Team Fortress","app_id":440,"player_count":0,"max_players":24,"Bots":0,"server_type":"Dedicated","server_os":"Linux","password":true,"vac":true,"version":"7961495","steam_id":85568392925397959,"keywords":["cp","nocrits","nodmgspread","uncletopia"],"game_id":440,"stv_port":27056,"stv_name":"Uncletopia | Sydney | 5 | Stopwatch | STV","players":null},{"server_id":59,"name":"Uncletopia | Sydney | 6 | Community","name_short":"syd-6","host":"syd-1.au.uncletopia.com","port":27065,"enabled":true,"region":"au","cc":"au","latitude":-33.865143,"longitude":151.2099,"reserved":0,"last_update":"0001-01-01T00:00:00Z","name_a2s":"Uncletopia | Sydney | 6 | Community","protocol":17,"map":"workshop/koth_trenchfoot_ab1.ugc731436616","folder":"tf","game":"Team Fortress","app_id":440,"player_count":0,"max_players":24,"Bots":0,"server_type":"Dedicated","server_os":"Linux","password":true,"vac":true,"version":"7961495","steam_id":85568392925397960,"keywords":["cp","nocrits","nodmgspread","uncletopia"],"game_id":440,"stv_port":27066,"stv_name":"Uncletopia | Sydney | 6 | Community | STV","players":null},{"server_id":49,"name":"Uncletopia | Warsaw | 1 | One Thousand Uncles","name_short":"waw-1","host":"waw-1.pl.uncletopia.com","port":27015,"enabled":true,"region":"eu","cc":"pl","latitude":52.2297,"longitude":21.017532,"reserved":0,"last_update":"0001-01-01T00:00:00Z","name_a2s":"Uncletopia | Warsaw | 1 | One Thousand Uncles","protocol":17,"map":"pl_pier","folder":"tf","game":"Team Fortress","app_id":440,"player_count":26,"max_players":32,"Bots":16,"server_type":"Dedicated","server_os":"Linux","password":true,"vac":true,"version":"7961495","steam_id":85568392925397850,"keywords":["alltalk","bots","danepve","increased_maxplayers","norespawntime","payload","uncletopia"],"game_id":440,"stv_port":0,"stv_name":"","players":[{"user_id":290,"name":"Dj_Bear","steam_id":76561198149865187,"connected_time":1581000000000,"state":"active","ping":40},{"user_id":291,"name":"JayMaloney","steam_id":76561198050173547,"connected_time":1530000000000,"state":"active","ping":74},{"user_id":136,"name":"adv6","steam_id":76561198029789989,"connected_time":10565000000000,"state":"active","ping":73},{"user_id":296,"name":"Bordt258","steam_id":76561199038280717,"connected_time":1143000000000,"state":"active","ping":53},{"user_id":227,"name":"xanderomeister","steam_id":76561198882550389,"connected_time":3949000000000,"state":"active","ping":73},{"user_id":265,"name":"The Last Thing","steam_id":76561198047192080,"connected_time":2409000000000,"state":"active","ping":181},{"user_id":314,"name":"samallwise","steam_id":76561199011855102,"connected_time":516000000000,"state":"active","ping":156},{"user_id":299,"name":"Grenouillator","steam_id":76561197991694500,"connected_time":861000000000,"state":"active","ping":149},{"user_id":313,"name":"Shelly1052","steam_id":76561199043551053,"connected_time":606000000000,"state":"active","ping":74},{"user_id":193,"name":"the baddest boy in btd5","steam_id":76561199487914508,"connected_time":6791000000000,"state":"active","ping":37},{"user_id":272,"name":"Pain in a Box","steam_id":76561197990777173,"connected_time":2171000000000,"state":"active","ping":69}]},{"server_id":50,"name":"Uncletopia | Warsaw | 2 | One Thousand Uncles","name_short":"waw-2","host":"waw-1.pl.uncletopia.com","port":27025,"enabled":true,"region":"eu","cc":"pl","latitude":52.2297,"longitude":21.017532,"reserved":0,"last_update":"0001-01-01T00:00:00Z","name_a2s":"Uncletopia | Warsaw | 2 | One Thousand Uncles","protocol":17,"map":"cp_egypt_final","folder":"tf","game":"Team Fortress","app_id":440,"player_count":21,"max_players":32,"Bots":16,"server_type":"Dedicated","server_os":"Linux","password":true,"vac":true,"version":"7961495","steam_id":85568392925397851,"keywords":["alltalk","bots","cp","danepve","increased_maxplayers","norespawntime","uncletopia"],"game_id":440,"stv_port":0,"stv_name":"","players":[{"user_id":76,"name":"[SQ UA] MartianDill","steam_id":76561198405382822,"connected_time":316000000000,"state":"active","ping":52},{"user_id":73,"name":"Denton","steam_id":76561198367991717,"connected_time":657000000000,"state":"active","ping":54},{"user_id":75,"name":"ZharMeny","steam_id":76561199086841610,"connected_time":468000000000,"state":"active","ping":130},{"user_id":77,"name":"100PLAK","steam_id":76561198882383568,"connected_time":187000000000,"state":"active","ping":58},{"user_id":78,"name":"gametram","steam_id":76561199129180186,"connected_time":26000000000,"state":"active","ping":62}]},{"server_id":51,"name":"Uncletopia | Warsaw | 3 | All Maps","name_short":"waw-3","host":"waw-1.pl.uncletopia.com","port":27035,"enabled":true,"region":"eu","cc":"pl","latitude":52.2297,"longitude":21.017532,"reserved":0,"last_update":"0001-01-01T00:00:00Z","name_a2s":"Uncletopia | Warsaw | 3 | All Maps","protocol":17,"map":"pl_snowycoast","folder":"tf","game":"Team Fortress","app_id":440,"player_count":3,"max_players":24,"Bots":0,"server_type":"Dedicated","server_os":"Linux","password":true,"vac":true,"version":"7961495","steam_id":85568392925397852,"keywords":["nocrits","nodmgspread","payload","uncletopia"],"game_id":440,"stv_port":27036,"stv_name":"Uncletopia | Warsaw | 3 | All Maps | STV","players":[{"user_id":4,"name":"jukkupukku","steam_id":76561198859063959,"connected_time":270000000000,"state":"active","ping":45},{"user_id":5,"name":"Gentel_man jr","steam_id":76561199017757748,"connected_time":245000000000,"state":"active","ping":45},{"user_id":6,"name":"g0LD3Np3NC1L","steam_id":76561199235949438,"connected_time":244000000000,"state":"active","ping":57}]},{"server_id":52,"name":"Uncletopia | Warsaw | 4 | All Maps","name_short":"waw-4","host":"waw-1.pl.uncletopia.com","port":27045,"enabled":true,"region":"eu","cc":"pl","latitude":52.2297,"longitude":21.017532,"reserved":0,"last_update":"0001-01-01T00:00:00Z","name_a2s":"Uncletopia | Warsaw | 4 | All Maps","protocol":17,"map":"cp_process_final","folder":"tf","game":"Team Fortress","app_id":440,"player_count":0,"max_players":24,"Bots":0,"server_type":"Dedicated","server_os":"Linux","password":true,"vac":true,"version":"7961495","steam_id":85568392925397853,"keywords":["cp","nocrits","nodmgspread","uncletopia"],"game_id":440,"stv_port":27046,"stv_name":"Uncletopia | Warsaw | 4 | All Maps | STV","players":null},{"server_id":53,"name":"Uncletopia | Warsaw | 5 | Stopwatch","name_short":"waw-5","host":"waw-1.pl.uncletopia.com","port":27055,"enabled":true,"region":"eu","cc":"pl","latitude":52.2297,"longitude":21.017532,"reserved":0,"last_update":"0001-01-01T00:00:00Z","name_a2s":"Uncletopia | Warsaw | 5 | Stopwatch","protocol":17,"map":"cp_sunshine","folder":"tf","game":"Team Fortress","app_id":440,"player_count":0,"max_players":24,"Bots":0,"server_type":"Dedicated","server_os":"Linux","password":true,"vac":true,"version":"7961495","steam_id":85568392925397854,"keywords":["cp","nocrits","nodmgspread","uncletopia"],"game_id":440,"stv_port":27056,"stv_name":"Uncletopia | Warsaw | 5 | Stopwatch | STV","players":null},{"server_id":54,"name":"Uncletopia | Warsaw | 6 | Community","name_short":"waw-6","host":"waw-1.pl.uncletopia.com","port":27065,"enabled":true,"region":"eu","cc":"pl","latitude":52.2297,"longitude":21.017532,"reserved":0,"last_update":"0001-01-01T00:00:00Z","name_a2s":"Uncletopia | Warsaw | 6 | Community","protocol":17,"map":"workshop/pl_highwood_b13.ugc1769496557","folder":"tf","game":"Team Fortress","app_id":440,"player_count":0,"max_players":24,"Bots":0,"server_type":"Dedicated","server_os":"Linux","password":true,"vac":true,"version":"7961495","steam_id":85568392925397856,"keywords":["nocrits","nodmgspread","payload","uncletopia"],"game_id":440,"stv_port":27066,"stv_name":"Uncletopia | Warsaw | 6 | Community | STV","players":null}]}