{"status":true,"message":"","result":[{"server_id":9,"name":"Uncletopia | Atlanta | 1 | All Maps","name_short":"atl-1","host":"atl-1.us.uncletopia.com","port":27015,"enabled":true,"region":"us-east","cc":"us","latitude":33.753746,"longitude":-84.38633,"reserved":0,"last_update":"0001-01-01T00:00:00Z","name_a2s":"Uncletopia | Atlanta | 1 | All Maps","protocol":17,"map":"pl_badwater","folder":"tf","game":"Team Fortress","app_id":440,"player_count":24,"max_players":24,"Bots":0,"server_type":"Dedicated","server_os":"Linux","password":true,"vac":true,"version":"7757534","steam_id":85568392924469982,"keywords":["nocrits","nodmgspread","payload","uncletopia"],"game_id":440,"stv_port":27016,"stv_name":"Uncletopia | Atlanta | 1 | All Maps | STV","players":[{"user_id":455,"name":"OrangeGlazer","steam_id":76561198127358240,"connected_time":3906000000000,"state":"active","ping":60},{"user_id":498,"name":"Princessie Matifina","steam_id":76561198060498180,"connected_time":333000000000,"state":"active","ping":61},{"user_id":488,"name":"^_^","steam_id":76561198971354161,"connected_time":1014000000000,"state":"active","ping":56},{"user_id":487,"name":"David De Bergerac","steam_id":76561198010306294,"connected_time":1031000000000,"state":"active","ping":83},{"user_id":489,"name":"Quansen","steam_id":76561198151594550,"connected_time":971000000000,"state":"active","ping":74},{"user_id":482,"name":"NovaSc6ut","steam_id":76561198277163301,"connected_time":2164000000000,"state":"active","ping":79},{"user_id":497,"name":"RaixaR","steam_id":76561198025289430,"connected_time":342000000000,"state":"active","ping":83},{"user_id":456,"name":"ATLS1 | SparkStorm","steam_id":76561198095817025,"connected_time":3904000000000,"state":"active","ping":36},{"user_id":485,"name":"JPMockMan","steam_id":76561198071370876,"connected_time":1042000000000,"state":"active","ping":90},{"user_id":504,"name":"Chemist","steam_id":76561198175623743,"connected_time":17000000000,"state":"spawning","ping":126},{"user_id":491,"name":"donger man","steam_id":76561199011880402,"connected_time":945000000000,"state":"active","ping":103},{"user_id":500,"name":"KoolBucky","steam_id":76561198147927648,"connected_time":259000000000,"state":"active","ping":62},{"user_id":496,"name":"Sweetheart of the Rodeo","steam_id":76561198164684751,"connected_time":352000000000,"state":"active","ping":72},{"user_id":444,"name":"Ziath","steam_id":76561198094009164,"connected_time":5057000000000,"state":"active","ping":69},{"user_id":484,"name":"vordhosbn","steam_id":76561198148132163,"connected_time":1053000000000,"state":"active","ping":84},{"user_id":442,"name":"O'Keearns","steam_id":76561198042213797,"connected_time":5274000000000,"state":"active","ping":45},{"user_id":481,"name":"Snoogs","steam_id":76561198444880931,"connected_time":2313000000000,"state":"active","ping":71},{"user_id":492,"name":"Anna","steam_id":76561197999657118,"connected_time":766000000000,"state":"active","ping":84},{"user_id":474,"name":"Speedy","steam_id":76561198080761661,"connected_time":2748000000000,"state":"active","ping":84},{"user_id":486,"name":"melancholy","steam_id":76561198024301465,"connected_time":1041000000000,"state":"active","ping":45},{"user_id":483,"name":"shooty","steam_id":76561198128485603,"connected_time":1982000000000,"state":"active","ping":67},{"user_id":402,"name":"cheeks","steam_id":76561197993371179,"connected_time":8971000000000,"state":"active","ping":56},{"user_id":358,"name":"lil hog","steam_id":76561199230929836,"connected_time":14373000000000,"state":"active","ping":78},{"user_id":503,"name":"pablo","steam_id":76561198395577807,"connected_time":107000000000,"state":"active","ping":49}]},{"server_id":400,"name":"Uncletopia | Atlanta | 3 | Community","name_short":"atl-3","host":"atl-1.us.uncletopia.com","port":27035,"enabled":true,"region":"us-east","cc":"us","latitude":33.753746,"longitude":-84.38633,"reserved":0,"last_update":"0001-01-01T00:00:00Z","name_a2s":"Uncletopia | Atlanta | 3 | Community","protocol":17,"map":"workshop/cp_caldera_rc2.ugc2834196889","folder":"tf","game":"Team Fortress","app_id":440,"player_count":16,"max_players":24,"Bots":0,"server_type":"Dedicated","server_os":"Linux","password":true,"vac":true,"version":"7757534","steam_id":85568392924515187,"keywords":["cp","nocrits","nodmgspread","uncletopia"],"game_id":440,"stv_port":27036,"stv_name":"Uncletopia | Atlanta | 3 | Community | STV","players":[{"user_id":172,"name":"All 24 Pokémon movies at once","steam_id":76561198164738311,"connected_time":2470000000000,"state":"active","ping":92},{"user_id":197,"name":"PyroTechno","steam_id":76561198060929872,"connected_time":139000000000,"state":"active","ping":48},{"user_id":192,"name":"Roll9898","steam_id":76561198066939657,"connected_time":420000000000,"state":"active","ping":99},{"user_id":186,"name":"SDL","steam_id":76561198859719985,"connected_time":1033000000000,"state":"active","ping":88},{"user_id":190,"name":"ouch mommy help meee","steam_id":76561199059257565,"connected_time":569000000000,"state":"active","ping":81},{"user_id":191,"name":"deltuh","steam_id":76561198121067719,"connected_time":429000000000,"state":"active","ping":83},{"user_id":196,"name":"VidzCMC","steam_id":76561198848142973,"connected_time":282000000000,"state":"active","ping":75},{"user_id":194,"name":"cass","steam_id":76561198074502046,"connected_time":384000000000,"state":"active","ping":56},{"user_id":151,"name":"tanner","steam_id":76561198137381904,"connected_time":3401000000000,"state":"active","ping":116},{"user_id":181,"name":"basil","steam_id":76561198075758026,"connected_time":1583000000000,"state":"active","ping":80},{"user_id":198,"name":"-|Kappin'|- ExplosiveDiahrea","steam_id":76561198017045020,"connected_time":5000000000,"state":"spawning","ping":155},{"user_id":61,"name":"MARIOPARTYDSFAN","steam_id":76561198872122117,"connected_time":8981000000000,"state":"active","ping":55},{"user_id":184,"name":"t.tv/FamilyGuyFunnyMoments277","steam_id":76561198416047580,"connected_time":1368000000000,"state":"active","ping":97},{"user_id":167,"name":"RED1 | icyy","steam_id":76561198968001329,"connected_time":2921000000000,"state":"active","ping":46},{"user_id":68,"name":"latte","steam_id":76561198258062078,"connected_time":8084000000000,"state":"active","ping":66},{"user_id":188,"name":"floofy","steam_id":76561198389769098,"connected_time":788000000000,"state":"active","ping":80}]},{"server_id":401,"name":"Uncletopia | Atlanta | 4 | No Payload","name_short":"atl-4","host":"atl-1.us.uncletopia.com","port":27045,"enabled":true,"region":"us-east","cc":"us","latitude":33.753746,"longitude":-84.38633,"reserved":0,"last_update":"0001-01-01T00:00:00Z","name_a2s":"","protocol":0,"map":"","folder":"","game":"","app_id":0,"player_count":0,"max_players":0,"Bots":0,"server_type":"","server_os":"","password":false,"vac":false,"version":"","steam_id":0,"keywords":null,"game_id":0,"stv_port":0,"stv_name":"","players":null},{"server_id":2,"name":"Uncletopia | Chicago | 1 | All Maps","name_short":"chi-1","host":"chi-1.us.uncletopia.com","port":27015,"enabled":true,"region":"us-central","cc":"us","latitude":41.881832,"longitude":-87.62318,"reserved":0,"last_update":"0001-01-01T00:00:00Z","name_a2s":"Uncletopia | Chicago | 1 | All Maps","protocol":17,"map":"pl_barnblitz","folder":"tf","game":"Team Fortress","app_id":440,"player_count":24,"max_players":24,"Bots":0,"server_type":"Dedicated","server_os":"Linux","password":true,"vac":true,"version":"7757534","steam_id":85568392924469984,"keywords":["nocrits","nodmgspread","payload","uncletopia"],"game_id":440,"stv_port":27016,"stv_name":"Uncletopia | Chicago | 1 | All Maps | STV","players":[{"user_id":807,"name":"LunarStorm","steam_id":76561198321826743,"connected_time":3417000000000,"state":"active","ping":234},{"user_id":745,"name":"ApertureCity","steam_id":76561198004153607,"connected_time":8311000000000,"state":"active","ping":80},{"user_id":824,"name":"Sarbanes-Oxley","steam_id":76561197975898479,"connected_time":1856000000000,"state":"active","ping":73},{"user_id":823,"name":"Yukon Cornelius","steam_id":76561198261512781,"connected_time":1969000000000,"state":"active","ping":66},{"user_id":830,"name":"i really like this dog :)","steam_id":76561198882404753,"connected_time":1428000000000,"state":"active","ping":81},{"user_id":769,"name":"koolamundo","steam_id":76561198101705890,"connected_time":6318000000000,"state":"active","ping":68},{"user_id":827,"name":"Tones","steam_id":76561198039572032,"connected_time":1622000000000,"state":"active","ping":59},{"user_id":835,"name":"ChefMike","steam_id":76561198414034069,"connected_time":1049000000000,"state":"active","ping":63},{"user_id":842,"name":"Female Gamer","steam_id":76561199366482682,"connected_time":202000000000,"state":"active","ping":102},{"user_id":839,"name":"Fudge_Cake","steam_id":76561198059218167,"connected_time":272000000000,"state":"active","ping":84},{"user_id":775,"name":"Flyfriend28","steam_id":76561198131983415,"connected_time":6248000000000,"state":"active","ping":61},{"user_id":832,"name":"i am off oxycontins","steam_id":76561198389005732,"connected_time":1116000000000,"state":"active","ping":92},{"user_id":840,"name":"seats","steam_id":76561197998756039,"connected_time":271000000000,"state":"active","ping":105},{"user_id":793,"name":"A Zoo Keeper","steam_id":76561198013732450,"connected_time":4379000000000,"state":"active","ping":52},{"user_id":843,"name":"Big Cock Brock","steam_id":76561198093244204,"connected_time":202000000000,"state":"active","ping":75},{"user_id":836,"name":"Shamaury","steam_id":76561198073773862,"connected_time":634000000000,"state":"active","ping":62},{"user_id":828,"name":"Leapinglionz11","steam_id":76561199216740065,"connected_time":1588000000000,"state":"active","ping":99},{"user_id":820,"name":"Bald man gaming (BMG)","steam_id":76561198193416505,"connected_time":2101000000000,"state":"active","ping":54},{"user_id":801,"name":"the deadliest pyroshark","steam_id":76561198374227766,"connected_time":3763000000000,"state":"active","ping":74},{"user_id":821,"name":"defs98","steam_id":76561198134813102,"connected_time":2094000000000,"state":"active","ping":60},{"user_id":822,"name":"roman","steam_id":76561198170066797,"connected_time":2062000000000,"state":"active","ping":68},{"user_id":844,"name":"skaj","steam_id":76561198082278586,"connected_time":196000000000,"state":"active","ping":68},{"user_id":831,"name":"Japanese Destroyer Yūdachi","steam_id":76561198025988073,"connected_time":1203000000000,"state":"active","ping":66}]},{"server_id":106,"name":"Uncletopia | Chicago | 2 | All Maps","name_short":"chi-2","host":"chi-1.us.uncletopia.com","port":27025,"enabled":true,"region":"us-central","cc":"us","latitude":41.881832,"longitude":-87.62318,"reserved":0,"last_update":"0001-01-01T00:00:00Z","name_a2s":"Uncletopia | Chicago | 2 | All Maps","protocol":17,"map":"cp_process_final","folder":"tf","game":"Team Fortress","app_id":440,"player_count":24,"max_players":24,"Bots":0,"server_type":"Dedicated","server_os":"Linux","password":true,"vac":true,"version":"7757534","steam_id":85568392924469985,"keywords":["cp","nocrits","nodmgspread","uncletopia"],"game_id":440,"stv_port":27026,"stv_name":"Uncletopia | Chicago | 2 | All Maps | STV","players":[{"user_id":527,"name":"captain red","steam_id":76561198191587983,"connected_time":747000000000,"state":"active","ping":75},{"user_id":514,"name":"mush","steam_id":76561198310089797,"connected_time":1192000000000,"state":"active","ping":73},{"user_id":485,"name":"october","steam_id":76561199435885514,"connected_time":3547000000000,"state":"active","ping":77},{"user_id":528,"name":"Euphoria","steam_id":76561198187168787,"connected_time":651000000000,"state":"active","ping":70},{"user_id":520,"name":"'''''''''''''''''''''''''''''''","steam_id":76561198300550331,"connected_time":812000000000,"state":"active","ping":63},{"user_id":529,"name":"Viritidom","steam_id":76561198169197221,"connected_time":651000000000,"state":"active","ping":175},{"user_id":506,"name":"Squirt Reynolds","steam_id":76561197999753555,"connected_time":2059000000000,"state":"active","ping":55},{"user_id":511,"name":"ghostyAlchemist","steam_id":76561198448078291,"connected_time":1785000000000,"state":"active","ping":70},{"user_id":519,"name":"onionoverdose!?","steam_id":76561198144803525,"connected_time":846000000000,"state":"active","ping":74},{"user_id":503,"name":"smuffy","steam_id":76561198091459506,"connected_time":2297000000000,"state":"active","ping":66},{"user_id":487,"name":"Sammich","steam_id":76561198010543087,"connected_time":3506000000000,"state":"active","ping":79},{"user_id":530,"name":"Perry the Platypus #savetf2","steam_id":76561198273045773,"connected_time":647000000000,"state":"active","ping":101},{"user_id":468,"name":"Young-OG","steam_id":76561198058800479,"connected_time":4902000000000,"state":"active","ping":83},{"user_id":521,"name":"Thicc Boi","steam_id":76561199163799116,"connected_time":811000000000,"state":"active","ping":113},{"user_id":489,"name":"Doom Guy","steam_id":76561198035863569,"connected_time":3481000000000,"state":"active","ping":70},{"user_id":523,"name":"player 2 role","steam_id":76561198173860681,"connected_time":776000000000,"state":"active","ping":54},{"user_id":531,"name":"Fermenting Kiwi","steam_id":76561198253303497,"connected_time":627000000000,"state":"active","ping":75},{"user_id":513,"name":"ShadowDragon0125","steam_id":76561198343849022,"connected_time":1464000000000,"state":"active","ping":84},{"user_id":491,"name":"Dan","steam_id":76561198058056249,"connected_time":3465000000000,"state":"active","ping":45},{"user_id":492,"name":"DannitFrog","steam_id":76561198046465850,"connected_time":3455000000000,"state":"active","ping":72},{"user_id":517,"name":"faaaahhh","steam_id":76561198214461775,"connected_time":1145000000000,"state":"active","ping":75},{"user_id":532,"name":"germba","steam_id":76561198421591995,"connected_time":606000000000,"state":"active","ping":75},{"user_id":502,"name":"Tony Hawk Underground 2 for PSP","steam_id":76561197999901620,"connected_time":2410000000000,"state":"active","ping":58},{"user_id":534,"name":"Kapitan Bomba","steam_id":76561199102087660,"connected_time":50000000000,"state":"active","ping":72}]},{"server_id":402,"name":"Uncletopia | Chicago | 3 | All Maps","name_short":"chi-3","host":"chi-1.us.uncletopia.com","port":27035,"enabled":true,"region":"us-central","cc":"us","latitude":41.881832,"longitude":-87.62318,"reserved":0,"last_update":"0001-01-01T00:00:00Z","name_a2s":"Uncletopia | Chicago | 3 | All Maps","protocol":17,"map":"koth_cascade","folder":"tf","game":"Team Fortress","app_id":440,"player_count":4,"max_players":24,"Bots":0,"server_type":"Dedicated","server_os":"Linux","password":true,"vac":true,"version":"7757534","steam_id":85568392924515191,"keywords":["cp","nocrits","nodmgspread","uncletopia"],"game_id":440,"stv_port":27036,"stv_name":"Uncletopia | Chicago | 3 | All Maps | STV","players":[{"user_id":518,"name":"Dwaggy","steam_id":76561198027369555,"connected_time":693000000000,"state":"active","ping":60},{"user_id":521,"name":"2zi","steam_id":76561199149307190,"connected_time":276000000000,"state":"active","ping":160},{"user_id":496,"name":"Waluigi","steam_id":76561198891626233,"connected_time":3535000000000,"state":"active","ping":60},{"user_id":499,"name":"Hairy Pear","steam_id":76561198087397457,"connected_time":3267000000000,"state":"active","ping":74}]},{"server_id":403,"name":"Uncletopia | Chicago | 4 | All Maps","name_short":"chi-4","host":"chi-1.us.uncletopia.com","port":27045,"enabled":true,"region":"us-central","cc":"us","latitude":41.881832,"longitude":-87.62318,"reserved":0,"last_update":"0001-01-01T00:00:00Z","name_a2s":"Uncletopia | Chicago | 4 | All Maps","protocol":17,"map":"pl_barnblitz","folder":"tf","game":"Team Fortress","app_id":440,"player_count":0,"max_players":24,"Bots":0,"server_type":"Dedicated","server_os":"Linux","password":true,"vac":true,"version":"7757534","steam_id":85568392924515193,"keywords":["nocrits","nodmgspread","payload","uncletopia"],"game_id":440,"stv_port":27046,"stv_name":"Uncletopia | Chicago | 4 | All Maps | STV","players":null},{"server_id":36,"name":"Uncletopia | Chicago | 5 | All Maps","name_short":"chi-5","host":"chi-2.us.uncletopia.com","port":27015,"enabled":true,"region":"us-central","cc":"us","latitude":41.881832,"longitude":-87.62318,"reserved":0,"last_update":"0001-01-01T00:00:00Z","name_a2s":"Uncletopia | Chicago | 5 | All Maps","protocol":17,"map":"koth_cascade","folder":"tf","game":"Team Fortress","app_id":440,"player_count":24,"max_players":24,"Bots":0,"server_type":"Dedicated","server_os":"Linux","password":true,"vac":true,"version":"7757534","steam_id":85568392924866362,"keywords":["cp","nocrits","nodmgspread","uncletopia"],"game_id":440,"stv_port":27016,"stv_name":"Uncletopia | Chicago | 5 | All Maps | STV","players":[{"user_id":321,"name":"*****setget","steam_id":76561198118824188,"connected_time":380000000000,"state":"active","ping":118},{"user_id":261,"name":"Soup0fTheDay","steam_id":76561199039857744,"connected_time":5715000000000,"state":"active","ping":52},{"user_id":319,"name":"Harold Chaplin","steam_id":76561198036730227,"connected_time":418000000000,"state":"active","ping":83},{"user_id":307,"name":"birds in the ground","steam_id":76561198253172399,"connected_time":1504000000000,"state":"active","ping":79},{"user_id":322,"name":"Apollo","steam_id":76561197964252106,"connected_time":326000000000,"state":"active","ping":50},{"user_id":280,"name":"BillButtLicker69","steam_id":76561198070119268,"connected_time":3375000000000,"state":"active","ping":113},{"user_id":323,"name":"Kzjytsugn","steam_id":76561198130241974,"connected_time":320000000000,"state":"active","ping":79},{"user_id":270,"name":"upside down cat","steam_id":76561198028288349,"connected_time":4246000000000,"state":"active","ping":88},{"user_id":278,"name":"Wet Deer","steam_id":76561198145045927,"connected_time":3545000000000,"state":"active","ping":75},{"user_id":279,"name":"Jar Jar Kinks","steam_id":76561199087748803,"connected_time":3399000000000,"state":"active","ping":91},{"user_id":308,"name":"Atlas","steam_id":76561198127975050,"connected_time":1331000000000,"state":"active","ping":69},{"user_id":285,"name":"Sapphireblitz","steam_id":76561198272635379,"connected_time":2871000000000,"state":"active","ping":75},{"user_id":327,"name":"The Drunk Rat Bastard","steam_id":76561198994667208,"connected_time":98000000000,"state":"active","ping":77},{"user_id":325,"name":"Caboom","steam_id":76561198040221007,"connected_time":220000000000,"state":"active","ping":88},{"user_id":311,"name":"Wacky-Mo","steam_id":76561198022265991,"connected_time":1224000000000,"state":"active","ping":49},{"user_id":326,"name":"Slashes","steam_id":76561197968573499,"connected_time":209000000000,"state":"active","ping":58},{"user_id":317,"name":"Kretim","steam_id":76561199204273483,"connected_time":827000000000,"state":"active","ping":80},{"user_id":282,"name":"dancefloor degrader","steam_id":76561198079405234,"connected_time":3082000000000,"state":"active","ping":60},{"user_id":328,"name":"Peace Walker","steam_id":76561198806972543,"connected_time":62000000000,"state":"active","ping":109},{"user_id":313,"name":"Anti-porn","steam_id":76561199178575029,"connected_time":1143000000000,"state":"active","ping":73},{"user_id":294,"name":"Smashy","steam_id":76561198030704307,"connected_time":2011000000000,"state":"active","ping":75},{"user_id":315,"name":"bunny girl gaming","steam_id":76561198054925421,"connected_time":1126000000000,"state":"active","ping":58},{"user_id":290,"name":"husband","steam_id":76561198185542405,"connected_time":2802000000000,"state":"active","ping":55},{"user_id":316,"name":"aversa","steam_id":76561198840460101,"connected_time":1098000000000,"state":"active","ping":75}]},{"server_id":37,"name":"Uncletopia | Chicago | 6 | All Maps","name_short":"chi-6","host":"chi-2.us.uncletopia.com","port":27025,"enabled":true,"region":"us-central","cc":"us","latitude":41.881832,"longitude":-87.62318,"reserved":0,"last_update":"0001-01-01T00:00:00Z","name_a2s":"Uncletopia | Chicago | 6 | All Maps","protocol":17,"map":"pl_upward","folder":"tf","game":"Team Fortress","app_id":440,"player_count":24,"max_players":24,"Bots":0,"server_type":"Dedicated","server_os":"Linux","password":true,"vac":true,"version":"7757534","steam_id":85568392924866363,"keywords":["nocrits","nodmgspread","payload","uncletopia"],"game_id":440,"stv_port":27026,"stv_name":"Uncletopia | Chicago | 6 | All Maps | STV","players":[{"user_id":796,"name":"The Professor","steam_id":76561198113760863,"connected_time":1449000000000,"state":"active","ping":62},{"user_id":818,"name":"Brisk","steam_id":76561198129769783,"connected_time":185000000000,"state":"active","ping":74},{"user_id":741,"name":"bocchi la piedra","steam_id":76561198026458662,"connected_time":5832000000000,"state":"active","ping":94},{"user_id":828,"name":"Professional Spectator","steam_id":76561198085888959,"connected_time":28000000000,"state":"spawning","ping":55},{"user_id":798,"name":"Dispenser (Twan)","steam_id":76561197991064908,"connected_time":1411000000000,"state":"active","ping":67},{"user_id":774,"name":"brothax laptop","steam_id":76561197996713526,"connected_time":3255000000000,"state":"active","ping":90},{"user_id":733,"name":"gasparmx","steam_id":76561197998611994,"connected_time":6405000000000,"state":"active","ping":111},{"user_id":772,"name":"dwnkins","steam_id":76561198856016840,"connected_time":3381000000000,"state":"active","ping":64},{"user_id":699,"name":"Bocchi the Rock","steam_id":76561198025668771,"connected_time":8544000000000,"state":"active","ping":124},{"user_id":810,"name":"Elm","steam_id":76561198098589740,"connected_time":734000000000,"state":"active","ping":111},{"user_id":799,"name":"Black Hole Sus (Amongus)","steam_id":76561198006261751,"connected_time":1336000000000,"state":"active","ping":42},{"user_id":800,"name":"tommysoccer13","steam_id":76561197995626202,"connected_time":1328000000000,"state":"active","ping":87},{"user_id":824,"name":"daemon","steam_id":76561198001541433,"connected_time":87000000000,"state":"active","ping":60},{"user_id":823,"name":"Aristotle Voulton","steam_id":76561198100174923,"connected_time":156000000000,"state":"active","ping":82},{"user_id":821,"name":"Lore","steam_id":76561198098407538,"connected_time":165000000000,"state":"active","ping":47},{"user_id":822,"name":"Eddie Murphy","steam_id":76561198271944041,"connected_time":162000000000,"state":"active","ping":90},{"user_id":802,"name":"Dr.KombatPhD.ttv","steam_id":76561198263847667,"connected_time":1264000000000,"state":"active","ping":62},{"user_id":803,"name":"pyroboy2009","steam_id":76561197965111567,"connected_time":1243000000000,"state":"active","ping":71},{"user_id":817,"name":"Souper Scott","steam_id":76561198045518926,"connected_time":213000000000,"state":"active","ping":63},{"user_id":825,"name":"garbage (very bad)","steam_id":76561198172454407,"connected_time":81000000000,"state":"active","ping":82},{"user_id":826,"name":"Tannenbaum Trotsky","steam_id":76561199101638460,"connected_time":74000000000,"state":"active","ping":76},{"user_id":808,"name":"m yfrogs","steam_id":76561198371149432,"connected_time":963000000000,"state":"active","ping":43},{"user_id":809,"name":"Evolution","steam_id":76561198144767370,"connected_time":834000000000,"state":"active","ping":56},{"user_id":827,"name":"fish","steam_id":76561198054070811,"connected_time":42000000000,"state":"active","ping":104}]},{"server_id":38,"name":"Uncletopia | Chicago | 7 | Stopwatch Beta","name_short":"chi-7","host":"chi-2.us.uncletopia.com","port":27035,"enabled":true,"region":"us-central","cc":"us","latitude":41.881832,"longitude":-87.62318,"reserved":0,"last_update":"0001-01-01T00:00:00Z","name_a2s":"Uncletopia | Chicago | 7 | Stopwatch Beta","protocol":17,"map":"workshop/pl_badwater_pro_v12.ugc2142942074","folder":"tf","game":"Team Fortress","app_id":440,"player_count":0,"max_players":24,"Bots":0,"server_type":"Dedicated","server_os":"Linux","password":true,"vac":true,"version":"7757534","steam_id":85568392924866364,"keywords":["nocrits","nodmgspread","payload","uncletopia"],"game_id":440,"stv_port":27036,"stv_name":"Uncletopia | Chicago | 7 | Stopwatch Beta | STV","players":null},{"server_id":39,"name":"Uncletopia | Chicago | 8 | Community","name_short":"chi-8","host":"chi-2.us.uncletopia.com","port":27045,"enabled":true,"region":"us-central","cc":"us","latitude":41.881832,"longitude":-87.62318,"reserved":0,"last_update":"0001-01-01T00:00:00Z","name_a2s":"Uncletopia | Chicago | 8 | Community","protocol":17,"map":"workshop/koth_ashville_final.ugc2130459942","folder":"tf","game":"Team Fortress","app_id":440,"player_count":2,"max_players":24,"Bots":0,"server_type":"Dedicated","server_os":"Linux","password":true,"vac":true,"version":"7757534","steam_id":85568392924866365,"keywords":["cp","nocrits","nodmgspread","uncletopia"],"game_id":440,"stv_port":27046,"stv_name":"Uncletopia | Chicago | 8 | Community | STV","players":[{"user_id":142,"name":"Fresh0c0","steam_id":76561198271933283,"connected_time":285000000000,"state":"active","ping":52},{"user_id":143,"name":"Weak","steam_id":76561198857135096,"connected_time":276000000000,"state":"active","ping":56}]},{"server_id":8,"name":"Uncletopia | Dallas | 1 | All Maps","name_short":"dal-1","host":"dal-1.us.uncletopia.com","port":27015,"enabled":true,"region":"us-central","cc":"us","latitude":32.779167,"longitude":-96.80889,"reserved":0,"last_update":"0001-01-01T00:00:00Z","name_a2s":"Uncletopia | Dallas | 1 | All Maps","protocol":17,"map":"pl_pier","folder":"tf","game":"Team Fortress","app_id":440,"player_count":24,"max_players":24,"Bots":0,"server_type":"Dedicated","server_os":"Linux","password":true,"vac":true,"version":"7757534","steam_id":85568392924469986,"keywords":["nocrits","nodmgspread","payload","uncletopia"],"game_id":440,"stv_port":27016,"stv_name":"Uncletopia | Dallas | 1 | All Maps | STV","players":[{"user_id":623,"name":"Derply","steam_id":76561198871211642,"connected_time":2191000000000,"state":"active","ping":72},{"user_id":593,"name":"g00bur","steam_id":76561197993622520,"connected_time":3596000000000,"state":"active","ping":83},{"user_id":657,"name":"Lezabel","steam_id":76561198970753261,"connected_time":693000000000,"state":"active","ping":70},{"user_id":639,"name":"Chunts up with that?","steam_id":76561198063808137,"connected_time":1508000000000,"state":"active","ping":66},{"user_id":634,"name":"YungChefMingus","steam_id":76561198087122048,"connected_time":1571000000000,"state":"active","ping":56},{"user_id":628,"name":"HALO 3","steam_id":76561198020825795,"connected_time":1751000000000,"state":"active","ping":85},{"user_id":638,"name":"Checho","steam_id":76561198148751724,"connected_time":1517000000000,"state":"active","ping":114},{"user_id":647,"name":"viscodolante","steam_id":76561198013650292,"connected_time":1296000000000,"state":"active","ping":106},{"user_id":635,"name":"natman_22","steam_id":76561198203353284,"connected_time":1571000000000,"state":"active","ping":86},{"user_id":656,"name":"Keg","steam_id":76561198242688458,"connected_time":881000000000,"state":"active","ping":62},{"user_id":658,"name":"jake1west","steam_id":76561199468452444,"connected_time":673000000000,"state":"active","ping":126},{"user_id":626,"name":"AdmirableAdmiral","steam_id":76561198129966555,"connected_time":1918000000000,"state":"active","ping":85},{"user_id":606,"name":"josie","steam_id":76561198170848553,"connected_time":3258000000000,"state":"active","ping":91},{"user_id":660,"name":"mark hoppus gaming","steam_id":76561198374453163,"connected_time":244000000000,"state":"active","ping":72},{"user_id":642,"name":"xlaylowx","steam_id":76561198830237952,"connected_time":1434000000000,"state":"active","ping":92},{"user_id":633,"name":"Ava","steam_id":76561198174751517,"connected_time":1586000000000,"state":"active","ping":113},{"user_id":643,"name":"Big Yoshi","steam_id":76561199160576376,"connected_time":1429000000000,"state":"active","ping":105},{"user_id":644,"name":"Keth","steam_id":76561198043625972,"connected_time":1426000000000,"state":"active","ping":86},{"user_id":636,"name":"OY!","steam_id":76561198044189319,"connected_time":1555000000000,"state":"active","ping":103},{"user_id":653,"name":"ishygdaft","steam_id":76561198095118359,"connected_time":1173000000000,"state":"active","ping":67},{"user_id":646,"name":"marshmallowdragon999","steam_id":76561199129773712,"connected_time":1388000000000,"state":"active","ping":71},{"user_id":649,"name":"happer","steam_id":76561198018252253,"connected_time":1277000000000,"state":"active","ping":84},{"user_id":650,"name":"jimmy outlaw","steam_id":76561198070380402,"connected_time":1275000000000,"state":"active","ping":50},{"user_id":661,"name":"YetiMan","steam_id":76561198222039440,"connected_time":83000000000,"state":"active","ping":67}]},{"server_id":108,"name":"Uncletopia | Dallas | 2 | All Maps","name_short":"dal-2","host":"dal-1.us.uncletopia.com","port":27025,"enabled":true,"region":"us-central","cc":"us","latitude":32.779167,"longitude":-96.80889,"reserved":0,"last_update":"0001-01-01T00:00:00Z","name_a2s":"Uncletopia | Dallas | 2 | All Maps","protocol":17,"map":"pl_badwater","folder":"tf","game":"Team Fortress","app_id":440,"player_count":24,"max_players":24,"Bots":0,"server_type":"Dedicated","server_os":"Linux","password":true,"vac":true,"version":"7757534","steam_id":85568392924469988,"keywords":["cp","nocrits","nodmgspread","uncletopia"],"game_id":440,"stv_port":27026,"stv_name":"Uncletopia | Dallas | 2 | All Maps | STV","players":[{"user_id":517,"name":"Sovulous","steam_id":76561198045389233,"connected_time":2641000000000,"state":"connecting","ping":92},{"user_id":561,"name":"Kubloo","steam_id":76561198067391168,"connected_time":385000000000,"state":"connecting","ping":89},{"user_id":526,"name":"Dell Conagher (real)","steam_id":76561198220120368,"connected_time":2196000000000,"state":"connecting","ping":51},{"user_id":533,"name":"Trollage","steam_id":76561198165396407,"connected_time":1771000000000,"state":"connecting","ping":75},{"user_id":536,"name":".-.. --- ...- . / -.-- --- ..-","steam_id":76561198002483206,"connected_time":1720000000000,"state":"connecting","ping":47},{"user_id":562,"name":"kn","steam_id":76561198388123421,"connected_time":383000000000,"state":"connecting","ping":95},{"user_id":567,"name":"rkp!","steam_id":76561199053070819,"connected_time":302000000000,"state":"connecting","ping":87},{"user_id":530,"name":"kk","steam_id":76561198891915736,"connected_time":1954000000000,"state":"connecting","ping":94},{"user_id":551,"name":"Lorberry","steam_id":76561198023706058,"connected_time":1056000000000,"state":"connecting","ping":57},{"user_id":560,"name":"sexyvillain","steam_id":76561198083127707,"connected_time":640000000000,"state":"connecting","ping":64},{"user_id":528,"name":"iluvtoust","steam_id":76561198869269207,"connected_time":2090000000000,"state":"connecting","ping":65},{"user_id":555,"name":"Rin \"Hindwing\" Redtail","steam_id":76561199074865638,"connected_time":1023000000000,"state":"connecting","ping":69},{"user_id":550,"name":"AlvWhispery","steam_id":76561198850017423,"connected_time":1086000000000,"state":"connecting","ping":131},{"user_id":563,"name":"Oneiwon","steam_id":76561198084587698,"connected_time":344000000000,"state":"connecting","ping":91},{"user_id":487,"name":"Nugakku","steam_id":76561198082346219,"connected_time":4743000000000,"state":"connecting","ping":108},{"user_id":539,"name":"Zin","steam_id":76561198079763004,"connected_time":1706000000000,"state":"connecting","ping":94},{"user_id":549,"name":"Zeppelin Ziggy","steam_id":76561198006932308,"connected_time":1099000000000,"state":"connecting","ping":95},{"user_id":564,"name":"Kiilys","steam_id":76561198326068377,"connected_time":335000000000,"state":"connecting","ping":101},{"user_id":531,"name":"Jello","steam_id":76561198890633732,"connected_time":1953000000000,"state":"connecting","ping":89},{"user_id":565,"name":"xbox record that","steam_id":76561198150117455,"connected_time":335000000000,"state":"connecting","ping":94},{"user_id":566,"name":"Crunchy Marshmallow","steam_id":76561198065658371,"connected_time":333000000000,"state":"connecting","ping":97},{"user_id":542,"name":"A1 Jack Spicer","steam_id":76561198063006665,"connected_time":1667000000000,"state":"connecting","ping":194},{"user_id":568,"name":"ErikG65USA","steam_id":76561199381735619,"connected_time":297000000000,"state":"connecting","ping":79},{"user_id":569,"name":"OmegaRift","steam_id":76561198296864750,"connected_time":260000000000,"state":"connecting","ping":103}]},{"server_id":5,"name":"Uncletopia | Frankfurt | 1 | All Maps","name_short":"frk-1","host":"frk-1.de.uncletopia.com","port":27015,"enabled":true,"region":"eu","cc":"de","latitude":50.110924,"longitude":8.682127,"reserved":0,"last_update":"0001-01-01T00:00:00Z","name_a2s":"Uncletopia | Frankfurt | 1 | All Maps","protocol":17,"map":"pl_snowycoast","folder":"tf","game":"Team Fortress","app_id":440,"player_count":0,"max_players":24,"Bots":0,"server_type":"Dedicated","server_os":"Linux","password":true,"vac":true,"version":"7757534","steam_id":85568392924469989,"keywords":["nocrits","nodmgspread","payload","uncletopia"],"game_id":440,"stv_port":27016,"stv_name":"Uncletopia | Frankfurt | 1 | All Maps | STV","players":null},{"server_id":110,"name":"Uncletopia | Frankfurt | 2 | All Maps","name_short":"frk-2","host":"frk-1.de.uncletopia.com","port":27025,"enabled":true,"region":"eu","cc":"de","latitude":50.110924,"longitude":8.682127,"reserved":0,"last_update":"0001-01-01T00:00:00Z","name_a2s":"Uncletopia | Frankfurt | 2 | All Maps","protocol":17,"map":"pl_snowycoast","folder":"tf","game":"Team Fortress","app_id":440,"player_count":0,"max_players":24,"Bots":0,"server_type":"Dedicated","server_os":"Linux","password":true,"vac":true,"version":"7757534","steam_id":85568392924469990,"keywords":["nocrits","nodmgspread","payload","uncletopia"],"game_id":440,"stv_port":27026,"stv_name":"Uncletopia | Frankfurt | 2 | All Maps | STV","players":null},{"server_id":308,"name":"Uncletopia | Frankfurt | 3 | All Maps","name_short":"frk-3","host":"frk-1.de.uncletopia.com","port":27035,"enabled":true,"region":"eu","cc":"de","latitude":50.110924,"longitude":8.682127,"reserved":0,"last_update":"0001-01-01T00:00:00Z","name_a2s":"Uncletopia | Frankfurt | 3 | All Maps","protocol":17,"map":"cp_altitude","folder":"tf","game":"Team Fortress","app_id":440,"player_count":0,"max_players":24,"Bots":0,"server_type":"Dedicated","server_os":"Linux","password":true,"vac":true,"version":"7757534","steam_id":85568392924504274,"keywords":["cp","nocrits","nodmgspread","uncletopia"],"game_id":440,"stv_port":27036,"stv_name":"Uncletopia | Frankfurt | 3 | All Maps | STV","players":null},{"server_id":309,"name":"Uncletopia | Frankfurt | 4 | All Maps","name_short":"frk-4","host":"frk-1.de.uncletopia.com","port":27045,"enabled":true,"region":"eu","cc":"de","latitude":50.110924,"longitude":8.682127,"reserved":0,"last_update":"0001-01-01T00:00:00Z","name_a2s":"Uncletopia | Frankfurt | 4 | All Maps","protocol":17,"map":"cp_altitude","folder":"tf","game":"Team Fortress","app_id":440,"player_count":0,"max_players":24,"Bots":0,"server_type":"Dedicated","server_os":"Linux","password":true,"vac":true,"version":"7757534","steam_id":85568392924504275,"keywords":["cp","nocrits","nodmgspread","uncletopia"],"game_id":440,"stv_port":27046,"stv_name":"Uncletopia | Frankfurt | 4 | All Maps | STV","players":null},{"server_id":310,"name":"Uncletopia | Frankfurt | 5 | All Maps","name_short":"frk-5","host":"frk-1.de.uncletopia.com","port":27055,"enabled":true,"region":"eu","cc":"de","latitude":50.110924,"longitude":8.682127,"reserved":0,"last_update":"0001-01-01T00:00:00Z","name_a2s":"Uncletopia | Frankfurt | 5 | All Maps","protocol":17,"map":"cp_altitude","folder":"tf","game":"Team Fortress","app_id":440,"player_count":0,"max_players":24,"Bots":0,"server_type":"Dedicated","server_os":"Linux","password":true,"vac":true,"version":"7757534","steam_id":85568392924504277,"keywords":["cp","nocrits","nodmgspread","uncletopia"],"game_id":440,"stv_port":27056,"stv_name":"Uncletopia | Frankfurt | 5 | All Maps | STV","players":null},{"server_id":311,"name":"Uncletopia | Frankfurt | 6 | All Maps","name_short":"frk-6","host":"frk-1.de.uncletopia.com","port":27065,"enabled":true,"region":"eu","cc":"de","latitude":50.110924,"longitude":8.682127,"reserved":0,"last_update":"0001-01-01T00:00:00Z","name_a2s":"Uncletopia | Frankfurt | 6 | All Maps","protocol":17,"map":"koth_highpass","folder":"tf","game":"Team Fortress","app_id":440,"player_count":0,"max_players":24,"Bots":0,"server_type":"Dedicated","server_os":"Linux","password":true,"vac":true,"version":"7757534","steam_id":85568392924504278,"keywords":["cp","nocrits","nodmgspread","uncletopia"],"game_id":440,"stv_port":27066,"stv_name":"Uncletopia | Frankfurt | 6 | All Maps | STV","players":null},{"server_id":23,"name":"Uncletopia | Frankfurt | 7 | Stopwatch Beta","name_short":"frk-7","host":"frk-1.de.uncletopia.com","port":27075,"enabled":true,"region":"eu","cc":"de","latitude":50.110924,"longitude":8.682127,"reserved":0,"last_update":"0001-01-01T00:00:00Z","name_a2s":"Uncletopia | Frankfurt | 7 | Stopwatch Beta","protocol":17,"map":"pl_frontier_final","folder":"tf","game":"Team Fortress","app_id":440,"player_count":0,"max_players":24,"Bots":0,"server_type":"Dedicated","server_os":"Linux","password":true,"vac":true,"version":"7757534","steam_id":85568392924742827,"keywords":["nocrits","nodmgspread","payload","uncletopia"],"game_id":440,"stv_port":27076,"stv_name":"Uncletopia | Frankfurt | 7 | Stopwatch Beta | STV","players":null},{"server_id":24,"name":"Uncletopia | Frankfurt | 8 | Community","name_short":"frk-8","host":"frk-1.de.uncletopia.com","port":27085,"enabled":true,"region":"eu","cc":"de","latitude":50.110924,"longitude":8.682127,"reserved":0,"last_update":"0001-01-01T00:00:00Z","name_a2s":"Uncletopia | Frankfurt | 8 | Community","protocol":17,"map":"workshop/pl_shoreleave_rc1.ugc1238849347","folder":"tf","game":"Team Fortress","app_id":440,"player_count":0,"max_players":24,"Bots":0,"server_type":"Dedicated","server_os":"Linux","password":true,"vac":true,"version":"7757534","steam_id":85568392924742828,"keywords":["nocrits","nodmgspread","payload","uncletopia"],"game_id":440,"stv_port":27086,"stv_name":"Uncletopia | Frankfurt | 8 | Community | STV","players":null},{"server_id":202,"name":"Uncletopia | Hong Kong | 1 | All Maps","name_short":"hgk-1","host":"hgk-1.hk.uncletopia.com","port":27015,"enabled":true,"region":"asia","cc":"hk","latitude":22.302711,"longitude":114.177216,"reserved":0,"last_update":"0001-01-01T00:00:00Z","name_a2s":"Uncletopia | Hong Kong | 1 | All Maps","protocol":17,"map":"pl_badwater","folder":"tf","game":"Team Fortress","app_id":440,"player_count":24,"max_players":24,"Bots":0,"server_type":"Dedicated","server_os":"Linux","password":true,"vac":true,"version":"7757534","steam_id":85568392924494504,"keywords":["nocrits","nodmgspread","payload","uncletopia"],"game_id":440,"stv_port":27016,"stv_name":"Uncletopia | Hong Kong | 1 | All Maps | STV","players":[{"user_id":169,"name":"Pluem","steam_id":76561198864742734,"connected_time":1178000000000,"state":"active","ping":96},{"user_id":152,"name":"Piggy","steam_id":76561199293416159,"connected_time":2061000000000,"state":"active","ping":92},{"user_id":65,"name":"iced","steam_id":76561198999114004,"connected_time":8066000000000,"state":"active","ping":107},{"user_id":140,"name":"Nasi Lemak Gaming","steam_id":76561198082921407,"connected_time":3117000000000,"state":"active","ping":77},{"user_id":135,"name":"Milk❤ (UT's Moaner)","steam_id":76561198163911560,"connected_time":3437000000000,"state":"active","ping":143},{"user_id":157,"name":"water tastes good","steam_id":76561199375947670,"connected_time":1557000000000,"state":"active","ping":76},{"user_id":149,"name":"Maggres","steam_id":76561198369226092,"connected_time":2124000000000,"state":"active","ping":70},{"user_id":158,"name":"Mabok","steam_id":76561198010249658,"connected_time":1557000000000,"state":"active","ping":85},{"user_id":153,"name":"Engineer Gaming","steam_id":76561199015521820,"connected_time":2011000000000,"state":"active","ping":108},{"user_id":172,"name":"moron","steam_id":76561198324008555,"connected_time":925000000000,"state":"active","ping":57},{"user_id":137,"name":"no vc no c","steam_id":76561197989503095,"connected_time":3404000000000,"state":"active","ping":93},{"user_id":181,"name":"Vesha","steam_id":76561199208233146,"connected_time":110000000000,"state":"active","ping":77},{"user_id":105,"name":"spinach (new mouse)","steam_id":76561198042539541,"connected_time":5770000000000,"state":"active","ping":76},{"user_id":146,"name":"Telekhine","steam_id":76561198387120618,"connected_time":2701000000000,"state":"active","ping":53},{"user_id":81,"name":"T.","steam_id":76561198337887896,"connected_time":6957000000000,"state":"active","ping":81},{"user_id":116,"name":"✧BaKa BAzooKA✧(◕▿◕ )","steam_id":76561198061628689,"connected_time":4837000000000,"state":"active","ping":58},{"user_id":159,"name":"brizzard","steam_id":76561198048438653,"connected_time":1545000000000,"state":"active","ping":54},{"user_id":175,"name":"Booyah!","steam_id":76561199216778383,"connected_time":499000000000,"state":"active","ping":132},{"user_id":138,"name":"corpse_cadaver","steam_id":76561199225360457,"connected_time":3354000000000,"state":"active","ping":74},{"user_id":96,"name":"Urotsuki","steam_id":76561198074339034,"connected_time":6114000000000,"state":"active","ping":75},{"user_id":163,"name":"David Keithson","steam_id":76561199279393636,"connected_time":1388000000000,"state":"active","ping":72},{"user_id":171,"name":"let cook","steam_id":76561198055553140,"connected_time":1145000000000,"state":"active","ping":81},{"user_id":124,"name":"Leroy","steam_id":76561199137927625,"connected_time":4533000000000,"state":"active","ping":89},{"user_id":180,"name":"killman47","steam_id":76561198348487408,"connected_time":131000000000,"state":"active","ping":44}]},{"server_id":1,"name":"Uncletopia | Los Angeles | 1 | All Maps","name_short":"lax-1","host":"lax-1.us.uncletopia.com","port":27015,"enabled":true,"region":"us-west","cc":"us","latitude":33.94279,"longitude":-118.41004,"reserved":0,"last_update":"0001-01-01T00:00:00Z","name_a2s":"Uncletopia | Los Angeles | 1 | All Maps","protocol":17,"map":"pl_swiftwater_final1","folder":"tf","game":"Team Fortress","app_id":440,"player_count":20,"max_players":24,"Bots":0,"server_type":"Dedicated","server_os":"Linux","password":true,"vac":true,"version":"7757534","steam_id":85568392924469991,"keywords":["nocrits","nodmgspread","payload","uncletopia"],"game_id":440,"stv_port":27016,"stv_name":"Uncletopia | Los Angeles | 1 | All Maps | STV","players":[{"user_id":453,"name":"summerlis","steam_id":76561198165324438,"connected_time":1878000000000,"state":"active","ping":43},{"user_id":483,"name":"werolat","steam_id":76561197960544784,"connected_time":540000000000,"state":"active","ping":87},{"user_id":444,"name":"Skuth","steam_id":76561198041470939,"connected_time":2424000000000,"state":"active","ping":115},{"user_id":470,"name":"swarm","steam_id":76561198019435762,"connected_time":1395000000000,"state":"active","ping":59},{"user_id":454,"name":"Malmart_Employee","steam_id":76561198320388704,"connected_time":1867000000000,"state":"active","ping":91},{"user_id":484,"name":"Owl_eyes","steam_id":76561198066199203,"connected_time":103000000000,"state":"active","ping":54},{"user_id":464,"name":"Wizowd","steam_id":76561198167702261,"connected_time":1562000000000,"state":"active","ping":63},{"user_id":486,"name":"FAT CAT","steam_id":76561198097466517,"connected_time":80000000000,"state":"active","ping":50},{"user_id":487,"name":"soda heater","steam_id":76561198864545608,"connected_time":64000000000,"state":"active","ping":69},{"user_id":456,"name":"ApplesMate","steam_id":76561198832763278,"connected_time":1839000000000,"state":"active","ping":45},{"user_id":466,"name":"bruxing hater","steam_id":76561198069190432,"connected_time":1497000000000,"state":"active","ping":116},{"user_id":488,"name":"zeplos24","steam_id":76561198803486113,"connected_time":20000000000,"state":"active","ping":109},{"user_id":469,"name":"Nicolas Cage Kisses Mace Windu","steam_id":76561198046127710,"connected_time":1427000000000,"state":"active","ping":110},{"user_id":479,"name":"bad spy player","steam_id":76561198873699671,"connected_time":1216000000000,"state":"active","ping":83},{"user_id":338,"name":"Accelareator","steam_id":76561198880719762,"connected_time":9865000000000,"state":"active","ping":99},{"user_id":480,"name":"HaruhiSuzumiyaFan2007","steam_id":76561198799269836,"connected_time":1206000000000,"state":"active","ping":56},{"user_id":440,"name":"kaede","steam_id":76561198345528370,"connected_time":2730000000000,"state":"active","ping":45},{"user_id":478,"name":"chanoc","steam_id":76561198026734746,"connected_time":1234000000000,"state":"active","ping":57},{"user_id":481,"name":"Nukalaunch","steam_id":76561199255653942,"connected_time":1174000000000,"state":"active","ping":85},{"user_id":482,"name":"Sacrificial Wormy","steam_id":76561198054539200,"connected_time":1173000000000,"state":"active","ping":75}]},{"server_id":112,"name":"Uncletopia | Los Angeles | 2 | All Maps","name_short":"lax-2","host":"lax-1.us.uncletopia.com","port":27025,"enabled":true,"region":"us-west","cc":"us","latitude":33.94279,"longitude":-118.41004,"reserved":0,"last_update":"0001-01-01T00:00:00Z","name_a2s":"Uncletopia | Los Angeles | 2 | All Maps","protocol":17,"map":"pl_frontier_final","folder":"tf","game":"Team Fortress","app_id":440,"player_count":16,"max_players":24,"Bots":0,"server_type":"Dedicated","server_os":"Linux","password":true,"vac":true,"version":"7757534","steam_id":85568392924469992,"keywords":["nocrits","nodmgspread","payload","uncletopia"],"game_id":440,"stv_port":27026,"stv_name":"Uncletopia | Los Angeles | 2 | All Maps | STV","players":[{"user_id":104,"name":"syphon","steam_id":76561199099427013,"connected_time":835000000000,"state":"active","ping":101},{"user_id":97,"name":"♥your medic gf♥(60ref/hr)","steam_id":76561198248665352,"connected_time":1750000000000,"state":"active","ping":63},{"user_id":100,"name":"stboncho","steam_id":76561198172275301,"connected_time":1059000000000,"state":"active","ping":60},{"user_id":101,"name":"autumnal.messenger","steam_id":76561199345816635,"connected_time":995000000000,"state":"active","ping":71},{"user_id":15,"name":"ChillTheManStick","steam_id":76561198830337615,"connected_time":7412000000000,"state":"active","ping":89},{"user_id":109,"name":"HeroOfTime","steam_id":76561199096218001,"connected_time":551000000000,"state":"active","ping":49},{"user_id":107,"name":"Rac","steam_id":76561198853856973,"connected_time":569000000000,"state":"active","ping":120},{"user_id":118,"name":"Squatter1","steam_id":76561198078987734,"connected_time":210000000000,"state":"active","ping":71},{"user_id":108,"name":"Dzhastin","steam_id":76561198145430521,"connected_time":557000000000,"state":"active","ping":69},{"user_id":65,"name":"Dietrich","steam_id":76561198028163840,"connected_time":3664000000000,"state":"active","ping":53},{"user_id":112,"name":"Moop Bread","steam_id":76561198056076973,"connected_time":452000000000,"state":"active","ping":58},{"user_id":115,"name":"wzyazrael","steam_id":76561198844221455,"connected_time":392000000000,"state":"active","ping":44},{"user_id":116,"name":"TheVandive","steam_id":76561199014510667,"connected_time":369000000000,"state":"active","ping":160},{"user_id":117,"name":"hazes","steam_id":76561199349543654,"connected_time":333000000000,"state":"active","ping":71},{"user_id":119,"name":"Xtar","steam_id":76561198301774048,"connected_time":207000000000,"state":"active","ping":81},{"user_id":120,"name":"twink-182","steam_id":76561198109480519,"connected_time":101000000000,"state":"active","ping":105}]},{"server_id":324,"name":"Uncletopia | Los Angeles | 3 | All Maps","name_short":"lax-3","host":"lax-1.us.uncletopia.com","port":27035,"enabled":true,"region":"us-west","cc":"us","latitude":33.94279,"longitude":-118.41004,"reserved":0,"last_update":"0001-01-01T00:00:00Z","name_a2s":"Uncletopia | Los Angeles | 3 | All Maps","protocol":17,"map":"pl_barnblitz","folder":"tf","game":"Team Fortress","app_id":440,"player_count":24,"max_players":24,"Bots":0,"server_type":"Dedicated","server_os":"Linux","password":true,"vac":true,"version":"7757534","steam_id":85568392924510198,"keywords":["nocrits","nodmgspread","payload","uncletopia"],"game_id":440,"stv_port":27036,"stv_name":"Uncletopia | Los Angeles | 3 | All Maps | STV","players":[{"user_id":168,"name":"El Gato Paranoico","steam_id":76561198116567116,"connected_time":2682000000000,"state":"active","ping":92},{"user_id":142,"name":"Sax","steam_id":76561198055425123,"connected_time":4515000000000,"state":"active","ping":90},{"user_id":177,"name":"Dullahan","steam_id":76561198119668908,"connected_time":2062000000000,"state":"active","ping":58},{"user_id":208,"name":"Myko_mocha","steam_id":76561198198256314,"connected_time":563000000000,"state":"active","ping":84},{"user_id":198,"name":"mmmBoyo","steam_id":76561198821360261,"connected_time":1027000000000,"state":"active","ping":84},{"user_id":190,"name":"TacoKaiju","steam_id":76561198374190188,"connected_time":1629000000000,"state":"active","ping":103},{"user_id":199,"name":"jelderjr","steam_id":76561198208862897,"connected_time":790000000000,"state":"active","ping":65},{"user_id":179,"name":"GreenApples","steam_id":76561198120559543,"connected_time":2049000000000,"state":"active","ping":55},{"user_id":210,"name":"psihog","steam_id":76561197975797700,"connected_time":193000000000,"state":"active","ping":49},{"user_id":201,"name":"danger","steam_id":76561198000459165,"connected_time":783000000000,"state":"active","ping":88},{"user_id":191,"name":"Wordly Eggplant","steam_id":76561198166704083,"connected_time":1624000000000,"state":"active","ping":58},{"user_id":135,"name":"Delimeat","steam_id":76561198043824595,"connected_time":4721000000000,"state":"active","ping":46},{"user_id":202,"name":"Averagemicrowavedchickenstick","steam_id":76561199128225865,"connected_time":776000000000,"state":"active","ping":90},{"user_id":143,"name":"fire","steam_id":76561198044354279,"connected_time":4515000000000,"state":"active","ping":53},{"user_id":203,"name":"THIRDPIERCE","steam_id":76561198405366314,"connected_time":774000000000,"state":"active","ping":87},{"user_id":211,"name":"NWABA","steam_id":76561198073699764,"connected_time":155000000000,"state":"active","ping":54},{"user_id":193,"name":"Ballista","steam_id":76561197983182562,"connected_time":1516000000000,"state":"active","ping":75},{"user_id":134,"name":"Frazzer","steam_id":76561198088679707,"connected_time":5280000000000,"state":"active","ping":46},{"user_id":204,"name":"moe","steam_id":76561198929586245,"connected_time":727000000000,"state":"active","ping":46},{"user_id":205,"name":"rumes","steam_id":76561198349219467,"connected_time":726000000000,"state":"active","ping":103},{"user_id":207,"name":"destroy erase improve","steam_id":76561198087200115,"connected_time":636000000000,"state":"active","ping":77},{"user_id":186,"name":"oil","steam_id":76561198099980149,"connected_time":1827000000000,"state":"active","ping":49},{"user_id":184,"name":"riSygneD","steam_id":76561198331618687,"connected_time":1902000000000,"state":"active","ping":36},{"user_id":194,"name":"sora","steam_id":76561198094256973,"connected_time":1514000000000,"state":"active","ping":60}]},{"server_id":25,"name":"Uncletopia | Los Angeles | 4 | Stopwatch Beta","name_short":"lax-4","host":"lax-1.us.uncletopia.com","port":27045,"enabled":true,"region":"us-west","cc":"us","latitude":33.94279,"longitude":-118.41004,"reserved":0,"last_update":"0001-01-01T00:00:00Z","name_a2s":"Uncletopia | Los Angeles | 4 | Stopwatch Beta","protocol":17,"map":"pl_frontier_final","folder":"tf","game":"Team Fortress","app_id":440,"player_count":0,"max_players":24,"Bots":0,"server_type":"Dedicated","server_os":"Linux","password":true,"vac":true,"version":"7757534","steam_id":85568392924510199,"keywords":["nocrits","nodmgspread","payload","uncletopia"],"game_id":440,"stv_port":27046,"stv_name":"Uncletopia | Los Angeles | 4 | Stopwatch Beta | STV","players":null},{"server_id":11,"name":"Uncletopia | London | 1 | All Maps","name_short":"lon-1","host":"lon-1.uk.uncletopia.com","port":27015,"enabled":true,"region":"eu","cc":"gb","latitude":51.509865,"longitude":-0.118092,"reserved":0,"last_update":"0001-01-01T00:00:00Z","name_a2s":"Uncletopia | London | 1 | All Maps","protocol":17,"map":"koth_viaduct","folder":"tf","game":"Team Fortress","app_id":440,"player_count":0,"max_players":24,"Bots":0,"server_type":"Dedicated","server_os":"Linux","password":true,"vac":true,"version":"7757534","steam_id":85568392924367362,"keywords":["cp","nocrits","nodmgspread","uncletopia"],"game_id":440,"stv_port":27016,"stv_name":"Uncletopia | London | 1 | All Maps | STV","players":null},{"server_id":114,"name":"Uncletopia | London | 2 | All Maps","name_short":"lon-2","host":"lon-1.uk.uncletopia.com","port":27025,"enabled":true,"region":"eu","cc":"gb","latitude":51.509865,"longitude":-0.118092,"reserved":0,"last_update":"0001-01-01T00:00:00Z","name_a2s":"Uncletopia | London | 2 | All Maps","protocol":17,"map":"cp_dustbowl","folder":"tf","game":"Team Fortress","app_id":440,"player_count":0,"max_players":24,"Bots":0,"server_type":"Dedicated","server_os":"Linux","password":true,"vac":true,"version":"7757534","steam_id":85568392924470941,"keywords":["cp","nocrits","nodmgspread","uncletopia"],"game_id":440,"stv_port":27026,"stv_name":"Uncletopia | London | 2 | All Maps | STV","players":null},{"server_id":320,"name":"Uncletopia | London | 3 | All Maps","name_short":"lon-3","host":"lon-1.uk.uncletopia.com","port":27035,"enabled":true,"region":"eu","cc":"gb","latitude":51.509865,"longitude":-0.118092,"reserved":0,"last_update":"0001-01-01T00:00:00Z","name_a2s":"Uncletopia | London | 3 | All Maps","protocol":17,"map":"pl_badwater","folder":"tf","game":"Team Fortress","app_id":440,"player_count":1,"max_players":24,"Bots":0,"server_type":"Dedicated","server_os":"Linux","password":true,"vac":true,"version":"7757534","steam_id":85568392924510192,"keywords":["nocrits","nodmgspread","payload","uncletopia"],"game_id":440,"stv_port":27036,"stv_name":"Uncletopia | London | 3 | All Maps | STV","players":[{"user_id":3,"name":"MeBandae","steam_id":76561198910770432,"connected_time":55000000000,"state":"active","ping":70}]},{"server_id":321,"name":"Uncletopia | London | 4 | All Maps","name_short":"lon-4","host":"lon-1.uk.uncletopia.com","port":27045,"enabled":true,"region":"eu","cc":"gb","latitude":51.509865,"longitude":-0.118092,"reserved":0,"last_update":"0001-01-01T00:00:00Z","name_a2s":"Uncletopia | London | 4 | All Maps","protocol":17,"map":"koth_viaduct","folder":"tf","game":"Team Fortress","app_id":440,"player_count":0,"max_players":24,"Bots":0,"server_type":"Dedicated","server_os":"Linux","password":true,"vac":true,"version":"7757534","steam_id":85568392924510193,"keywords":["cp","nocrits","nodmgspread","uncletopia"],"game_id":440,"stv_port":27046,"stv_name":"Uncletopia | London | 4 | All Maps | STV","players":null},{"server_id":21,"name":"Uncletopia | London | 5 | All Maps","name_short":"lon-5","host":"lon-1.uk.uncletopia.com","port":27055,"enabled":true,"region":"eu","cc":"gb","latitude":51.509865,"longitude":-0.118092,"reserved":0,"last_update":"0001-01-01T00:00:00Z","name_a2s":"Uncletopia | London | 5 | All Maps","protocol":17,"map":"cp_snakewater_final1","folder":"tf","game":"Team Fortress","app_id":440,"player_count":0,"max_players":24,"Bots":0,"server_type":"Dedicated","server_os":"Linux","password":true,"vac":true,"version":"7757534","steam_id":85568392924742829,"keywords":["cp","nocrits","nodmgspread","uncletopia"],"game_id":440,"stv_port":27056,"stv_name":"Uncletopia | London | 5 | All Maps | STV","players":null},{"server_id":22,"name":"Uncletopia | London | 6 | All Maps","name_short":"lon-6","host":"lon-1.uk.uncletopia.com","port":27065,"enabled":true,"region":"eu","cc":"gb","latitude":51.509865,"longitude":-0.118092,"reserved":0,"last_update":"0001-01-01T00:00:00Z","name_a2s":"Uncletopia | London | 6 | All Maps","protocol":17,"map":"koth_cascade","folder":"tf","game":"Team Fortress","app_id":440,"player_count":0,"max_players":24,"Bots":0,"server_type":"Dedicated","server_os":"Linux","password":true,"vac":true,"version":"7757534","steam_id":85568392924742830,"keywords":["cp","nocrits","nodmgspread","uncletopia"],"game_id":440,"stv_port":27066,"stv_name":"Uncletopia | London | 6 | All Maps | STV","players":null},{"server_id":40,"name":"Uncletopia | London | 7 | No Payload","name_short":"lon-7","host":"lon-1.uk.uncletopia.com","port":27075,"enabled":true,"region":"eu","cc":"gb","latitude":51.509865,"longitude":-0.118092,"reserved":0,"last_update":"0001-01-01T00:00:00Z","name_a2s":"Uncletopia | London | 7 | No Payload","protocol":17,"map":"cp_process_final","folder":"tf","game":"Team Fortress","app_id":440,"player_count":0,"max_players":24,"Bots":0,"server_type":"Dedicated","server_os":"Linux","password":true,"vac":true,"version":"7757534","steam_id":85568392924964314,"keywords":["cp","nocrits","nodmgspread","uncletopia"],"game_id":440,"stv_port":27076,"stv_name":"Uncletopia | London | 7 | No Payload | STV","players":null},{"server_id":41,"name":"Uncletopia | London | 8 | Community","name_short":"lon-8","host":"lon-1.uk.uncletopia.com","port":27085,"enabled":true,"region":"eu","cc":"gb","latitude":51.509865,"longitude":-0.118092,"reserved":0,"last_update":"0001-01-01T00:00:00Z","name_a2s":"Uncletopia | London | 8 | Community","protocol":17,"map":"pl_upward","folder":"tf","game":"Team Fortress","app_id":440,"player_count":0,"max_players":24,"Bots":0,"server_type":"Dedicated","server_os":"Linux","password":true,"vac":true,"version":"7757534","steam_id":85568392924964315,"keywords":["nocrits","nodmgspread","payload","uncletopia"],"game_id":440,"stv_port":27086,"stv_name":"Uncletopia | London | 8 | Community | STV","players":null},{"server_id":300,"name":"Uncletopia | Montréal | 1 | All Maps","name_short":"mtl-1","host":"mtl-1.ca.uncletopia.com","port":27015,"enabled":true,"region":"us-east","cc":"ca","latitude":45.50889,"longitude":-73.56167,"reserved":0,"last_update":"0001-01-01T00:00:00Z","name_a2s":"Uncletopia | Montréal | 1 | All Maps","protocol":17,"map":"koth_cascade","folder":"tf","game":"Team Fortress","app_id":440,"player_count":0,"max_players":24,"Bots":0,"server_type":"Dedicated","server_os":"Linux","password":true,"vac":true,"version":"7757534","steam_id":85568392924500087,"keywords":["cp","nocrits","nodmgspread","uncletopia"],"game_id":440,"stv_port":27016,"stv_name":"Uncletopia | Montréal | 1 | All Maps | STV","players":null},{"server_id":301,"name":"Uncletopia | Montréal | 2 | All Maps","name_short":"mtl-2","host":"mtl-1.ca.uncletopia.com","port":27025,"enabled":true,"region":"us-east","cc":"ca","latitude":45.50889,"longitude":-73.56167,"reserved":0,"last_update":"0001-01-01T00:00:00Z","name_a2s":"Uncletopia | Montréal | 2 | All Maps","protocol":17,"map":"cp_dustbowl","folder":"tf","game":"Team Fortress","app_id":440,"player_count":0,"max_players":24,"Bots":0,"server_type":"Dedicated","server_os":"Linux","password":true,"vac":true,"version":"7757534","steam_id":85568392924500088,"keywords":["cp","nocrits","nodmgspread","uncletopia"],"game_id":440,"stv_port":27026,"stv_name":"Uncletopia | Montréal | 2 | All Maps | STV","players":null},{"server_id":302,"name":"Uncletopia | Montréal | 3 | All Maps","name_short":"mtl-3","host":"mtl-1.ca.uncletopia.com","port":27035,"enabled":true,"region":"us-east","cc":"ca","latitude":45.50889,"longitude":-73.56167,"reserved":0,"last_update":"0001-01-01T00:00:00Z","name_a2s":"Uncletopia | Montréal | 3 | All Maps","protocol":17,"map":"koth_highpass","folder":"tf","game":"Team Fortress","app_id":440,"player_count":0,"max_players":24,"Bots":0,"server_type":"Dedicated","server_os":"Linux","password":true,"vac":true,"version":"7757534","steam_id":85568392924500089,"keywords":["cp","nocrits","nodmgspread","uncletopia"],"game_id":440,"stv_port":27036,"stv_name":"Uncletopia | Montréal | 3 | All Maps | STV","players":null},{"server_id":303,"name":"Uncletopia | Montréal | 4 | No Payload","name_short":"mtl-4","host":"mtl-1.ca.uncletopia.com","port":27045,"enabled":true,"region":"us-east","cc":"ca","latitude":45.50889,"longitude":-73.56167,"reserved":0,"last_update":"0001-01-01T00:00:00Z","name_a2s":"Uncletopia | Montréal | 4 | No Payload","protocol":17,"map":"cp_fastlane","folder":"tf","game":"Team Fortress","app_id":440,"player_count":0,"max_players":24,"Bots":0,"server_type":"Dedicated","server_os":"Linux","password":true,"vac":true,"version":"7757534","steam_id":85568392924500090,"keywords":["cp","nocrits","nodmgspread","uncletopia"],"game_id":440,"stv_port":27046,"stv_name":"Uncletopia | Montréal | 4 | No Payload | STV","players":null},{"server_id":13,"name":"Uncletopia | New York City | 1 | All Maps","name_short":"nyc-1","host":"nyc-1.us.uncletopia.com","port":27015,"enabled":true,"region":"us-east","cc":"us","latitude":40.73061,"longitude":-73.93524,"reserved":0,"last_update":"0001-01-01T00:00:00Z","name_a2s":"Uncletopia | New York City | 1 | All Maps","protocol":17,"map":"cp_dustbowl","folder":"tf","game":"Team Fortress","app_id":440,"player_count":23,"max_players":24,"Bots":0,"server_type":"Dedicated","server_os":"Linux","password":true,"vac":true,"version":"7757534","steam_id":85568392924469993,"keywords":["cp","nocrits","nodmgspread","uncletopia"],"game_id":440,"stv_port":27016,"stv_name":"Uncletopia | New York City | 1 | All Maps | STV","players":[{"user_id":452,"name":"TheTomatoWizard","steam_id":76561199123567989,"connected_time":173000000000,"state":"active","ping":59},{"user_id":436,"name":"a team of ants doing their best","steam_id":76561198440145948,"connected_time":1260000000000,"state":"active","ping":44},{"user_id":435,"name":"The Rat King™","steam_id":76561198164308630,"connected_time":1289000000000,"state":"active","ping":61},{"user_id":439,"name":"Crippling Depression","steam_id":76561198044651941,"connected_time":1036000000000,"state":"active","ping":115},{"user_id":408,"name":"TheDarkTitan","steam_id":76561198304794068,"connected_time":2811000000000,"state":"active","ping":59},{"user_id":440,"name":"sobadorci","steam_id":76561198208627555,"connected_time":993000000000,"state":"active","ping":117},{"user_id":441,"name":"goodusername101","steam_id":76561198354769674,"connected_time":976000000000,"state":"active","ping":91},{"user_id":443,"name":"JoeLife26","steam_id":76561198864691307,"connected_time":855000000000,"state":"active","ping":66},{"user_id":444,"name":"Asimodo","steam_id":76561198799781341,"connected_time":850000000000,"state":"active","ping":107},{"user_id":414,"name":"Uncle Majic the Hip Hop Magicia","steam_id":76561198107924303,"connected_time":2551000000000,"state":"active","ping":36},{"user_id":453,"name":"fallacy","steam_id":76561198057374871,"connected_time":171000000000,"state":"active","ping":76},{"user_id":365,"name":"uhooter","steam_id":76561198007829078,"connected_time":7585000000000,"state":"active","ping":65},{"user_id":409,"name":"Rockguy21","steam_id":76561198121303359,"connected_time":2809000000000,"state":"active","ping":58},{"user_id":448,"name":"Madrox Who?","steam_id":76561197988859134,"connected_time":738000000000,"state":"active","ping":83},{"user_id":454,"name":"Goldbug","steam_id":76561198025221202,"connected_time":116000000000,"state":"active","ping":115},{"user_id":424,"name":"The Announcer's Feet","steam_id":76561199443456893,"connected_time":1917000000000,"state":"active","ping":97},{"user_id":430,"name":"Lt. Birb","steam_id":76561199086146261,"connected_time":1539000000000,"state":"active","ping":82},{"user_id":426,"name":"speck","steam_id":76561198147107736,"connected_time":1884000000000,"state":"active","ping":60},{"user_id":431,"name":"Fiendish Frog","steam_id":76561198029478821,"connected_time":1507000000000,"state":"active","ping":59},{"user_id":415,"name":"sammy","steam_id":76561199001307670,"connected_time":2537000000000,"state":"active","ping":115},{"user_id":451,"name":"luk12ash","steam_id":76561198079514068,"connected_time":370000000000,"state":"active","ping":85},{"user_id":449,"name":"nomallife","steam_id":76561198066078134,"connected_time":666000000000,"state":"active","ping":54},{"user_id":427,"name":"Jeugh","steam_id":76561198073498865,"connected_time":1869000000000,"state":"active","ping":86}]},{"server_id":14,"name":"Uncletopia | New York City | 2 | All Maps","name_short":"nyc-2","host":"nyc-1.us.uncletopia.com","port":27025,"enabled":true,"region":"us-east","cc":"us","latitude":40.73061,"longitude":-73.93524,"reserved":0,"last_update":"0001-01-01T00:00:00Z","name_a2s":"Uncletopia | New York City | 2 | All Maps","protocol":17,"map":"pl_thundermountain","folder":"tf","game":"Team Fortress","app_id":440,"player_count":24,"max_players":24,"Bots":0,"server_type":"Dedicated","server_os":"Linux","password":true,"vac":true,"version":"7757534","steam_id":85568392924469994,"keywords":["nocrits","nodmgspread","payload","uncletopia"],"game_id":440,"stv_port":27026,"stv_name":"Uncletopia | New York City | 2 | All Maps | STV","players":[{"user_id":459,"name":"mud drater","steam_id":76561198018680492,"connected_time":6423000000000,"state":"active","ping":59},{"user_id":473,"name":"Munchyjr","steam_id":76561198041498014,"connected_time":4186000000000,"state":"active","ping":44},{"user_id":520,"name":"Mommy Cloud Audios Gaming","steam_id":76561198880304614,"connected_time":131000000000,"state":"active","ping":38},{"user_id":493,"name":"Chombo Cheeto","steam_id":76561198051638630,"connected_time":3451000000000,"state":"active","ping":64},{"user_id":499,"name":"JohhnyFromCali :7","steam_id":76561198044015725,"connected_time":2512000000000,"state":"active","ping":97},{"user_id":482,"name":"Salad","steam_id":76561198205326520,"connected_time":3768000000000,"state":"active","ping":88},{"user_id":519,"name":"Chesh","steam_id":76561197990316722,"connected_time":177000000000,"state":"active","ping":69},{"user_id":517,"name":"Riske","steam_id":76561198115840568,"connected_time":557000000000,"state":"active","ping":70},{"user_id":502,"name":"Sim","steam_id":76561198119227922,"connected_time":2259000000000,"state":"active","ping":64},{"user_id":434,"name":"GDHURRICANE","steam_id":76561199067561497,"connected_time":7519000000000,"state":"active","ping":77},{"user_id":494,"name":"Yams","steam_id":76561198068084541,"connected_time":3432000000000,"state":"active","ping":91},{"user_id":446,"name":":(","steam_id":76561198283572297,"connected_time":6861000000000,"state":"active","ping":89},{"user_id":518,"name":"qjkxkcd","steam_id":76561198035922283,"connected_time":544000000000,"state":"active","ping":51},{"user_id":501,"name":"Laelaps","steam_id":76561198100061416,"connected_time":2314000000000,"state":"active","ping":60},{"user_id":509,"name":"Todd Margreat","steam_id":76561198373106364,"connected_time":1418000000000,"state":"active","ping":70},{"user_id":503,"name":"wounded_edge","steam_id":76561198817214270,"connected_time":2232000000000,"state":"active","ping":63},{"user_id":495,"name":"wool","steam_id":76561198869689933,"connected_time":3410000000000,"state":"active","ping":57},{"user_id":507,"name":"Crombun","steam_id":76561198031559642,"connected_time":1512000000000,"state":"active","ping":74},{"user_id":514,"name":"Gnilkaew","steam_id":76561198202093367,"connected_time":940000000000,"state":"active","ping":80},{"user_id":492,"name":"Flat Eric","steam_id":76561198114922735,"connected_time":3552000000000,"state":"active","ping":54},{"user_id":510,"name":"SKINGRAPH","steam_id":76561198082933650,"connected_time":1381000000000,"state":"active","ping":100},{"user_id":516,"name":"Antwan","steam_id":76561198246200638,"connected_time":575000000000,"state":"active","ping":85},{"user_id":498,"name":"instigator extraordinaire","steam_id":76561198860826977,"connected_time":2682000000000,"state":"active","ping":47}]},{"server_id":15,"name":"Uncletopia | New York City | 3 | Stopwatch Beta","name_short":"nyc-3","host":"nyc-1.us.uncletopia.com","port":27035,"enabled":true,"region":"us-east","cc":"us","latitude":40.73061,"longitude":-73.93524,"reserved":0,"last_update":"0001-01-01T00:00:00Z","name_a2s":"Uncletopia | New York City | 3 | Stopwatch Beta","protocol":17,"map":"workshop/pl_vigil_rc9.ugc1266210012","folder":"tf","game":"Team Fortress","app_id":440,"player_count":0,"max_players":24,"Bots":0,"server_type":"Dedicated","server_os":"Linux","password":true,"vac":true,"version":"7757534","steam_id":85568392924742820,"keywords":["nocrits","nodmgspread","payload","uncletopia"],"game_id":440,"stv_port":27036,"stv_name":"Uncletopia | New York City | 3 | Stopwatch Beta | STV","players":null},{"server_id":16,"name":"Uncletopia | New York City | 4 | Community","name_short":"nyc-4","host":"nyc-1.us.uncletopia.com","port":27045,"enabled":true,"region":"us-east","cc":"us","latitude":40.73061,"longitude":-73.93524,"reserved":0,"last_update":"0001-01-01T00:00:00Z","name_a2s":"Uncletopia | New York City | 4 | Community","protocol":17,"map":"workshop/koth_product_final.ugc454272353","folder":"tf","game":"Team Fortress","app_id":440,"player_count":0,"max_players":24,"Bots":0,"server_type":"Dedicated","server_os":"Linux","password":true,"vac":true,"version":"7757534","steam_id":85568392924742821,"keywords":["cp","nocrits","nodmgspread","uncletopia"],"game_id":440,"stv_port":27046,"stv_name":"Uncletopia | New York City | 4 | Community | STV","players":null},{"server_id":142,"name":"Uncletopia | São Paulo | 1 | All Maps","name_short":"sao-1","host":"sao-1.br.uncletopia.com","port":27015,"enabled":true,"region":"sa","cc":"br","latitude":-23.533773,"longitude":-46.62529,"reserved":0,"last_update":"0001-01-01T00:00:00Z","name_a2s":"Uncletopia | São Paulo | 1 | All Maps","protocol":17,"map":"koth_cascade","folder":"tf","game":"Team Fortress","app_id":440,"player_count":0,"max_players":24,"Bots":0,"server_type":"Dedicated","server_os":"Linux","password":true,"vac":true,"version":"7757534","steam_id":85568392924469996,"keywords":["cp","nocrits","nodmgspread","uncletopia"],"game_id":440,"stv_port":27016,"stv_name":"Uncletopia | São Paulo | 1 | All Maps | STV","players":null},{"server_id":143,"name":"Uncletopia | São Paulo | 2 | All Maps","name_short":"sao-2","host":"sao-2.br.uncletopia.com","port":27015,"enabled":true,"region":"sa","cc":"br","latitude":-23.533773,"longitude":-46.62529,"reserved":0,"last_update":"0001-01-01T00:00:00Z","name_a2s":"Uncletopia | São Paulo | 2 | All Maps","protocol":17,"map":"koth_cascade","folder":"tf","game":"Team Fortress","app_id":440,"player_count":0,"max_players":24,"Bots":0,"server_type":"Dedicated","server_os":"Linux","password":true,"vac":true,"version":"7757534","steam_id":85568392924485349,"keywords":["cp","nocrits","nodmgspread","uncletopia"],"game_id":440,"stv_port":27016,"stv_name":"Uncletopia | São Paulo | 2 | All Maps | STV","players":null},{"server_id":7,"name":"Uncletopia | Seattle | 1 | All Maps","name_short":"sea-1","host":"sea-1.us.uncletopia.com","port":27015,"enabled":true,"region":"us-west","cc":"us","latitude":47.608013,"longitude":-122.33517,"reserved":0,"last_update":"0001-01-01T00:00:00Z","name_a2s":"Uncletopia | Seattle | 1 | All Maps","protocol":17,"map":"pl_badwater","folder":"tf","game":"Team Fortress","app_id":440,"player_count":24,"max_players":24,"Bots":0,"server_type":"Dedicated","server_os":"Linux","password":true,"vac":true,"version":"7757534","steam_id":85568392924469997,"keywords":["nocrits","nodmgspread","payload","uncletopia"],"game_id":440,"stv_port":27016,"stv_name":"Uncletopia | Seattle | 1 | All Maps | STV","players":[{"user_id":456,"name":"bbbbb","steam_id":76561198095480838,"connected_time":3727000000000,"state":"active","ping":51},{"user_id":457,"name":"NEBULA","steam_id":76561198086878595,"connected_time":3070000000000,"state":"active","ping":76},{"user_id":483,"name":"Peppy","steam_id":76561198866629645,"connected_time":1051000000000,"state":"active","ping":104},{"user_id":432,"name":"dougrocks421","steam_id":76561198165063918,"connected_time":6052000000000,"state":"active","ping":36},{"user_id":463,"name":"Scrumfel Nutz","steam_id":76561198123286409,"connected_time":2390000000000,"state":"active","ping":60},{"user_id":407,"name":"HaphazardHazel","steam_id":76561198316812693,"connected_time":8133000000000,"state":"active","ping":135},{"user_id":413,"name":"lavender","steam_id":76561199069518286,"connected_time":8083000000000,"state":"active","ping":78},{"user_id":490,"name":"Pneumo.","steam_id":76561197987911883,"connected_time":393000000000,"state":"active","ping":69},{"user_id":460,"name":"Florist","steam_id":76561198009121060,"connected_time":2915000000000,"state":"active","ping":45},{"user_id":437,"name":"5392vin","steam_id":76561198880493511,"connected_time":5682000000000,"state":"active","ping":61},{"user_id":478,"name":"Ayayahuasca","steam_id":76561199002906056,"connected_time":1075000000000,"state":"active","ping":51},{"user_id":461,"name":"Dorte Voloxi","steam_id":76561198118620969,"connected_time":2860000000000,"state":"active","ping":68},{"user_id":486,"name":"jorts (testing hardware)","steam_id":76561199041179985,"connected_time":911000000000,"state":"active","ping":66},{"user_id":446,"name":"tower defense","steam_id":76561198169755734,"connected_time":4835000000000,"state":"active","ping":69},{"user_id":484,"name":"Jazz Hands","steam_id":76561199225708271,"connected_time":1043000000000,"state":"active","ping":65},{"user_id":398,"name":"Archimedes!","steam_id":76561199446023933,"connected_time":9732000000000,"state":"active","ping":89},{"user_id":469,"name":"Arsonist Goose","steam_id":76561198147441830,"connected_time":2144000000000,"state":"active","ping":83},{"user_id":468,"name":"AmyPercent","steam_id":76561198071896932,"connected_time":2162000000000,"state":"active","ping":78},{"user_id":482,"name":"amo333ba","steam_id":76561198970261784,"connected_time":1055000000000,"state":"active","ping":47},{"user_id":470,"name":"spenca","steam_id":76561198025371154,"connected_time":2015000000000,"state":"active","ping":68},{"user_id":485,"name":"[TrC] Dackstrus","steam_id":76561197973518509,"connected_time":1043000000000,"state":"active","ping":61},{"user_id":450,"name":"Dunkle","steam_id":76561198041903573,"connected_time":4753000000000,"state":"active","ping":45},{"user_id":452,"name":"thunderous prophet","steam_id":76561198131166135,"connected_time":4700000000000,"state":"active","ping":42},{"user_id":480,"name":"[TrC] Nosy","steam_id":76561197978859310,"connected_time":1074000000000,"state":"active","ping":61}]},{"server_id":119,"name":"Uncletopia | Seattle | 2 | All Maps","name_short":"sea-2","host":"sea-1.us.uncletopia.com","port":27025,"enabled":true,"region":"us-west","cc":"us","latitude":47.608013,"longitude":-122.33517,"reserved":0,"last_update":"0001-01-01T00:00:00Z","name_a2s":"Uncletopia | Seattle | 2 | All Maps","protocol":17,"map":"pl_pier","folder":"tf","game":"Team Fortress","app_id":440,"player_count":22,"max_players":24,"Bots":0,"server_type":"Dedicated","server_os":"Linux","password":true,"vac":true,"version":"7757534","steam_id":85568392924469998,"keywords":["nocrits","nodmgspread","payload","uncletopia"],"game_id":440,"stv_port":27026,"stv_name":"Uncletopia | Seattle | 2 | All Maps | STV","players":[{"user_id":529,"name":"exephur","steam_id":76561198135763234,"connected_time":90000000000,"state":"active","ping":69},{"user_id":494,"name":"gaslight, gate keep, girl boss.","steam_id":76561198271954812,"connected_time":2145000000000,"state":"active","ping":60},{"user_id":512,"name":"DIP GAMING","steam_id":76561198212247688,"connected_time":1061000000000,"state":"active","ping":86},{"user_id":525,"name":"al-Kohol","steam_id":76561197998530400,"connected_time":432000000000,"state":"active","ping":73},{"user_id":476,"name":"awesomepossum1121","steam_id":76561199161193845,"connected_time":2809000000000,"state":"active","ping":109},{"user_id":527,"name":"Dextersbrain","steam_id":76561198011831579,"connected_time":155000000000,"state":"active","ping":69},{"user_id":486,"name":"Snety Gun","steam_id":76561198862745731,"connected_time":2230000000000,"state":"active","ping":68},{"user_id":526,"name":"Chamomile","steam_id":76561198063516307,"connected_time":236000000000,"state":"active","ping":51},{"user_id":487,"name":"R4 | Mr. Commissioner","steam_id":76561198101666509,"connected_time":2226000000000,"state":"active","ping":56},{"user_id":488,"name":"Laurie","steam_id":76561198837843924,"connected_time":2215000000000,"state":"active","ping":63},{"user_id":489,"name":"tailsspector","steam_id":76561199066068833,"connected_time":2212000000000,"state":"active","ping":60},{"user_id":401,"name":"Hindmost","steam_id":76561199081837220,"connected_time":9014000000000,"state":"active","ping":112},{"user_id":490,"name":"Artemis","steam_id":76561198112921316,"connected_time":2210000000000,"state":"active","ping":125},{"user_id":514,"name":"Chris P. Wiener","steam_id":76561198168808551,"connected_time":1051000000000,"state":"active","ping":60},{"user_id":517,"name":"Shampagen","steam_id":76561198400745468,"connected_time":1021000000000,"state":"active","ping":93},{"user_id":493,"name":"Donkitus","steam_id":76561198101336551,"connected_time":2162000000000,"state":"active","ping":34},{"user_id":518,"name":"gman gaming","steam_id":76561198000744865,"connected_time":899000000000,"state":"active","ping":45},{"user_id":498,"name":"keffers","steam_id":76561198202338796,"connected_time":2073000000000,"state":"active","ping":105},{"user_id":505,"name":"The Population of Sweden","steam_id":76561198202201644,"connected_time":1723000000000,"state":"active","ping":33},{"user_id":500,"name":"Sheev Palpatine","steam_id":76561198252332430,"connected_time":2046000000000,"state":"active","ping":97},{"user_id":516,"name":"Just Haw","steam_id":76561198817934520,"connected_time":1040000000000,"state":"active","ping":60},{"user_id":523,"name":"Number28","steam_id":76561198315018819,"connected_time":515000000000,"state":"active","ping":85}]},{"server_id":406,"name":"Uncletopia | Seattle | 3 | Stopwatch Beta","name_short":"sea-3","host":"sea-1.us.uncletopia.com","port":27035,"enabled":true,"region":"us-west","cc":"us","latitude":47.608013,"longitude":-122.33517,"reserved":0,"last_update":"0001-01-01T00:00:00Z","name_a2s":"Uncletopia | Seattle | 3 | Stopwatch Beta","protocol":17,"map":"workshop/koth_clearcut_b15.ugc2107050255","folder":"tf","game":"Team Fortress","app_id":440,"player_count":0,"max_players":24,"Bots":0,"server_type":"Dedicated","server_os":"Linux","password":true,"vac":true,"version":"7757534","steam_id":85568392924515217,"keywords":["cp","nocrits","nodmgspread","uncletopia"],"game_id":440,"stv_port":27036,"stv_name":"Uncletopia | Seattle | 3 | Stopwatch Beta | STV","players":null},{"server_id":17,"name":"Uncletopia | San Francisco | 1 | All Maps","name_short":"sfo-1","host":"sfo-1.us.uncletopia.com","port":27015,"enabled":true,"region":"us-west","cc":"us","latitude":37.77397,"longitude":-122.4313,"reserved":0,"last_update":"0001-01-01T00:00:00Z","name_a2s":"Uncletopia | San Francisco | 1 | All Maps","protocol":17,"map":"cp_mountainlab","folder":"tf","game":"Team Fortress","app_id":440,"player_count":13,"max_players":24,"Bots":0,"server_type":"Dedicated","server_os":"Linux","password":true,"vac":true,"version":"7757534","steam_id":85568392924469999,"keywords":["cp","nocrits","nodmgspread","uncletopia"],"game_id":440,"stv_port":27016,"stv_name":"Uncletopia | San Francisco | 1 | All Maps | STV","players":[{"user_id":793,"name":"onion ringer","steam_id":76561199153258607,"connected_time":2155000000000,"state":"active","ping":74},{"user_id":799,"name":"Jimmy McGill","steam_id":76561198210926299,"connected_time":494000000000,"state":"active","ping":68},{"user_id":803,"name":"SomeFuckingGuy","steam_id":76561199239165015,"connected_time":208000000000,"state":"active","ping":76},{"user_id":801,"name":"Spock and Ball Torture","steam_id":76561199114823230,"connected_time":455000000000,"state":"active","ping":144},{"user_id":805,"name":"ice cream (冰淇淋)","steam_id":76561198976530881,"connected_time":80000000000,"state":"active","ping":56},{"user_id":744,"name":"matthew.caffee","steam_id":76561199069898310,"connected_time":8323000000000,"state":"active","ping":131},{"user_id":762,"name":"Pog","steam_id":76561198957479336,"connected_time":5847000000000,"state":"active","ping":100},{"user_id":771,"name":"Doctor X (Michiko Daemon)","steam_id":76561199106264424,"connected_time":5568000000000,"state":"active","ping":108},{"user_id":782,"name":"doozy","steam_id":76561198033106776,"connected_time":3140000000000,"state":"active","ping":100},{"user_id":776,"name":"gyroFSnoob","steam_id":76561198158404683,"connected_time":3881000000000,"state":"active","ping":71},{"user_id":798,"name":"Swag5","steam_id":76561198065311356,"connected_time":821000000000,"state":"active","ping":48},{"user_id":772,"name":"Joker's Skull","steam_id":76561199185320627,"connected_time":5252000000000,"state":"active","ping":102},{"user_id":743,"name":"beatrix","steam_id":76561199057103062,"connected_time":8349000000000,"state":"active","ping":64}]},{"server_id":18,"name":"Uncletopia | San Francisco | 2 | All Maps","name_short":"sfo-2","host":"sfo-1.us.uncletopia.com","port":27025,"enabled":true,"region":"us-west","cc":"us","latitude":37.77397,"longitude":-122.4313,"reserved":0,"last_update":"0001-01-01T00:00:00Z","name_a2s":"Uncletopia | San Francisco | 2 | All Maps","protocol":17,"map":"pl_barnblitz","folder":"tf","game":"Team Fortress","app_id":440,"player_count":24,"max_players":24,"Bots":0,"server_type":"Dedicated","server_os":"Linux","password":true,"vac":true,"version":"7757534","steam_id":85568392924470000,"keywords":["nocrits","nodmgspread","payload","uncletopia"],"game_id":440,"stv_port":27026,"stv_name":"Uncletopia | San Francisco | 2 | All Maps | STV","players":[{"user_id":384,"name":"Kuudere","steam_id":76561198075028016,"connected_time":533000000000,"state":"active","ping":82},{"user_id":327,"name":"PandaStick","steam_id":76561198005613207,"connected_time":4745000000000,"state":"active","ping":125},{"user_id":369,"name":"Vlone","steam_id":76561199119064542,"connected_time":2220000000000,"state":"active","ping":53},{"user_id":337,"name":"𝕊𝕠𝕦𝕡🥣GOᗪ","steam_id":76561198015230837,"connected_time":4238000000000,"state":"active","ping":127},{"user_id":378,"name":"Bradz","steam_id":76561198175090085,"connected_time":1009000000000,"state":"active","ping":98},{"user_id":385,"name":"The Super Mario Bros. Movie","steam_id":76561198871692156,"connected_time":499000000000,"state":"active","ping":67},{"user_id":394,"name":"Punished Jeff #NeverSimpAgain","steam_id":76561198304252584,"connected_time":289000000000,"state":"active","ping":60},{"user_id":363,"name":"dicksouls26","steam_id":76561198838196266,"connected_time":3126000000000,"state":"active","ping":134},{"user_id":383,"name":"mannequin challenge pt.3","steam_id":76561198970819395,"connected_time":541000000000,"state":"active","ping":100},{"user_id":388,"name":"noelle","steam_id":76561198842577534,"connected_time":446000000000,"state":"active","ping":77},{"user_id":379,"name":"crs22","steam_id":76561198120149196,"connected_time":920000000000,"state":"active","ping":95},{"user_id":390,"name":"cory in the house","steam_id":76561198296933059,"connected_time":424000000000,"state":"active","ping":73},{"user_id":374,"name":"BingBingAZ TV","steam_id":76561198353065343,"connected_time":1687000000000,"state":"active","ping":75},{"user_id":351,"name":"Sir Nope (TSS)","steam_id":76561198035935649,"connected_time":3834000000000,"state":"active","ping":65},{"user_id":391,"name":"SpinnerSpecial","steam_id":76561198065661869,"connected_time":416000000000,"state":"active","ping":106},{"user_id":370,"name":"Semjén Chungus","steam_id":76561198092398283,"connected_time":2160000000000,"state":"active","ping":70},{"user_id":355,"name":"Iroquois Pliskin","steam_id":76561198056704533,"connected_time":3667000000000,"state":"active","ping":74},{"user_id":371,"name":"GumZie","steam_id":76561198202584223,"connected_time":2150000000000,"state":"active","ping":59},{"user_id":357,"name":"Awildrock","steam_id":76561198040401086,"connected_time":3610000000000,"state":"active","ping":98},{"user_id":318,"name":"Feel the bern","steam_id":76561198078824519,"connected_time":5537000000000,"state":"active","ping":78},{"user_id":393,"name":"bubblegum kk","steam_id":76561198108685037,"connected_time":382000000000,"state":"active","ping":78},{"user_id":367,"name":"Nnyllazxz","steam_id":76561198247797436,"connected_time":2643000000000,"state":"active","ping":134},{"user_id":346,"name":"hoOmIN","steam_id":76561198334947079,"connected_time":4108000000000,"state":"active","ping":48},{"user_id":380,"name":"Blades_87","steam_id":76561198150870338,"connected_time":909000000000,"state":"active","ping":98}]},{"server_id":19,"name":"Uncletopia | San Francisco | 3 | Stopwatch Beta","name_short":"sfo-3","host":"sfo-1.us.uncletopia.com","port":27035,"enabled":true,"region":"us-west","cc":"us","latitude":37.77397,"longitude":-122.4313,"reserved":0,"last_update":"0001-01-01T00:00:00Z","name_a2s":"Uncletopia | San Francisco | 3 | Stopwatch Beta","protocol":17,"map":"pl_upward","folder":"tf","game":"Team Fortress","app_id":440,"player_count":0,"max_players":24,"Bots":0,"server_type":"Dedicated","server_os":"Linux","password":true,"vac":true,"version":"7757534","steam_id":85568392924742824,"keywords":["nocrits","nodmgspread","payload","uncletopia"],"game_id":440,"stv_port":27036,"stv_name":"Uncletopia | San Francisco | 3 | Stopwatch Beta | STV","players":null},{"server_id":20,"name":"Uncletopia | San Francisco | 4 | Community","name_short":"sfo-4","host":"sfo-1.us.uncletopia.com","port":27045,"enabled":true,"region":"us-west","cc":"us","latitude":37.77397,"longitude":-122.4313,"reserved":0,"last_update":"0001-01-01T00:00:00Z","name_a2s":"Uncletopia | San Francisco | 4 | Community","protocol":17,"map":"workshop/pl_eruption_b9a.ugc2807898013","folder":"tf","game":"Team Fortress","app_id":440,"player_count":0,"max_players":24,"Bots":0,"server_type":"Dedicated","server_os":"Linux","password":true,"vac":true,"version":"7757534","steam_id":85568392924742826,"keywords":["nocrits","nodmgspread","payload","uncletopia"],"game_id":440,"stv_port":27046,"stv_name":"Uncletopia | San Francisco | 4 | Community | STV","players":null},{"server_id":141,"name":"Uncletopia | Sydney | 1 | All Maps","name_short":"syd-1","host":"syd-1.au.uncletopia.com","port":27015,"enabled":true,"region":"au","cc":"au","latitude":-33.865143,"longitude":151.2099,"reserved":0,"last_update":"0001-01-01T00:00:00Z","name_a2s":"Uncletopia | Sydney | 1 | All Maps","protocol":17,"map":"cp_dustbowl","folder":"tf","game":"Team Fortress","app_id":440,"player_count":7,"max_players":24,"Bots":0,"server_type":"Dedicated","server_os":"Linux","password":true,"vac":true,"version":"7757534","steam_id":85568392924470001,"keywords":["cp","nocrits","nodmgspread","uncletopia"],"game_id":440,"stv_port":27016,"stv_name":"Uncletopia | Sydney | 1 | All Maps | STV","players":[{"user_id":73,"name":"tuneingfish","steam_id":76561197994734349,"connected_time":2423000000000,"state":"active","ping":51},{"user_id":74,"name":"Sad man","steam_id":76561199216905000,"connected_time":1985000000000,"state":"active","ping":56},{"user_id":83,"name":"the normoaner","steam_id":76561198082423230,"connected_time":459000000000,"state":"active","ping":75},{"user_id":84,"name":"dinxie","steam_id":76561199448765541,"connected_time":384000000000,"state":"active","ping":66},{"user_id":78,"name":"askwaige","steam_id":76561199108254276,"connected_time":1584000000000,"state":"active","ping":70},{"user_id":80,"name":"KillerBlow","steam_id":76561198930232832,"connected_time":1327000000000,"state":"active","ping":83},{"user_id":82,"name":"Jellyfish_kurage","steam_id":76561198425670698,"connected_time":1031000000000,"state":"active","ping":61}]},{"server_id":123,"name":"Uncletopia | Sydney | 2 | All Maps","name_short":"syd-2","host":"syd-1.au.uncletopia.com","port":27025,"enabled":true,"region":"au","cc":"au","latitude":-33.865143,"longitude":151.2099,"reserved":0,"last_update":"0001-01-01T00:00:00Z","name_a2s":"Uncletopia | Sydney | 2 | All Maps","protocol":17,"map":"cp_freight_final1","folder":"tf","game":"Team Fortress","app_id":440,"player_count":18,"max_players":24,"Bots":0,"server_type":"Dedicated","server_os":"Linux","password":true,"vac":true,"version":"7757534","steam_id":85568392924470002,"keywords":["cp","nocrits","nodmgspread","uncletopia"],"game_id":440,"stv_port":27026,"stv_name":"Uncletopia | Sydney | 2 | All Maps | STV","players":[{"user_id":64,"name":"Cup","steam_id":76561198038485845,"connected_time":1605000000000,"state":"active","ping":32},{"user_id":31,"name":"GappyZero","steam_id":76561199270883180,"connected_time":3585000000000,"state":"active","ping":152},{"user_id":74,"name":"hive","steam_id":76561199099744527,"connected_time":69000000000,"state":"active","ping":49},{"user_id":75,"name":"itzhorvy","steam_id":76561198159486662,"connected_time":63000000000,"state":"active","ping":51},{"user_id":71,"name":"Radio","steam_id":76561199436707447,"connected_time":310000000000,"state":"active","ping":45},{"user_id":36,"name":"Team Fartress Poo","steam_id":76561198139598106,"connected_time":2774000000000,"state":"active","ping":57},{"user_id":55,"name":"doctor morbin' (real)","steam_id":76561199365241695,"connected_time":1843000000000,"state":"active","ping":119},{"user_id":73,"name":"cimpact","steam_id":76561198452258917,"connected_time":219000000000,"state":"active","ping":154},{"user_id":47,"name":"Lancer","steam_id":76561198122813810,"connected_time":2118000000000,"state":"active","ping":61},{"user_id":52,"name":"Brownie","steam_id":76561198392672345,"connected_time":1982000000000,"state":"active","ping":58},{"user_id":48,"name":"Marzell","steam_id":76561198151276153,"connected_time":2117000000000,"state":"active","ping":89},{"user_id":53,"name":"courtesy","steam_id":76561198248550514,"connected_time":1958000000000,"state":"active","ping":53},{"user_id":56,"name":"DwarfGamer.111","steam_id":76561198355125370,"connected_time":1827000000000,"state":"active","ping":48},{"user_id":57,"name":"Kremmen","steam_id":76561198051368641,"connected_time":1812000000000,"state":"active","ping":66},{"user_id":66,"name":"Kiwoo","steam_id":76561198097429186,"connected_time":1276000000000,"state":"active","ping":99},{"user_id":72,"name":"DAFQ","steam_id":76561198241303512,"connected_time":241000000000,"state":"active","ping":57},{"user_id":67,"name":"Senator Armstrong","steam_id":76561199098106608,"connected_time":1182000000000,"state":"active","ping":63},{"user_id":63,"name":"Piklz","steam_id":76561198043384139,"connected_time":1655000000000,"state":"active","ping":51}]},{"server_id":395,"name":"Uncletopia | Sydney | 3 | All Maps","name_short":"syd-3","host":"syd-1.au.uncletopia.com","port":27035,"enabled":true,"region":"au","cc":"au","latitude":-33.865143,"longitude":151.2099,"reserved":0,"last_update":"0001-01-01T00:00:00Z","name_a2s":"Uncletopia | Sydney | 3 | All Maps","protocol":17,"map":"koth_cascade","folder":"tf","game":"Team Fortress","app_id":440,"player_count":0,"max_players":24,"Bots":0,"server_type":"Dedicated","server_os":"Linux","password":true,"vac":true,"version":"7757534","steam_id":85568392925194467,"keywords":["cp","nocrits","nodmgspread","uncletopia"],"game_id":440,"stv_port":27036,"stv_name":"Uncletopia | Sydney | 3 | All Maps | STV","players":null},{"server_id":396,"name":"Uncletopia | Sydney | 4 | All Maps","name_short":"syd-4","host":"syd-1.au.uncletopia.com","port":27045,"enabled":true,"region":"au","cc":"au","latitude":-33.865143,"longitude":151.2099,"reserved":0,"last_update":"0001-01-01T00:00:00Z","name_a2s":"Uncletopia | Sydney | 4 | All Maps","protocol":17,"map":"pl_borneo","folder":"tf","game":"Team Fortress","app_id":440,"player_count":13,"max_players":24,"Bots":0,"server_type":"Dedicated","server_os":"Linux","password":true,"vac":true,"version":"7757534","steam_id":85568392925397958,"keywords":["nocrits","nodmgspread","payload","uncletopia"],"game_id":440,"stv_port":27046,"stv_name":"Uncletopia | Sydney | 4 | All Maps | STV","players":[{"user_id":271,"name":"Livid","steam_id":76561198060024585,"connected_time":1858000000000,"state":"active","ping":32},{"user_id":267,"name":"Oranch","steam_id":76561198134730206,"connected_time":2173000000000,"state":"active","ping":50},{"user_id":273,"name":"mind goblin","steam_id":76561198048064049,"connected_time":1558000000000,"state":"active","ping":79},{"user_id":285,"name":"Jacob","steam_id":76561198059341907,"connected_time":231000000000,"state":"active","ping":39},{"user_id":276,"name":"Lychee","steam_id":76561198072845816,"connected_time":1220000000000,"state":"active","ping":45},{"user_id":286,"name":"SassnCheeky","steam_id":76561197993875592,"connected_time":142000000000,"state":"active","ping":51},{"user_id":278,"name":"(1)The Ghastly Gibus Gamer","steam_id":76561199262196710,"connected_time":1067000000000,"state":"active","ping":37},{"user_id":287,"name":"Fresh Produce Gaming","steam_id":76561198358483352,"connected_time":119000000000,"state":"active","ping":62},{"user_id":288,"name":"Slime the Protogen","steam_id":76561198070632295,"connected_time":117000000000,"state":"active","ping":52},{"user_id":266,"name":"Barry Bougar M.D.","steam_id":76561198301282416,"connected_time":2247000000000,"state":"active","ping":55},{"user_id":292,"name":"Featha","steam_id":76561198420642224,"connected_time":61000000000,"state":"active","ping":51},{"user_id":290,"name":"digweed","steam_id":76561198009557741,"connected_time":95000000000,"state":"active","ping":48},{"user_id":258,"name":"The Ghastly Gibus Gamer","steam_id":76561199146515563,"connected_time":3474000000000,"state":"active","ping":51}]},{"server_id":58,"name":"Uncletopia | Sydney | 5 | Stopwatch Beta","name_short":"syd-5","host":"syd-1.au.uncletopia.com","port":27055,"enabled":true,"region":"au","cc":"au","latitude":-33.865143,"longitude":151.2099,"reserved":0,"last_update":"0001-01-01T00:00:00Z","name_a2s":"Uncletopia | Sydney | 5 | Stopwatch Beta","protocol":17,"map":"koth_lakeside_final","folder":"tf","game":"Team Fortress","app_id":440,"player_count":0,"max_players":24,"Bots":0,"server_type":"Dedicated","server_os":"Linux","password":true,"vac":true,"version":"7757534","steam_id":85568392925397959,"keywords":["cp","nocrits","nodmgspread","uncletopia"],"game_id":440,"stv_port":27056,"stv_name":"Uncletopia | Sydney | 5 | Stopwatch Beta | STV","players":null},{"server_id":59,"name":"Uncletopia | Sydney | 6 | Community","name_short":"syd-6","host":"syd-1.au.uncletopia.com","port":27065,"enabled":true,"region":"au","cc":"au","latitude":-33.865143,"longitude":151.2099,"reserved":0,"last_update":"0001-01-01T00:00:00Z","name_a2s":"Uncletopia | Sydney | 6 | Community","protocol":17,"map":"cp_sunshine","folder":"tf","game":"Team Fortress","app_id":440,"player_count":0,"max_players":24,"Bots":0,"server_type":"Dedicated","server_os":"Linux","password":true,"vac":true,"version":"7757534","steam_id":85568392925397960,"keywords":["cp","nocrits","nodmgspread","uncletopia"],"game_id":440,"stv_port":27066,"stv_name":"Uncletopia | Sydney | 6 | Community | STV","players":null},{"server_id":49,"name":"Uncletopia | Warsaw | 1 | All Maps","name_short":"waw-1","host":"waw-1.pl.uncletopia.com","port":27015,"enabled":true,"region":"eu","cc":"pl","latitude":52.2297,"longitude":21.017532,"reserved":0,"last_update":"0001-01-01T00:00:00Z","name_a2s":"","protocol":0,"map":"","folder":"","game":"","app_id":0,"player_count":0,"max_players":0,"Bots":0,"server_type":"","server_os":"","password":false,"vac":false,"version":"","steam_id":0,"keywords":null,"game_id":0,"stv_port":0,"stv_name":"","players":null},{"server_id":50,"name":"Uncletopia | Warsaw | 2 | All Maps","name_short":"waw-2","host":"waw-1.pl.uncletopia.com","port":27025,"enabled":true,"region":"eu","cc":"pl","latitude":52.2297,"longitude":21.017532,"reserved":0,"last_update":"0001-01-01T00:00:00Z","name_a2s":"Uncletopia | Warsaw | 2 | All Maps","protocol":17,"map":"cp_process_final","folder":"tf","game":"Team Fortress","app_id":440,"player_count":0,"max_players":24,"Bots":0,"server_type":"Dedicated","server_os":"Linux","password":true,"vac":true,"version":"7757534","steam_id":85568392925397851,"keywords":["cp","nocrits","nodmgspread","uncletopia"],"game_id":440,"stv_port":27026,"stv_name":"Uncletopia | Warsaw | 2 | All Maps | STV","players":null},{"server_id":51,"name":"Uncletopia | Warsaw | 3 | All Maps","name_short":"waw-3","host":"waw-1.pl.uncletopia.com","port":27035,"enabled":true,"region":"eu","cc":"pl","latitude":52.2297,"longitude":21.017532,"reserved":0,"last_update":"0001-01-01T00:00:00Z","name_a2s":"Uncletopia | Warsaw | 3 | All Maps","protocol":17,"map":"pl_barnblitz","folder":"tf","game":"Team Fortress","app_id":440,"player_count":0,"max_players":24,"Bots":0,"server_type":"Dedicated","server_os":"Linux","password":true,"vac":true,"version":"7757534","steam_id":85568392925397852,"keywords":["nocrits","nodmgspread","payload","uncletopia"],"game_id":440,"stv_port":27036,"stv_name":"Uncletopia | Warsaw | 3 | All Maps | STV","players":null},{"server_id":52,"name":"Uncletopia | Warsaw | 4 | All Maps","name_short":"waw-4","host":"waw-1.pl.uncletopia.com","port":27045,"enabled":true,"region":"eu","cc":"pl","latitude":52.2297,"longitude":21.017532,"reserved":0,"last_update":"0001-01-01T00:00:00Z","name_a2s":"Uncletopia | Warsaw | 4 | All Maps","protocol":17,"map":"pl_snowycoast","folder":"tf","game":"Team Fortress","app_id":440,"player_count":0,"max_players":24,"Bots":0,"server_type":"Dedicated","server_os":"Linux","password":true,"vac":true,"version":"7757534","steam_id":85568392925397853,"keywords":["nocrits","nodmgspread","payload","uncletopia"],"game_id":440,"stv_port":27046,"stv_name":"Uncletopia | Warsaw | 4 | All Maps | STV","players":null},{"server_id":53,"name":"Uncletopia | Warsaw | 5 | Stopwatch Beta","name_short":"waw-5","host":"waw-1.pl.uncletopia.com","port":27055,"enabled":true,"region":"eu","cc":"pl","latitude":52.2297,"longitude":21.017532,"reserved":0,"last_update":"0001-01-01T00:00:00Z","name_a2s":"Uncletopia | Warsaw | 5 | Stopwatch Beta","protocol":17,"map":"pl_barnblitz","folder":"tf","game":"Team Fortress","app_id":440,"player_count":0,"max_players":24,"Bots":0,"server_type":"Dedicated","server_os":"Linux","password":true,"vac":true,"version":"7757534","steam_id":85568392925397854,"keywords":["nocrits","nodmgspread","payload","uncletopia"],"game_id":440,"stv_port":27056,"stv_name":"Uncletopia | Warsaw | 5 | Stopwatch Beta | STV","players":null},{"server_id":54,"name":"Uncletopia | Warsaw | 6 | Community","name_short":"waw-6","host":"waw-1.pl.uncletopia.com","port":27065,"enabled":true,"region":"eu","cc":"pl","latitude":52.2297,"longitude":21.017532,"reserved":0,"last_update":"0001-01-01T00:00:00Z","name_a2s":"Uncletopia | Warsaw | 6 | Community","protocol":17,"map":"pl_swiftwater_final1","folder":"tf","game":"Team Fortress","app_id":440,"player_count":0,"max_players":24,"Bots":0,"server_type":"Dedicated","server_os":"Linux","password":true,"vac":true,"version":"7757534","steam_id":85568392925397856,"keywords":["nocrits","nodmgspread","payload","uncletopia"],"game_id":440,"stv_port":27066,"stv_name":"Uncletopia | Warsaw | 6 | Community | STV","players":null}]}