{"status":true,"message":"","result":[{"server_id":9,"name":"Uncletopia | Atlanta | 1 | All Maps","name_short":"atl-1","host":"atl-1.us.uncletopia.com","port":27015,"enabled":true,"region":"us-east","cc":"us","latitude":33.753746,"longitude":-84.38633,"reserved":0,"last_update":"0001-01-01T00:00:00Z","name_a2s":"Uncletopia | Atlanta | 1 | All Maps","protocol":17,"map":"koth_highpass","folder":"tf","game":"Team Fortress","app_id":440,"player_count":22,"max_players":24,"Bots":0,"server_type":"Dedicated","server_os":"Linux","password":true,"vac":true,"version":"7757534","steam_id":85568392924469982,"keywords":["cp","nocrits","nodmgspread","uncletopia"],"game_id":440,"stv_port":27016,"stv_name":"Uncletopia | Atlanta | 1 | All Maps | STV","players":[{"user_id":709,"name":"com lag","steam_id":76561198019019392,"connected_time":6491000000000,"state":"active","ping":64},{"user_id":721,"name":"ATL1 | Pango","steam_id":76561198069811545,"connected_time":3573000000000,"state":"active","ping":45},{"user_id":728,"name":"floofy","steam_id":76561198389769098,"connected_time":2676000000000,"state":"active","ping":81},{"user_id":710,"name":"mayhem","steam_id":76561199246637881,"connected_time":6367000000000,"state":"active","ping":50},{"user_id":724,"name":"Edited Atom","steam_id":76561198210844957,"connected_time":3554000000000,"state":"active","ping":59},{"user_id":739,"name":"CrusadeBreaker","steam_id":76561198209086801,"connected_time":1921000000000,"state":"active","ping":72},{"user_id":746,"name":"Nox(She/Her)","steam_id":76561198141950842,"connected_time":1109000000000,"state":"active","ping":28},{"user_id":727,"name":"plasmaofthedawn","steam_id":76561198287916194,"connected_time":2681000000000,"state":"active","ping":54},{"user_id":731,"name":"FemboyNate","steam_id":76561198146636410,"connected_time":2654000000000,"state":"active","ping":59},{"user_id":754,"name":"Mengle","steam_id":76561198001953684,"connected_time":59000000000,"state":"active","ping":78},{"user_id":753,"name":"BERBBLES","steam_id":76561198815107994,"connected_time":108000000000,"state":"active","ping":117},{"user_id":719,"name":"Roald (Solemn Vow Collector)","steam_id":76561198143182772,"connected_time":5224000000000,"state":"active","ping":67},{"user_id":755,"name":"paetho YT","steam_id":76561198152690003,"connected_time":48000000000,"state":"spawning","ping":38},{"user_id":756,"name":"noahjwarner09","steam_id":76561199444479988,"connected_time":14000000000,"state":"spawning","ping":72},{"user_id":679,"name":"Jabawakai","steam_id":76561198088881254,"connected_time":7874000000000,"state":"active","ping":70},{"user_id":729,"name":"Onyx","steam_id":76561198275349640,"connected_time":2670000000000,"state":"active","ping":74},{"user_id":707,"name":"Semi-Sentient Non-Mini Sentry","steam_id":76561198150532531,"connected_time":6516000000000,"state":"active","ping":47},{"user_id":726,"name":"stink","steam_id":76561198099318923,"connected_time":3103000000000,"state":"active","ping":74},{"user_id":741,"name":"Underscroll","steam_id":76561198836109317,"connected_time":1719000000000,"state":"active","ping":110},{"user_id":744,"name":"Bandi","steam_id":76561198432036026,"connected_time":1339000000000,"state":"active","ping":54},{"user_id":750,"name":"The Pope","steam_id":76561198313560302,"connected_time":701000000000,"state":"active","ping":38},{"user_id":683,"name":"Orko (Third Degree Enjoyer)","steam_id":76561198162232131,"connected_time":7698000000000,"state":"active","ping":81}]},{"server_id":104,"name":"Uncletopia | Atlanta | 2 | All Maps","name_short":"atl-2","host":"atl-1.us.uncletopia.com","port":27025,"enabled":true,"region":"us-east","cc":"us","latitude":33.753746,"longitude":-84.38633,"reserved":0,"last_update":"0001-01-01T00:00:00Z","name_a2s":"Uncletopia | Atlanta | 2 | All Maps","protocol":17,"map":"cp_altitude","folder":"tf","game":"Team Fortress","app_id":440,"player_count":20,"max_players":24,"Bots":0,"server_type":"Dedicated","server_os":"Linux","password":true,"vac":true,"version":"7757534","steam_id":85568392924469983,"keywords":["cp","nocrits","nodmgspread","uncletopia"],"game_id":440,"stv_port":27026,"stv_name":"Uncletopia | Atlanta | 2 | All Maps | STV","players":[{"user_id":682,"name":"Bella","steam_id":76561198373522196,"connected_time":565000000000,"state":"active","ping":67},{"user_id":683,"name":"♥  U.B. ♥","steam_id":76561198046245729,"connected_time":475000000000,"state":"active","ping":117},{"user_id":684,"name":"kazoo2","steam_id":76561198260473504,"connected_time":433000000000,"state":"active","ping":104},{"user_id":640,"name":"hamletespacial","steam_id":76561199084414649,"connected_time":3794000000000,"state":"active","ping":63},{"user_id":669,"name":"Hmmm","steam_id":76561198387695047,"connected_time":2070000000000,"state":"active","ping":93},{"user_id":681,"name":"blue of days","steam_id":76561199113013688,"connected_time":712000000000,"state":"active","ping":99},{"user_id":641,"name":"SomeRandomGuy","steam_id":76561199092571346,"connected_time":3787000000000,"state":"active","ping":83},{"user_id":688,"name":"PikaGEMER","steam_id":76561198409850176,"connected_time":165000000000,"state":"active","ping":146},{"user_id":663,"name":"ANIME-GOD","steam_id":76561198815077196,"connected_time":2643000000000,"state":"active","ping":77},{"user_id":678,"name":"Bony","steam_id":76561199001748822,"connected_time":938000000000,"state":"active","ping":106},{"user_id":686,"name":"monkey","steam_id":76561198080479697,"connected_time":309000000000,"state":"active","ping":67},{"user_id":680,"name":"THinkBOX546","steam_id":76561198928550867,"connected_time":795000000000,"state":"active","ping":105},{"user_id":687,"name":"Zero","steam_id":76561199383267408,"connected_time":294000000000,"state":"active","ping":64},{"user_id":673,"name":"Orca?","steam_id":76561198164341099,"connected_time":1333000000000,"state":"active","ping":87},{"user_id":657,"name":"Wiener Hole Paper Cut","steam_id":76561198000808203,"connected_time":3395000000000,"state":"active","ping":73},{"user_id":651,"name":"troll","steam_id":76561198040890252,"connected_time":3540000000000,"state":"active","ping":52},{"user_id":689,"name":"Pokon","steam_id":76561198053113088,"connected_time":91000000000,"state":"active","ping":45},{"user_id":646,"name":"Donutking20","steam_id":76561198164760031,"connected_time":3685000000000,"state":"active","ping":87},{"user_id":690,"name":"ray (the based god)","steam_id":76561198311984941,"connected_time":3000000000,"state":"spawning","ping":84},{"user_id":627,"name":"Jake The Snake","steam_id":76561198047722285,"connected_time":5125000000000,"state":"active","ping":71}]},{"server_id":400,"name":"Uncletopia | Atlanta | 3 | Community","name_short":"atl-3","host":"atl-1.us.uncletopia.com","port":27035,"enabled":true,"region":"us-east","cc":"us","latitude":33.753746,"longitude":-84.38633,"reserved":0,"last_update":"0001-01-01T00:00:00Z","name_a2s":"Uncletopia | Atlanta | 3 | Community","protocol":17,"map":"workshop/koth_trenchfoot_b1a.ugc731436616","folder":"tf","game":"Team Fortress","app_id":440,"player_count":0,"max_players":24,"Bots":0,"server_type":"Dedicated","server_os":"Linux","password":true,"vac":true,"version":"7757534","steam_id":85568392924515187,"keywords":["cp","nocrits","nodmgspread","uncletopia"],"game_id":440,"stv_port":27036,"stv_name":"Uncletopia | Atlanta | 3 | Community | STV","players":null},{"server_id":401,"name":"Uncletopia | Atlanta | 4 | No Payload","name_short":"atl-4","host":"atl-1.us.uncletopia.com","port":27045,"enabled":true,"region":"us-east","cc":"us","latitude":33.753746,"longitude":-84.38633,"reserved":0,"last_update":"0001-01-01T00:00:00Z","name_a2s":"","protocol":0,"map":"","folder":"","game":"","app_id":0,"player_count":0,"max_players":0,"Bots":0,"server_type":"","server_os":"","password":false,"vac":false,"version":"","steam_id":0,"keywords":null,"game_id":0,"stv_port":0,"stv_name":"","players":null},{"server_id":2,"name":"Uncletopia | Chicago | 1 | All Maps","name_short":"chi-1","host":"chi-1.us.uncletopia.com","port":27015,"enabled":true,"region":"us-central","cc":"us","latitude":41.881832,"longitude":-87.62318,"reserved":0,"last_update":"0001-01-01T00:00:00Z","name_a2s":"Uncletopia | Chicago | 1 | All Maps","protocol":17,"map":"pl_snowycoast","folder":"tf","game":"Team Fortress","app_id":440,"player_count":24,"max_players":24,"Bots":0,"server_type":"Dedicated","server_os":"Linux","password":true,"vac":true,"version":"7757534","steam_id":85568392924469984,"keywords":["nocrits","nodmgspread","payload","uncletopia"],"game_id":440,"stv_port":27016,"stv_name":"Uncletopia | Chicago | 1 | All Maps | STV","players":[{"user_id":1005,"name":"Astoriae!","steam_id":76561199090168858,"connected_time":194000000000,"state":"active","ping":70},{"user_id":987,"name":"bonk schnoffer","steam_id":76561198301598124,"connected_time":1315000000000,"state":"active","ping":122},{"user_id":1010,"name":"Buttfuck Armstrong","steam_id":76561198075547905,"connected_time":120000000000,"state":"active","ping":61},{"user_id":1013,"name":"仙女头子于谦","steam_id":76561199031075505,"connected_time":42000000000,"state":"active","ping":166},{"user_id":977,"name":"Brocklee","steam_id":76561198073953768,"connected_time":2299000000000,"state":"active","ping":58},{"user_id":985,"name":"daughterofdarkness","steam_id":76561198352892194,"connected_time":1935000000000,"state":"active","ping":66},{"user_id":1004,"name":"EmilDaGamer06","steam_id":76561199188102115,"connected_time":209000000000,"state":"active","ping":87},{"user_id":1006,"name":"Trash","steam_id":76561198358471281,"connected_time":170000000000,"state":"active","ping":68},{"user_id":1007,"name":"Sarbanes-Oxley","steam_id":76561197975898479,"connected_time":161000000000,"state":"active","ping":75},{"user_id":1003,"name":"Influrrno","steam_id":76561198398893302,"connected_time":604000000000,"state":"active","ping":69},{"user_id":979,"name":"DrinkableTea Jr","steam_id":76561198177161779,"connected_time":2061000000000,"state":"active","ping":79},{"user_id":1009,"name":"Javaris Jamar Javarison-Lamar","steam_id":76561198146951387,"connected_time":130000000000,"state":"active","ping":75},{"user_id":959,"name":"Blagoni","steam_id":76561198079134230,"connected_time":3860000000000,"state":"active","ping":102},{"user_id":1011,"name":"An Axe Man With An Axe Plan","steam_id":76561199031265293,"connected_time":104000000000,"state":"active","ping":75},{"user_id":983,"name":"srmoore 103","steam_id":76561198300291415,"connected_time":1957000000000,"state":"active","ping":97},{"user_id":994,"name":"☼plump helmet roast [20]☼","steam_id":76561198046283896,"connected_time":1040000000000,"state":"active","ping":75},{"user_id":966,"name":"Milkius","steam_id":76561198401392472,"connected_time":3077000000000,"state":"active","ping":80},{"user_id":1002,"name":"SadVeggie","steam_id":76561198163430099,"connected_time":791000000000,"state":"active","ping":117},{"user_id":995,"name":"harlowng","steam_id":76561198060542928,"connected_time":1023000000000,"state":"active","ping":120},{"user_id":1012,"name":"hygge","steam_id":76561197960327792,"connected_time":103000000000,"state":"active","ping":44},{"user_id":972,"name":"Aegis","steam_id":76561198272052750,"connected_time":2793000000000,"state":"active","ping":76},{"user_id":999,"name":"break.","steam_id":76561198262751236,"connected_time":949000000000,"state":"active","ping":99},{"user_id":973,"name":"Im High","steam_id":76561198049954886,"connected_time":2781000000000,"state":"active","ping":74},{"user_id":919,"name":"!! HEY GOYAMON !!","steam_id":76561198095313463,"connected_time":8353000000000,"state":"active","ping":78}]},{"server_id":106,"name":"Uncletopia | Chicago | 2 | All Maps","name_short":"chi-2","host":"chi-1.us.uncletopia.com","port":27025,"enabled":true,"region":"us-central","cc":"us","latitude":41.881832,"longitude":-87.62318,"reserved":0,"last_update":"0001-01-01T00:00:00Z","name_a2s":"Uncletopia | Chicago | 2 | All Maps","protocol":17,"map":"cp_sunshine","folder":"tf","game":"Team Fortress","app_id":440,"player_count":24,"max_players":24,"Bots":0,"server_type":"Dedicated","server_os":"Linux","password":true,"vac":true,"version":"7757534","steam_id":85568392924469985,"keywords":["cp","nocrits","nodmgspread","uncletopia"],"game_id":440,"stv_port":27026,"stv_name":"Uncletopia | Chicago | 2 | All Maps | STV","players":[{"user_id":755,"name":"Glass Joe","steam_id":76561198317365741,"connected_time":6398000000000,"state":"active","ping":60},{"user_id":841,"name":"ultralisk52","steam_id":76561198051666604,"connected_time":518000000000,"state":"active","ping":65},{"user_id":834,"name":"Larkest","steam_id":76561198008789844,"connected_time":1245000000000,"state":"active","ping":72},{"user_id":824,"name":"Talented","steam_id":76561198800259660,"connected_time":1869000000000,"state":"active","ping":69},{"user_id":842,"name":"amazing","steam_id":76561198386233160,"connected_time":462000000000,"state":"active","ping":89},{"user_id":836,"name":"FANGSTARKILLER","steam_id":76561199387254994,"connected_time":1100000000000,"state":"active","ping":69},{"user_id":831,"name":"4 life","steam_id":76561198175961598,"connected_time":1583000000000,"state":"active","ping":113},{"user_id":788,"name":"El Gato Paranoico","steam_id":76561198116567116,"connected_time":4212000000000,"state":"active","ping":100},{"user_id":838,"name":"Wormatoid","steam_id":76561199400536796,"connected_time":754000000000,"state":"active","ping":69},{"user_id":855,"name":"♡ ironterrortrain ♡","steam_id":76561198046460418,"connected_time":34000000000,"state":"spawning","ping":92},{"user_id":854,"name":"Hifumi Togo","steam_id":76561198074930636,"connected_time":67000000000,"state":"active","ping":50},{"user_id":846,"name":"ChozoChorizo","steam_id":76561198272609196,"connected_time":327000000000,"state":"active","ping":57},{"user_id":851,"name":"NotHughesy","steam_id":76561198113064655,"connected_time":228000000000,"state":"active","ping":52},{"user_id":844,"name":"will uber light classes","steam_id":76561198117033273,"connected_time":386000000000,"state":"active","ping":145},{"user_id":848,"name":"pigswill","steam_id":76561197999081865,"connected_time":319000000000,"state":"active","ping":91},{"user_id":803,"name":"Aurro","steam_id":76561198315692300,"connected_time":3245000000000,"state":"active","ping":46},{"user_id":856,"name":"Bearegard","steam_id":76561198061926542,"connected_time":22000000000,"state":"spawning","ping":71},{"user_id":805,"name":"chiswola","steam_id":76561198046920142,"connected_time":3233000000000,"state":"active","ping":73},{"user_id":757,"name":"Motreir","steam_id":76561198151717946,"connected_time":6393000000000,"state":"active","ping":81},{"user_id":827,"name":"incredirocks","steam_id":76561198061079993,"connected_time":1820000000000,"state":"active","ping":45},{"user_id":849,"name":"Wizard Raccoon","steam_id":76561198072562591,"connected_time":317000000000,"state":"active","ping":76},{"user_id":852,"name":"Oneal","steam_id":76561198026564095,"connected_time":189000000000,"state":"active","ping":50},{"user_id":853,"name":"Nolan","steam_id":76561198169648081,"connected_time":179000000000,"state":"active","ping":86},{"user_id":850,"name":"Lipo","steam_id":76561198295702119,"connected_time":308000000000,"state":"active","ping":44}]},{"server_id":402,"name":"Uncletopia | Chicago | 3 | All Maps","name_short":"chi-3","host":"chi-1.us.uncletopia.com","port":27035,"enabled":true,"region":"us-central","cc":"us","latitude":41.881832,"longitude":-87.62318,"reserved":0,"last_update":"0001-01-01T00:00:00Z","name_a2s":"Uncletopia | Chicago | 3 | All Maps","protocol":17,"map":"cp_foundry","folder":"tf","game":"Team Fortress","app_id":440,"player_count":19,"max_players":24,"Bots":0,"server_type":"Dedicated","server_os":"Linux","password":true,"vac":true,"version":"7757534","steam_id":85568392924515191,"keywords":["cp","nocrits","nodmgspread","uncletopia"],"game_id":440,"stv_port":27036,"stv_name":"Uncletopia | Chicago | 3 | All Maps | STV","players":[{"user_id":751,"name":"ECCO","steam_id":76561198002821513,"connected_time":26000000000,"state":"active","ping":56},{"user_id":743,"name":"fritzthecat","steam_id":76561199180497813,"connected_time":781000000000,"state":"active","ping":70},{"user_id":727,"name":"SMUG homunculus gaming","steam_id":76561198233978116,"connected_time":1912000000000,"state":"active","ping":91},{"user_id":691,"name":"Scoober","steam_id":76561198079736959,"connected_time":5615000000000,"state":"active","ping":81},{"user_id":744,"name":"Sh3ba Spaniel","steam_id":76561198047412394,"connected_time":737000000000,"state":"active","ping":56},{"user_id":717,"name":"threethree","steam_id":76561198177354155,"connected_time":2779000000000,"state":"active","ping":54},{"user_id":740,"name":"mohamy_19","steam_id":76561198075833698,"connected_time":1153000000000,"state":"active","ping":74},{"user_id":748,"name":"MoanfulMilk","steam_id":76561199229169396,"connected_time":404000000000,"state":"active","ping":75},{"user_id":728,"name":"stupid ape","steam_id":76561198350027075,"connected_time":1758000000000,"state":"active","ping":50},{"user_id":707,"name":"Bread Baker","steam_id":76561198185335103,"connected_time":3510000000000,"state":"active","ping":49},{"user_id":736,"name":"Narwhal","steam_id":76561198132448838,"connected_time":1477000000000,"state":"active","ping":68},{"user_id":721,"name":"dulg","steam_id":76561198127640309,"connected_time":2764000000000,"state":"active","ping":83},{"user_id":672,"name":"Barlon","steam_id":76561198023717515,"connected_time":6753000000000,"state":"active","ping":74},{"user_id":742,"name":"gyozaking","steam_id":76561197972312696,"connected_time":828000000000,"state":"active","ping":32},{"user_id":725,"name":"burger king hypnosis ego death ","steam_id":76561198070136627,"connected_time":2178000000000,"state":"active","ping":92},{"user_id":747,"name":"FullMetalSlugCat","steam_id":76561199193784099,"connected_time":555000000000,"state":"active","ping":81},{"user_id":749,"name":"Traitor Joes Grocery","steam_id":76561198010708247,"connected_time":295000000000,"state":"active","ping":69},{"user_id":733,"name":"FoodzAreGoodz","steam_id":76561198309262052,"connected_time":1610000000000,"state":"active","ping":103},{"user_id":735,"name":"Hey","steam_id":76561198447517893,"connected_time":1561000000000,"state":"active","ping":85}]},{"server_id":403,"name":"Uncletopia | Chicago | 4 | All Maps","name_short":"chi-4","host":"chi-1.us.uncletopia.com","port":27045,"enabled":true,"region":"us-central","cc":"us","latitude":41.881832,"longitude":-87.62318,"reserved":0,"last_update":"0001-01-01T00:00:00Z","name_a2s":"Uncletopia | Chicago | 4 | All Maps","protocol":17,"map":"pl_pier","folder":"tf","game":"Team Fortress","app_id":440,"player_count":23,"max_players":24,"Bots":0,"server_type":"Dedicated","server_os":"Linux","password":true,"vac":true,"version":"7757534","steam_id":85568392924515193,"keywords":["nocrits","nodmgspread","payload","uncletopia"],"game_id":440,"stv_port":27046,"stv_name":"Uncletopia | Chicago | 4 | All Maps | STV","players":[{"user_id":507,"name":"PoisonIvy","steam_id":76561198072384574,"connected_time":5976000000000,"state":"active","ping":55},{"user_id":558,"name":"kevin supermarket","steam_id":76561198058287022,"connected_time":80000000000,"state":"active","ping":61},{"user_id":537,"name":"Girox","steam_id":76561198009921751,"connected_time":2366000000000,"state":"active","ping":71},{"user_id":527,"name":"River Rat","steam_id":76561198116383976,"connected_time":3994000000000,"state":"active","ping":112},{"user_id":428,"name":"HanakoToast","steam_id":76561198045233131,"connected_time":12199000000000,"state":"active","ping":105},{"user_id":547,"name":"steggy","steam_id":76561198000564263,"connected_time":911000000000,"state":"active","ping":68},{"user_id":450,"name":"Eminem Sandvich","steam_id":76561198064631314,"connected_time":10691000000000,"state":"active","ping":63},{"user_id":554,"name":"...","steam_id":76561198312298321,"connected_time":840000000000,"state":"active","ping":60},{"user_id":548,"name":"Punda","steam_id":76561198165341954,"connected_time":911000000000,"state":"active","ping":48},{"user_id":549,"name":"Meat","steam_id":76561198010019214,"connected_time":908000000000,"state":"active","ping":45},{"user_id":544,"name":"Charlie","steam_id":76561199098209171,"connected_time":1023000000000,"state":"active","ping":75},{"user_id":531,"name":"Bigstu","steam_id":76561197974497071,"connected_time":3483000000000,"state":"active","ping":122},{"user_id":550,"name":"proud owner of a large tongue","steam_id":76561198106690989,"connected_time":904000000000,"state":"active","ping":68},{"user_id":534,"name":"koompa_stomp","steam_id":76561198073081735,"connected_time":2763000000000,"state":"active","ping":103},{"user_id":474,"name":"misterjozo","steam_id":76561198012300755,"connected_time":9665000000000,"state":"active","ping":102},{"user_id":557,"name":"AOTFB | BigTony","steam_id":76561198260516158,"connected_time":264000000000,"state":"active","ping":59},{"user_id":552,"name":"java","steam_id":76561198030276792,"connected_time":885000000000,"state":"active","ping":56},{"user_id":555,"name":"lanoc","steam_id":76561198055415367,"connected_time":746000000000,"state":"active","ping":60},{"user_id":553,"name":"Silly Billy","steam_id":76561199143409163,"connected_time":860000000000,"state":"active","ping":77},{"user_id":543,"name":"Chubby Monarch","steam_id":76561198027487285,"connected_time":1465000000000,"state":"active","ping":112},{"user_id":540,"name":"Klip","steam_id":76561198316254429,"connected_time":1755000000000,"state":"active","ping":76},{"user_id":522,"name":"Mr.Poopy Pants","steam_id":76561199037703635,"connected_time":4243000000000,"state":"active","ping":69},{"user_id":556,"name":"Vox Vulpera","steam_id":76561198796227041,"connected_time":543000000000,"state":"active","ping":79}]},{"server_id":36,"name":"Uncletopia | Chicago | 5 | All Maps","name_short":"chi-5","host":"chi-2.us.uncletopia.com","port":27015,"enabled":true,"region":"us-central","cc":"us","latitude":41.881832,"longitude":-87.62318,"reserved":0,"last_update":"0001-01-01T00:00:00Z","name_a2s":"Uncletopia | Chicago | 5 | All Maps","protocol":17,"map":"pl_upward","folder":"tf","game":"Team Fortress","app_id":440,"player_count":23,"max_players":24,"Bots":0,"server_type":"Dedicated","server_os":"Linux","password":true,"vac":true,"version":"7757534","steam_id":85568392924866362,"keywords":["nocrits","nodmgspread","payload","uncletopia"],"game_id":440,"stv_port":27016,"stv_name":"Uncletopia | Chicago | 5 | All Maps | STV","players":[{"user_id":665,"name":"kirbo","steam_id":76561198057895955,"connected_time":822000000000,"state":"active","ping":66},{"user_id":672,"name":"Stapler","steam_id":76561198099295077,"connected_time":655000000000,"state":"active","ping":91},{"user_id":674,"name":"Frodo T Baggins","steam_id":76561198048090297,"connected_time":594000000000,"state":"active","ping":51},{"user_id":589,"name":"remote_tenor","steam_id":76561198102941724,"connected_time":7671000000000,"state":"active","ping":78},{"user_id":641,"name":"YAG(+___+)GLE","steam_id":76561198066685074,"connected_time":3036000000000,"state":"active","ping":91},{"user_id":546,"name":"HumFreY","steam_id":76561198076639682,"connected_time":9633000000000,"state":"active","ping":72},{"user_id":666,"name":"The Goose","steam_id":76561199006093549,"connected_time":817000000000,"state":"active","ping":66},{"user_id":664,"name":"St4pps","steam_id":76561198449842958,"connected_time":905000000000,"state":"active","ping":65},{"user_id":667,"name":"reverse","steam_id":76561198186840242,"connected_time":814000000000,"state":"active","ping":73},{"user_id":668,"name":"Tusk","steam_id":76561199066977033,"connected_time":751000000000,"state":"active","ping":72},{"user_id":683,"name":"dec","steam_id":76561198009660168,"connected_time":84000000000,"state":"active","ping":156},{"user_id":642,"name":"stump","steam_id":76561198012653832,"connected_time":3030000000000,"state":"active","ping":60},{"user_id":681,"name":"supcupman","steam_id":76561198051513866,"connected_time":174000000000,"state":"active","ping":108},{"user_id":670,"name":"Whoplops","steam_id":76561197977188933,"connected_time":722000000000,"state":"active","ping":85},{"user_id":662,"name":"Sankik","steam_id":76561198160049044,"connected_time":1399000000000,"state":"active","ping":169},{"user_id":680,"name":"Stan","steam_id":76561199057962816,"connected_time":237000000000,"state":"active","ping":56},{"user_id":682,"name":"G00D G00GLY M00GLY!!","steam_id":76561199177310566,"connected_time":156000000000,"state":"active","ping":86},{"user_id":640,"name":"minerkid2004","steam_id":76561198044262827,"connected_time":3055000000000,"state":"active","ping":98},{"user_id":676,"name":"Pixelated","steam_id":76561198311739461,"connected_time":562000000000,"state":"active","ping":62},{"user_id":658,"name":"Rat_king","steam_id":76561199465689129,"connected_time":1904000000000,"state":"active","ping":79},{"user_id":678,"name":"FireQuiz","steam_id":76561198107357249,"connected_time":522000000000,"state":"active","ping":104},{"user_id":657,"name":"onsen episode","steam_id":76561197979960008,"connected_time":1969000000000,"state":"active","ping":58},{"user_id":646,"name":"we gang?","steam_id":76561198119826352,"connected_time":2969000000000,"state":"active","ping":75}]},{"server_id":37,"name":"Uncletopia | Chicago | 6 | All Maps","name_short":"chi-6","host":"chi-2.us.uncletopia.com","port":27025,"enabled":true,"region":"us-central","cc":"us","latitude":41.881832,"longitude":-87.62318,"reserved":0,"last_update":"0001-01-01T00:00:00Z","name_a2s":"Uncletopia | Chicago | 6 | All Maps","protocol":17,"map":"pl_badwater","folder":"tf","game":"Team Fortress","app_id":440,"player_count":22,"max_players":24,"Bots":0,"server_type":"Dedicated","server_os":"Linux","password":true,"vac":true,"version":"7757534","steam_id":85568392924866363,"keywords":["nocrits","nodmgspread","payload","uncletopia"],"game_id":440,"stv_port":27026,"stv_name":"Uncletopia | Chicago | 6 | All Maps | STV","players":[{"user_id":460,"name":"KalmingKoz","steam_id":76561198362800060,"connected_time":3737000000000,"state":"active","ping":94},{"user_id":499,"name":"bladees saddest, realest verse","steam_id":76561198098099826,"connected_time":929000000000,"state":"active","ping":108},{"user_id":442,"name":"Vince Offer","steam_id":76561198991008825,"connected_time":5848000000000,"state":"active","ping":89},{"user_id":482,"name":"JJc","steam_id":76561198021164742,"connected_time":1640000000000,"state":"active","ping":46},{"user_id":486,"name":"ItsTanleyCrunch","steam_id":76561198037915942,"connected_time":1275000000000,"state":"active","ping":75},{"user_id":471,"name":"Veridian","steam_id":76561198096334078,"connected_time":2906000000000,"state":"active","ping":71},{"user_id":509,"name":"Onecoinsachi","steam_id":76561199085984801,"connected_time":123000000000,"state":"active","ping":158},{"user_id":504,"name":"Howoriginal","steam_id":76561197993701184,"connected_time":381000000000,"state":"active","ping":58},{"user_id":505,"name":"Long of Neck","steam_id":76561198038997485,"connected_time":369000000000,"state":"active","ping":67},{"user_id":485,"name":"Lore","steam_id":76561198098407538,"connected_time":1291000000000,"state":"active","ping":57},{"user_id":488,"name":"LOTO","steam_id":76561198048419095,"connected_time":1195000000000,"state":"active","ping":89},{"user_id":508,"name":"Darkmaen","steam_id":76561198060543390,"connected_time":203000000000,"state":"active","ping":145},{"user_id":506,"name":"Zho Biden","steam_id":76561198079224101,"connected_time":343000000000,"state":"active","ping":53},{"user_id":507,"name":"avant","steam_id":76561198104921055,"connected_time":318000000000,"state":"active","ping":81},{"user_id":483,"name":"Crackhead Energy","steam_id":76561198263847667,"connected_time":1609000000000,"state":"active","ping":65},{"user_id":502,"name":"Elizabeth truss","steam_id":76561198058250979,"connected_time":555000000000,"state":"active","ping":70},{"user_id":484,"name":"Dire_vVolf","steam_id":76561198052509176,"connected_time":1303000000000,"state":"active","ping":46},{"user_id":493,"name":"-=Bits=-Dinkleberg","steam_id":76561198080367616,"connected_time":1150000000000,"state":"active","ping":73},{"user_id":478,"name":"gonk","steam_id":76561198061206732,"connected_time":2376000000000,"state":"active","ping":83},{"user_id":481,"name":"› snow","steam_id":76561198109783729,"connected_time":1787000000000,"state":"active","ping":47},{"user_id":494,"name":"mentos14","steam_id":76561198097993629,"connected_time":1138000000000,"state":"active","ping":118},{"user_id":495,"name":"Captain Of The Gas Industry","steam_id":76561199307121982,"connected_time":1080000000000,"state":"active","ping":67}]},{"server_id":38,"name":"Uncletopia | Chicago | 7 | Stopwatch Beta","name_short":"chi-7","host":"chi-2.us.uncletopia.com","port":27035,"enabled":true,"region":"us-central","cc":"us","latitude":41.881832,"longitude":-87.62318,"reserved":0,"last_update":"0001-01-01T00:00:00Z","name_a2s":"Uncletopia | Chicago | 7 | Stopwatch Beta","protocol":17,"map":"workshop/koth_ashville_final.ugc2130459942","folder":"tf","game":"Team Fortress","app_id":440,"player_count":0,"max_players":24,"Bots":0,"server_type":"Dedicated","server_os":"Linux","password":true,"vac":true,"version":"7757534","steam_id":85568392924866364,"keywords":["cp","nocrits","nodmgspread","uncletopia"],"game_id":440,"stv_port":27036,"stv_name":"Uncletopia | Chicago | 7 | Stopwatch Beta | STV","players":null},{"server_id":39,"name":"Uncletopia | Chicago | 8 | Community","name_short":"chi-8","host":"chi-2.us.uncletopia.com","port":27045,"enabled":true,"region":"us-central","cc":"us","latitude":41.881832,"longitude":-87.62318,"reserved":0,"last_update":"0001-01-01T00:00:00Z","name_a2s":"Uncletopia | Chicago | 8 | Community","protocol":17,"map":"workshop/pl_corrode_rc2.ugc546577989","folder":"tf","game":"Team Fortress","app_id":440,"player_count":0,"max_players":24,"Bots":0,"server_type":"Dedicated","server_os":"Linux","password":true,"vac":true,"version":"7757534","steam_id":85568392924866365,"keywords":["nocrits","nodmgspread","payload","uncletopia"],"game_id":440,"stv_port":27046,"stv_name":"Uncletopia | Chicago | 8 | Community | STV","players":null},{"server_id":8,"name":"Uncletopia | Dallas | 1 | All Maps","name_short":"dal-1","host":"dal-1.us.uncletopia.com","port":27015,"enabled":true,"region":"us-central","cc":"us","latitude":32.779167,"longitude":-96.80889,"reserved":0,"last_update":"0001-01-01T00:00:00Z","name_a2s":"Uncletopia | Dallas | 1 | All Maps","protocol":17,"map":"koth_king","folder":"tf","game":"Team Fortress","app_id":440,"player_count":19,"max_players":24,"Bots":0,"server_type":"Dedicated","server_os":"Linux","password":true,"vac":true,"version":"7757534","steam_id":85568392924469986,"keywords":["cp","nocrits","nodmgspread","uncletopia"],"game_id":440,"stv_port":27016,"stv_name":"Uncletopia | Dallas | 1 | All Maps | STV","players":[{"user_id":768,"name":"Skeletor","steam_id":76561199087344972,"connected_time":71000000000,"state":"active","ping":64},{"user_id":769,"name":"Wiggee","steam_id":76561197972792989,"connected_time":9000000000,"state":"spawning","ping":43},{"user_id":767,"name":"chaffy","steam_id":76561198021754567,"connected_time":155000000000,"state":"active","ping":47},{"user_id":770,"name":"Cheese Miller","steam_id":76561199451933673,"connected_time":6000000000,"state":"spawning","ping":88},{"user_id":766,"name":"Kirbothebrony","steam_id":76561198971911330,"connected_time":339000000000,"state":"active","ping":64},{"user_id":748,"name":"Project_Counter","steam_id":76561198152786076,"connected_time":2415000000000,"state":"active","ping":55},{"user_id":729,"name":"William P. Ennis","steam_id":76561198073464877,"connected_time":4438000000000,"state":"active","ping":101},{"user_id":750,"name":"A Very Confused Gentleman","steam_id":76561198051686391,"connected_time":1961000000000,"state":"active","ping":104},{"user_id":741,"name":"Beefface","steam_id":76561198262595825,"connected_time":3340000000000,"state":"active","ping":45},{"user_id":765,"name":"DannyM","steam_id":76561198351165570,"connected_time":626000000000,"state":"active","ping":39},{"user_id":760,"name":"*_*","steam_id":76561198937717599,"connected_time":872000000000,"state":"active","ping":33},{"user_id":762,"name":"Regice","steam_id":76561198049860998,"connected_time":827000000000,"state":"active","ping":45},{"user_id":764,"name":"Anor","steam_id":76561198356139775,"connected_time":638000000000,"state":"active","ping":69},{"user_id":753,"name":"HeroOfTime","steam_id":76561199096218001,"connected_time":1915000000000,"state":"active","ping":79},{"user_id":751,"name":"DiggyDwarf","steam_id":76561198368905980,"connected_time":1957000000000,"state":"active","ping":131},{"user_id":737,"name":"Stormtroper","steam_id":76561198251067522,"connected_time":3475000000000,"state":"active","ping":102},{"user_id":755,"name":"pipeline","steam_id":76561198212263380,"connected_time":1861000000000,"state":"active","ping":45},{"user_id":713,"name":"DerpyFurret","steam_id":76561198308116092,"connected_time":5477000000000,"state":"active","ping":45},{"user_id":727,"name":"Giselle","steam_id":76561198162593640,"connected_time":4650000000000,"state":"active","ping":105}]},{"server_id":108,"name":"Uncletopia | Dallas | 2 | All Maps","name_short":"dal-2","host":"dal-1.us.uncletopia.com","port":27025,"enabled":true,"region":"us-central","cc":"us","latitude":32.779167,"longitude":-96.80889,"reserved":0,"last_update":"0001-01-01T00:00:00Z","name_a2s":"Uncletopia | Dallas | 2 | All Maps","protocol":17,"map":"pl_snowycoast","folder":"tf","game":"Team Fortress","app_id":440,"player_count":24,"max_players":24,"Bots":0,"server_type":"Dedicated","server_os":"Linux","password":true,"vac":true,"version":"7757534","steam_id":85568392924469988,"keywords":["nocrits","nodmgspread","payload","uncletopia"],"game_id":440,"stv_port":27026,"stv_name":"Uncletopia | Dallas | 2 | All Maps | STV","players":[{"user_id":544,"name":"Vem","steam_id":76561198117273112,"connected_time":756000000000,"state":"active","ping":98},{"user_id":534,"name":"LargerThanAverageDragon","steam_id":76561198152036300,"connected_time":1135000000000,"state":"active","ping":42},{"user_id":543,"name":"pleasehelpidonthavefingers","steam_id":76561199367935846,"connected_time":801000000000,"state":"active","ping":75},{"user_id":521,"name":"Pornelius Hubert","steam_id":76561198186128723,"connected_time":2101000000000,"state":"active","ping":54},{"user_id":536,"name":"Aloha :3","steam_id":76561198148517055,"connected_time":994000000000,"state":"active","ping":133},{"user_id":522,"name":"markiplier the real","steam_id":76561198156467907,"connected_time":1990000000000,"state":"active","ping":58},{"user_id":525,"name":"bolainassr0","steam_id":76561199079078845,"connected_time":1837000000000,"state":"active","ping":106},{"user_id":527,"name":"war criminal","steam_id":76561198106441652,"connected_time":1709000000000,"state":"active","ping":60},{"user_id":537,"name":"zpalmtree","steam_id":76561198134307620,"connected_time":917000000000,"state":"active","ping":90},{"user_id":538,"name":"turtle","steam_id":76561198112673874,"connected_time":907000000000,"state":"active","ping":87},{"user_id":426,"name":"COKEISBAD","steam_id":76561198443746507,"connected_time":9029000000000,"state":"active","ping":50},{"user_id":504,"name":"Lulo","steam_id":76561198200617911,"connected_time":2675000000000,"state":"active","ping":52},{"user_id":505,"name":"AudioMedic","steam_id":76561198333939032,"connected_time":2671000000000,"state":"active","ping":80},{"user_id":547,"name":"FancyBattlePants","steam_id":76561198197130311,"connected_time":308000000000,"state":"active","ping":89},{"user_id":539,"name":"LalitoTV","steam_id":76561198334302951,"connected_time":858000000000,"state":"active","ping":102},{"user_id":540,"name":"wood","steam_id":76561198334582360,"connected_time":853000000000,"state":"active","ping":83},{"user_id":507,"name":"objective permanence","steam_id":76561198050393061,"connected_time":2653000000000,"state":"active","ping":92},{"user_id":515,"name":"Zackariah","steam_id":76561198269224342,"connected_time":2512000000000,"state":"active","ping":85},{"user_id":541,"name":"GravitY","steam_id":76561198280481287,"connected_time":836000000000,"state":"active","ping":121},{"user_id":463,"name":"Villenova","steam_id":76561198073606416,"connected_time":6242000000000,"state":"active","ping":73},{"user_id":546,"name":"Mufalito","steam_id":76561198951889482,"connected_time":319000000000,"state":"active","ping":135},{"user_id":461,"name":"radicalPolio","steam_id":76561197961561855,"connected_time":6863000000000,"state":"active","ping":46},{"user_id":464,"name":"littengamer1112","steam_id":76561198992690060,"connected_time":6192000000000,"state":"active","ping":82},{"user_id":520,"name":"skegeton","steam_id":76561198095581099,"connected_time":2146000000000,"state":"active","ping":56}]},{"server_id":5,"name":"Uncletopia | Frankfurt | 1 | All Maps","name_short":"frk-1","host":"frk-1.de.uncletopia.com","port":27015,"enabled":true,"region":"eu","cc":"de","latitude":50.110924,"longitude":8.682127,"reserved":0,"last_update":"0001-01-01T00:00:00Z","name_a2s":"Uncletopia | Frankfurt | 1 | All Maps","protocol":17,"map":"pl_snowycoast","folder":"tf","game":"Team Fortress","app_id":440,"player_count":0,"max_players":24,"Bots":0,"server_type":"Dedicated","server_os":"Linux","password":true,"vac":true,"version":"7757534","steam_id":85568392924469989,"keywords":["nocrits","nodmgspread","payload","uncletopia"],"game_id":440,"stv_port":27016,"stv_name":"Uncletopia | Frankfurt | 1 | All Maps | STV","players":null},{"server_id":110,"name":"Uncletopia | Frankfurt | 2 | All Maps","name_short":"frk-2","host":"frk-1.de.uncletopia.com","port":27025,"enabled":true,"region":"eu","cc":"de","latitude":50.110924,"longitude":8.682127,"reserved":0,"last_update":"0001-01-01T00:00:00Z","name_a2s":"Uncletopia | Frankfurt | 2 | All Maps","protocol":17,"map":"cp_snakewater_final1","folder":"tf","game":"Team Fortress","app_id":440,"player_count":0,"max_players":24,"Bots":0,"server_type":"Dedicated","server_os":"Linux","password":true,"vac":true,"version":"7757534","steam_id":85568392924469990,"keywords":["cp","nocrits","nodmgspread","uncletopia"],"game_id":440,"stv_port":27026,"stv_name":"Uncletopia | Frankfurt | 2 | All Maps | STV","players":null},{"server_id":308,"name":"Uncletopia | Frankfurt | 3 | All Maps","name_short":"frk-3","host":"frk-1.de.uncletopia.com","port":27035,"enabled":true,"region":"eu","cc":"de","latitude":50.110924,"longitude":8.682127,"reserved":0,"last_update":"0001-01-01T00:00:00Z","name_a2s":"Uncletopia | Frankfurt | 3 | All Maps","protocol":17,"map":"cp_snakewater_final1","folder":"tf","game":"Team Fortress","app_id":440,"player_count":0,"max_players":24,"Bots":0,"server_type":"Dedicated","server_os":"Linux","password":true,"vac":true,"version":"7757534","steam_id":85568392924504274,"keywords":["cp","nocrits","nodmgspread","uncletopia"],"game_id":440,"stv_port":27036,"stv_name":"Uncletopia | Frankfurt | 3 | All Maps | STV","players":null},{"server_id":309,"name":"Uncletopia | Frankfurt | 4 | All Maps","name_short":"frk-4","host":"frk-1.de.uncletopia.com","port":27045,"enabled":true,"region":"eu","cc":"de","latitude":50.110924,"longitude":8.682127,"reserved":0,"last_update":"0001-01-01T00:00:00Z","name_a2s":"Uncletopia | Frankfurt | 4 | All Maps","protocol":17,"map":"koth_viaduct","folder":"tf","game":"Team Fortress","app_id":440,"player_count":0,"max_players":24,"Bots":0,"server_type":"Dedicated","server_os":"Linux","password":true,"vac":true,"version":"7757534","steam_id":85568392924504275,"keywords":["cp","nocrits","nodmgspread","uncletopia"],"game_id":440,"stv_port":27046,"stv_name":"Uncletopia | Frankfurt | 4 | All Maps | STV","players":null},{"server_id":310,"name":"Uncletopia | Frankfurt | 5 | All Maps","name_short":"frk-5","host":"frk-1.de.uncletopia.com","port":27055,"enabled":true,"region":"eu","cc":"de","latitude":50.110924,"longitude":8.682127,"reserved":0,"last_update":"0001-01-01T00:00:00Z","name_a2s":"Uncletopia | Frankfurt | 5 | All Maps","protocol":17,"map":"koth_lakeside_final","folder":"tf","game":"Team Fortress","app_id":440,"player_count":0,"max_players":24,"Bots":0,"server_type":"Dedicated","server_os":"Linux","password":true,"vac":true,"version":"7757534","steam_id":85568392924504277,"keywords":["cp","nocrits","nodmgspread","uncletopia"],"game_id":440,"stv_port":27056,"stv_name":"Uncletopia | Frankfurt | 5 | All Maps | STV","players":null},{"server_id":311,"name":"Uncletopia | Frankfurt | 6 | All Maps","name_short":"frk-6","host":"frk-1.de.uncletopia.com","port":27065,"enabled":true,"region":"eu","cc":"de","latitude":50.110924,"longitude":8.682127,"reserved":0,"last_update":"0001-01-01T00:00:00Z","name_a2s":"Uncletopia | Frankfurt | 6 | All Maps","protocol":17,"map":"pl_frontier_final","folder":"tf","game":"Team Fortress","app_id":440,"player_count":0,"max_players":24,"Bots":0,"server_type":"Dedicated","server_os":"Linux","password":true,"vac":true,"version":"7757534","steam_id":85568392924504278,"keywords":["nocrits","nodmgspread","payload","uncletopia"],"game_id":440,"stv_port":27066,"stv_name":"Uncletopia | Frankfurt | 6 | All Maps | STV","players":null},{"server_id":23,"name":"Uncletopia | Frankfurt | 7 | Stopwatch Beta","name_short":"frk-7","host":"frk-1.de.uncletopia.com","port":27075,"enabled":true,"region":"eu","cc":"de","latitude":50.110924,"longitude":8.682127,"reserved":0,"last_update":"0001-01-01T00:00:00Z","name_a2s":"Uncletopia | Frankfurt | 7 | Stopwatch Beta","protocol":17,"map":"cp_sunshine","folder":"tf","game":"Team Fortress","app_id":440,"player_count":0,"max_players":24,"Bots":0,"server_type":"Dedicated","server_os":"Linux","password":true,"vac":true,"version":"7757534","steam_id":85568392924742827,"keywords":["cp","nocrits","nodmgspread","uncletopia"],"game_id":440,"stv_port":27076,"stv_name":"Uncletopia | Frankfurt | 7 | Stopwatch Beta | STV","players":null},{"server_id":24,"name":"Uncletopia | Frankfurt | 8 | Community","name_short":"frk-8","host":"frk-1.de.uncletopia.com","port":27085,"enabled":true,"region":"eu","cc":"de","latitude":50.110924,"longitude":8.682127,"reserved":0,"last_update":"0001-01-01T00:00:00Z","name_a2s":"Uncletopia | Frankfurt | 8 | Community","protocol":17,"map":"koth_lakeside_final","folder":"tf","game":"Team Fortress","app_id":440,"player_count":0,"max_players":24,"Bots":0,"server_type":"Dedicated","server_os":"Linux","password":true,"vac":true,"version":"7757534","steam_id":85568392924742828,"keywords":["cp","nocrits","nodmgspread","uncletopia"],"game_id":440,"stv_port":27086,"stv_name":"Uncletopia | Frankfurt | 8 | Community | STV","players":null},{"server_id":202,"name":"Uncletopia | Hong Kong | 1 | All Maps","name_short":"hgk-1","host":"hgk-1.hk.uncletopia.com","port":27015,"enabled":true,"region":"asia","cc":"hk","latitude":22.302711,"longitude":114.177216,"reserved":0,"last_update":"0001-01-01T00:00:00Z","name_a2s":"Uncletopia | Hong Kong | 1 | All Maps","protocol":17,"map":"pl_badwater","folder":"tf","game":"Team Fortress","app_id":440,"player_count":24,"max_players":24,"Bots":0,"server_type":"Dedicated","server_os":"Linux","password":true,"vac":true,"version":"7757534","steam_id":85568392924494504,"keywords":["nocrits","nodmgspread","payload","uncletopia"],"game_id":440,"stv_port":27016,"stv_name":"Uncletopia | Hong Kong | 1 | All Maps | STV","players":[{"user_id":124,"name":"momosneakeradventure","steam_id":76561199046440440,"connected_time":519000000000,"state":"active","ping":45},{"user_id":120,"name":"phd in ejaculation management","steam_id":76561198138187921,"connected_time":575000000000,"state":"active","ping":46},{"user_id":118,"name":"P","steam_id":76561198304514505,"connected_time":1256000000000,"state":"active","ping":76},{"user_id":121,"name":"Cube","steam_id":76561199165729667,"connected_time":574000000000,"state":"active","ping":118},{"user_id":125,"name":"ArcticDolphin","steam_id":76561198203626319,"connected_time":371000000000,"state":"active","ping":150},{"user_id":76,"name":"Zinx","steam_id":76561199116459368,"connected_time":4859000000000,"state":"active","ping":86},{"user_id":70,"name":"hayonsteam","steam_id":76561199438952901,"connected_time":5292000000000,"state":"active","ping":54},{"user_id":90,"name":"juscusimkool","steam_id":76561198809511635,"connected_time":3222000000000,"state":"active","ping":67},{"user_id":84,"name":"huh :-)","steam_id":76561198293775978,"connected_time":3532000000000,"state":"active","ping":103},{"user_id":64,"name":"MegaBomb","steam_id":76561199074950492,"connected_time":5799000000000,"state":"active","ping":117},{"user_id":103,"name":"Bepo","steam_id":76561198136685157,"connected_time":2371000000000,"state":"active","ping":58},{"user_id":101,"name":"TransfeROrb8","steam_id":76561198967332754,"connected_time":2484000000000,"state":"active","ping":147},{"user_id":46,"name":"spinach (old mouse)","steam_id":76561198042539541,"connected_time":7319000000000,"state":"active","ping":75},{"user_id":119,"name":"tiden2000","steam_id":76561198092969425,"connected_time":1042000000000,"state":"active","ping":118},{"user_id":112,"name":"Dashinix","steam_id":76561198129263849,"connected_time":2004000000000,"state":"active","ping":75},{"user_id":111,"name":"Mysterious_Network","steam_id":76561199445957166,"connected_time":2097000000000,"state":"active","ping":86},{"user_id":117,"name":"Noyour","steam_id":76561198323259830,"connected_time":1460000000000,"state":"active","ping":114},{"user_id":113,"name":"stormy","steam_id":76561198044944261,"connected_time":1999000000000,"state":"active","ping":89},{"user_id":77,"name":"Cheesey","steam_id":76561198975684137,"connected_time":4672000000000,"state":"active","ping":80},{"user_id":123,"name":"water tastes good","steam_id":76561199375947670,"connected_time":574000000000,"state":"active","ping":70},{"user_id":55,"name":"Milk❤","steam_id":76561198163911560,"connected_time":6925000000000,"state":"active","ping":138},{"user_id":89,"name":"paper boat","steam_id":76561198046558051,"connected_time":3351000000000,"state":"active","ping":82},{"user_id":59,"name":"Nonexistent","steam_id":76561198980563251,"connected_time":6823000000000,"state":"active","ping":83},{"user_id":97,"name":"\"SKS\"","steam_id":76561198187995386,"connected_time":2942000000000,"state":"active","ping":82}]},{"server_id":1,"name":"Uncletopia | Los Angeles | 1 | All Maps","name_short":"lax-1","host":"lax-1.us.uncletopia.com","port":27015,"enabled":true,"region":"us-west","cc":"us","latitude":33.94279,"longitude":-118.41004,"reserved":0,"last_update":"0001-01-01T00:00:00Z","name_a2s":"Uncletopia | Los Angeles | 1 | All Maps","protocol":17,"map":"koth_harvest_final","folder":"tf","game":"Team Fortress","app_id":440,"player_count":24,"max_players":24,"Bots":0,"server_type":"Dedicated","server_os":"Linux","password":true,"vac":true,"version":"7757534","steam_id":85568392924469991,"keywords":["cp","nocrits","nodmgspread","uncletopia"],"game_id":440,"stv_port":27016,"stv_name":"Uncletopia | Los Angeles | 1 | All Maps | STV","players":[{"user_id":82,"name":"Torendactyl","steam_id":76561198008463630,"connected_time":7462000000000,"state":"active","ping":76},{"user_id":137,"name":"Blankrq","steam_id":76561198261030763,"connected_time":432000000000,"state":"active","ping":61},{"user_id":128,"name":"An00bis","steam_id":76561198044084508,"connected_time":954000000000,"state":"active","ping":57},{"user_id":127,"name":"TeCon","steam_id":76561198049127236,"connected_time":981000000000,"state":"active","ping":59},{"user_id":129,"name":"LeNoobe","steam_id":76561199092079229,"connected_time":922000000000,"state":"active","ping":68},{"user_id":104,"name":"Thunder","steam_id":76561198097721532,"connected_time":4816000000000,"state":"active","ping":46},{"user_id":124,"name":"Ćevapi","steam_id":76561198037080361,"connected_time":1568000000000,"state":"active","ping":62},{"user_id":136,"name":"cofferhead","steam_id":76561199191108449,"connected_time":676000000000,"state":"active","ping":84},{"user_id":135,"name":"TrustyNumberTwo","steam_id":76561199158481147,"connected_time":732000000000,"state":"active","ping":58},{"user_id":139,"name":"Lizardtails","steam_id":76561198275381867,"connected_time":41000000000,"state":"active","ping":77},{"user_id":130,"name":"vertice","steam_id":76561199117182718,"connected_time":903000000000,"state":"active","ping":50},{"user_id":118,"name":"rmbl","steam_id":76561198150137369,"connected_time":2634000000000,"state":"active","ping":51},{"user_id":138,"name":"AbsurdSiren","steam_id":76561199196666330,"connected_time":209000000000,"state":"active","ping":110},{"user_id":61,"name":"Sasha Waybright (real)","steam_id":76561198063076753,"connected_time":8758000000000,"state":"active","ping":60},{"user_id":125,"name":"HOG RIDER","steam_id":76561198298589502,"connected_time":1554000000000,"state":"active","ping":51},{"user_id":110,"name":"Sir_Cheddar","steam_id":76561198132354554,"connected_time":3729000000000,"state":"active","ping":56},{"user_id":131,"name":"{ᴛʀ_ᴄᴇʀᴘ} shullers","steam_id":76561198889997809,"connected_time":893000000000,"state":"active","ping":47},{"user_id":69,"name":"Pooh, The 6th Density Wanderer","steam_id":76561197999517488,"connected_time":8347000000000,"state":"active","ping":75},{"user_id":70,"name":"Khan","steam_id":76561198003267167,"connected_time":8346000000000,"state":"active","ping":67},{"user_id":71,"name":"Jolly Joseph Stalin","steam_id":76561197977644083,"connected_time":8305000000000,"state":"active","ping":71},{"user_id":132,"name":"Killer Fish From San Diego","steam_id":76561199037594575,"connected_time":889000000000,"state":"active","ping":94},{"user_id":92,"name":"sheep on da linux","steam_id":76561198076781979,"connected_time":6105000000000,"state":"active","ping":56},{"user_id":74,"name":"A Cuddly Bunny","steam_id":76561198062791613,"connected_time":8250000000000,"state":"active","ping":104},{"user_id":133,"name":"fulices","steam_id":76561198420163702,"connected_time":836000000000,"state":"active","ping":35}]},{"server_id":112,"name":"Uncletopia | Los Angeles | 2 | All Maps","name_short":"lax-2","host":"lax-1.us.uncletopia.com","port":27025,"enabled":true,"region":"us-west","cc":"us","latitude":33.94279,"longitude":-118.41004,"reserved":0,"last_update":"0001-01-01T00:00:00Z","name_a2s":"Uncletopia | Los Angeles | 2 | All Maps","protocol":17,"map":"cp_sunshine","folder":"tf","game":"Team Fortress","app_id":440,"player_count":22,"max_players":24,"Bots":0,"server_type":"Dedicated","server_os":"Linux","password":true,"vac":true,"version":"7757534","steam_id":85568392924469992,"keywords":["cp","nocrits","nodmgspread","uncletopia"],"game_id":440,"stv_port":27026,"stv_name":"Uncletopia | Los Angeles | 2 | All Maps | STV","players":[{"user_id":815,"name":"Rusty","steam_id":76561198055585129,"connected_time":749000000000,"state":"active","ping":75},{"user_id":820,"name":"bash","steam_id":76561199161649534,"connected_time":555000000000,"state":"active","ping":38},{"user_id":708,"name":"Gubby","steam_id":76561199125862469,"connected_time":3132000000000,"state":"active","ping":85},{"user_id":817,"name":"Shaggy","steam_id":76561198428767676,"connected_time":744000000000,"state":"active","ping":49},{"user_id":813,"name":"Hector Salamanca","steam_id":76561199103213955,"connected_time":812000000000,"state":"active","ping":82},{"user_id":592,"name":"kaede :3","steam_id":76561198345528370,"connected_time":4674000000000,"state":"active","ping":53},{"user_id":819,"name":"CraftedZED","steam_id":76561199058542343,"connected_time":668000000000,"state":"active","ping":81},{"user_id":818,"name":"xX_BigPpGaymer_Xx","steam_id":76561199201257696,"connected_time":741000000000,"state":"active","ping":69},{"user_id":821,"name":"Pyrolimited","steam_id":76561198195455657,"connected_time":522000000000,"state":"active","ping":73},{"user_id":822,"name":"Clagger","steam_id":76561198066701092,"connected_time":505000000000,"state":"active","ping":62},{"user_id":823,"name":"Mousemoon","steam_id":76561198170220290,"connected_time":501000000000,"state":"active","ping":44},{"user_id":825,"name":"Bond","steam_id":76561198089262776,"connected_time":339000000000,"state":"active","ping":84},{"user_id":830,"name":"Verult (doesn't)Trade","steam_id":76561199018000017,"connected_time":97000000000,"state":"active","ping":201},{"user_id":827,"name":"I regret nothing","steam_id":76561198399261089,"connected_time":249000000000,"state":"active","ping":52},{"user_id":828,"name":"DJ SushiPaste (7kviews)","steam_id":76561198092461977,"connected_time":180000000000,"state":"active","ping":46},{"user_id":814,"name":"Snoopy","steam_id":76561198273735974,"connected_time":812000000000,"state":"active","ping":94},{"user_id":730,"name":"wait no stop dont do that","steam_id":76561199117157198,"connected_time":2761000000000,"state":"active","ping":99},{"user_id":829,"name":"vioxynteris","steam_id":76561198161428666,"connected_time":166000000000,"state":"active","ping":45},{"user_id":831,"name":"big fish","steam_id":76561198186479818,"connected_time":23000000000,"state":"active","ping":59},{"user_id":606,"name":"selvhat","steam_id":76561198114225509,"connected_time":4608000000000,"state":"active","ping":47},{"user_id":832,"name":"Neowudan","steam_id":76561198136850867,"connected_time":21000000000,"state":"active","ping":84},{"user_id":833,"name":"@_@","steam_id":76561197960304720,"connected_time":7000000000,"state":"spawning","ping":162}]},{"server_id":324,"name":"Uncletopia | Los Angeles | 3 | All Maps","name_short":"lax-3","host":"lax-1.us.uncletopia.com","port":27035,"enabled":true,"region":"us-west","cc":"us","latitude":33.94279,"longitude":-118.41004,"reserved":0,"last_update":"0001-01-01T00:00:00Z","name_a2s":"Uncletopia | Los Angeles | 3 | All Maps","protocol":17,"map":"cp_foundry","folder":"tf","game":"Team Fortress","app_id":440,"player_count":24,"max_players":24,"Bots":0,"server_type":"Dedicated","server_os":"Linux","password":true,"vac":true,"version":"7757534","steam_id":85568392924510198,"keywords":["cp","nocrits","nodmgspread","uncletopia"],"game_id":440,"stv_port":27036,"stv_name":"Uncletopia | Los Angeles | 3 | All Maps | STV","players":[{"user_id":560,"name":"spot","steam_id":76561198151135298,"connected_time":362000000000,"state":"active","ping":34},{"user_id":356,"name":"nori_420","steam_id":76561199117134203,"connected_time":15079000000000,"state":"active","ping":50},{"user_id":556,"name":"Mechadrago","steam_id":76561198028058543,"connected_time":673000000000,"state":"active","ping":89},{"user_id":553,"name":"Chinklerッ","steam_id":76561198181234706,"connected_time":888000000000,"state":"active","ping":70},{"user_id":497,"name":"momus","steam_id":76561198966979196,"connected_time":5659000000000,"state":"active","ping":48},{"user_id":375,"name":"Chalupa Jones","steam_id":76561198335855588,"connected_time":14589000000000,"state":"active","ping":47},{"user_id":554,"name":"BerrisFueller","steam_id":76561198272394173,"connected_time":770000000000,"state":"active","ping":66},{"user_id":552,"name":"R5-D4","steam_id":76561198025196439,"connected_time":1024000000000,"state":"active","ping":80},{"user_id":562,"name":"Nova♥","steam_id":76561198436555608,"connected_time":211000000000,"state":"active","ping":85},{"user_id":551,"name":"Su1tCas3","steam_id":76561198035989471,"connected_time":1165000000000,"state":"active","ping":77},{"user_id":514,"name":"Inigo Montoya","steam_id":76561198010603881,"connected_time":3299000000000,"state":"active","ping":106},{"user_id":557,"name":"ASDF","steam_id":76561199086189834,"connected_time":660000000000,"state":"active","ping":128},{"user_id":542,"name":"Vanilla","steam_id":76561198242358820,"connected_time":1563000000000,"state":"active","ping":55},{"user_id":547,"name":"Mystery Skulls Enjoyer","steam_id":76561199154372279,"connected_time":1401000000000,"state":"active","ping":106},{"user_id":559,"name":"Ken-Sama","steam_id":76561198040465331,"connected_time":416000000000,"state":"active","ping":50},{"user_id":558,"name":"BackToSchoolAds","steam_id":76561198870281128,"connected_time":609000000000,"state":"active","ping":83},{"user_id":548,"name":"staticc","steam_id":76561198330715708,"connected_time":1340000000000,"state":"active","ping":75},{"user_id":524,"name":"bad spy player","steam_id":76561198873699671,"connected_time":2099000000000,"state":"active","ping":85},{"user_id":536,"name":"Shawn","steam_id":76561199199772083,"connected_time":1614000000000,"state":"active","ping":73},{"user_id":549,"name":"AzuriousAlex","steam_id":76561198158026405,"connected_time":1326000000000,"state":"active","ping":97},{"user_id":561,"name":"Chato","steam_id":76561198168989022,"connected_time":322000000000,"state":"active","ping":43},{"user_id":545,"name":"Ninj4_Fox","steam_id":76561199029049922,"connected_time":1477000000000,"state":"active","ping":89},{"user_id":546,"name":"♥ur :3 medic gf♥ (51ref/hr)","steam_id":76561198816778484,"connected_time":1466000000000,"state":"active","ping":83},{"user_id":519,"name":"OH JIMMY I'M HOME #SaveTf2","steam_id":76561198396658806,"connected_time":3239000000000,"state":"active","ping":41}]},{"server_id":25,"name":"Uncletopia | Los Angeles | 4 | Stopwatch Beta","name_short":"lax-4","host":"lax-1.us.uncletopia.com","port":27045,"enabled":true,"region":"us-west","cc":"us","latitude":33.94279,"longitude":-118.41004,"reserved":0,"last_update":"0001-01-01T00:00:00Z","name_a2s":"Uncletopia | Los Angeles | 4 | Stopwatch Beta","protocol":17,"map":"pl_swiftwater_final1","folder":"tf","game":"Team Fortress","app_id":440,"player_count":0,"max_players":24,"Bots":0,"server_type":"Dedicated","server_os":"Linux","password":true,"vac":true,"version":"7757534","steam_id":85568392924510199,"keywords":["nocrits","nodmgspread","payload","uncletopia"],"game_id":440,"stv_port":27046,"stv_name":"Uncletopia | Los Angeles | 4 | Stopwatch Beta | STV","players":null},{"server_id":11,"name":"Uncletopia | London | 1 | All Maps","name_short":"lon-1","host":"lon-1.uk.uncletopia.com","port":27015,"enabled":true,"region":"eu","cc":"gb","latitude":51.509865,"longitude":-0.118092,"reserved":0,"last_update":"0001-01-01T00:00:00Z","name_a2s":"Uncletopia | London | 1 | All Maps","protocol":17,"map":"koth_highpass","folder":"tf","game":"Team Fortress","app_id":440,"player_count":3,"max_players":24,"Bots":0,"server_type":"Dedicated","server_os":"Linux","password":true,"vac":true,"version":"7757534","steam_id":85568392924367362,"keywords":["cp","nocrits","nodmgspread","uncletopia"],"game_id":440,"stv_port":27016,"stv_name":"Uncletopia | London | 1 | All Maps | STV","players":[{"user_id":6,"name":"jonbob","steam_id":76561197963506620,"connected_time":179000000000,"state":"active","ping":53},{"user_id":5,"name":"sriracha..","steam_id":76561198005560221,"connected_time":258000000000,"state":"active","ping":71},{"user_id":7,"name":"Chopperson_","steam_id":76561198873728497,"connected_time":7000000000,"state":"spawning","ping":106}]},{"server_id":114,"name":"Uncletopia | London | 2 | All Maps","name_short":"lon-2","host":"lon-1.uk.uncletopia.com","port":27025,"enabled":true,"region":"eu","cc":"gb","latitude":51.509865,"longitude":-0.118092,"reserved":0,"last_update":"0001-01-01T00:00:00Z","name_a2s":"Uncletopia | London | 2 | All Maps","protocol":17,"map":"koth_viaduct","folder":"tf","game":"Team Fortress","app_id":440,"player_count":0,"max_players":24,"Bots":0,"server_type":"Dedicated","server_os":"Linux","password":true,"vac":true,"version":"7757534","steam_id":85568392924470941,"keywords":["cp","nocrits","nodmgspread","uncletopia"],"game_id":440,"stv_port":27026,"stv_name":"Uncletopia | London | 2 | All Maps | STV","players":null},{"server_id":320,"name":"Uncletopia | London | 3 | All Maps","name_short":"lon-3","host":"lon-1.uk.uncletopia.com","port":27035,"enabled":true,"region":"eu","cc":"gb","latitude":51.509865,"longitude":-0.118092,"reserved":0,"last_update":"0001-01-01T00:00:00Z","name_a2s":"Uncletopia | London | 3 | All Maps","protocol":17,"map":"cp_dustbowl","folder":"tf","game":"Team Fortress","app_id":440,"player_count":0,"max_players":24,"Bots":0,"server_type":"Dedicated","server_os":"Linux","password":true,"vac":true,"version":"7757534","steam_id":85568392924510192,"keywords":["cp","nocrits","nodmgspread","uncletopia"],"game_id":440,"stv_port":27036,"stv_name":"Uncletopia | London | 3 | All Maps | STV","players":null},{"server_id":321,"name":"Uncletopia | London | 4 | All Maps","name_short":"lon-4","host":"lon-1.uk.uncletopia.com","port":27045,"enabled":true,"region":"eu","cc":"gb","latitude":51.509865,"longitude":-0.118092,"reserved":0,"last_update":"0001-01-01T00:00:00Z","name_a2s":"Uncletopia | London | 4 | All Maps","protocol":17,"map":"cp_dustbowl","folder":"tf","game":"Team Fortress","app_id":440,"player_count":0,"max_players":24,"Bots":0,"server_type":"Dedicated","server_os":"Linux","password":true,"vac":true,"version":"7757534","steam_id":85568392924510193,"keywords":["cp","nocrits","nodmgspread","uncletopia"],"game_id":440,"stv_port":27046,"stv_name":"Uncletopia | London | 4 | All Maps | STV","players":null},{"server_id":21,"name":"Uncletopia | London | 5 | All Maps","name_short":"lon-5","host":"lon-1.uk.uncletopia.com","port":27055,"enabled":true,"region":"eu","cc":"gb","latitude":51.509865,"longitude":-0.118092,"reserved":0,"last_update":"0001-01-01T00:00:00Z","name_a2s":"Uncletopia | London | 5 | All Maps","protocol":17,"map":"cp_altitude","folder":"tf","game":"Team Fortress","app_id":440,"player_count":0,"max_players":24,"Bots":0,"server_type":"Dedicated","server_os":"Linux","password":true,"vac":true,"version":"7757534","steam_id":85568392924742829,"keywords":["cp","nocrits","nodmgspread","uncletopia"],"game_id":440,"stv_port":27056,"stv_name":"Uncletopia | London | 5 | All Maps | STV","players":null},{"server_id":22,"name":"Uncletopia | London | 6 | All Maps","name_short":"lon-6","host":"lon-1.uk.uncletopia.com","port":27065,"enabled":true,"region":"eu","cc":"gb","latitude":51.509865,"longitude":-0.118092,"reserved":0,"last_update":"0001-01-01T00:00:00Z","name_a2s":"Uncletopia | London | 6 | All Maps","protocol":17,"map":"cp_mountainlab","folder":"tf","game":"Team Fortress","app_id":440,"player_count":0,"max_players":24,"Bots":0,"server_type":"Dedicated","server_os":"Linux","password":true,"vac":true,"version":"7757534","steam_id":85568392924742830,"keywords":["cp","nocrits","nodmgspread","uncletopia"],"game_id":440,"stv_port":27066,"stv_name":"Uncletopia | London | 6 | All Maps | STV","players":null},{"server_id":40,"name":"Uncletopia | London | 7 | No Payload","name_short":"lon-7","host":"lon-1.uk.uncletopia.com","port":27075,"enabled":true,"region":"eu","cc":"gb","latitude":51.509865,"longitude":-0.118092,"reserved":0,"last_update":"0001-01-01T00:00:00Z","name_a2s":"Uncletopia | London | 7 | No Payload","protocol":17,"map":"pl_badwater","folder":"tf","game":"Team Fortress","app_id":440,"player_count":0,"max_players":24,"Bots":0,"server_type":"Dedicated","server_os":"Linux","password":true,"vac":true,"version":"7757534","steam_id":85568392924964314,"keywords":["nocrits","nodmgspread","payload","uncletopia"],"game_id":440,"stv_port":27076,"stv_name":"Uncletopia | London | 7 | No Payload | STV","players":null},{"server_id":41,"name":"Uncletopia | London | 8 | Community","name_short":"lon-8","host":"lon-1.uk.uncletopia.com","port":27085,"enabled":true,"region":"eu","cc":"gb","latitude":51.509865,"longitude":-0.118092,"reserved":0,"last_update":"0001-01-01T00:00:00Z","name_a2s":"Uncletopia | London | 8 | Community","protocol":17,"map":"pl_barnblitz","folder":"tf","game":"Team Fortress","app_id":440,"player_count":0,"max_players":24,"Bots":0,"server_type":"Dedicated","server_os":"Linux","password":true,"vac":true,"version":"7757534","steam_id":85568392924964315,"keywords":["nocrits","nodmgspread","payload","uncletopia"],"game_id":440,"stv_port":27086,"stv_name":"Uncletopia | London | 8 | Community | STV","players":null},{"server_id":300,"name":"Uncletopia | Montréal | 1 | All Maps","name_short":"mtl-1","host":"mtl-1.ca.uncletopia.com","port":27015,"enabled":true,"region":"us-east","cc":"ca","latitude":45.50889,"longitude":-73.56167,"reserved":0,"last_update":"0001-01-01T00:00:00Z","name_a2s":"Uncletopia | Montréal | 1 | All Maps","protocol":17,"map":"pl_snowycoast","folder":"tf","game":"Team Fortress","app_id":440,"player_count":3,"max_players":24,"Bots":0,"server_type":"Dedicated","server_os":"Linux","password":true,"vac":true,"version":"7757534","steam_id":85568392924500087,"keywords":["nocrits","nodmgspread","payload","uncletopia"],"game_id":440,"stv_port":27016,"stv_name":"Uncletopia | Montréal | 1 | All Maps | STV","players":[{"user_id":157,"name":"Risingtigerking","steam_id":76561199070704000,"connected_time":2417000000000,"state":"active","ping":73},{"user_id":161,"name":"bananagamr","steam_id":76561198984039258,"connected_time":2097000000000,"state":"active","ping":247},{"user_id":160,"name":"Salty_Joe","steam_id":76561198415868521,"connected_time":2102000000000,"state":"active","ping":54}]},{"server_id":301,"name":"Uncletopia | Montréal | 2 | All Maps","name_short":"mtl-2","host":"mtl-1.ca.uncletopia.com","port":27025,"enabled":true,"region":"us-east","cc":"ca","latitude":45.50889,"longitude":-73.56167,"reserved":0,"last_update":"0001-01-01T00:00:00Z","name_a2s":"Uncletopia | Montréal | 2 | All Maps","protocol":17,"map":"cp_dustbowl","folder":"tf","game":"Team Fortress","app_id":440,"player_count":23,"max_players":24,"Bots":0,"server_type":"Dedicated","server_os":"Linux","password":true,"vac":true,"version":"7757534","steam_id":85568392924500088,"keywords":["cp","nocrits","nodmgspread","uncletopia"],"game_id":440,"stv_port":27026,"stv_name":"Uncletopia | Montréal | 2 | All Maps | STV","players":[{"user_id":130,"name":"buford tobagganson","steam_id":76561198240043930,"connected_time":6110000000000,"state":"active","ping":69},{"user_id":196,"name":"Jamie","steam_id":76561198917309036,"connected_time":1590000000000,"state":"active","ping":64},{"user_id":202,"name":"JPEGMAFIA TYPEBEAT","steam_id":76561198942515022,"connected_time":1030000000000,"state":"active","ping":132},{"user_id":94,"name":"クレオラ","steam_id":76561198000830794,"connected_time":9117000000000,"state":"active","ping":101},{"user_id":200,"name":"TheVandive","steam_id":76561199014510667,"connected_time":1230000000000,"state":"active","ping":139},{"user_id":186,"name":"ferin","steam_id":76561198137607046,"connected_time":2241000000000,"state":"active","ping":42},{"user_id":166,"name":"shake","steam_id":76561199064204750,"connected_time":3828000000000,"state":"active","ping":88},{"user_id":203,"name":"SIGMA [BS]","steam_id":76561197962604879,"connected_time":496000000000,"state":"active","ping":65},{"user_id":190,"name":"Guus Frang","steam_id":76561198033562613,"connected_time":1932000000000,"state":"active","ping":72},{"user_id":191,"name":"woahwoahごめんなさい","steam_id":76561198114649696,"connected_time":1903000000000,"state":"active","ping":74},{"user_id":154,"name":"dicksnip","steam_id":76561198356515396,"connected_time":4963000000000,"state":"active","ping":99},{"user_id":192,"name":"็","steam_id":76561198291571615,"connected_time":1886000000000,"state":"active","ping":70},{"user_id":169,"name":"TheSocialZ","steam_id":76561198801534077,"connected_time":3774000000000,"state":"active","ping":69},{"user_id":189,"name":"Eden","steam_id":76561198075587475,"connected_time":2119000000000,"state":"active","ping":62},{"user_id":123,"name":"MrrPamplemousse","steam_id":76561198072241333,"connected_time":7002000000000,"state":"active","ping":66},{"user_id":82,"name":"Van","steam_id":76561198073518712,"connected_time":10398000000000,"state":"active","ping":54},{"user_id":170,"name":"The Thunder Down Under","steam_id":76561198098587930,"connected_time":3757000000000,"state":"active","ping":50},{"user_id":156,"name":"HorseCooker","steam_id":76561198076588370,"connected_time":4766000000000,"state":"active","ping":58},{"user_id":193,"name":"Yassma","steam_id":76561198138272598,"connected_time":1845000000000,"state":"active","ping":61},{"user_id":194,"name":"Demonic Cipher","steam_id":76561198066082088,"connected_time":1821000000000,"state":"active","ping":73},{"user_id":195,"name":"Team Fartpiss Poo","steam_id":76561199163591880,"connected_time":1800000000000,"state":"active","ping":100},{"user_id":199,"name":"srery","steam_id":76561199467566201,"connected_time":1515000000000,"state":"active","ping":147},{"user_id":182,"name":"SchmitySchmit","steam_id":76561198127024448,"connected_time":2655000000000,"state":"active","ping":73}]},{"server_id":302,"name":"Uncletopia | Montréal | 3 | All Maps","name_short":"mtl-3","host":"mtl-1.ca.uncletopia.com","port":27035,"enabled":true,"region":"us-east","cc":"ca","latitude":45.50889,"longitude":-73.56167,"reserved":0,"last_update":"0001-01-01T00:00:00Z","name_a2s":"Uncletopia | Montréal | 3 | All Maps","protocol":17,"map":"pl_pier","folder":"tf","game":"Team Fortress","app_id":440,"player_count":16,"max_players":24,"Bots":0,"server_type":"Dedicated","server_os":"Linux","password":true,"vac":true,"version":"7757534","steam_id":85568392924500089,"keywords":["nocrits","nodmgspread","payload","uncletopia"],"game_id":440,"stv_port":27036,"stv_name":"Uncletopia | Montréal | 3 | All Maps | STV","players":[{"user_id":401,"name":"Day Man","steam_id":76561198008364836,"connected_time":184000000000,"state":"active","ping":132},{"user_id":387,"name":"deadpixel","steam_id":76561198150249843,"connected_time":1430000000000,"state":"active","ping":69},{"user_id":402,"name":"WalrusNyetheBonkGuy","steam_id":76561197995626774,"connected_time":145000000000,"state":"active","ping":133},{"user_id":388,"name":"vvichael","steam_id":76561198238148528,"connected_time":1425000000000,"state":"active","ping":74},{"user_id":389,"name":"Phil Collins","steam_id":76561198068868644,"connected_time":1424000000000,"state":"active","ping":121},{"user_id":364,"name":"CupcakeWarlock","steam_id":76561198179963697,"connected_time":2777000000000,"state":"active","ping":64},{"user_id":394,"name":"Totally","steam_id":76561198126511227,"connected_time":998000000000,"state":"active","ping":51},{"user_id":370,"name":"Neon Sulfur","steam_id":76561198072130947,"connected_time":2331000000000,"state":"active","ping":77},{"user_id":371,"name":"Darklypure52","steam_id":76561198985729794,"connected_time":2326000000000,"state":"active","ping":85},{"user_id":372,"name":"Pyrrhic Evolution","steam_id":76561198122053439,"connected_time":2309000000000,"state":"active","ping":125},{"user_id":391,"name":"Amhhex","steam_id":76561198099936789,"connected_time":1248000000000,"state":"active","ping":58},{"user_id":374,"name":"Alesha","steam_id":76561198893947644,"connected_time":2146000000000,"state":"active","ping":183},{"user_id":379,"name":"residentevilfan82","steam_id":76561198024662861,"connected_time":1931000000000,"state":"active","ping":109},{"user_id":393,"name":"McFloppyWaffle","steam_id":76561198121842462,"connected_time":1069000000000,"state":"active","ping":69},{"user_id":395,"name":"Dundee","steam_id":76561198079713343,"connected_time":995000000000,"state":"active","ping":120},{"user_id":397,"name":"pap smear chemist","steam_id":76561198347818558,"connected_time":899000000000,"state":"active","ping":45}]},{"server_id":303,"name":"Uncletopia | Montréal | 4 | No Payload","name_short":"mtl-4","host":"mtl-1.ca.uncletopia.com","port":27045,"enabled":true,"region":"us-east","cc":"ca","latitude":45.50889,"longitude":-73.56167,"reserved":0,"last_update":"0001-01-01T00:00:00Z","name_a2s":"Uncletopia | Montréal | 4 | No Payload","protocol":17,"map":"koth_suijin","folder":"tf","game":"Team Fortress","app_id":440,"player_count":0,"max_players":24,"Bots":0,"server_type":"Dedicated","server_os":"Linux","password":true,"vac":true,"version":"7757534","steam_id":85568392924500090,"keywords":["cp","nocrits","nodmgspread","uncletopia"],"game_id":440,"stv_port":27046,"stv_name":"Uncletopia | Montréal | 4 | No Payload | STV","players":null},{"server_id":13,"name":"Uncletopia | New York City | 1 | All Maps","name_short":"nyc-1","host":"nyc-1.us.uncletopia.com","port":27015,"enabled":true,"region":"us-east","cc":"us","latitude":40.73061,"longitude":-73.93524,"reserved":0,"last_update":"0001-01-01T00:00:00Z","name_a2s":"Uncletopia | New York City | 1 | All Maps","protocol":17,"map":"pl_swiftwater_final1","folder":"tf","game":"Team Fortress","app_id":440,"player_count":22,"max_players":24,"Bots":0,"server_type":"Dedicated","server_os":"Linux","password":true,"vac":true,"version":"7757534","steam_id":85568392924469993,"keywords":["nocrits","nodmgspread","payload","uncletopia"],"game_id":440,"stv_port":27016,"stv_name":"Uncletopia | New York City | 1 | All Maps | STV","players":[{"user_id":305,"name":"Mochi","steam_id":76561199151314140,"connected_time":25625000000000,"state":"active","ping":34},{"user_id":598,"name":"ldshwt","steam_id":76561198090364357,"connected_time":779000000000,"state":"active","ping":135},{"user_id":581,"name":"Victor Skull","steam_id":76561198352212864,"connected_time":2570000000000,"state":"active","ping":43},{"user_id":489,"name":"Milk Enjoyer","steam_id":76561198124311404,"connected_time":11135000000000,"state":"active","ping":67},{"user_id":560,"name":"Iron","steam_id":76561198247918478,"connected_time":5080000000000,"state":"active","ping":70},{"user_id":577,"name":"Vivid Hut 64","steam_id":76561198170050059,"connected_time":3605000000000,"state":"active","ping":54},{"user_id":566,"name":"Wiggles","steam_id":76561197964143762,"connected_time":4355000000000,"state":"active","ping":60},{"user_id":509,"name":"pipebombrater","steam_id":76561199029030831,"connected_time":8405000000000,"state":"active","ping":56},{"user_id":588,"name":"Emperor Dankatine","steam_id":76561198044741086,"connected_time":2045000000000,"state":"active","ping":100},{"user_id":576,"name":"Aura (she/her)","steam_id":76561198348941784,"connected_time":3708000000000,"state":"active","ping":86},{"user_id":582,"name":"WibbyOne","steam_id":76561198052843846,"connected_time":2553000000000,"state":"active","ping":35},{"user_id":601,"name":"Market_","steam_id":76561198078894670,"connected_time":191000000000,"state":"active","ping":55},{"user_id":559,"name":"It's FoolMoon","steam_id":76561198153344375,"connected_time":5133000000000,"state":"active","ping":41},{"user_id":600,"name":"Eden Hazard","steam_id":76561198089241053,"connected_time":223000000000,"state":"active","ping":50},{"user_id":592,"name":"Yugoko™","steam_id":76561198067921652,"connected_time":1773000000000,"state":"active","ping":137},{"user_id":526,"name":"DiscoTraveler","steam_id":76561199240168088,"connected_time":7469000000000,"state":"active","ping":55},{"user_id":589,"name":"Zack","steam_id":76561198308083836,"connected_time":1989000000000,"state":"active","ping":56},{"user_id":594,"name":"Robrago-san","steam_id":76561197963638042,"connected_time":1232000000000,"state":"active","ping":129},{"user_id":587,"name":"69 odd goat","steam_id":76561198116908911,"connected_time":2343000000000,"state":"active","ping":56},{"user_id":568,"name":"Yuzu","steam_id":76561198417913035,"connected_time":4326000000000,"state":"active","ping":72},{"user_id":580,"name":"Digresser","steam_id":76561198016426367,"connected_time":2816000000000,"state":"active","ping":44},{"user_id":597,"name":"Big Time Bobby","steam_id":76561198935266162,"connected_time":1089000000000,"state":"active","ping":76}]},{"server_id":14,"name":"Uncletopia | New York City | 2 | All Maps","name_short":"nyc-2","host":"nyc-1.us.uncletopia.com","port":27025,"enabled":true,"region":"us-east","cc":"us","latitude":40.73061,"longitude":-73.93524,"reserved":0,"last_update":"0001-01-01T00:00:00Z","name_a2s":"Uncletopia | New York City | 2 | All Maps","protocol":17,"map":"cp_altitude","folder":"tf","game":"Team Fortress","app_id":440,"player_count":19,"max_players":24,"Bots":0,"server_type":"Dedicated","server_os":"Linux","password":true,"vac":true,"version":"7757534","steam_id":85568392924469994,"keywords":["cp","nocrits","nodmgspread","uncletopia"],"game_id":440,"stv_port":27026,"stv_name":"Uncletopia | New York City | 2 | All Maps | STV","players":[{"user_id":579,"name":"SubZeroDestruction","steam_id":76561198145082209,"connected_time":3521000000000,"state":"active","ping":48},{"user_id":625,"name":"PEPPINO","steam_id":76561198066566813,"connected_time":52000000000,"state":"active","ping":140},{"user_id":564,"name":"Pine","steam_id":76561198114193659,"connected_time":5173000000000,"state":"active","ping":45},{"user_id":616,"name":"femspy","steam_id":76561198986849199,"connected_time":231000000000,"state":"active","ping":135},{"user_id":580,"name":"itsmajestic","steam_id":76561198304790008,"connected_time":3512000000000,"state":"active","ping":54},{"user_id":597,"name":"vyx","steam_id":76561198037205391,"connected_time":1859000000000,"state":"active","ping":61},{"user_id":617,"name":"DarkThuggerOnline","steam_id":76561198040741271,"connected_time":231000000000,"state":"active","ping":36},{"user_id":606,"name":"I Am Alpharius","steam_id":76561198033100226,"connected_time":1225000000000,"state":"active","ping":71},{"user_id":614,"name":"YUJIRO","steam_id":76561198232617936,"connected_time":276000000000,"state":"active","ping":68},{"user_id":618,"name":"STINKLER","steam_id":76561198043320983,"connected_time":221000000000,"state":"active","ping":67},{"user_id":607,"name":"ObsessedNerd505","steam_id":76561199045531456,"connected_time":1207000000000,"state":"active","ping":51},{"user_id":619,"name":"54","steam_id":76561198099591549,"connected_time":220000000000,"state":"active","ping":59},{"user_id":620,"name":"I’m Sleepy","steam_id":76561198879929343,"connected_time":201000000000,"state":"active","ping":60},{"user_id":583,"name":"mos","steam_id":76561197995777973,"connected_time":3452000000000,"state":"active","ping":71},{"user_id":623,"name":"SushiLee","steam_id":76561198984412899,"connected_time":162000000000,"state":"active","ping":131},{"user_id":622,"name":"Sxmpra","steam_id":76561199090094310,"connected_time":183000000000,"state":"active","ping":96},{"user_id":624,"name":"Gary","steam_id":76561198133309753,"connected_time":108000000000,"state":"active","ping":51},{"user_id":626,"name":"THE NOISE","steam_id":76561198084849541,"connected_time":46000000000,"state":"active","ping":83},{"user_id":627,"name":"Sgt. Pepper","steam_id":76561198063674627,"connected_time":11000000000,"state":"spawning","ping":115}]},{"server_id":15,"name":"Uncletopia | New York City | 3 | Stopwatch Beta","name_short":"nyc-3","host":"nyc-1.us.uncletopia.com","port":27035,"enabled":true,"region":"us-east","cc":"us","latitude":40.73061,"longitude":-73.93524,"reserved":0,"last_update":"0001-01-01T00:00:00Z","name_a2s":"Uncletopia | New York City | 3 | Stopwatch Beta","protocol":17,"map":"cp_sunshine","folder":"tf","game":"Team Fortress","app_id":440,"player_count":0,"max_players":24,"Bots":0,"server_type":"Dedicated","server_os":"Linux","password":true,"vac":true,"version":"7757534","steam_id":85568392924742820,"keywords":["cp","nocrits","nodmgspread","uncletopia"],"game_id":440,"stv_port":27036,"stv_name":"Uncletopia | New York City | 3 | Stopwatch Beta | STV","players":null},{"server_id":16,"name":"Uncletopia | New York City | 4 | Community","name_short":"nyc-4","host":"nyc-1.us.uncletopia.com","port":27045,"enabled":true,"region":"us-east","cc":"us","latitude":40.73061,"longitude":-73.93524,"reserved":0,"last_update":"0001-01-01T00:00:00Z","name_a2s":"Uncletopia | New York City | 4 | Community","protocol":17,"map":"workshop/pl_barnblitz_pro7.ugc582280235","folder":"tf","game":"Team Fortress","app_id":440,"player_count":24,"max_players":24,"Bots":0,"server_type":"Dedicated","server_os":"Linux","password":true,"vac":true,"version":"7757534","steam_id":85568392924742821,"keywords":["nocrits","nodmgspread","payload","uncletopia"],"game_id":440,"stv_port":27046,"stv_name":"Uncletopia | New York City | 4 | Community | STV","players":[{"user_id":236,"name":"homestuck","steam_id":76561198085042338,"connected_time":1420000000000,"state":"active","ping":117},{"user_id":250,"name":"Superplay64","steam_id":76561198172471162,"connected_time":482000000000,"state":"active","ping":82},{"user_id":237,"name":"4OnetySix","steam_id":76561198825053205,"connected_time":1373000000000,"state":"active","ping":127},{"user_id":248,"name":"Seymour Goblins","steam_id":76561198329087915,"connected_time":511000000000,"state":"active","ping":117},{"user_id":251,"name":"Fritz","steam_id":76561198419323571,"connected_time":338000000000,"state":"active","ping":154},{"user_id":233,"name":"HE’S IN THE GODDAMN WALLS","steam_id":76561198363267009,"connected_time":1825000000000,"state":"active","ping":92},{"user_id":238,"name":"GrimFate","steam_id":76561199011948330,"connected_time":1320000000000,"state":"active","ping":107},{"user_id":240,"name":"Olive","steam_id":76561198003474783,"connected_time":1071000000000,"state":"active","ping":119},{"user_id":239,"name":"MEGAminiMuSh","steam_id":76561198301553495,"connected_time":1320000000000,"state":"active","ping":120},{"user_id":206,"name":"guess i'll die...virtually","steam_id":76561199112291386,"connected_time":4400000000000,"state":"active","ping":161},{"user_id":244,"name":"Skyline","steam_id":76561198018382060,"connected_time":908000000000,"state":"active","ping":45},{"user_id":252,"name":"QwQ","steam_id":76561198432226673,"connected_time":271000000000,"state":"active","ping":132},{"user_id":223,"name":"Meatballgirl","steam_id":76561198049902502,"connected_time":2881000000000,"state":"active","ping":99},{"user_id":207,"name":"xXcLaImEd__ReApErXx [F2P]","steam_id":76561198067232540,"connected_time":4350000000000,"state":"active","ping":77},{"user_id":227,"name":"Hugal","steam_id":76561198026864436,"connected_time":2394000000000,"state":"active","ping":143},{"user_id":228,"name":"Lizz8Replay","steam_id":76561198209336093,"connected_time":2394000000000,"state":"active","ping":81},{"user_id":208,"name":"jodie.blend","steam_id":76561198140701807,"connected_time":4311000000000,"state":"active","ping":84},{"user_id":243,"name":"seems_fishy","steam_id":76561199028846656,"connected_time":960000000000,"state":"active","ping":72},{"user_id":221,"name":"t13trevor","steam_id":76561199091633736,"connected_time":3204000000000,"state":"active","ping":126},{"user_id":245,"name":"snazzyy","steam_id":76561198066251981,"connected_time":858000000000,"state":"active","ping":110},{"user_id":246,"name":"flamingcookies","steam_id":76561198280864779,"connected_time":849000000000,"state":"active","ping":75},{"user_id":256,"name":"gaijingirldick ジーサ","steam_id":76561198033499175,"connected_time":198000000000,"state":"active","ping":58},{"user_id":254,"name":"gIBBY","steam_id":76561198080099598,"connected_time":227000000000,"state":"active","ping":43},{"user_id":255,"name":"ShadowSpartan","steam_id":76561198139800274,"connected_time":225000000000,"state":"active","ping":107}]},{"server_id":142,"name":"Uncletopia | São Paulo | 1 | All Maps","name_short":"sao-1","host":"sao-1.br.uncletopia.com","port":27015,"enabled":true,"region":"sa","cc":"br","latitude":-23.533773,"longitude":-46.62529,"reserved":0,"last_update":"0001-01-01T00:00:00Z","name_a2s":"Uncletopia | São Paulo | 1 | All Maps","protocol":17,"map":"koth_cascade","folder":"tf","game":"Team Fortress","app_id":440,"player_count":0,"max_players":24,"Bots":0,"server_type":"Dedicated","server_os":"Linux","password":true,"vac":true,"version":"7757534","steam_id":85568392924469996,"keywords":["cp","nocrits","nodmgspread","uncletopia"],"game_id":440,"stv_port":27016,"stv_name":"Uncletopia | São Paulo | 1 | All Maps | STV","players":null},{"server_id":143,"name":"Uncletopia | São Paulo | 2 | All Maps","name_short":"sao-2","host":"sao-2.br.uncletopia.com","port":27015,"enabled":true,"region":"sa","cc":"br","latitude":-23.533773,"longitude":-46.62529,"reserved":0,"last_update":"0001-01-01T00:00:00Z","name_a2s":"Uncletopia | São Paulo | 2 | All Maps","protocol":17,"map":"pl_badwater","folder":"tf","game":"Team Fortress","app_id":440,"player_count":0,"max_players":24,"Bots":0,"server_type":"Dedicated","server_os":"Linux","password":true,"vac":true,"version":"7757534","steam_id":85568392924485349,"keywords":["nocrits","nodmgspread","payload","uncletopia"],"game_id":440,"stv_port":27016,"stv_name":"Uncletopia | São Paulo | 2 | All Maps | STV","players":null},{"server_id":7,"name":"Uncletopia | Seattle | 1 | All Maps","name_short":"sea-1","host":"sea-1.us.uncletopia.com","port":27015,"enabled":true,"region":"us-west","cc":"us","latitude":47.608013,"longitude":-122.33517,"reserved":0,"last_update":"0001-01-01T00:00:00Z","name_a2s":"Uncletopia | Seattle | 1 | All Maps","protocol":17,"map":"koth_nucleus","folder":"tf","game":"Team Fortress","app_id":440,"player_count":24,"max_players":24,"Bots":0,"server_type":"Dedicated","server_os":"Linux","password":true,"vac":true,"version":"7757534","steam_id":85568392924469997,"keywords":["cp","nocrits","nodmgspread","uncletopia"],"game_id":440,"stv_port":27016,"stv_name":"Uncletopia | Seattle | 1 | All Maps | STV","players":[{"user_id":590,"name":"The King of Piss World","steam_id":76561198082806956,"connected_time":14810000000000,"state":"active","ping":117},{"user_id":714,"name":"Erk-Kirk","steam_id":76561198288954914,"connected_time":3878000000000,"state":"active","ping":96},{"user_id":735,"name":"Wafflemuscle","steam_id":76561198868628982,"connected_time":1574000000000,"state":"active","ping":54},{"user_id":748,"name":"Coolshroomish","steam_id":76561199109440924,"connected_time":424000000000,"state":"active","ping":47},{"user_id":742,"name":"Saul Goodman","steam_id":76561198354289529,"connected_time":1223000000000,"state":"active","ping":92},{"user_id":749,"name":"ejschild745","steam_id":76561199013388867,"connected_time":24000000000,"state":"spawning","ping":58},{"user_id":670,"name":"dominants = asserted","steam_id":76561198029396836,"connected_time":7297000000000,"state":"active","ping":38},{"user_id":731,"name":"Tungsten","steam_id":76561198312854342,"connected_time":1898000000000,"state":"active","ping":67},{"user_id":740,"name":"Freddy","steam_id":76561197985573918,"connected_time":1417000000000,"state":"active","ping":51},{"user_id":741,"name":"Mikey Decoy","steam_id":76561198070496601,"connected_time":1410000000000,"state":"active","ping":53},{"user_id":744,"name":"Payphone","steam_id":76561198076789272,"connected_time":681000000000,"state":"active","ping":63},{"user_id":745,"name":"Tom","steam_id":76561198070630154,"connected_time":678000000000,"state":"active","ping":82},{"user_id":746,"name":"cozy","steam_id":76561198068345102,"connected_time":661000000000,"state":"active","ping":51},{"user_id":599,"name":"DoctorHa","steam_id":76561198044026008,"connected_time":14240000000000,"state":"active","ping":93},{"user_id":729,"name":"bloodhail","steam_id":76561198121633820,"connected_time":2352000000000,"state":"active","ping":73},{"user_id":732,"name":"Fawful's Minion","steam_id":76561198090120779,"connected_time":1823000000000,"state":"active","ping":67},{"user_id":696,"name":"Professor Cuthbert Calculus","steam_id":76561198003257461,"connected_time":4942000000000,"state":"active","ping":60},{"user_id":671,"name":"silly jester birthday mode","steam_id":76561198079609974,"connected_time":7293000000000,"state":"active","ping":90},{"user_id":734,"name":"Closed.","steam_id":76561198212598967,"connected_time":1683000000000,"state":"active","ping":80},{"user_id":717,"name":"Alset","steam_id":76561197993820174,"connected_time":3522000000000,"state":"active","ping":114},{"user_id":738,"name":"Nierin","steam_id":76561198227545132,"connected_time":1451000000000,"state":"active","ping":70},{"user_id":747,"name":"trackpad gaming | f2p","steam_id":76561198840414371,"connected_time":661000000000,"state":"active","ping":50},{"user_id":723,"name":"soup","steam_id":76561198043209046,"connected_time":2674000000000,"state":"active","ping":82},{"user_id":739,"name":"Hassium","steam_id":76561198162541373,"connected_time":1449000000000,"state":"active","ping":55}]},{"server_id":119,"name":"Uncletopia | Seattle | 2 | All Maps","name_short":"sea-2","host":"sea-1.us.uncletopia.com","port":27025,"enabled":true,"region":"us-west","cc":"us","latitude":47.608013,"longitude":-122.33517,"reserved":0,"last_update":"0001-01-01T00:00:00Z","name_a2s":"Uncletopia | Seattle | 2 | All Maps","protocol":17,"map":"pl_barnblitz","folder":"tf","game":"Team Fortress","app_id":440,"player_count":23,"max_players":24,"Bots":0,"server_type":"Dedicated","server_os":"Linux","password":true,"vac":true,"version":"7757534","steam_id":85568392924469998,"keywords":["nocrits","nodmgspread","payload","uncletopia"],"game_id":440,"stv_port":27026,"stv_name":"Uncletopia | Seattle | 2 | All Maps | STV","players":[{"user_id":559,"name":"SwoopShoot","steam_id":76561199024079388,"connected_time":1696000000000,"state":"active","ping":43},{"user_id":553,"name":"chinese spy balloon","steam_id":76561198184814466,"connected_time":2694000000000,"state":"active","ping":34},{"user_id":538,"name":"Eraser cat","steam_id":76561199045570463,"connected_time":4281000000000,"state":"active","ping":43},{"user_id":519,"name":"witch","steam_id":76561197974871380,"connected_time":6563000000000,"state":"active","ping":45},{"user_id":562,"name":"ArchmageF","steam_id":76561197992246851,"connected_time":1483000000000,"state":"active","ping":58},{"user_id":551,"name":"(ngv) Antwan","steam_id":76561198018017318,"connected_time":2882000000000,"state":"active","ping":49},{"user_id":571,"name":"SvicidalBug","steam_id":76561198221390504,"connected_time":62000000000,"state":"active","ping":61},{"user_id":564,"name":"Major_Pippy","steam_id":76561198004482878,"connected_time":1202000000000,"state":"active","ping":49},{"user_id":474,"name":"Dongus","steam_id":76561197979056451,"connected_time":11223000000000,"state":"active","ping":45},{"user_id":537,"name":"ed","steam_id":76561198080475712,"connected_time":4694000000000,"state":"active","ping":66},{"user_id":542,"name":"Tibetan Pop Star","steam_id":76561198844903984,"connected_time":4145000000000,"state":"active","ping":79},{"user_id":558,"name":"❤ Ashley ❤","steam_id":76561198056428303,"connected_time":1858000000000,"state":"active","ping":84},{"user_id":546,"name":"Corpe","steam_id":76561198054490549,"connected_time":3161000000000,"state":"active","ping":59},{"user_id":492,"name":"Cheezbeargur","steam_id":76561198164702899,"connected_time":9945000000000,"state":"active","ping":62},{"user_id":523,"name":"Brathic","steam_id":76561198966232163,"connected_time":6209000000000,"state":"active","ping":75},{"user_id":567,"name":"Psych03","steam_id":76561198061753667,"connected_time":1166000000000,"state":"active","ping":65},{"user_id":570,"name":"not_TrixieMattel","steam_id":76561199121055338,"connected_time":287000000000,"state":"active","ping":49},{"user_id":569,"name":"BIG AWESOME","steam_id":76561198992237905,"connected_time":604000000000,"state":"active","ping":75},{"user_id":526,"name":"hungry kibten","steam_id":76561198184099558,"connected_time":5707000000000,"state":"active","ping":43},{"user_id":552,"name":"codykurusu","steam_id":76561199468723267,"connected_time":2854000000000,"state":"active","ping":126},{"user_id":533,"name":"mega","steam_id":76561198089520959,"connected_time":5450000000000,"state":"active","ping":98},{"user_id":566,"name":"Doctor Kitten","steam_id":76561198077978710,"connected_time":1179000000000,"state":"active","ping":84},{"user_id":535,"name":"2j psych ward waifu","steam_id":76561198206752128,"connected_time":5380000000000,"state":"active","ping":147}]},{"server_id":406,"name":"Uncletopia | Seattle | 3 | Stopwatch Beta","name_short":"sea-3","host":"sea-1.us.uncletopia.com","port":27035,"enabled":true,"region":"us-west","cc":"us","latitude":47.608013,"longitude":-122.33517,"reserved":0,"last_update":"0001-01-01T00:00:00Z","name_a2s":"Uncletopia | Seattle | 3 | Stopwatch Beta","protocol":17,"map":"workshop/cp_process_f12.ugc2302948105","folder":"tf","game":"Team Fortress","app_id":440,"player_count":0,"max_players":24,"Bots":0,"server_type":"Dedicated","server_os":"Linux","password":true,"vac":true,"version":"7757534","steam_id":85568392924515217,"keywords":["cp","nocrits","nodmgspread","uncletopia"],"game_id":440,"stv_port":27036,"stv_name":"Uncletopia | Seattle | 3 | Stopwatch Beta | STV","players":null},{"server_id":17,"name":"Uncletopia | San Francisco | 1 | All Maps","name_short":"sfo-1","host":"sfo-1.us.uncletopia.com","port":27015,"enabled":true,"region":"us-west","cc":"us","latitude":37.77397,"longitude":-122.4313,"reserved":0,"last_update":"0001-01-01T00:00:00Z","name_a2s":"Uncletopia | San Francisco | 1 | All Maps","protocol":17,"map":"pl_pier","folder":"tf","game":"Team Fortress","app_id":440,"player_count":24,"max_players":24,"Bots":0,"server_type":"Dedicated","server_os":"Linux","password":true,"vac":true,"version":"7757534","steam_id":85568392924469999,"keywords":["nocrits","nodmgspread","payload","uncletopia"],"game_id":440,"stv_port":27016,"stv_name":"Uncletopia | San Francisco | 1 | All Maps | STV","players":[{"user_id":439,"name":"Mapachito Lindo","steam_id":76561198031359995,"connected_time":1854000000000,"state":"active","ping":58},{"user_id":445,"name":"SolarusD","steam_id":76561198029279861,"connected_time":673000000000,"state":"active","ping":47},{"user_id":442,"name":"Durial321","steam_id":76561198145669711,"connected_time":1164000000000,"state":"active","ping":47},{"user_id":380,"name":"Demoman","steam_id":76561198101850500,"connected_time":6218000000000,"state":"active","ping":60},{"user_id":383,"name":"Ugly Mick Mars (Plz Duel Me)","steam_id":76561198051504563,"connected_time":6000000000000,"state":"active","ping":78},{"user_id":423,"name":"Satori Komeiji","steam_id":76561198158211423,"connected_time":2810000000000,"state":"active","ping":55},{"user_id":448,"name":"Greskrendtregk","steam_id":76561197969553142,"connected_time":603000000000,"state":"active","ping":66},{"user_id":441,"name":"Sidekick","steam_id":76561198392740835,"connected_time":1360000000000,"state":"active","ping":66},{"user_id":431,"name":"ElectronX","steam_id":76561198116034988,"connected_time":2268000000000,"state":"active","ping":56},{"user_id":440,"name":"Salad","steam_id":76561198055361752,"connected_time":1848000000000,"state":"active","ping":91},{"user_id":462,"name":"Sinn","steam_id":76561199013434543,"connected_time":48000000000,"state":"active","ping":67},{"user_id":394,"name":"bigman1","steam_id":76561198050225055,"connected_time":4583000000000,"state":"active","ping":58},{"user_id":456,"name":"CPTforever","steam_id":76561198237767198,"connected_time":390000000000,"state":"active","ping":47},{"user_id":434,"name":"AtomSQRRL","steam_id":76561199151951364,"connected_time":2198000000000,"state":"active","ping":45},{"user_id":450,"name":"The Super Mario Bros. Movie","steam_id":76561198871692156,"connected_time":577000000000,"state":"active","ping":67},{"user_id":451,"name":"throat_man","steam_id":76561199321657653,"connected_time":576000000000,"state":"active","ping":66},{"user_id":459,"name":"Demolishrr","steam_id":76561198078750985,"connected_time":239000000000,"state":"active","ping":128},{"user_id":447,"name":"Medic","steam_id":76561198152570304,"connected_time":647000000000,"state":"active","ping":68},{"user_id":453,"name":"Paper Clipp","steam_id":76561199065796296,"connected_time":508000000000,"state":"active","ping":63},{"user_id":400,"name":"Final_MarioXD","steam_id":76561199184862419,"connected_time":4457000000000,"state":"active","ping":118},{"user_id":436,"name":"Newt","steam_id":76561198842909288,"connected_time":2180000000000,"state":"active","ping":113},{"user_id":454,"name":"Pho","steam_id":76561198306515742,"connected_time":502000000000,"state":"active","ping":53},{"user_id":460,"name":"Xyk","steam_id":76561198023268899,"connected_time":226000000000,"state":"active","ping":117},{"user_id":391,"name":"KazakamiSouta","steam_id":76561198074578849,"connected_time":4706000000000,"state":"active","ping":52}]},{"server_id":18,"name":"Uncletopia | San Francisco | 2 | All Maps","name_short":"sfo-2","host":"sfo-1.us.uncletopia.com","port":27025,"enabled":true,"region":"us-west","cc":"us","latitude":37.77397,"longitude":-122.4313,"reserved":0,"last_update":"0001-01-01T00:00:00Z","name_a2s":"Uncletopia | San Francisco | 2 | All Maps","protocol":17,"map":"pl_frontier_final","folder":"tf","game":"Team Fortress","app_id":440,"player_count":24,"max_players":24,"Bots":0,"server_type":"Dedicated","server_os":"Linux","password":true,"vac":true,"version":"7757534","steam_id":85568392924470000,"keywords":["nocrits","nodmgspread","payload","uncletopia"],"game_id":440,"stv_port":27026,"stv_name":"Uncletopia | San Francisco | 2 | All Maps | STV","players":[{"user_id":684,"name":"DennethThaThinather","steam_id":76561198098121768,"connected_time":351000000000,"state":"active","ping":82},{"user_id":667,"name":"Fang Lopez","steam_id":76561198141800967,"connected_time":2347000000000,"state":"active","ping":68},{"user_id":661,"name":"John Wick's puppy","steam_id":76561198064662875,"connected_time":2505000000000,"state":"active","ping":48},{"user_id":625,"name":"Professor Sex","steam_id":76561198396414319,"connected_time":6517000000000,"state":"active","ping":60},{"user_id":659,"name":"iSaH","steam_id":76561198305136202,"connected_time":2560000000000,"state":"active","ping":69},{"user_id":683,"name":"Livin' Like Larry","steam_id":76561198313360974,"connected_time":394000000000,"state":"active","ping":42},{"user_id":619,"name":"Francis Cockrel 2016","steam_id":76561198078391538,"connected_time":7163000000000,"state":"active","ping":105},{"user_id":662,"name":"Grim","steam_id":76561198158911860,"connected_time":2475000000000,"state":"active","ping":79},{"user_id":663,"name":"Urine Enthusiast [Piss Gaming]","steam_id":76561198067798973,"connected_time":2469000000000,"state":"active","ping":66},{"user_id":525,"name":"Alcohol Hominid","steam_id":76561198320313950,"connected_time":13263000000000,"state":"active","ping":101},{"user_id":677,"name":"chrome 2008 (she/they)","steam_id":76561198321277216,"connected_time":1664000000000,"state":"active","ping":52},{"user_id":511,"name":"DemoLiberTF2","steam_id":76561198095378689,"connected_time":13656000000000,"state":"active","ping":95},{"user_id":644,"name":"Alkemistt","steam_id":76561198147644202,"connected_time":3988000000000,"state":"active","ping":60},{"user_id":685,"name":"Mike Bean Burritos","steam_id":76561198173430607,"connected_time":279000000000,"state":"active","ping":74},{"user_id":675,"name":"lila","steam_id":76561198153664245,"connected_time":1753000000000,"state":"active","ping":54},{"user_id":686,"name":"johnman gooberguy","steam_id":76561199014859764,"connected_time":38000000000,"state":"spawning","ping":50},{"user_id":678,"name":"kentuckyfriedsocks","steam_id":76561198311122883,"connected_time":1227000000000,"state":"active","ping":117},{"user_id":680,"name":"Purple","steam_id":76561198412639010,"connected_time":955000000000,"state":"active","ping":67},{"user_id":679,"name":"A pack of feral hogs","steam_id":76561198374279594,"connected_time":1220000000000,"state":"active","ping":74},{"user_id":671,"name":"parmesan","steam_id":76561198118304061,"connected_time":2066000000000,"state":"active","ping":67},{"user_id":676,"name":"wegamingfishbruh69_ttv","steam_id":76561198347001548,"connected_time":1752000000000,"state":"active","ping":72},{"user_id":668,"name":"Cardboardcoin","steam_id":76561199421284163,"connected_time":2309000000000,"state":"active","ping":88},{"user_id":513,"name":"ScoutSecoTF2","steam_id":76561198366212156,"connected_time":13646000000000,"state":"active","ping":116},{"user_id":621,"name":"Jacob Hornberger 2016 dice","steam_id":76561198204549723,"connected_time":7115000000000,"state":"active","ping":123}]},{"server_id":19,"name":"Uncletopia | San Francisco | 3 | Stopwatch Beta","name_short":"sfo-3","host":"sfo-1.us.uncletopia.com","port":27035,"enabled":true,"region":"us-west","cc":"us","latitude":37.77397,"longitude":-122.4313,"reserved":0,"last_update":"0001-01-01T00:00:00Z","name_a2s":"Uncletopia | San Francisco | 3 | Stopwatch Beta","protocol":17,"map":"pl_borneo","folder":"tf","game":"Team Fortress","app_id":440,"player_count":0,"max_players":24,"Bots":0,"server_type":"Dedicated","server_os":"Linux","password":true,"vac":true,"version":"7757534","steam_id":85568392924742824,"keywords":["nocrits","nodmgspread","payload","uncletopia"],"game_id":440,"stv_port":27036,"stv_name":"Uncletopia | San Francisco | 3 | Stopwatch Beta | STV","players":null},{"server_id":20,"name":"Uncletopia | San Francisco | 4 | Community","name_short":"sfo-4","host":"sfo-1.us.uncletopia.com","port":27045,"enabled":true,"region":"us-west","cc":"us","latitude":37.77397,"longitude":-122.4313,"reserved":0,"last_update":"0001-01-01T00:00:00Z","name_a2s":"Uncletopia | San Francisco | 4 | Community","protocol":17,"map":"workshop/koth_ramjam_rc1.ugc459778887","folder":"tf","game":"Team Fortress","app_id":440,"player_count":0,"max_players":24,"Bots":0,"server_type":"Dedicated","server_os":"Linux","password":true,"vac":true,"version":"7757534","steam_id":85568392924742826,"keywords":["cp","nocrits","nodmgspread","uncletopia"],"game_id":440,"stv_port":27046,"stv_name":"Uncletopia | San Francisco | 4 | Community | STV","players":null},{"server_id":141,"name":"Uncletopia | Sydney | 1 | All Maps","name_short":"syd-1","host":"syd-1.au.uncletopia.com","port":27015,"enabled":true,"region":"au","cc":"au","latitude":-33.865143,"longitude":151.2099,"reserved":0,"last_update":"0001-01-01T00:00:00Z","name_a2s":"Uncletopia | Sydney | 1 | All Maps","protocol":17,"map":"pl_snowycoast","folder":"tf","game":"Team Fortress","app_id":440,"player_count":1,"max_players":24,"Bots":0,"server_type":"Dedicated","server_os":"Linux","password":true,"vac":true,"version":"7757534","steam_id":85568392924470001,"keywords":["nocrits","nodmgspread","payload","uncletopia"],"game_id":440,"stv_port":27016,"stv_name":"Uncletopia | Sydney | 1 | All Maps | STV","players":[{"user_id":37,"name":"Charikarp","steam_id":76561198132766743,"connected_time":87000000000,"state":"active","ping":77}]},{"server_id":123,"name":"Uncletopia | Sydney | 2 | All Maps","name_short":"syd-2","host":"syd-1.au.uncletopia.com","port":27025,"enabled":true,"region":"au","cc":"au","latitude":-33.865143,"longitude":151.2099,"reserved":0,"last_update":"0001-01-01T00:00:00Z","name_a2s":"Uncletopia | Sydney | 2 | All Maps","protocol":17,"map":"pl_rumford_event","folder":"tf","game":"Team Fortress","app_id":440,"player_count":24,"max_players":24,"Bots":0,"server_type":"Dedicated","server_os":"Linux","password":true,"vac":true,"version":"7757534","steam_id":85568392924470002,"keywords":["nocrits","nodmgspread","payload","uncletopia"],"game_id":440,"stv_port":27026,"stv_name":"Uncletopia | Sydney | 2 | All Maps | STV","players":[{"user_id":139,"name":"CypressFluff (She/Her)","steam_id":76561198174667818,"connected_time":3924000000000,"state":"active","ping":60},{"user_id":147,"name":"moflow081703","steam_id":76561198357274326,"connected_time":3359000000000,"state":"active","ping":62},{"user_id":152,"name":"Swate","steam_id":76561198042991670,"connected_time":2980000000000,"state":"active","ping":55},{"user_id":154,"name":"Dimond_bird","steam_id":76561199129051643,"connected_time":2857000000000,"state":"active","ping":47},{"user_id":140,"name":"Cavalcade","steam_id":76561198289709527,"connected_time":3860000000000,"state":"active","ping":57},{"user_id":69,"name":"Zoey","steam_id":76561198126153554,"connected_time":9864000000000,"state":"active","ping":71},{"user_id":174,"name":"Zeppy","steam_id":76561198074766231,"connected_time":118000000000,"state":"active","ping":73},{"user_id":123,"name":"old chunk of coal","steam_id":76561197990537324,"connected_time":5789000000000,"state":"active","ping":105},{"user_id":157,"name":"noobar","steam_id":76561198042991153,"connected_time":2223000000000,"state":"active","ping":57},{"user_id":143,"name":"[GG] Cryo","steam_id":76561198062014383,"connected_time":3589000000000,"state":"active","ping":58},{"user_id":165,"name":"Sherpa","steam_id":76561198018913829,"connected_time":809000000000,"state":"active","ping":54},{"user_id":137,"name":"Warren","steam_id":76561198120350917,"connected_time":4012000000000,"state":"active","ping":44},{"user_id":167,"name":"Rashid Of The Dank Memes","steam_id":76561198281398078,"connected_time":633000000000,"state":"active","ping":62},{"user_id":125,"name":"Bay Goy","steam_id":76561197989541221,"connected_time":5546000000000,"state":"active","ping":67},{"user_id":129,"name":"Crabloid","steam_id":76561199081848498,"connected_time":4737000000000,"state":"active","ping":61},{"user_id":110,"name":"Jdn","steam_id":76561198293079232,"connected_time":7857000000000,"state":"active","ping":61},{"user_id":122,"name":"Pew pew pew!","steam_id":76561198004120277,"connected_time":6238000000000,"state":"active","ping":44},{"user_id":118,"name":"DragRiper","steam_id":76561198050917553,"connected_time":7015000000000,"state":"active","ping":56},{"user_id":151,"name":"DP","steam_id":76561198087877161,"connected_time":3109000000000,"state":"active","ping":67},{"user_id":156,"name":"itsjustmarvin77","steam_id":76561199375656301,"connected_time":2594000000000,"state":"active","ping":75},{"user_id":111,"name":"NollReed","steam_id":76561198098501571,"connected_time":7841000000000,"state":"active","ping":79},{"user_id":170,"name":"Voncrumb","steam_id":76561198054076313,"connected_time":579000000000,"state":"active","ping":50},{"user_id":160,"name":"Toody","steam_id":76561198212656752,"connected_time":1528000000000,"state":"active","ping":62},{"user_id":173,"name":"1000000KM² OF SEA ICE","steam_id":76561198836003115,"connected_time":253000000000,"state":"active","ping":60}]},{"server_id":395,"name":"Uncletopia | Sydney | 3 | All Maps","name_short":"syd-3","host":"syd-1.au.uncletopia.com","port":27035,"enabled":true,"region":"au","cc":"au","latitude":-33.865143,"longitude":151.2099,"reserved":0,"last_update":"0001-01-01T00:00:00Z","name_a2s":"Uncletopia | Sydney | 3 | All Maps","protocol":17,"map":"plr_nightfall_final","folder":"tf","game":"Team Fortress","app_id":440,"player_count":24,"max_players":24,"Bots":0,"server_type":"Dedicated","server_os":"Linux","password":true,"vac":true,"version":"7757534","steam_id":85568392925194467,"keywords":["nocrits","nodmgspread","payload","uncletopia"],"game_id":440,"stv_port":27036,"stv_name":"Uncletopia | Sydney | 3 | All Maps | STV","players":[{"user_id":331,"name":"DIY Miracle","steam_id":76561198046228152,"connected_time":1705000000000,"state":"active","ping":64},{"user_id":322,"name":"sav","steam_id":76561198058760041,"connected_time":2723000000000,"state":"active","ping":73},{"user_id":343,"name":"helryeginn","steam_id":76561198202750573,"connected_time":1043000000000,"state":"active","ping":46},{"user_id":340,"name":"porplonkies","steam_id":76561199071833524,"connected_time":1137000000000,"state":"active","ping":79},{"user_id":260,"name":"MININinja1308","steam_id":76561199040303660,"connected_time":5944000000000,"state":"active","ping":54},{"user_id":286,"name":"O'rangutan","steam_id":76561198095916681,"connected_time":4605000000000,"state":"active","ping":46},{"user_id":330,"name":"Zieria","steam_id":76561199261811388,"connected_time":1721000000000,"state":"active","ping":44},{"user_id":309,"name":"R","steam_id":76561197996963023,"connected_time":3233000000000,"state":"active","ping":70},{"user_id":336,"name":"Xenix","steam_id":76561198795888766,"connected_time":1456000000000,"state":"active","ping":61},{"user_id":339,"name":"Phobia²","steam_id":76561198038833524,"connected_time":1176000000000,"state":"active","ping":76},{"user_id":341,"name":"Snake101","steam_id":76561198418910767,"connected_time":1095000000000,"state":"active","ping":56},{"user_id":358,"name":"Bill Nye","steam_id":76561198312898168,"connected_time":592000000000,"state":"active","ping":57},{"user_id":292,"name":"ThatGuyLogan","steam_id":76561198155645208,"connected_time":4295000000000,"state":"active","ping":45},{"user_id":328,"name":"Wubs","steam_id":76561198169757490,"connected_time":2263000000000,"state":"active","ping":49},{"user_id":356,"name":"Bateman","steam_id":76561198071905445,"connected_time":667000000000,"state":"active","ping":60},{"user_id":351,"name":"TheTophatterOfTophats","steam_id":76561199142504761,"connected_time":860000000000,"state":"active","ping":37},{"user_id":334,"name":"Jodelkönig Franzl Lang","steam_id":76561198007667830,"connected_time":1680000000000,"state":"active","ping":56},{"user_id":359,"name":"WobbliestCrab","steam_id":76561198169923902,"connected_time":566000000000,"state":"active","ping":101},{"user_id":347,"name":"The :)","steam_id":76561198958059883,"connected_time":985000000000,"state":"active","ping":84},{"user_id":303,"name":"Charm","steam_id":76561198028891054,"connected_time":3967000000000,"state":"active","ping":79},{"user_id":349,"name":"ToadFungus","steam_id":76561199219667039,"connected_time":956000000000,"state":"active","ping":101},{"user_id":357,"name":"Long_Neck","steam_id":76561198059207275,"connected_time":657000000000,"state":"active","ping":88},{"user_id":315,"name":"TFC games","steam_id":76561198130868318,"connected_time":3122000000000,"state":"active","ping":54},{"user_id":360,"name":"h","steam_id":76561199093572590,"connected_time":384000000000,"state":"active","ping":148}]},{"server_id":396,"name":"Uncletopia | Sydney | 4 | All Maps","name_short":"syd-4","host":"syd-1.au.uncletopia.com","port":27045,"enabled":true,"region":"au","cc":"au","latitude":-33.865143,"longitude":151.2099,"reserved":0,"last_update":"0001-01-01T00:00:00Z","name_a2s":"Uncletopia | Sydney | 4 | All Maps","protocol":17,"map":"cp_altitude","folder":"tf","game":"Team Fortress","app_id":440,"player_count":0,"max_players":24,"Bots":0,"server_type":"Dedicated","server_os":"Linux","password":true,"vac":true,"version":"7757534","steam_id":85568392925397958,"keywords":["cp","nocrits","nodmgspread","uncletopia"],"game_id":440,"stv_port":27046,"stv_name":"Uncletopia | Sydney | 4 | All Maps | STV","players":null},{"server_id":58,"name":"Uncletopia | Sydney | 5 | Stopwatch Beta","name_short":"syd-5","host":"syd-1.au.uncletopia.com","port":27055,"enabled":true,"region":"au","cc":"au","latitude":-33.865143,"longitude":151.2099,"reserved":0,"last_update":"0001-01-01T00:00:00Z","name_a2s":"Uncletopia | Sydney | 5 | Stopwatch Beta","protocol":17,"map":"workshop/cp_reckoner_rc6.ugc674719999","folder":"tf","game":"Team Fortress","app_id":440,"player_count":0,"max_players":24,"Bots":0,"server_type":"Dedicated","server_os":"Linux","password":true,"vac":true,"version":"7757534","steam_id":85568392925397959,"keywords":["cp","nocrits","nodmgspread","uncletopia"],"game_id":440,"stv_port":27056,"stv_name":"Uncletopia | Sydney | 5 | Stopwatch Beta | STV","players":null},{"server_id":59,"name":"Uncletopia | Sydney | 6 | Community","name_short":"syd-6","host":"syd-1.au.uncletopia.com","port":27065,"enabled":true,"region":"au","cc":"au","latitude":-33.865143,"longitude":151.2099,"reserved":0,"last_update":"0001-01-01T00:00:00Z","name_a2s":"Uncletopia | Sydney | 6 | Community","protocol":17,"map":"cp_snakewater_final1","folder":"tf","game":"Team Fortress","app_id":440,"player_count":0,"max_players":24,"Bots":0,"server_type":"Dedicated","server_os":"Linux","password":true,"vac":true,"version":"7757534","steam_id":85568392925397960,"keywords":["cp","nocrits","nodmgspread","uncletopia"],"game_id":440,"stv_port":27066,"stv_name":"Uncletopia | Sydney | 6 | Community | STV","players":null},{"server_id":49,"name":"Uncletopia | Warsaw | 1 | All Maps","name_short":"waw-1","host":"waw-1.pl.uncletopia.com","port":27015,"enabled":true,"region":"eu","cc":"pl","latitude":52.2297,"longitude":21.017532,"reserved":0,"last_update":"0001-01-01T00:00:00Z","name_a2s":"","protocol":0,"map":"","folder":"","game":"","app_id":0,"player_count":0,"max_players":0,"Bots":0,"server_type":"","server_os":"","password":false,"vac":false,"version":"","steam_id":0,"keywords":null,"game_id":0,"stv_port":0,"stv_name":"","players":null},{"server_id":50,"name":"Uncletopia | Warsaw | 2 | All Maps","name_short":"waw-2","host":"waw-1.pl.uncletopia.com","port":27025,"enabled":true,"region":"eu","cc":"pl","latitude":52.2297,"longitude":21.017532,"reserved":0,"last_update":"0001-01-01T00:00:00Z","name_a2s":"Uncletopia | Warsaw | 2 | All Maps","protocol":17,"map":"koth_viaduct","folder":"tf","game":"Team Fortress","app_id":440,"player_count":0,"max_players":24,"Bots":0,"server_type":"Dedicated","server_os":"Linux","password":true,"vac":true,"version":"7757534","steam_id":85568392925397851,"keywords":["cp","nocrits","nodmgspread","uncletopia"],"game_id":440,"stv_port":27026,"stv_name":"Uncletopia | Warsaw | 2 | All Maps | STV","players":null},{"server_id":51,"name":"Uncletopia | Warsaw | 3 | All Maps","name_short":"waw-3","host":"waw-1.pl.uncletopia.com","port":27035,"enabled":true,"region":"eu","cc":"pl","latitude":52.2297,"longitude":21.017532,"reserved":0,"last_update":"0001-01-01T00:00:00Z","name_a2s":"Uncletopia | Warsaw | 3 | All Maps","protocol":17,"map":"pl_badwater","folder":"tf","game":"Team Fortress","app_id":440,"player_count":0,"max_players":24,"Bots":0,"server_type":"Dedicated","server_os":"Linux","password":true,"vac":true,"version":"7757534","steam_id":85568392925397852,"keywords":["nocrits","nodmgspread","payload","uncletopia"],"game_id":440,"stv_port":27036,"stv_name":"Uncletopia | Warsaw | 3 | All Maps | STV","players":null},{"server_id":52,"name":"Uncletopia | Warsaw | 4 | All Maps","name_short":"waw-4","host":"waw-1.pl.uncletopia.com","port":27045,"enabled":true,"region":"eu","cc":"pl","latitude":52.2297,"longitude":21.017532,"reserved":0,"last_update":"0001-01-01T00:00:00Z","name_a2s":"Uncletopia | Warsaw | 4 | All Maps","protocol":17,"map":"koth_lakeside_final","folder":"tf","game":"Team Fortress","app_id":440,"player_count":0,"max_players":24,"Bots":0,"server_type":"Dedicated","server_os":"Linux","password":true,"vac":true,"version":"7757534","steam_id":85568392925397853,"keywords":["cp","nocrits","nodmgspread","uncletopia"],"game_id":440,"stv_port":27046,"stv_name":"Uncletopia | Warsaw | 4 | All Maps | STV","players":null},{"server_id":53,"name":"Uncletopia | Warsaw | 5 | Stopwatch Beta","name_short":"waw-5","host":"waw-1.pl.uncletopia.com","port":27055,"enabled":true,"region":"eu","cc":"pl","latitude":52.2297,"longitude":21.017532,"reserved":0,"last_update":"0001-01-01T00:00:00Z","name_a2s":"Uncletopia | Warsaw | 5 | Stopwatch Beta","protocol":17,"map":"pl_borneo","folder":"tf","game":"Team Fortress","app_id":440,"player_count":0,"max_players":24,"Bots":0,"server_type":"Dedicated","server_os":"Linux","password":true,"vac":true,"version":"7757534","steam_id":85568392925397854,"keywords":["nocrits","nodmgspread","payload","uncletopia"],"game_id":440,"stv_port":27056,"stv_name":"Uncletopia | Warsaw | 5 | Stopwatch Beta | STV","players":null},{"server_id":54,"name":"Uncletopia | Warsaw | 6 | Community","name_short":"waw-6","host":"waw-1.pl.uncletopia.com","port":27065,"enabled":true,"region":"eu","cc":"pl","latitude":52.2297,"longitude":21.017532,"reserved":0,"last_update":"0001-01-01T00:00:00Z","name_a2s":"Uncletopia | Warsaw | 6 | Community","protocol":17,"map":"koth_lakeside_final","folder":"tf","game":"Team Fortress","app_id":440,"player_count":0,"max_players":24,"Bots":0,"server_type":"Dedicated","server_os":"Linux","password":true,"vac":true,"version":"7757534","steam_id":85568392925397856,"keywords":["cp","nocrits","nodmgspread","uncletopia"],"game_id":440,"stv_port":27066,"stv_name":"Uncletopia | Warsaw | 6 | Community | STV","players":null}]}