{"status":true,"message":"","result":[{"server_id":9,"name":"Uncletopia | Atlanta | 1 | All Maps","name_short":"atl-1","host":"atl-1.us.uncletopia.com","port":27015,"enabled":true,"region":"us-east","cc":"us","latitude":33.753746,"longitude":-84.38633,"reserved":0,"last_update":"0001-01-01T00:00:00Z","name_a2s":"Uncletopia | Atlanta | 1 | All Maps","protocol":17,"map":"pl_badwater","folder":"tf","game":"Team Fortress","app_id":440,"player_count":24,"max_players":24,"Bots":0,"server_type":"Dedicated","server_os":"Linux","password":true,"vac":true,"version":"7961495","steam_id":85568392924469982,"keywords":["nocrits","nodmgspread","payload","uncletopia"],"game_id":440,"stv_port":27016,"stv_name":"Uncletopia | Atlanta | 1 | All Maps | STV","players":[{"user_id":696,"name":"Dr.Inkmix(femboy medic!)","steam_id":76561198854070384,"connected_time":3973000000000,"state":"active","ping":119},{"user_id":750,"name":"Biscipline","steam_id":76561198019206178,"connected_time":95000000000,"state":"active","ping":72},{"user_id":733,"name":"W3ster","steam_id":76561198959700858,"connected_time":2012000000000,"state":"active","ping":62},{"user_id":749,"name":"Maurdakar","steam_id":76561197983420976,"connected_time":132000000000,"state":"active","ping":88},{"user_id":728,"name":"Obelisk","steam_id":76561198049416866,"connected_time":2611000000000,"state":"active","ping":53},{"user_id":707,"name":"Jag","steam_id":76561198001220471,"connected_time":3821000000000,"state":"active","ping":45},{"user_id":577,"name":"Lucky","steam_id":76561198418262145,"connected_time":8083000000000,"state":"active","ping":118},{"user_id":720,"name":"Boneless Blithen","steam_id":76561197989955619,"connected_time":2708000000000,"state":"active","ping":125},{"user_id":718,"name":"BIG HOG","steam_id":76561198079923652,"connected_time":2822000000000,"state":"active","ping":67},{"user_id":744,"name":"he suckin on my rick til i mort","steam_id":76561198310711692,"connected_time":919000000000,"state":"active","ping":165},{"user_id":586,"name":"marguerite","steam_id":76561198170873495,"connected_time":6975000000000,"state":"active","ping":58},{"user_id":745,"name":"Flora\u003c3","steam_id":76561198299175965,"connected_time":874000000000,"state":"active","ping":56},{"user_id":748,"name":"GibbusGod","steam_id":76561199232436690,"connected_time":361000000000,"state":"active","ping":53},{"user_id":743,"name":"Yongle","steam_id":76561198068591156,"connected_time":1043000000000,"state":"active","ping":56},{"user_id":739,"name":"dam","steam_id":76561198991633113,"connected_time":1796000000000,"state":"active","ping":120},{"user_id":746,"name":"Motreir","steam_id":76561198151717946,"connected_time":857000000000,"state":"active","ping":82},{"user_id":747,"name":"benevolent eccentric","steam_id":76561198044443985,"connected_time":785000000000,"state":"active","ping":75},{"user_id":730,"name":"chexo4","steam_id":76561198150532531,"connected_time":2074000000000,"state":"active","ping":52},{"user_id":738,"name":"Grundle Thunder","steam_id":76561197960790338,"connected_time":1800000000000,"state":"active","ping":87},{"user_id":643,"name":"ATL1 | Uganda Knuckles lll","steam_id":76561199121276474,"connected_time":5445000000000,"state":"active","ping":81},{"user_id":751,"name":"sunglasses","steam_id":76561198173747227,"connected_time":88000000000,"state":"active","ping":90},{"user_id":717,"name":"lil hog","steam_id":76561199230929836,"connected_time":2826000000000,"state":"active","ping":89},{"user_id":731,"name":"Monkey Mode","steam_id":76561197961267543,"connected_time":2056000000000,"state":"active","ping":60},{"user_id":684,"name":"Oddball","steam_id":76561198040440984,"connected_time":4628000000000,"state":"active","ping":89}]},{"server_id":104,"name":"Uncletopia | Atlanta | 2 | All Maps","name_short":"atl-2","host":"atl-1.us.uncletopia.com","port":27025,"enabled":true,"region":"us-east","cc":"us","latitude":33.753746,"longitude":-84.38633,"reserved":0,"last_update":"0001-01-01T00:00:00Z","name_a2s":"Uncletopia | Atlanta | 2 | All Maps","protocol":17,"map":"pl_borneo","folder":"tf","game":"Team Fortress","app_id":440,"player_count":18,"max_players":24,"Bots":0,"server_type":"Dedicated","server_os":"Linux","password":true,"vac":true,"version":"7961495","steam_id":85568392924469983,"keywords":["nocrits","nodmgspread","payload","uncletopia"],"game_id":440,"stv_port":27026,"stv_name":"Uncletopia | Atlanta | 2 | All Maps | STV","players":[{"user_id":639,"name":"SD","steam_id":76561198217410988,"connected_time":4000000000,"state":"connecting","ping":136},{"user_id":608,"name":"George Holdin' W Bush","steam_id":76561198030066204,"connected_time":1910000000000,"state":"connecting","ping":60},{"user_id":629,"name":"nav","steam_id":76561198872608266,"connected_time":948000000000,"state":"connecting","ping":89},{"user_id":606,"name":"Hedless","steam_id":76561197992723400,"connected_time":1957000000000,"state":"connecting","ping":103},{"user_id":626,"name":"Metacarfoe","steam_id":76561198236016496,"connected_time":1101000000000,"state":"connecting","ping":61},{"user_id":636,"name":"Transfemme TF2 Player","steam_id":76561198069725856,"connected_time":468000000000,"state":"connecting","ping":79},{"user_id":607,"name":"Starfruit66","steam_id":76561198069917277,"connected_time":1931000000000,"state":"connecting","ping":137},{"user_id":624,"name":"fiveclap","steam_id":76561198369240034,"connected_time":1363000000000,"state":"connecting","ping":65},{"user_id":317,"name":"V","steam_id":76561199223266577,"connected_time":13761000000000,"state":"connecting","ping":122},{"user_id":633,"name":"Reacespieces","steam_id":76561198032675272,"connected_time":669000000000,"state":"connecting","ping":93},{"user_id":637,"name":"CJDGuy","steam_id":76561198213009545,"connected_time":268000000000,"state":"connecting","ping":104},{"user_id":614,"name":"1-800-GHOST-DANCE","steam_id":76561198835430429,"connected_time":1807000000000,"state":"connecting","ping":132},{"user_id":615,"name":"SparksKitsune","steam_id":76561198066890691,"connected_time":1807000000000,"state":"connecting","ping":83},{"user_id":604,"name":"marty","steam_id":76561198032782746,"connected_time":2620000000000,"state":"connecting","ping":114},{"user_id":638,"name":"Rhubarb","steam_id":76561198001700880,"connected_time":119000000000,"state":"connecting","ping":110},{"user_id":627,"name":"Poppet","steam_id":76561198012301951,"connected_time":1057000000000,"state":"connecting","ping":100},{"user_id":625,"name":"Chicken Golem","steam_id":76561198138995247,"connected_time":1185000000000,"state":"connecting","ping":92},{"user_id":634,"name":"Starseeing Oracle","steam_id":76561198097720124,"connected_time":545000000000,"state":"connecting","ping":68}]},{"server_id":400,"name":"Uncletopia | Atlanta | 3 | Stopwatch","name_short":"atl-3","host":"atl-1.us.uncletopia.com","port":27035,"enabled":true,"region":"us-east","cc":"us","latitude":33.753746,"longitude":-84.38633,"reserved":0,"last_update":"0001-01-01T00:00:00Z","name_a2s":"Uncletopia | Atlanta | 3 | Stopwatch","protocol":17,"map":"workshop/koth_ashville_final.ugc2130459942","folder":"tf","game":"Team Fortress","app_id":440,"player_count":24,"max_players":24,"Bots":0,"server_type":"Dedicated","server_os":"Linux","password":true,"vac":true,"version":"7961495","steam_id":85568392924515187,"keywords":["cp","nocrits","nodmgspread","uncletopia"],"game_id":440,"stv_port":27036,"stv_name":"Uncletopia | Atlanta | 3 | Stopwatch | STV","players":[{"user_id":277,"name":"Numanis","steam_id":76561199229661082,"connected_time":1849000000000,"state":"active","ping":54},{"user_id":291,"name":"*****setget","steam_id":76561198118824188,"connected_time":1032000000000,"state":"active","ping":105},{"user_id":292,"name":"Salt","steam_id":76561198418001135,"connected_time":1002000000000,"state":"active","ping":65},{"user_id":306,"name":"hapa demon punk","steam_id":76561198308883028,"connected_time":622000000000,"state":"active","ping":149},{"user_id":294,"name":"Moth Beam","steam_id":76561198005069202,"connected_time":923000000000,"state":"active","ping":65},{"user_id":204,"name":"Therapy Goth","steam_id":76561198048448497,"connected_time":6098000000000,"state":"active","ping":73},{"user_id":274,"name":"2013HORSEMEATSCANDAL","steam_id":76561198238167912,"connected_time":2219000000000,"state":"active","ping":88},{"user_id":252,"name":"lionel messi","steam_id":76561198138455706,"connected_time":3436000000000,"state":"active","ping":89},{"user_id":296,"name":"Volkan, Pervert Extraordinaire","steam_id":76561198004569575,"connected_time":846000000000,"state":"active","ping":77},{"user_id":297,"name":"hi","steam_id":76561199501723791,"connected_time":835000000000,"state":"active","ping":99},{"user_id":205,"name":"totally not a pile of beans","steam_id":76561198119851931,"connected_time":6098000000000,"state":"active","ping":80},{"user_id":298,"name":"opossum","steam_id":76561198148905570,"connected_time":786000000000,"state":"active","ping":59},{"user_id":304,"name":"ew! gross! Icky","steam_id":76561198158531627,"connected_time":673000000000,"state":"active","ping":106},{"user_id":300,"name":"Shy","steam_id":76561198394890836,"connected_time":778000000000,"state":"active","ping":51},{"user_id":250,"name":"cotton","steam_id":76561198018652890,"connected_time":3558000000000,"state":"active","ping":58},{"user_id":301,"name":"whycameback","steam_id":76561198222556872,"connected_time":711000000000,"state":"active","ping":88},{"user_id":276,"name":"YellowSQUID","steam_id":76561198123259414,"connected_time":2054000000000,"state":"active","ping":114},{"user_id":302,"name":"Daniel","steam_id":76561198116144270,"connected_time":703000000000,"state":"active","ping":59},{"user_id":259,"name":"ClericsRose","steam_id":76561198011013806,"connected_time":3173000000000,"state":"active","ping":76},{"user_id":311,"name":"raver","steam_id":76561198173047169,"connected_time":271000000000,"state":"active","ping":66},{"user_id":307,"name":"FreshlyBrewed","steam_id":76561198181099881,"connected_time":524000000000,"state":"active","ping":103},{"user_id":282,"name":"willyum","steam_id":76561198168168261,"connected_time":1404000000000,"state":"active","ping":78},{"user_id":308,"name":"FooChuu","steam_id":76561198081549177,"connected_time":523000000000,"state":"active","ping":82},{"user_id":312,"name":"gabrielffa2323","steam_id":76561199468014855,"connected_time":271000000000,"state":"active","ping":71}]},{"server_id":401,"name":"Uncletopia | Atlanta | 4 | Community","name_short":"atl-4","host":"atl-1.us.uncletopia.com","port":27045,"enabled":true,"region":"us-east","cc":"us","latitude":33.753746,"longitude":-84.38633,"reserved":0,"last_update":"0001-01-01T00:00:00Z","name_a2s":"Uncletopia | Atlanta | 4 | Community","protocol":17,"map":"workshop/pl_cashworks_final1.ugc2904065412","folder":"tf","game":"Team Fortress","app_id":440,"player_count":0,"max_players":24,"Bots":0,"server_type":"Dedicated","server_os":"Linux","password":true,"vac":true,"version":"7961495","steam_id":85568392924515188,"keywords":["nocrits","nodmgspread","payload","uncletopia"],"game_id":440,"stv_port":27046,"stv_name":"Uncletopia | Atlanta | 4 | Community | STV","players":null},{"server_id":2,"name":"Uncletopia | Chicago | 1 | All Maps","name_short":"chi-1","host":"chi-1.us.uncletopia.com","port":27015,"enabled":true,"region":"us-central","cc":"us","latitude":41.881832,"longitude":-87.62318,"reserved":0,"last_update":"0001-01-01T00:00:00Z","name_a2s":"Uncletopia | Chicago | 1 | All Maps","protocol":17,"map":"pl_borneo","folder":"tf","game":"Team Fortress","app_id":440,"player_count":21,"max_players":24,"Bots":0,"server_type":"Dedicated","server_os":"Linux","password":true,"vac":true,"version":"7961495","steam_id":85568392924469984,"keywords":["nocrits","nodmgspread","payload","uncletopia"],"game_id":440,"stv_port":27016,"stv_name":"Uncletopia | Chicago | 1 | All Maps | STV","players":[{"user_id":690,"name":"baedeker","steam_id":76561199081837220,"connected_time":985000000000,"state":"active","ping":63},{"user_id":700,"name":"That1boi","steam_id":76561199029574195,"connected_time":90000000000,"state":"active","ping":95},{"user_id":678,"name":"loser","steam_id":76561198259380127,"connected_time":1398000000000,"state":"active","ping":46},{"user_id":661,"name":"qory","steam_id":76561198152064890,"connected_time":3680000000000,"state":"active","ping":40},{"user_id":701,"name":"Kick Down Door 6:00AM TUCK☃RO","steam_id":76561197976146738,"connected_time":57000000000,"state":"active","ping":82},{"user_id":696,"name":"The Grim Heaper","steam_id":76561197987759101,"connected_time":776000000000,"state":"active","ping":103},{"user_id":697,"name":"Vaudeville Villain","steam_id":76561199212093339,"connected_time":762000000000,"state":"active","ping":72},{"user_id":637,"name":"OH BOY","steam_id":76561199052273428,"connected_time":5866000000000,"state":"active","ping":54},{"user_id":679,"name":"guy","steam_id":76561198079925551,"connected_time":1335000000000,"state":"active","ping":73},{"user_id":705,"name":"DeletedTaters","steam_id":76561198040773153,"connected_time":10000000000,"state":"active","ping":67},{"user_id":649,"name":".JIFF","steam_id":76561198045181760,"connected_time":4891000000000,"state":"active","ping":56},{"user_id":669,"name":"wheat","steam_id":76561197971158435,"connected_time":2898000000000,"state":"active","ping":53},{"user_id":662,"name":"Arctem","steam_id":76561198012937871,"connected_time":3673000000000,"state":"active","ping":81},{"user_id":703,"name":"Sicko Mode (Chris Pratt Cover)","steam_id":76561198315786174,"connected_time":33000000000,"state":"active","ping":71},{"user_id":704,"name":"daphnit (she/they)","steam_id":76561198021596004,"connected_time":30000000000,"state":"spawning","ping":152},{"user_id":681,"name":"Trogdor","steam_id":76561198121353181,"connected_time":1122000000000,"state":"active","ping":85},{"user_id":668,"name":"agless","steam_id":76561198045248344,"connected_time":3603000000000,"state":"active","ping":56},{"user_id":689,"name":"Fucken Tony","steam_id":76561198332613369,"connected_time":1007000000000,"state":"active","ping":48},{"user_id":672,"name":"Piyono","steam_id":76561197962188504,"connected_time":2883000000000,"state":"active","ping":67},{"user_id":691,"name":"Azure","steam_id":76561198260328183,"connected_time":985000000000,"state":"active","ping":62},{"user_id":695,"name":"Snom","steam_id":76561198333827920,"connected_time":840000000000,"state":"active","ping":120}]},{"server_id":106,"name":"Uncletopia | Chicago | 2 | All Maps","name_short":"chi-2","host":"chi-1.us.uncletopia.com","port":27025,"enabled":true,"region":"us-central","cc":"us","latitude":41.881832,"longitude":-87.62318,"reserved":0,"last_update":"0001-01-01T00:00:00Z","name_a2s":"Uncletopia | Chicago | 2 | All Maps","protocol":17,"map":"pl_pier","folder":"tf","game":"Team Fortress","app_id":440,"player_count":24,"max_players":24,"Bots":0,"server_type":"Dedicated","server_os":"Linux","password":true,"vac":true,"version":"7961495","steam_id":85568392924469985,"keywords":["nocrits","nodmgspread","payload","uncletopia"],"game_id":440,"stv_port":27026,"stv_name":"Uncletopia | Chicago | 2 | All Maps | STV","players":[{"user_id":540,"name":"Monte","steam_id":76561198097499917,"connected_time":7259000000000,"state":"active","ping":99},{"user_id":611,"name":"I'm not a rapper","steam_id":76561198307516731,"connected_time":1473000000000,"state":"active","ping":75},{"user_id":634,"name":"Csquared","steam_id":76561198169038599,"connected_time":39000000000,"state":"active","ping":110},{"user_id":600,"name":"Rat Smacker","steam_id":76561198043629646,"connected_time":1754000000000,"state":"active","ping":75},{"user_id":612,"name":"butterthoughts","steam_id":76561198025120284,"connected_time":1321000000000,"state":"active","ping":76},{"user_id":601,"name":"Squiliam","steam_id":76561198025278006,"connected_time":1749000000000,"state":"active","ping":62},{"user_id":624,"name":"HALO 3","steam_id":76561198020825795,"connected_time":159000000000,"state":"active","ping":73},{"user_id":623,"name":"waggyaggy","steam_id":76561197998241407,"connected_time":436000000000,"state":"active","ping":95},{"user_id":627,"name":"vepis","steam_id":76561198015884720,"connected_time":97000000000,"state":"active","ping":63},{"user_id":603,"name":"Dr Oshawott","steam_id":76561198042021629,"connected_time":1660000000000,"state":"active","ping":63},{"user_id":593,"name":"Moonflower ✦","steam_id":76561198191782483,"connected_time":2704000000000,"state":"active","ping":79},{"user_id":604,"name":"Tako","steam_id":76561199264073138,"connected_time":1659000000000,"state":"active","ping":82},{"user_id":605,"name":"Lincoln","steam_id":76561198148907800,"connected_time":1658000000000,"state":"active","ping":48},{"user_id":592,"name":"stuffedidiot","steam_id":76561199181513019,"connected_time":2719000000000,"state":"active","ping":123},{"user_id":559,"name":"lal","steam_id":76561198243965308,"connected_time":5092000000000,"state":"active","ping":103},{"user_id":625,"name":"Gwuf","steam_id":76561198091503282,"connected_time":132000000000,"state":"active","ping":118},{"user_id":626,"name":"TabbyCat","steam_id":76561198414125672,"connected_time":120000000000,"state":"active","ping":78},{"user_id":628,"name":"Raspylightining","steam_id":76561198148343305,"connected_time":97000000000,"state":"active","ping":51},{"user_id":580,"name":"Kdash","steam_id":76561198043829155,"connected_time":3881000000000,"state":"active","ping":83},{"user_id":629,"name":"Mug","steam_id":76561198000672907,"connected_time":84000000000,"state":"active","ping":76},{"user_id":630,"name":"Shystie","steam_id":76561198025371440,"connected_time":76000000000,"state":"active","ping":89},{"user_id":617,"name":"ZimZif","steam_id":76561198165216550,"connected_time":1053000000000,"state":"active","ping":78},{"user_id":632,"name":"weeb","steam_id":76561198106945226,"connected_time":72000000000,"state":"active","ping":75},{"user_id":633,"name":"MaeDay","steam_id":76561198332344135,"connected_time":54000000000,"state":"active","ping":64}]},{"server_id":402,"name":"Uncletopia | Chicago | 3 | All Maps","name_short":"chi-3","host":"chi-1.us.uncletopia.com","port":27035,"enabled":true,"region":"us-central","cc":"us","latitude":41.881832,"longitude":-87.62318,"reserved":0,"last_update":"0001-01-01T00:00:00Z","name_a2s":"Uncletopia | Chicago | 3 | All Maps","protocol":17,"map":"pl_frontier_final","folder":"tf","game":"Team Fortress","app_id":440,"player_count":2,"max_players":24,"Bots":0,"server_type":"Dedicated","server_os":"Linux","password":true,"vac":true,"version":"7961495","steam_id":85568392924515191,"keywords":["nocrits","nodmgspread","payload","uncletopia"],"game_id":440,"stv_port":27036,"stv_name":"Uncletopia | Chicago | 3 | All Maps | STV","players":[{"user_id":551,"name":"A skill issue","steam_id":76561198246701796,"connected_time":1146000000000,"state":"active","ping":73},{"user_id":549,"name":"winning","steam_id":76561198003206947,"connected_time":1162000000000,"state":"active","ping":52}]},{"server_id":403,"name":"Uncletopia | Chicago | 4 | All Maps","name_short":"chi-4","host":"chi-1.us.uncletopia.com","port":27045,"enabled":true,"region":"us-central","cc":"us","latitude":41.881832,"longitude":-87.62318,"reserved":0,"last_update":"0001-01-01T00:00:00Z","name_a2s":"Uncletopia | Chicago | 4 | All Maps","protocol":17,"map":"koth_highpass","folder":"tf","game":"Team Fortress","app_id":440,"player_count":24,"max_players":24,"Bots":0,"server_type":"Dedicated","server_os":"Linux","password":true,"vac":true,"version":"7961495","steam_id":85568392924515193,"keywords":["cp","nocrits","nodmgspread","uncletopia"],"game_id":440,"stv_port":27046,"stv_name":"Uncletopia | Chicago | 4 | All Maps | STV","players":[{"user_id":651,"name":"Lyfull (Rip Rick May)","steam_id":76561198273398361,"connected_time":3714000000000,"state":"active","ping":62},{"user_id":672,"name":"Thot Patrol","steam_id":76561198026003193,"connected_time":2421000000000,"state":"active","ping":60},{"user_id":685,"name":"frank","steam_id":76561198137777483,"connected_time":2047000000000,"state":"active","ping":63},{"user_id":692,"name":"Fraglin","steam_id":76561198124964000,"connected_time":1732000000000,"state":"active","ping":70},{"user_id":705,"name":"C4K3","steam_id":76561197996963285,"connected_time":11000000000,"state":"active","ping":83},{"user_id":698,"name":"NovaSc6ut","steam_id":76561198277163301,"connected_time":1286000000000,"state":"active","ping":65},{"user_id":680,"name":"Tweek Tweak","steam_id":76561198445739792,"connected_time":2199000000000,"state":"active","ping":66},{"user_id":701,"name":"Engineer2650","steam_id":76561198121410799,"connected_time":915000000000,"state":"active","ping":74},{"user_id":704,"name":"Grumbo","steam_id":76561199002106124,"connected_time":583000000000,"state":"active","ping":94},{"user_id":652,"name":"Cassius Money","steam_id":76561197979696414,"connected_time":3699000000000,"state":"active","ping":55},{"user_id":605,"name":"Jousty","steam_id":76561199162677853,"connected_time":7465000000000,"state":"active","ping":89},{"user_id":693,"name":"Meow Skulls","steam_id":76561198204641019,"connected_time":1642000000000,"state":"active","ping":68},{"user_id":688,"name":"[NAME-REDACTED]","steam_id":76561198035682975,"connected_time":1996000000000,"state":"active","ping":69},{"user_id":676,"name":"Dieu-Sama","steam_id":76561198002075862,"connected_time":2388000000000,"state":"active","ping":84},{"user_id":653,"name":"xxballfondlerxx","steam_id":76561197991546630,"connected_time":3692000000000,"state":"active","ping":55},{"user_id":702,"name":"C Papi","steam_id":76561198027779564,"connected_time":913000000000,"state":"active","ping":57},{"user_id":654,"name":"dailyspesh","steam_id":76561197988072369,"connected_time":3690000000000,"state":"active","ping":78},{"user_id":699,"name":"Kaypo","steam_id":76561198262420097,"connected_time":1243000000000,"state":"active","ping":57},{"user_id":691,"name":"dbelow_","steam_id":76561198056148853,"connected_time":1759000000000,"state":"active","ping":60},{"user_id":649,"name":"justyoureventualruler","steam_id":76561198410993481,"connected_time":4333000000000,"state":"active","ping":74},{"user_id":664,"name":"Nexusuxen","steam_id":76561198117547131,"connected_time":3113000000000,"state":"active","ping":70},{"user_id":694,"name":"Dexidus","steam_id":76561198021840495,"connected_time":1613000000000,"state":"active","ping":61},{"user_id":700,"name":"menonamed","steam_id":76561198199564382,"connected_time":935000000000,"state":"active","ping":68},{"user_id":687,"name":"mini boss","steam_id":76561198062763756,"connected_time":2023000000000,"state":"active","ping":50}]},{"server_id":36,"name":"Uncletopia | Chicago | 5 | All Maps","name_short":"chi-5","host":"chi-2.us.uncletopia.com","port":27015,"enabled":true,"region":"us-central","cc":"us","latitude":41.881832,"longitude":-87.62318,"reserved":0,"last_update":"0001-01-01T00:00:00Z","name_a2s":"Uncletopia | Chicago | 5 | All Maps","protocol":17,"map":"pl_snowycoast","folder":"tf","game":"Team Fortress","app_id":440,"player_count":24,"max_players":24,"Bots":0,"server_type":"Dedicated","server_os":"Linux","password":true,"vac":true,"version":"7961495","steam_id":85568392924866362,"keywords":["nocrits","nodmgspread","payload","uncletopia"],"game_id":440,"stv_port":27016,"stv_name":"Uncletopia | Chicago | 5 | All Maps | STV","players":[{"user_id":574,"name":"LaunchpadMcQuack","steam_id":76561198022302377,"connected_time":1289000000000,"state":"active","ping":61},{"user_id":587,"name":"vcx","steam_id":76561198139371143,"connected_time":940000000000,"state":"active","ping":71},{"user_id":598,"name":"Thequirka","steam_id":76561198968058652,"connected_time":271000000000,"state":"active","ping":95},{"user_id":597,"name":"lazyhead","steam_id":76561198044358804,"connected_time":397000000000,"state":"active","ping":49},{"user_id":596,"name":"Shorts","steam_id":76561198025009692,"connected_time":615000000000,"state":"active","ping":84},{"user_id":575,"name":"[SGN] karma","steam_id":76561198377749499,"connected_time":1242000000000,"state":"active","ping":67},{"user_id":599,"name":"Ariel","steam_id":76561199072335323,"connected_time":222000000000,"state":"active","ping":109},{"user_id":546,"name":"Propaniac Gaming ☑","steam_id":76561198133963270,"connected_time":2308000000000,"state":"active","ping":60},{"user_id":564,"name":"Mr. Hankey","steam_id":76561198872852200,"connected_time":1847000000000,"state":"active","ping":142},{"user_id":535,"name":"Billosky Time Lord","steam_id":76561199159626560,"connected_time":4065000000000,"state":"active","ping":159},{"user_id":594,"name":"[GU1Z] Palamute Jho","steam_id":76561199219936729,"connected_time":693000000000,"state":"active","ping":83},{"user_id":600,"name":"cerne","steam_id":76561198350747953,"connected_time":199000000000,"state":"active","ping":60},{"user_id":592,"name":"Snoogs","steam_id":76561198444880931,"connected_time":849000000000,"state":"active","ping":81},{"user_id":541,"name":"Giggles™","steam_id":76561198058708019,"connected_time":3267000000000,"state":"active","ping":55},{"user_id":578,"name":"AlexLovesYou","steam_id":76561199163263543,"connected_time":1201000000000,"state":"active","ping":101},{"user_id":604,"name":"dookiemonster33","steam_id":76561198979494052,"connected_time":168000000000,"state":"active","ping":100},{"user_id":602,"name":"Truce","steam_id":76561198044334346,"connected_time":183000000000,"state":"active","ping":90},{"user_id":595,"name":"Fly Man","steam_id":76561198201036790,"connected_time":680000000000,"state":"active","ping":92},{"user_id":561,"name":"thatguy_luigi","steam_id":76561198968055462,"connected_time":1910000000000,"state":"active","ping":186},{"user_id":593,"name":"Kuyumiester","steam_id":76561198126835302,"connected_time":806000000000,"state":"active","ping":64},{"user_id":603,"name":"Dinosaur","steam_id":76561199079626189,"connected_time":179000000000,"state":"active","ping":69},{"user_id":583,"name":"Mury","steam_id":76561198069743049,"connected_time":1163000000000,"state":"active","ping":89},{"user_id":605,"name":"Chemzo","steam_id":76561199092858118,"connected_time":166000000000,"state":"active","ping":50},{"user_id":606,"name":"AMistake","steam_id":76561199379196708,"connected_time":145000000000,"state":"active","ping":66}]},{"server_id":37,"name":"Uncletopia | Chicago | 6 | All Maps","name_short":"chi-6","host":"chi-2.us.uncletopia.com","port":27025,"enabled":true,"region":"us-central","cc":"us","latitude":41.881832,"longitude":-87.62318,"reserved":0,"last_update":"0001-01-01T00:00:00Z","name_a2s":"Uncletopia | Chicago | 6 | All Maps","protocol":17,"map":"pl_barnblitz","folder":"tf","game":"Team Fortress","app_id":440,"player_count":24,"max_players":24,"Bots":0,"server_type":"Dedicated","server_os":"Linux","password":true,"vac":true,"version":"7961495","steam_id":85568392924866363,"keywords":["nocrits","nodmgspread","payload","uncletopia"],"game_id":440,"stv_port":27026,"stv_name":"Uncletopia | Chicago | 6 | All Maps | STV","players":[{"user_id":416,"name":"canakblasteran","steam_id":76561199472518822,"connected_time":1192000000000,"state":"active","ping":107},{"user_id":376,"name":"elder scrolls 6","steam_id":76561198113364714,"connected_time":3246000000000,"state":"active","ping":61},{"user_id":347,"name":"Blehnder","steam_id":76561198172097526,"connected_time":5392000000000,"state":"active","ping":83},{"user_id":429,"name":"nil","steam_id":76561198339527138,"connected_time":404000000000,"state":"active","ping":104},{"user_id":396,"name":"bologna forklift 2012","steam_id":76561198199061206,"connected_time":2829000000000,"state":"active","ping":41},{"user_id":412,"name":"Docc","steam_id":76561198085598022,"connected_time":1400000000000,"state":"active","ping":53},{"user_id":418,"name":"JustAManMadeOfMold","steam_id":76561199071707964,"connected_time":1158000000000,"state":"active","ping":117},{"user_id":425,"name":"PapaGhostler","steam_id":76561198065324143,"connected_time":521000000000,"state":"active","ping":73},{"user_id":252,"name":"Swag","steam_id":76561198835483242,"connected_time":11741000000000,"state":"active","ping":77},{"user_id":395,"name":"1989 Mazda RX-7 FC3S","steam_id":76561198436383373,"connected_time":2871000000000,"state":"active","ping":111},{"user_id":430,"name":"foxxy","steam_id":76561198211308328,"connected_time":397000000000,"state":"active","ping":60},{"user_id":419,"name":"LordKirby","steam_id":76561198006938286,"connected_time":1153000000000,"state":"active","ping":119},{"user_id":385,"name":"tail slap +36 (4d12+18)","steam_id":76561198040425096,"connected_time":3108000000000,"state":"active","ping":72},{"user_id":402,"name":"SyNing","steam_id":76561198213435803,"connected_time":2249000000000,"state":"active","ping":54},{"user_id":391,"name":"It's FoolMoon","steam_id":76561198153344375,"connected_time":3065000000000,"state":"active","ping":64},{"user_id":420,"name":"Fiendish Frog","steam_id":76561198029478821,"connected_time":1120000000000,"state":"active","ping":74},{"user_id":356,"name":"Amazingamerhawk","steam_id":76561199064935924,"connected_time":4802000000000,"state":"active","ping":74},{"user_id":433,"name":"Xenophile","steam_id":76561198044772435,"connected_time":300000000000,"state":"active","ping":91},{"user_id":432,"name":"AbbyRoads","steam_id":76561198868564212,"connected_time":363000000000,"state":"active","ping":93},{"user_id":428,"name":"PISS MANN","steam_id":76561199121903803,"connected_time":438000000000,"state":"active","ping":97},{"user_id":423,"name":"giveit5","steam_id":76561198030815437,"connected_time":938000000000,"state":"active","ping":91},{"user_id":431,"name":"Stealthguy724","steam_id":76561198195961430,"connected_time":393000000000,"state":"active","ping":74},{"user_id":411,"name":"cat","steam_id":76561198366828434,"connected_time":1505000000000,"state":"active","ping":102}]},{"server_id":38,"name":"Uncletopia | Chicago | 7 | Stopwatch","name_short":"chi-7","host":"chi-2.us.uncletopia.com","port":27035,"enabled":true,"region":"us-central","cc":"us","latitude":41.881832,"longitude":-87.62318,"reserved":0,"last_update":"0001-01-01T00:00:00Z","name_a2s":"Uncletopia | Chicago | 7 | Stopwatch","protocol":17,"map":"koth_highpass","folder":"tf","game":"Team Fortress","app_id":440,"player_count":0,"max_players":24,"Bots":0,"server_type":"Dedicated","server_os":"Linux","password":true,"vac":true,"version":"7961495","steam_id":85568392924866364,"keywords":["cp","nocrits","nodmgspread","uncletopia"],"game_id":440,"stv_port":27036,"stv_name":"Uncletopia | Chicago | 7 | Stopwatch | STV","players":null},{"server_id":39,"name":"Uncletopia | Chicago | 8 | Community","name_short":"chi-8","host":"chi-2.us.uncletopia.com","port":27045,"enabled":true,"region":"us-central","cc":"us","latitude":41.881832,"longitude":-87.62318,"reserved":0,"last_update":"0001-01-01T00:00:00Z","name_a2s":"Uncletopia | Chicago | 8 | Community","protocol":17,"map":"pl_pier","folder":"tf","game":"Team Fortress","app_id":440,"player_count":0,"max_players":24,"Bots":0,"server_type":"Dedicated","server_os":"Linux","password":true,"vac":true,"version":"7961495","steam_id":85568392924866365,"keywords":["nocrits","nodmgspread","payload","uncletopia"],"game_id":440,"stv_port":27046,"stv_name":"Uncletopia | Chicago | 8 | Community | STV","players":null},{"server_id":8,"name":"Uncletopia | Dallas | 1 | All Maps","name_short":"dal-1","host":"dal-1.us.uncletopia.com","port":27015,"enabled":true,"region":"us-central","cc":"us","latitude":32.779167,"longitude":-96.80889,"reserved":0,"last_update":"0001-01-01T00:00:00Z","name_a2s":"Uncletopia | Dallas | 1 | All Maps","protocol":17,"map":"pl_badwater","folder":"tf","game":"Team Fortress","app_id":440,"player_count":24,"max_players":24,"Bots":0,"server_type":"Dedicated","server_os":"Linux","password":true,"vac":true,"version":"7961495","steam_id":85568392924469986,"keywords":["nocrits","nodmgspread","payload","uncletopia"],"game_id":440,"stv_port":27016,"stv_name":"Uncletopia | Dallas | 1 | All Maps | STV","players":[{"user_id":588,"name":"fish","steam_id":76561198182052198,"connected_time":2877000000000,"state":"active","ping":93},{"user_id":571,"name":"Sam","steam_id":76561198084143136,"connected_time":4274000000000,"state":"active","ping":36},{"user_id":619,"name":"papi Chulo","steam_id":76561198126274984,"connected_time":704000000000,"state":"active","ping":83},{"user_id":611,"name":"errant","steam_id":76561197961758410,"connected_time":1132000000000,"state":"active","ping":43},{"user_id":612,"name":"ryan","steam_id":76561198083851689,"connected_time":1104000000000,"state":"active","ping":44},{"user_id":554,"name":":3c says trans rights","steam_id":76561198309876224,"connected_time":6236000000000,"state":"active","ping":47},{"user_id":605,"name":"A Good Boy","steam_id":76561198066998594,"connected_time":1425000000000,"state":"active","ping":104},{"user_id":599,"name":"tac","steam_id":76561198408477421,"connected_time":1965000000000,"state":"active","ping":127},{"user_id":563,"name":"Imrgrim","steam_id":76561198135866481,"connected_time":5649000000000,"state":"active","ping":70},{"user_id":621,"name":"[DATS➡] Sugar Meowth","steam_id":76561197995251793,"connected_time":325000000000,"state":"active","ping":92},{"user_id":580,"name":"malarkeyman","steam_id":76561198844473584,"connected_time":3414000000000,"state":"active","ping":65},{"user_id":597,"name":"Charles","steam_id":76561198155322277,"connected_time":2433000000000,"state":"active","ping":93},{"user_id":603,"name":"Shameless Kuma Player","steam_id":76561198097700500,"connected_time":1708000000000,"state":"active","ping":67},{"user_id":509,"name":"banana gaming","steam_id":76561198334907218,"connected_time":9000000000000,"state":"active","ping":69},{"user_id":610,"name":"Queuetimeevent","steam_id":76561198079438423,"connected_time":1156000000000,"state":"active","ping":55},{"user_id":601,"name":"BardFromEntry","steam_id":76561198167596804,"connected_time":1800000000000,"state":"active","ping":87},{"user_id":618,"name":"King Cotton","steam_id":76561198292444376,"connected_time":735000000000,"state":"active","ping":66},{"user_id":549,"name":"Verily","steam_id":76561198200558318,"connected_time":6710000000000,"state":"active","ping":89},{"user_id":606,"name":"gulch","steam_id":76561199227946025,"connected_time":1416000000000,"state":"active","ping":73},{"user_id":613,"name":"chesterwnimitz","steam_id":76561198062664377,"connected_time":1059000000000,"state":"active","ping":94},{"user_id":564,"name":"Young-OG","steam_id":76561198058800479,"connected_time":5586000000000,"state":"active","ping":68},{"user_id":561,"name":"Botan VEVO","steam_id":76561198282424652,"connected_time":5919000000000,"state":"active","ping":67},{"user_id":608,"name":"Leem-u","steam_id":76561198069735882,"connected_time":1378000000000,"state":"active","ping":83},{"user_id":620,"name":"30-50 feral hogs","steam_id":76561198073587145,"connected_time":558000000000,"state":"active","ping":105}]},{"server_id":108,"name":"Uncletopia | Dallas | 2 | All Maps","name_short":"dal-2","host":"dal-1.us.uncletopia.com","port":27025,"enabled":true,"region":"us-central","cc":"us","latitude":32.779167,"longitude":-96.80889,"reserved":0,"last_update":"0001-01-01T00:00:00Z","name_a2s":"Uncletopia | Dallas | 2 | All Maps","protocol":17,"map":"pl_swiftwater_final1","folder":"tf","game":"Team Fortress","app_id":440,"player_count":24,"max_players":24,"Bots":0,"server_type":"Dedicated","server_os":"Linux","password":true,"vac":true,"version":"7961495","steam_id":85568392924469988,"keywords":["nocrits","nodmgspread","payload","uncletopia"],"game_id":440,"stv_port":27026,"stv_name":"Uncletopia | Dallas | 2 | All Maps | STV","players":[{"user_id":628,"name":"scrundlebundle","steam_id":76561199209883822,"connected_time":180000000000,"state":"active","ping":100},{"user_id":557,"name":"Certified Hood Classic","steam_id":76561199086159354,"connected_time":5272000000000,"state":"active","ping":56},{"user_id":622,"name":"KIKI CURBSTOMP","steam_id":76561198262064871,"connected_time":336000000000,"state":"active","ping":75},{"user_id":624,"name":"sugoiboi48","steam_id":76561198060056280,"connected_time":291000000000,"state":"active","ping":55},{"user_id":614,"name":"Decuplets","steam_id":76561198080661586,"connected_time":913000000000,"state":"active","ping":109},{"user_id":619,"name":"Shaqdaddylong","steam_id":76561198987222560,"connected_time":567000000000,"state":"active","ping":63},{"user_id":625,"name":"StudioMania (#SAVETF2)","steam_id":76561198211315795,"connected_time":280000000000,"state":"active","ping":73},{"user_id":630,"name":"Not a Can","steam_id":76561198064264767,"connected_time":126000000000,"state":"active","ping":72},{"user_id":606,"name":"Chicago Shoplifter","steam_id":76561197986530028,"connected_time":1352000000000,"state":"active","ping":92},{"user_id":561,"name":"La()VaJ()86","steam_id":76561198247547042,"connected_time":5023000000000,"state":"active","ping":92},{"user_id":582,"name":"V. G. Sunderland","steam_id":76561198161839980,"connected_time":3887000000000,"state":"active","ping":89},{"user_id":583,"name":"uncletopia dallas 2 player","steam_id":76561198412786186,"connected_time":3884000000000,"state":"active","ping":48},{"user_id":590,"name":"room temp IQ","steam_id":76561198018724712,"connected_time":3002000000000,"state":"active","ping":35},{"user_id":616,"name":"Dragon fish","steam_id":76561199186671167,"connected_time":829000000000,"state":"active","ping":125},{"user_id":626,"name":"Pyro The Penguin","steam_id":76561198313121178,"connected_time":276000000000,"state":"active","ping":92},{"user_id":602,"name":"rAnch","steam_id":76561198024562587,"connected_time":1385000000000,"state":"active","ping":35},{"user_id":535,"name":"Fentanyl Frank","steam_id":76561198225910596,"connected_time":7028000000000,"state":"active","ping":60},{"user_id":612,"name":"bcizzo","steam_id":76561197994399953,"connected_time":1019000000000,"state":"active","ping":95},{"user_id":620,"name":"Smug","steam_id":76561198448205229,"connected_time":548000000000,"state":"active","ping":76},{"user_id":621,"name":"Rex","steam_id":76561198178843938,"connected_time":379000000000,"state":"active","ping":55},{"user_id":629,"name":"Almonicus","steam_id":76561198044401351,"connected_time":167000000000,"state":"active","ping":85},{"user_id":627,"name":"󠀡󠀡","steam_id":76561198348035053,"connected_time":268000000000,"state":"active","ping":125},{"user_id":585,"name":"penzfan","steam_id":76561198230422640,"connected_time":3855000000000,"state":"active","ping":69},{"user_id":617,"name":"the_spaceman","steam_id":76561197997653730,"connected_time":814000000000,"state":"active","ping":74}]},{"server_id":404,"name":"Uncletopia | Dallas | 3 | All Maps","name_short":"dal-3","host":"dal-1.us.uncletopia.com","port":27035,"enabled":true,"region":"us-central","cc":"us","latitude":32.779167,"longitude":-96.80889,"reserved":0,"last_update":"0001-01-01T00:00:00Z","name_a2s":"Uncletopia | Dallas | 3 | All Maps","protocol":17,"map":"pl_snowycoast","folder":"tf","game":"Team Fortress","app_id":440,"player_count":0,"max_players":24,"Bots":0,"server_type":"Dedicated","server_os":"Linux","password":true,"vac":true,"version":"7961495","steam_id":85568392924515219,"keywords":["nocrits","nodmgspread","payload","uncletopia"],"game_id":440,"stv_port":27036,"stv_name":"Uncletopia | Dallas | 3 | All Maps | STV","players":null},{"server_id":405,"name":"Uncletopia | Dallas | 4 | Community","name_short":"dal-4","host":"dal-1.us.uncletopia.com","port":27045,"enabled":true,"region":"us-central","cc":"us","latitude":32.779167,"longitude":-96.80889,"reserved":0,"last_update":"0001-01-01T00:00:00Z","name_a2s":"Uncletopia | Dallas | 4 | Community","protocol":17,"map":"workshop/koth_ramjam_rc1.ugc459778887","folder":"tf","game":"Team Fortress","app_id":440,"player_count":0,"max_players":24,"Bots":0,"server_type":"Dedicated","server_os":"Linux","password":true,"vac":true,"version":"7961495","steam_id":85568392924515220,"keywords":["cp","nocrits","nodmgspread","uncletopia"],"game_id":440,"stv_port":27046,"stv_name":"Uncletopia | Dallas | 4 | Community | STV","players":null},{"server_id":5,"name":"Uncletopia | Frankfurt | 1 | All Maps","name_short":"frk-1","host":"frk-1.de.uncletopia.com","port":27015,"enabled":true,"region":"eu","cc":"de","latitude":50.110924,"longitude":8.682127,"reserved":0,"last_update":"0001-01-01T00:00:00Z","name_a2s":"Uncletopia | Frankfurt | 1 | All Maps","protocol":17,"map":"pl_pier","folder":"tf","game":"Team Fortress","app_id":440,"player_count":0,"max_players":24,"Bots":0,"server_type":"Dedicated","server_os":"Linux","password":true,"vac":true,"version":"7961495","steam_id":85568392924469989,"keywords":["nocrits","nodmgspread","payload","uncletopia"],"game_id":440,"stv_port":27016,"stv_name":"Uncletopia | Frankfurt | 1 | All Maps | STV","players":null},{"server_id":110,"name":"Uncletopia | Frankfurt | 2 | All Maps","name_short":"frk-2","host":"frk-1.de.uncletopia.com","port":27025,"enabled":true,"region":"eu","cc":"de","latitude":50.110924,"longitude":8.682127,"reserved":0,"last_update":"0001-01-01T00:00:00Z","name_a2s":"Uncletopia | Frankfurt | 2 | All Maps","protocol":17,"map":"cp_snakewater_final1","folder":"tf","game":"Team Fortress","app_id":440,"player_count":0,"max_players":24,"Bots":0,"server_type":"Dedicated","server_os":"Linux","password":true,"vac":true,"version":"7961495","steam_id":85568392924469990,"keywords":["cp","nocrits","nodmgspread","uncletopia"],"game_id":440,"stv_port":27026,"stv_name":"Uncletopia | Frankfurt | 2 | All Maps | STV","players":null},{"server_id":308,"name":"Uncletopia | Frankfurt | 3 | All Maps","name_short":"frk-3","host":"frk-1.de.uncletopia.com","port":27035,"enabled":true,"region":"eu","cc":"de","latitude":50.110924,"longitude":8.682127,"reserved":0,"last_update":"0001-01-01T00:00:00Z","name_a2s":"Uncletopia | Frankfurt | 3 | All Maps","protocol":17,"map":"cp_dustbowl","folder":"tf","game":"Team Fortress","app_id":440,"player_count":0,"max_players":24,"Bots":0,"server_type":"Dedicated","server_os":"Linux","password":true,"vac":true,"version":"7961495","steam_id":85568392924504274,"keywords":["cp","nocrits","nodmgspread","uncletopia"],"game_id":440,"stv_port":27036,"stv_name":"Uncletopia | Frankfurt | 3 | All Maps | STV","players":null},{"server_id":309,"name":"Uncletopia | Frankfurt | 4 | All Maps","name_short":"frk-4","host":"frk-1.de.uncletopia.com","port":27045,"enabled":true,"region":"eu","cc":"de","latitude":50.110924,"longitude":8.682127,"reserved":0,"last_update":"0001-01-01T00:00:00Z","name_a2s":"Uncletopia | Frankfurt | 4 | All Maps","protocol":17,"map":"cp_altitude","folder":"tf","game":"Team Fortress","app_id":440,"player_count":0,"max_players":24,"Bots":0,"server_type":"Dedicated","server_os":"Linux","password":true,"vac":true,"version":"7961495","steam_id":85568392924504275,"keywords":["cp","nocrits","nodmgspread","uncletopia"],"game_id":440,"stv_port":27046,"stv_name":"Uncletopia | Frankfurt | 4 | All Maps | STV","players":null},{"server_id":310,"name":"Uncletopia | Frankfurt | 5 | All Maps","name_short":"frk-5","host":"frk-1.de.uncletopia.com","port":27055,"enabled":true,"region":"eu","cc":"de","latitude":50.110924,"longitude":8.682127,"reserved":0,"last_update":"0001-01-01T00:00:00Z","name_a2s":"Uncletopia | Frankfurt | 5 | All Maps","protocol":17,"map":"pl_pier","folder":"tf","game":"Team Fortress","app_id":440,"player_count":0,"max_players":24,"Bots":0,"server_type":"Dedicated","server_os":"Linux","password":true,"vac":true,"version":"7961495","steam_id":85568392924504277,"keywords":["nocrits","nodmgspread","payload","uncletopia"],"game_id":440,"stv_port":27056,"stv_name":"Uncletopia | Frankfurt | 5 | All Maps | STV","players":null},{"server_id":311,"name":"Uncletopia | Frankfurt | 6 | All Maps","name_short":"frk-6","host":"frk-1.de.uncletopia.com","port":27065,"enabled":true,"region":"eu","cc":"de","latitude":50.110924,"longitude":8.682127,"reserved":0,"last_update":"0001-01-01T00:00:00Z","name_a2s":"Uncletopia | Frankfurt | 6 | All Maps","protocol":17,"map":"koth_cascade","folder":"tf","game":"Team Fortress","app_id":440,"player_count":0,"max_players":24,"Bots":0,"server_type":"Dedicated","server_os":"Linux","password":true,"vac":true,"version":"7961495","steam_id":85568392924504278,"keywords":["cp","nocrits","nodmgspread","uncletopia"],"game_id":440,"stv_port":27066,"stv_name":"Uncletopia | Frankfurt | 6 | All Maps | STV","players":null},{"server_id":23,"name":"Uncletopia | Frankfurt | 7 | Stopwatch","name_short":"frk-7","host":"frk-1.de.uncletopia.com","port":27075,"enabled":true,"region":"eu","cc":"de","latitude":50.110924,"longitude":8.682127,"reserved":0,"last_update":"0001-01-01T00:00:00Z","name_a2s":"Uncletopia | Frankfurt | 7 | Stopwatch","protocol":17,"map":"pl_borneo","folder":"tf","game":"Team Fortress","app_id":440,"player_count":0,"max_players":24,"Bots":0,"server_type":"Dedicated","server_os":"Linux","password":true,"vac":true,"version":"7961495","steam_id":85568392924742827,"keywords":["nocrits","nodmgspread","payload","uncletopia"],"game_id":440,"stv_port":27076,"stv_name":"Uncletopia | Frankfurt | 7 | Stopwatch | STV","players":null},{"server_id":24,"name":"Uncletopia | Frankfurt | 8 | Community","name_short":"frk-8","host":"frk-1.de.uncletopia.com","port":27085,"enabled":true,"region":"eu","cc":"de","latitude":50.110924,"longitude":8.682127,"reserved":0,"last_update":"0001-01-01T00:00:00Z","name_a2s":"Uncletopia | Frankfurt | 8 | Community","protocol":17,"map":"workshop/cp_fulgur_rc2a.ugc2068252300","folder":"tf","game":"Team Fortress","app_id":440,"player_count":0,"max_players":24,"Bots":0,"server_type":"Dedicated","server_os":"Linux","password":true,"vac":true,"version":"7961495","steam_id":85568392924742828,"keywords":["cp","nocrits","nodmgspread","uncletopia"],"game_id":440,"stv_port":27086,"stv_name":"Uncletopia | Frankfurt | 8 | Community | STV","players":null},{"server_id":202,"name":"Uncletopia | Hong Kong | 1 | All Maps","name_short":"hgk-1","host":"hgk-1.hk.uncletopia.com","port":27015,"enabled":true,"region":"asia","cc":"hk","latitude":22.302711,"longitude":114.177216,"reserved":0,"last_update":"0001-01-01T00:00:00Z","name_a2s":"Uncletopia | Hong Kong | 1 | All Maps","protocol":17,"map":"cp_altitude","folder":"tf","game":"Team Fortress","app_id":440,"player_count":0,"max_players":24,"Bots":0,"server_type":"Dedicated","server_os":"Linux","password":true,"vac":true,"version":"7961495","steam_id":85568392924494504,"keywords":["cp","nocrits","nodmgspread","uncletopia"],"game_id":440,"stv_port":27016,"stv_name":"Uncletopia | Hong Kong | 1 | All Maps | STV","players":null},{"server_id":1,"name":"Uncletopia | Los Angeles | 1 | All Maps","name_short":"lax-1","host":"lax-1.us.uncletopia.com","port":27015,"enabled":true,"region":"us-west","cc":"us","latitude":33.94279,"longitude":-118.41004,"reserved":0,"last_update":"0001-01-01T00:00:00Z","name_a2s":"Uncletopia | Los Angeles | 1 | All Maps","protocol":17,"map":"ctf_sawmill","folder":"tf","game":"Team Fortress","app_id":440,"player_count":24,"max_players":24,"Bots":0,"server_type":"Dedicated","server_os":"Linux","password":true,"vac":true,"version":"7961495","steam_id":85568392924469991,"keywords":["ctf","nocrits","nodmgspread","uncletopia"],"game_id":440,"stv_port":27016,"stv_name":"Uncletopia | Los Angeles | 1 | All Maps | STV","players":[{"user_id":243,"name":"johnny","steam_id":76561198050225055,"connected_time":523000000000,"state":"active","ping":44},{"user_id":139,"name":"The Wind","steam_id":76561198813568533,"connected_time":1782000000000,"state":"active","ping":63},{"user_id":125,"name":"Camrione","steam_id":76561198085405219,"connected_time":1866000000000,"state":"active","ping":57},{"user_id":244,"name":"Medic GF","steam_id":76561198400531556,"connected_time":492000000000,"state":"active","ping":100},{"user_id":130,"name":"Jetty","steam_id":76561198004885583,"connected_time":1837000000000,"state":"active","ping":117},{"user_id":80,"name":"Ice cream sandwich","steam_id":76561198172748357,"connected_time":4221000000000,"state":"active","ping":67},{"user_id":145,"name":"High quality products87345","steam_id":76561198206506481,"connected_time":1754000000000,"state":"active","ping":45},{"user_id":250,"name":"Sgt. Screwball","steam_id":76561198307963570,"connected_time":99000000000,"state":"active","ping":74},{"user_id":249,"name":"Seshreb","steam_id":76561198846614634,"connected_time":150000000000,"state":"active","ping":58},{"user_id":140,"name":"Schmupp","steam_id":76561198150928115,"connected_time":1780000000000,"state":"active","ping":41},{"user_id":90,"name":"A_Toaster","steam_id":76561198946997549,"connected_time":3600000000000,"state":"active","ping":118},{"user_id":236,"name":"Mexican Hippo","steam_id":76561199133475495,"connected_time":1097000000000,"state":"active","ping":86},{"user_id":209,"name":"Petunia","steam_id":76561198170066851,"connected_time":1329000000000,"state":"active","ping":88},{"user_id":246,"name":"Ethanol Buttchugger","steam_id":76561199127590316,"connected_time":369000000000,"state":"active","ping":57},{"user_id":253,"name":"SanitysEdge","steam_id":76561198130732813,"connected_time":7000000000,"state":"active","ping":135},{"user_id":241,"name":"Stickson","steam_id":76561198807373255,"connected_time":842000000000,"state":"active","ping":50},{"user_id":88,"name":"Windows Vista Home Premium","steam_id":76561198043764863,"connected_time":3657000000000,"state":"active","ping":53},{"user_id":190,"name":"GoldtoothFour","steam_id":76561198055529332,"connected_time":1496000000000,"state":"active","ping":104},{"user_id":251,"name":"buhn","steam_id":76561198106117196,"connected_time":76000000000,"state":"active","ping":48},{"user_id":162,"name":"Mr.Rainbow","steam_id":76561198345856068,"connected_time":1648000000000,"state":"active","ping":68},{"user_id":248,"name":"SirButtKiss","steam_id":76561198079624137,"connected_time":345000000000,"state":"active","ping":103},{"user_id":226,"name":"Boone","steam_id":76561198398931575,"connected_time":1305000000000,"state":"active","ping":72},{"user_id":252,"name":"the pizza","steam_id":76561198221331476,"connected_time":26000000000,"state":"active","ping":47},{"user_id":176,"name":"Kazoo","steam_id":76561199229748300,"connected_time":1576000000000,"state":"active","ping":58}]},{"server_id":112,"name":"Uncletopia | Los Angeles | 2 | All Maps","name_short":"lax-2","host":"lax-1.us.uncletopia.com","port":27025,"enabled":true,"region":"us-west","cc":"us","latitude":33.94279,"longitude":-118.41004,"reserved":0,"last_update":"0001-01-01T00:00:00Z","name_a2s":"Uncletopia | Los Angeles | 2 | All Maps","protocol":17,"map":"koth_highpass","folder":"tf","game":"Team Fortress","app_id":440,"player_count":0,"max_players":24,"Bots":0,"server_type":"Dedicated","server_os":"Linux","password":true,"vac":true,"version":"7961495","steam_id":85568392924469992,"keywords":["cp","nocrits","nodmgspread","uncletopia"],"game_id":440,"stv_port":27026,"stv_name":"Uncletopia | Los Angeles | 2 | All Maps | STV","players":null},{"server_id":324,"name":"Uncletopia | Los Angeles | 3 | All Maps","name_short":"lax-3","host":"lax-1.us.uncletopia.com","port":27035,"enabled":true,"region":"us-west","cc":"us","latitude":33.94279,"longitude":-118.41004,"reserved":0,"last_update":"0001-01-01T00:00:00Z","name_a2s":"Uncletopia | Los Angeles | 3 | All Maps","protocol":17,"map":"pl_barnblitz","folder":"tf","game":"Team Fortress","app_id":440,"player_count":24,"max_players":24,"Bots":0,"server_type":"Dedicated","server_os":"Linux","password":true,"vac":true,"version":"7961495","steam_id":85568392924510198,"keywords":["nocrits","nodmgspread","payload","uncletopia"],"game_id":440,"stv_port":27036,"stv_name":"Uncletopia | Los Angeles | 3 | All Maps | STV","players":[{"user_id":275,"name":"video game","steam_id":76561198067035501,"connected_time":5153000000000,"state":"active","ping":43},{"user_id":382,"name":"buddhapest","steam_id":76561197960539410,"connected_time":243000000000,"state":"active","ping":60},{"user_id":309,"name":"Castiel","steam_id":76561198116343956,"connected_time":3210000000000,"state":"active","ping":66},{"user_id":359,"name":"Eden","steam_id":76561198081284664,"connected_time":1505000000000,"state":"active","ping":55},{"user_id":325,"name":"zogs","steam_id":76561198323491654,"connected_time":2845000000000,"state":"active","ping":64},{"user_id":358,"name":"rat","steam_id":76561198130412963,"connected_time":1522000000000,"state":"active","ping":84},{"user_id":312,"name":"Bluedemon","steam_id":76561199212058684,"connected_time":3117000000000,"state":"active","ping":56},{"user_id":360,"name":"ToastedScum","steam_id":76561198302990478,"connected_time":1486000000000,"state":"active","ping":45},{"user_id":371,"name":"nella","steam_id":76561198079349621,"connected_time":563000000000,"state":"active","ping":48},{"user_id":334,"name":"ylek","steam_id":76561198811561721,"connected_time":2209000000000,"state":"active","ping":59},{"user_id":374,"name":"profile name","steam_id":76561198334059206,"connected_time":406000000000,"state":"active","ping":52},{"user_id":361,"name":"ZombieSlayer77","steam_id":76561199023974356,"connected_time":1447000000000,"state":"active","ping":114},{"user_id":369,"name":"jdm","steam_id":76561199497603020,"connected_time":865000000000,"state":"active","ping":45},{"user_id":316,"name":"Dongus","steam_id":76561197979056451,"connected_time":3094000000000,"state":"active","ping":79},{"user_id":378,"name":"flarifier","steam_id":76561198315072848,"connected_time":315000000000,"state":"active","ping":151},{"user_id":376,"name":"Howie’s friend Neil","steam_id":76561199090047549,"connected_time":358000000000,"state":"active","ping":55},{"user_id":365,"name":"Schnitz","steam_id":76561198265484253,"connected_time":1264000000000,"state":"active","ping":57},{"user_id":351,"name":"eatmysteel","steam_id":76561198976437527,"connected_time":1655000000000,"state":"active","ping":111},{"user_id":349,"name":"Goop Toast","steam_id":76561199502523624,"connected_time":1799000000000,"state":"active","ping":114},{"user_id":380,"name":"★★thastephen★★","steam_id":76561198080289775,"connected_time":309000000000,"state":"active","ping":69},{"user_id":322,"name":"Always Here for You","steam_id":76561198219252313,"connected_time":2918000000000,"state":"active","ping":117},{"user_id":340,"name":"Dr. Medicine","steam_id":76561198165309820,"connected_time":2142000000000,"state":"active","ping":114},{"user_id":379,"name":"Sad Sapling","steam_id":76561198075612150,"connected_time":311000000000,"state":"active","ping":59},{"user_id":386,"name":"wormie","steam_id":76561199486473985,"connected_time":171000000000,"state":"active","ping":67}]},{"server_id":25,"name":"Uncletopia | Los Angeles | 4 | Stopwatch","name_short":"lax-4","host":"lax-1.us.uncletopia.com","port":27045,"enabled":true,"region":"us-west","cc":"us","latitude":33.94279,"longitude":-118.41004,"reserved":0,"last_update":"0001-01-01T00:00:00Z","name_a2s":"Uncletopia | Los Angeles | 4 | Stopwatch","protocol":17,"map":"workshop/koth_ashville_final.ugc2130459942","folder":"tf","game":"Team Fortress","app_id":440,"player_count":0,"max_players":24,"Bots":0,"server_type":"Dedicated","server_os":"Linux","password":true,"vac":true,"version":"7961495","steam_id":85568392924510199,"keywords":["cp","nocrits","nodmgspread","uncletopia"],"game_id":440,"stv_port":27046,"stv_name":"Uncletopia | Los Angeles | 4 | Stopwatch | STV","players":null},{"server_id":11,"name":"Uncletopia | London | 1 | All Maps","name_short":"lon-1","host":"lon-1.uk.uncletopia.com","port":27015,"enabled":true,"region":"eu","cc":"gb","latitude":51.509865,"longitude":-0.118092,"reserved":0,"last_update":"0001-01-01T00:00:00Z","name_a2s":"Uncletopia | London | 1 | All Maps","protocol":17,"map":"pl_swiftwater_final1","folder":"tf","game":"Team Fortress","app_id":440,"player_count":17,"max_players":24,"Bots":0,"server_type":"Dedicated","server_os":"Linux","password":true,"vac":true,"version":"7961495","steam_id":85568392924367362,"keywords":["nocrits","nodmgspread","payload","uncletopia"],"game_id":440,"stv_port":27016,"stv_name":"Uncletopia | London | 1 | All Maps | STV","players":[{"user_id":692,"name":"green spy","steam_id":76561198080064268,"connected_time":2496000000000,"state":"active","ping":55},{"user_id":716,"name":"jjkun786","steam_id":76561199438517484,"connected_time":105000000000,"state":"active","ping":69},{"user_id":711,"name":"NotChloe","steam_id":76561198080658092,"connected_time":605000000000,"state":"active","ping":57},{"user_id":504,"name":"gibb (official)","steam_id":76561198074097655,"connected_time":15531000000000,"state":"active","ping":67},{"user_id":717,"name":"Kleiner's final Form","steam_id":76561198121365983,"connected_time":22000000000,"state":"active","ping":54},{"user_id":712,"name":"Jack \"Hee Ho\" Frost","steam_id":76561198353395198,"connected_time":573000000000,"state":"active","ping":146},{"user_id":690,"name":"Luciat","steam_id":76561198114216087,"connected_time":2958000000000,"state":"active","ping":43},{"user_id":708,"name":"Eminem, Co_Founder Of Gormiti","steam_id":76561198194630601,"connected_time":1213000000000,"state":"active","ping":71},{"user_id":479,"name":"shooer!","steam_id":76561198110531281,"connected_time":19609000000000,"state":"active","ping":69},{"user_id":688,"name":"Glitch","steam_id":76561198801335846,"connected_time":3220000000000,"state":"active","ping":34},{"user_id":700,"name":"Zerosiini","steam_id":76561198113771976,"connected_time":2048000000000,"state":"active","ping":71},{"user_id":710,"name":"FurbyZone","steam_id":76561198268344503,"connected_time":934000000000,"state":"active","ping":49},{"user_id":680,"name":"Minty","steam_id":76561198068729748,"connected_time":3636000000000,"state":"active","ping":69},{"user_id":715,"name":"what can swim? a little stone","steam_id":76561198123131045,"connected_time":335000000000,"state":"active","ping":71},{"user_id":674,"name":"Respec Wamen","steam_id":76561198444504263,"connected_time":4062000000000,"state":"active","ping":58},{"user_id":676,"name":"Declining Sanity Gaming (real)","steam_id":76561199118797744,"connected_time":3900000000000,"state":"active","ping":62},{"user_id":714,"name":"geroxe cruo","steam_id":76561199480942903,"connected_time":457000000000,"state":"active","ping":75}]},{"server_id":114,"name":"Uncletopia | London | 2 | All Maps","name_short":"lon-2","host":"lon-1.uk.uncletopia.com","port":27025,"enabled":true,"region":"eu","cc":"gb","latitude":51.509865,"longitude":-0.118092,"reserved":0,"last_update":"0001-01-01T00:00:00Z","name_a2s":"Uncletopia | London | 2 | All Maps","protocol":17,"map":"koth_cascade","folder":"tf","game":"Team Fortress","app_id":440,"player_count":0,"max_players":24,"Bots":0,"server_type":"Dedicated","server_os":"Linux","password":true,"vac":true,"version":"7961495","steam_id":85568392924470941,"keywords":["cp","nocrits","nodmgspread","uncletopia"],"game_id":440,"stv_port":27026,"stv_name":"Uncletopia | London | 2 | All Maps | STV","players":null},{"server_id":320,"name":"Uncletopia | London | 3 | All Maps","name_short":"lon-3","host":"lon-1.uk.uncletopia.com","port":27035,"enabled":true,"region":"eu","cc":"gb","latitude":51.509865,"longitude":-0.118092,"reserved":0,"last_update":"0001-01-01T00:00:00Z","name_a2s":"Uncletopia | London | 3 | All Maps","protocol":17,"map":"pl_badwater","folder":"tf","game":"Team Fortress","app_id":440,"player_count":0,"max_players":24,"Bots":0,"server_type":"Dedicated","server_os":"Linux","password":true,"vac":true,"version":"7961495","steam_id":85568392924510192,"keywords":["nocrits","nodmgspread","payload","uncletopia"],"game_id":440,"stv_port":27036,"stv_name":"Uncletopia | London | 3 | All Maps | STV","players":null},{"server_id":321,"name":"Uncletopia | London | 4 | All Maps","name_short":"lon-4","host":"lon-1.uk.uncletopia.com","port":27045,"enabled":true,"region":"eu","cc":"gb","latitude":51.509865,"longitude":-0.118092,"reserved":0,"last_update":"0001-01-01T00:00:00Z","name_a2s":"Uncletopia | London | 4 | All Maps","protocol":17,"map":"cp_sunshine","folder":"tf","game":"Team Fortress","app_id":440,"player_count":24,"max_players":24,"Bots":0,"server_type":"Dedicated","server_os":"Linux","password":true,"vac":true,"version":"7961495","steam_id":85568392924510193,"keywords":["cp","nocrits","nodmgspread","uncletopia"],"game_id":440,"stv_port":27046,"stv_name":"Uncletopia | London | 4 | All Maps | STV","players":[{"user_id":685,"name":"EpicShot","steam_id":76561197962680270,"connected_time":1067000000000,"state":"active","ping":71},{"user_id":689,"name":"nug","steam_id":76561198055396568,"connected_time":435000000000,"state":"active","ping":59},{"user_id":703,"name":"Draco","steam_id":76561198031226933,"connected_time":408000000000,"state":"active","ping":47},{"user_id":677,"name":"yuno appreciator","steam_id":76561198083286511,"connected_time":1603000000000,"state":"active","ping":34},{"user_id":678,"name":"Huell","steam_id":76561198244062348,"connected_time":1595000000000,"state":"active","ping":69},{"user_id":704,"name":"GunpowderGarry33","steam_id":76561198871691306,"connected_time":368000000000,"state":"active","ping":89},{"user_id":688,"name":"K","steam_id":76561198144604444,"connected_time":614000000000,"state":"active","ping":59},{"user_id":639,"name":"Vix The Vulpix","steam_id":76561198292181452,"connected_time":5643000000000,"state":"active","ping":154},{"user_id":672,"name":"Dozer","steam_id":76561197998742338,"connected_time":2442000000000,"state":"active","ping":60},{"user_id":683,"name":"Rick Makakezzz","steam_id":76561198057495653,"connected_time":1274000000000,"state":"active","ping":78},{"user_id":673,"name":"name","steam_id":76561198295154779,"connected_time":1935000000000,"state":"active","ping":58},{"user_id":679,"name":"IceDreamer","steam_id":76561197997569989,"connected_time":1586000000000,"state":"active","ping":39},{"user_id":675,"name":"is it your crocodile?","steam_id":76561198346638308,"connected_time":1629000000000,"state":"active","ping":50},{"user_id":705,"name":"Chocolate kiwi popsicles","steam_id":76561198062674388,"connected_time":286000000000,"state":"active","ping":71},{"user_id":681,"name":"kkk [AI]","steam_id":76561198117319649,"connected_time":1507000000000,"state":"active","ping":134},{"user_id":622,"name":"Reljadin","steam_id":76561198054997553,"connected_time":6396000000000,"state":"active","ping":86},{"user_id":684,"name":"Scrooge Mc Clunk","steam_id":76561198885945084,"connected_time":1110000000000,"state":"active","ping":70},{"user_id":706,"name":"Furian","steam_id":76561198131378027,"connected_time":196000000000,"state":"active","ping":150},{"user_id":687,"name":"❤","steam_id":76561198304902462,"connected_time":1024000000000,"state":"active","ping":46},{"user_id":707,"name":"Visphiric","steam_id":76561198071938027,"connected_time":150000000000,"state":"active","ping":36},{"user_id":708,"name":"Sleggie","steam_id":76561198027878872,"connected_time":69000000000,"state":"active","ping":125},{"user_id":656,"name":"Lyncurion","steam_id":76561199260022725,"connected_time":3541000000000,"state":"active","ping":85},{"user_id":657,"name":"❤Speedbump❤","steam_id":76561198388690313,"connected_time":3541000000000,"state":"active","ping":73},{"user_id":669,"name":"skam","steam_id":76561198393181352,"connected_time":2812000000000,"state":"active","ping":84}]},{"server_id":21,"name":"Uncletopia | London | 5 | All Maps","name_short":"lon-5","host":"lon-1.uk.uncletopia.com","port":27055,"enabled":true,"region":"eu","cc":"gb","latitude":51.509865,"longitude":-0.118092,"reserved":0,"last_update":"0001-01-01T00:00:00Z","name_a2s":"Uncletopia | London | 5 | All Maps","protocol":17,"map":"koth_lakeside_final","folder":"tf","game":"Team Fortress","app_id":440,"player_count":0,"max_players":24,"Bots":0,"server_type":"Dedicated","server_os":"Linux","password":true,"vac":true,"version":"7961495","steam_id":85568392924742829,"keywords":["cp","nocrits","nodmgspread","uncletopia"],"game_id":440,"stv_port":27056,"stv_name":"Uncletopia | London | 5 | All Maps | STV","players":null},{"server_id":22,"name":"Uncletopia | London | 6 | All Maps","name_short":"lon-6","host":"lon-1.uk.uncletopia.com","port":27065,"enabled":true,"region":"eu","cc":"gb","latitude":51.509865,"longitude":-0.118092,"reserved":0,"last_update":"0001-01-01T00:00:00Z","name_a2s":"Uncletopia | London | 6 | All Maps","protocol":17,"map":"cp_snakewater_final1","folder":"tf","game":"Team Fortress","app_id":440,"player_count":0,"max_players":24,"Bots":0,"server_type":"Dedicated","server_os":"Linux","password":true,"vac":true,"version":"7961495","steam_id":85568392924742830,"keywords":["cp","nocrits","nodmgspread","uncletopia"],"game_id":440,"stv_port":27066,"stv_name":"Uncletopia | London | 6 | All Maps | STV","players":null},{"server_id":40,"name":"Uncletopia | London | 7 | Stopwatch","name_short":"lon-7","host":"lon-1.uk.uncletopia.com","port":27075,"enabled":true,"region":"eu","cc":"gb","latitude":51.509865,"longitude":-0.118092,"reserved":0,"last_update":"0001-01-01T00:00:00Z","name_a2s":"Uncletopia | London | 7 | Stopwatch","protocol":17,"map":"workshop/koth_ramjam_rc1.ugc459778887","folder":"tf","game":"Team Fortress","app_id":440,"player_count":0,"max_players":24,"Bots":0,"server_type":"Dedicated","server_os":"Linux","password":true,"vac":true,"version":"7961495","steam_id":85568392924964314,"keywords":["cp","nocrits","nodmgspread","uncletopia"],"game_id":440,"stv_port":27076,"stv_name":"Uncletopia | London | 7 | Stopwatch | STV","players":null},{"server_id":41,"name":"Uncletopia | London | 8 | Community","name_short":"lon-8","host":"lon-1.uk.uncletopia.com","port":27085,"enabled":true,"region":"eu","cc":"gb","latitude":51.509865,"longitude":-0.118092,"reserved":0,"last_update":"0001-01-01T00:00:00Z","name_a2s":"Uncletopia | London | 8 | Community","protocol":17,"map":"workshop/cp_reckoner_rc6.ugc674719999","folder":"tf","game":"Team Fortress","app_id":440,"player_count":0,"max_players":24,"Bots":0,"server_type":"Dedicated","server_os":"Linux","password":true,"vac":true,"version":"7961495","steam_id":85568392924964315,"keywords":["cp","nocrits","nodmgspread","uncletopia"],"game_id":440,"stv_port":27086,"stv_name":"Uncletopia | London | 8 | Community | STV","players":null},{"server_id":300,"name":"Uncletopia | Montréal | 1 | One Thousand Uncles","name_short":"mtl-1","host":"mtl-1.ca.uncletopia.com","port":27015,"enabled":true,"region":"us-east","cc":"ca","latitude":45.50889,"longitude":-73.56167,"reserved":0,"last_update":"0001-01-01T00:00:00Z","name_a2s":"","protocol":0,"map":"","folder":"","game":"","app_id":0,"player_count":5,"max_players":0,"Bots":0,"server_type":"","server_os":"","password":false,"vac":false,"version":"","steam_id":0,"keywords":null,"game_id":0,"stv_port":0,"stv_name":"","players":[{"user_id":78,"name":"Fishmonger","steam_id":76561198372237027,"connected_time":4000000000,"state":"spawning","ping":103},{"user_id":63,"name":"KnightMan","steam_id":76561198143531192,"connected_time":4743000000000,"state":"active","ping":83},{"user_id":76,"name":"wahwah","steam_id":76561199433052784,"connected_time":1550000000000,"state":"active","ping":91},{"user_id":71,"name":"Pfc. S. Hell |8th ID|","steam_id":76561198039311678,"connected_time":2297000000000,"state":"active","ping":57},{"user_id":77,"name":"Smoke","steam_id":76561199485943796,"connected_time":1368000000000,"state":"active","ping":113}]},{"server_id":301,"name":"Uncletopia | Montréal | 2 | One Thousand Uncles","name_short":"mtl-2","host":"mtl-1.ca.uncletopia.com","port":27025,"enabled":true,"region":"us-east","cc":"ca","latitude":45.50889,"longitude":-73.56167,"reserved":0,"last_update":"0001-01-01T00:00:00Z","name_a2s":"","protocol":0,"map":"","folder":"","game":"","app_id":0,"player_count":0,"max_players":0,"Bots":0,"server_type":"","server_os":"","password":false,"vac":false,"version":"","steam_id":0,"keywords":null,"game_id":0,"stv_port":0,"stv_name":"","players":null},{"server_id":302,"name":"Uncletopia | Montréal | 3 | One Thousand Uncles","name_short":"mtl-3","host":"mtl-1.ca.uncletopia.com","port":27035,"enabled":true,"region":"us-east","cc":"ca","latitude":45.50889,"longitude":-73.56167,"reserved":0,"last_update":"0001-01-01T00:00:00Z","name_a2s":"","protocol":0,"map":"","folder":"","game":"","app_id":0,"player_count":0,"max_players":0,"Bots":0,"server_type":"","server_os":"","password":false,"vac":false,"version":"","steam_id":0,"keywords":null,"game_id":0,"stv_port":0,"stv_name":"","players":null},{"server_id":13,"name":"Uncletopia | New York City | 1 | All Maps","name_short":"nyc-1","host":"nyc-1.us.uncletopia.com","port":27015,"enabled":true,"region":"us-east","cc":"us","latitude":40.73061,"longitude":-73.93524,"reserved":0,"last_update":"0001-01-01T00:00:00Z","name_a2s":"Uncletopia | New York City | 1 | All Maps","protocol":17,"map":"pl_pier","folder":"tf","game":"Team Fortress","app_id":440,"player_count":24,"max_players":24,"Bots":0,"server_type":"Dedicated","server_os":"Linux","password":true,"vac":true,"version":"7961495","steam_id":85568392924469993,"keywords":["nocrits","nodmgspread","payload","uncletopia"],"game_id":440,"stv_port":27016,"stv_name":"Uncletopia | New York City | 1 | All Maps | STV","players":[{"user_id":664,"name":"Magnet Dood","steam_id":76561198364178746,"connected_time":1337000000000,"state":"active","ping":83},{"user_id":674,"name":"ʏᴜᴊɪ","steam_id":76561198401572620,"connected_time":1013000000000,"state":"active","ping":71},{"user_id":654,"name":"Sir Quacksalot","steam_id":76561198048942777,"connected_time":2096000000000,"state":"active","ping":100},{"user_id":656,"name":"Braamklauw","steam_id":76561198283287697,"connected_time":2020000000000,"state":"active","ping":145},{"user_id":665,"name":"ndvr","steam_id":76561199379200102,"connected_time":1312000000000,"state":"active","ping":53},{"user_id":630,"name":"on that zaza?","steam_id":76561198038713198,"connected_time":3605000000000,"state":"active","ping":49},{"user_id":676,"name":"space man","steam_id":76561198066333670,"connected_time":639000000000,"state":"active","ping":56},{"user_id":604,"name":"RyFy","steam_id":76561198995124760,"connected_time":5505000000000,"state":"active","ping":74},{"user_id":661,"name":"Plunderphonic","steam_id":76561198062565784,"connected_time":1819000000000,"state":"active","ping":77},{"user_id":669,"name":"Pasta La Vista","steam_id":76561198129450033,"connected_time":1206000000000,"state":"active","ping":41},{"user_id":650,"name":"Grishlock","steam_id":76561198000366744,"connected_time":2459000000000,"state":"active","ping":135},{"user_id":663,"name":"Relare","steam_id":76561198004059718,"connected_time":1470000000000,"state":"active","ping":85},{"user_id":619,"name":"Emberdened","steam_id":76561199163688421,"connected_time":4654000000000,"state":"active","ping":104},{"user_id":622,"name":"smalFox","steam_id":76561198041243017,"connected_time":4528000000000,"state":"active","ping":83},{"user_id":652,"name":"SNEPPY","steam_id":76561198065040243,"connected_time":2445000000000,"state":"active","ping":48},{"user_id":635,"name":"Mr.Kingboo","steam_id":76561198141543180,"connected_time":3429000000000,"state":"active","ping":61},{"user_id":608,"name":"gagobears","steam_id":76561198086008437,"connected_time":5487000000000,"state":"active","ping":90},{"user_id":600,"name":"Tablaro","steam_id":76561198076915673,"connected_time":5619000000000,"state":"active","ping":58},{"user_id":647,"name":"Windup Monkey in a Human Suit","steam_id":76561198119501444,"connected_time":2541000000000,"state":"active","ping":91},{"user_id":677,"name":"Vulcan","steam_id":76561198399735208,"connected_time":156000000000,"state":"active","ping":45},{"user_id":675,"name":"Mogwr","steam_id":76561198124942972,"connected_time":672000000000,"state":"active","ping":66},{"user_id":636,"name":"setmarks","steam_id":76561198053954297,"connected_time":3406000000000,"state":"active","ping":61},{"user_id":624,"name":"Bunni","steam_id":76561198065169997,"connected_time":3999000000000,"state":"active","ping":78},{"user_id":638,"name":"Markus Velafi","steam_id":76561198063193924,"connected_time":3401000000000,"state":"active","ping":66}]},{"server_id":14,"name":"Uncletopia | New York City | 2 | All Maps","name_short":"nyc-2","host":"nyc-1.us.uncletopia.com","port":27025,"enabled":true,"region":"us-east","cc":"us","latitude":40.73061,"longitude":-73.93524,"reserved":0,"last_update":"0001-01-01T00:00:00Z","name_a2s":"Uncletopia | New York City | 2 | All Maps","protocol":17,"map":"pl_upward","folder":"tf","game":"Team Fortress","app_id":440,"player_count":23,"max_players":24,"Bots":0,"server_type":"Dedicated","server_os":"Linux","password":true,"vac":true,"version":"7961495","steam_id":85568392924469994,"keywords":["nocrits","nodmgspread","payload","uncletopia"],"game_id":440,"stv_port":27026,"stv_name":"Uncletopia | New York City | 2 | All Maps | STV","players":[{"user_id":489,"name":"LittleLeaf","steam_id":76561198047925893,"connected_time":3091000000000,"state":"active","ping":66},{"user_id":545,"name":"Shrebbie","steam_id":76561198875230824,"connected_time":441000000000,"state":"active","ping":40},{"user_id":517,"name":"jolo","steam_id":76561198042831480,"connected_time":2463000000000,"state":"active","ping":78},{"user_id":490,"name":"Eiss","steam_id":76561198343183806,"connected_time":2880000000000,"state":"active","ping":65},{"user_id":533,"name":"Arrowthebest","steam_id":76561198183901409,"connected_time":675000000000,"state":"active","ping":55},{"user_id":534,"name":"comicalbanana","steam_id":76561198296310522,"connected_time":656000000000,"state":"active","ping":132},{"user_id":523,"name":"sniffmyfeetnow","steam_id":76561198009355437,"connected_time":1831000000000,"state":"active","ping":63},{"user_id":535,"name":"Mantis","steam_id":76561197964316152,"connected_time":648000000000,"state":"active","ping":104},{"user_id":537,"name":"playr","steam_id":76561198354622099,"connected_time":640000000000,"state":"active","ping":65},{"user_id":548,"name":"CraigHawksbill","steam_id":76561199000670185,"connected_time":296000000000,"state":"active","ping":109},{"user_id":532,"name":"Bran Flakes","steam_id":76561198043552741,"connected_time":739000000000,"state":"active","ping":88},{"user_id":540,"name":"OBSERVER","steam_id":76561198072996397,"connected_time":620000000000,"state":"active","ping":72},{"user_id":546,"name":"Cheeseburger","steam_id":76561198044131927,"connected_time":434000000000,"state":"active","ping":50},{"user_id":541,"name":"FumoFan","steam_id":76561199013167718,"connected_time":602000000000,"state":"active","ping":67},{"user_id":542,"name":"Ultra","steam_id":76561198257384980,"connected_time":589000000000,"state":"active","ping":105},{"user_id":543,"name":"Zephyr","steam_id":76561198063155482,"connected_time":564000000000,"state":"active","ping":82},{"user_id":507,"name":"Calamity","steam_id":76561198341345860,"connected_time":2513000000000,"state":"active","ping":74},{"user_id":549,"name":"bios","steam_id":76561198063737238,"connected_time":210000000000,"state":"active","ping":63},{"user_id":527,"name":"The Winter Medic","steam_id":76561198197112922,"connected_time":1543000000000,"state":"active","ping":65},{"user_id":530,"name":"AWGFD","steam_id":76561198100664154,"connected_time":1414000000000,"state":"active","ping":42},{"user_id":528,"name":"Dr.Nooo!!!!!!!!","steam_id":76561198064738479,"connected_time":1521000000000,"state":"active","ping":84},{"user_id":531,"name":"ncc_42","steam_id":76561198066377700,"connected_time":1370000000000,"state":"active","ping":62},{"user_id":515,"name":"yes daddy","steam_id":76561198166100997,"connected_time":2478000000000,"state":"active","ping":67}]},{"server_id":15,"name":"Uncletopia | New York City | 3 | Stopwatch","name_short":"nyc-3","host":"nyc-1.us.uncletopia.com","port":27035,"enabled":true,"region":"us-east","cc":"us","latitude":40.73061,"longitude":-73.93524,"reserved":0,"last_update":"0001-01-01T00:00:00Z","name_a2s":"Uncletopia | New York City | 3 | Stopwatch","protocol":17,"map":"workshop/koth_ashville_final.ugc2130459942","folder":"tf","game":"Team Fortress","app_id":440,"player_count":0,"max_players":24,"Bots":0,"server_type":"Dedicated","server_os":"Linux","password":true,"vac":true,"version":"7961495","steam_id":85568392924742820,"keywords":["cp","nocrits","nodmgspread","uncletopia"],"game_id":440,"stv_port":27036,"stv_name":"Uncletopia | New York City | 3 | Stopwatch | STV","players":null},{"server_id":16,"name":"Uncletopia | New York City | 4 | Community","name_short":"nyc-4","host":"nyc-1.us.uncletopia.com","port":27045,"enabled":true,"region":"us-east","cc":"us","latitude":40.73061,"longitude":-73.93524,"reserved":0,"last_update":"0001-01-01T00:00:00Z","name_a2s":"Uncletopia | New York City | 4 | Community","protocol":17,"map":"workshop/rd_asteroid_redux_b1.ugc2154902912","folder":"tf","game":"Team Fortress","app_id":440,"player_count":0,"max_players":24,"Bots":0,"server_type":"Dedicated","server_os":"Linux","password":true,"vac":true,"version":"7961495","steam_id":85568392924742821,"keywords":["beta","nocrits","nodmgspread","rd","uncletopia"],"game_id":440,"stv_port":27046,"stv_name":"Uncletopia | New York City | 4 | Community | STV","players":null},{"server_id":142,"name":"Uncletopia | São Paulo | 1 | All Maps","name_short":"sao-1","host":"sao-1.br.uncletopia.com","port":27015,"enabled":true,"region":"sa","cc":"br","latitude":-23.533773,"longitude":-46.62529,"reserved":0,"last_update":"0001-01-01T00:00:00Z","name_a2s":"Uncletopia | São Paulo | 1 | All Maps","protocol":17,"map":"koth_lakeside_final","folder":"tf","game":"Team Fortress","app_id":440,"player_count":0,"max_players":24,"Bots":0,"server_type":"Dedicated","server_os":"Linux","password":true,"vac":true,"version":"7961495","steam_id":85568392924469996,"keywords":["cp","nocrits","nodmgspread","uncletopia"],"game_id":440,"stv_port":27016,"stv_name":"Uncletopia | São Paulo | 1 | All Maps | STV","players":null},{"server_id":143,"name":"Uncletopia | São Paulo | 2 | Community","name_short":"sao-2","host":"sao-2.br.uncletopia.com","port":27015,"enabled":true,"region":"sa","cc":"br","latitude":-23.533773,"longitude":-46.62529,"reserved":0,"last_update":"0001-01-01T00:00:00Z","name_a2s":"Uncletopia | São Paulo | 2 | Community","protocol":17,"map":"workshop/koth_kemptown_rc1.ugc767410655","folder":"tf","game":"Team Fortress","app_id":440,"player_count":0,"max_players":24,"Bots":0,"server_type":"Dedicated","server_os":"Linux","password":true,"vac":true,"version":"7961495","steam_id":85568392924485349,"keywords":["cp","nocrits","nodmgspread","uncletopia"],"game_id":440,"stv_port":27016,"stv_name":"Uncletopia | São Paulo | 2 | Community | STV","players":null},{"server_id":7,"name":"Uncletopia | Seattle | 1 | All Maps","name_short":"sea-1","host":"sea-1.us.uncletopia.com","port":27015,"enabled":true,"region":"us-west","cc":"us","latitude":47.608013,"longitude":-122.33517,"reserved":0,"last_update":"0001-01-01T00:00:00Z","name_a2s":"Uncletopia | Seattle | 1 | All Maps","protocol":17,"map":"cp_sunshine","folder":"tf","game":"Team Fortress","app_id":440,"player_count":23,"max_players":24,"Bots":0,"server_type":"Dedicated","server_os":"Linux","password":true,"vac":true,"version":"7961495","steam_id":85568392924469997,"keywords":["cp","nocrits","nodmgspread","uncletopia"],"game_id":440,"stv_port":27016,"stv_name":"Uncletopia | Seattle | 1 | All Maps | STV","players":[{"user_id":514,"name":"H.A.Z.E.Y","steam_id":76561199247095754,"connected_time":649000000000,"state":"active","ping":55},{"user_id":520,"name":"Punished Jeff #NeverSimpAgain","steam_id":76561198304252584,"connected_time":567000000000,"state":"active","ping":71},{"user_id":499,"name":"Tungsten","steam_id":76561198312854342,"connected_time":2679000000000,"state":"active","ping":54},{"user_id":516,"name":"oo","steam_id":76561198119626492,"connected_time":645000000000,"state":"active","ping":103},{"user_id":519,"name":"Surfing Garchomp","steam_id":76561199107236884,"connected_time":591000000000,"state":"active","ping":54},{"user_id":518,"name":"uzr","steam_id":76561198799343084,"connected_time":632000000000,"state":"active","ping":78},{"user_id":509,"name":"Kaiga","steam_id":76561198044052046,"connected_time":1029000000000,"state":"active","ping":124},{"user_id":508,"name":"troller","steam_id":76561198395740686,"connected_time":1140000000000,"state":"active","ping":59},{"user_id":418,"name":"Corbezy","steam_id":76561197993398349,"connected_time":11518000000000,"state":"active","ping":124},{"user_id":510,"name":"MrYadaization","steam_id":76561198050770818,"connected_time":1028000000000,"state":"active","ping":52},{"user_id":310,"name":"DaddyGalaxy","steam_id":76561198139697796,"connected_time":23603000000000,"state":"active","ping":52},{"user_id":522,"name":"Sax","steam_id":76561198055425123,"connected_time":518000000000,"state":"active","ping":53},{"user_id":472,"name":"Nom Skirrett","steam_id":76561198014600788,"connected_time":5028000000000,"state":"active","ping":64},{"user_id":523,"name":"P.C. Baby","steam_id":76561198067011379,"connected_time":483000000000,"state":"active","ping":73},{"user_id":497,"name":"Hassium","steam_id":76561198162541373,"connected_time":2724000000000,"state":"active","ping":53},{"user_id":507,"name":"guy who loves eating cigarettes","steam_id":76561198094495920,"connected_time":1143000000000,"state":"active","ping":84},{"user_id":524,"name":"carcissus","steam_id":76561199253525538,"connected_time":480000000000,"state":"active","ping":62},{"user_id":525,"name":"Supersonic","steam_id":76561198042167127,"connected_time":474000000000,"state":"active","ping":52},{"user_id":496,"name":"Deathkillsme","steam_id":76561198059468746,"connected_time":2811000000000,"state":"active","ping":48},{"user_id":502,"name":"Arsonist Goose","steam_id":76561198147441830,"connected_time":2129000000000,"state":"active","ping":74},{"user_id":505,"name":"♥1TrueMAAtcha♥","steam_id":76561198105978722,"connected_time":1784000000000,"state":"active","ping":135},{"user_id":528,"name":"[TrC] Dackstrus","steam_id":76561197973518509,"connected_time":294000000000,"state":"active","ping":47},{"user_id":500,"name":"Gm_Sweet","steam_id":76561199445091548,"connected_time":2658000000000,"state":"active","ping":59}]},{"server_id":119,"name":"Uncletopia | Seattle | 2 | All Maps","name_short":"sea-2","host":"sea-1.us.uncletopia.com","port":27025,"enabled":true,"region":"us-west","cc":"us","latitude":47.608013,"longitude":-122.33517,"reserved":0,"last_update":"0001-01-01T00:00:00Z","name_a2s":"Uncletopia | Seattle | 2 | All Maps","protocol":17,"map":"cp_powerhouse","folder":"tf","game":"Team Fortress","app_id":440,"player_count":24,"max_players":24,"Bots":0,"server_type":"Dedicated","server_os":"Linux","password":true,"vac":true,"version":"7961495","steam_id":85568392924469998,"keywords":["cp","nocrits","nodmgspread","uncletopia"],"game_id":440,"stv_port":27026,"stv_name":"Uncletopia | Seattle | 2 | All Maps | STV","players":[{"user_id":460,"name":"noir","steam_id":76561198852747220,"connected_time":354000000000,"state":"active","ping":45},{"user_id":449,"name":"murfree","steam_id":76561198045335319,"connected_time":899000000000,"state":"active","ping":139},{"user_id":453,"name":"lukamine","steam_id":76561198166827208,"connected_time":811000000000,"state":"active","ping":45},{"user_id":455,"name":"Love Waffle","steam_id":76561197990077189,"connected_time":733000000000,"state":"active","ping":98},{"user_id":430,"name":"thebestman982","steam_id":76561199001698710,"connected_time":2503000000000,"state":"active","ping":75},{"user_id":392,"name":"ilun","steam_id":76561198042913843,"connected_time":5199000000000,"state":"active","ping":53},{"user_id":461,"name":"mraow","steam_id":76561199200969139,"connected_time":93000000000,"state":"active","ping":390},{"user_id":459,"name":"copperhead","steam_id":76561199054982784,"connected_time":414000000000,"state":"active","ping":125},{"user_id":403,"name":"Alchemist","steam_id":76561198094238189,"connected_time":4760000000000,"state":"active","ping":89},{"user_id":424,"name":"Sock","steam_id":76561198315420000,"connected_time":2654000000000,"state":"active","ping":119},{"user_id":457,"name":"Banette","steam_id":76561198215458333,"connected_time":596000000000,"state":"active","ping":48},{"user_id":353,"name":"a familiar cat","steam_id":76561198080046542,"connected_time":8441000000000,"state":"active","ping":47},{"user_id":433,"name":"Fast Paced Terrorism","steam_id":76561198216600608,"connected_time":2427000000000,"state":"active","ping":70},{"user_id":458,"name":"Seriously Bruh","steam_id":76561198070408485,"connected_time":590000000000,"state":"active","ping":62},{"user_id":451,"name":"Mocha Josie","steam_id":76561198066452726,"connected_time":871000000000,"state":"active","ping":72},{"user_id":442,"name":"Banana Sword","steam_id":76561199076361445,"connected_time":1455000000000,"state":"active","ping":65},{"user_id":406,"name":"BLU3","steam_id":76561198059652670,"connected_time":4241000000000,"state":"active","ping":45},{"user_id":410,"name":"ORANGE","steam_id":76561198000401769,"connected_time":4111000000000,"state":"active","ping":53},{"user_id":434,"name":"minerkid2004","steam_id":76561198044262827,"connected_time":2391000000000,"state":"active","ping":70},{"user_id":438,"name":"The Salt God","steam_id":76561198124297328,"connected_time":2237000000000,"state":"active","ping":86},{"user_id":435,"name":"The Population of Sweden","steam_id":76561198202201644,"connected_time":2305000000000,"state":"active","ping":43},{"user_id":387,"name":"pjrock101","steam_id":76561198070616561,"connected_time":5827000000000,"state":"active","ping":50},{"user_id":408,"name":"Elijah123","steam_id":76561199037648021,"connected_time":4145000000000,"state":"active","ping":134},{"user_id":452,"name":"jerma but crying and lesbian","steam_id":76561198110661425,"connected_time":834000000000,"state":"active","ping":78}]},{"server_id":406,"name":"Uncletopia | Seattle | 3 | Stopwatch","name_short":"sea-3","host":"sea-1.us.uncletopia.com","port":27035,"enabled":true,"region":"us-west","cc":"us","latitude":47.608013,"longitude":-122.33517,"reserved":0,"last_update":"0001-01-01T00:00:00Z","name_a2s":"Uncletopia | Seattle | 3 | Stopwatch","protocol":17,"map":"koth_highpass","folder":"tf","game":"Team Fortress","app_id":440,"player_count":0,"max_players":24,"Bots":0,"server_type":"Dedicated","server_os":"Linux","password":true,"vac":true,"version":"7961495","steam_id":85568392924515217,"keywords":["cp","nocrits","nodmgspread","uncletopia"],"game_id":440,"stv_port":27036,"stv_name":"Uncletopia | Seattle | 3 | Stopwatch | STV","players":null},{"server_id":17,"name":"Uncletopia | San Francisco | 1 | All Maps","name_short":"sfo-1","host":"sfo-1.us.uncletopia.com","port":27015,"enabled":true,"region":"us-west","cc":"us","latitude":37.77397,"longitude":-122.4313,"reserved":0,"last_update":"0001-01-01T00:00:00Z","name_a2s":"Uncletopia | San Francisco | 1 | All Maps","protocol":17,"map":"pl_borneo","folder":"tf","game":"Team Fortress","app_id":440,"player_count":24,"max_players":24,"Bots":0,"server_type":"Dedicated","server_os":"Linux","password":true,"vac":true,"version":"7961495","steam_id":85568392924469999,"keywords":["nocrits","nodmgspread","payload","uncletopia"],"game_id":440,"stv_port":27016,"stv_name":"Uncletopia | San Francisco | 1 | All Maps | STV","players":[{"user_id":87,"name":"Philanatidae","steam_id":76561198072652934,"connected_time":2421000000000,"state":"active","ping":83},{"user_id":109,"name":"reverie","steam_id":76561198168158637,"connected_time":355000000000,"state":"active","ping":61},{"user_id":112,"name":"Cats pretend they're smart","steam_id":76561197987182097,"connected_time":45000000000,"state":"active","ping":124},{"user_id":16,"name":"thuck","steam_id":76561198858474714,"connected_time":7150000000000,"state":"active","ping":73},{"user_id":100,"name":"Anon","steam_id":76561198109740776,"connected_time":1571000000000,"state":"active","ping":78},{"user_id":110,"name":"Livin' Like Larry","steam_id":76561198313360974,"connected_time":354000000000,"state":"active","ping":35},{"user_id":96,"name":"AAAAAAAAAAAAAAAAAAAAAAAAAAAAAAA","steam_id":76561198125467937,"connected_time":2181000000000,"state":"active","ping":60},{"user_id":85,"name":"5kPrime","steam_id":76561198039471915,"connected_time":2451000000000,"state":"active","ping":70},{"user_id":86,"name":"JACK BRUNO","steam_id":76561198027957690,"connected_time":2444000000000,"state":"active","ping":71},{"user_id":107,"name":"Drapph","steam_id":76561199384213314,"connected_time":452000000000,"state":"active","ping":110},{"user_id":103,"name":"NormanVillage","steam_id":76561198330337371,"connected_time":1352000000000,"state":"active","ping":61},{"user_id":88,"name":"Bige Rone","steam_id":76561198066718191,"connected_time":2421000000000,"state":"active","ping":64},{"user_id":91,"name":"KaosInfinite","steam_id":76561198009126350,"connected_time":2389000000000,"state":"active","ping":64},{"user_id":108,"name":"Havi","steam_id":76561198197832829,"connected_time":417000000000,"state":"active","ping":71},{"user_id":101,"name":"Bird","steam_id":76561198061274314,"connected_time":1420000000000,"state":"active","ping":117},{"user_id":75,"name":"big play","steam_id":76561198011675372,"connected_time":2796000000000,"state":"active","ping":72},{"user_id":76,"name":"the keebler","steam_id":76561199486326945,"connected_time":2789000000000,"state":"active","ping":107},{"user_id":90,"name":"KangarooCorpse","steam_id":76561198269447823,"connected_time":2415000000000,"state":"active","ping":57},{"user_id":84,"name":"GH578","steam_id":76561199493262585,"connected_time":2460000000000,"state":"active","ping":49},{"user_id":111,"name":"Aspect1","steam_id":76561199006943927,"connected_time":65000000000,"state":"active","ping":62},{"user_id":93,"name":"C∅RVUS","steam_id":76561198100640019,"connected_time":2365000000000,"state":"active","ping":72},{"user_id":104,"name":"MR.cow","steam_id":76561198169998506,"connected_time":1332000000000,"state":"active","ping":58},{"user_id":70,"name":"DrD","steam_id":76561198067266383,"connected_time":2943000000000,"state":"active","ping":50},{"user_id":105,"name":"Dog","steam_id":76561198041841128,"connected_time":1313000000000,"state":"active","ping":62}]},{"server_id":18,"name":"Uncletopia | San Francisco | 2 | All Maps","name_short":"sfo-2","host":"sfo-1.us.uncletopia.com","port":27025,"enabled":true,"region":"us-west","cc":"us","latitude":37.77397,"longitude":-122.4313,"reserved":0,"last_update":"0001-01-01T00:00:00Z","name_a2s":"Uncletopia | San Francisco | 2 | All Maps","protocol":17,"map":"pl_badwater","folder":"tf","game":"Team Fortress","app_id":440,"player_count":0,"max_players":24,"Bots":0,"server_type":"Dedicated","server_os":"Linux","password":true,"vac":true,"version":"7961495","steam_id":85568392924470000,"keywords":["nocrits","nodmgspread","payload","uncletopia"],"game_id":440,"stv_port":27026,"stv_name":"Uncletopia | San Francisco | 2 | All Maps | STV","players":null},{"server_id":19,"name":"Uncletopia | San Francisco | 3 | Stopwatch","name_short":"sfo-3","host":"sfo-1.us.uncletopia.com","port":27035,"enabled":true,"region":"us-west","cc":"us","latitude":37.77397,"longitude":-122.4313,"reserved":0,"last_update":"0001-01-01T00:00:00Z","name_a2s":"Uncletopia | San Francisco | 3 | Stopwatch","protocol":17,"map":"cp_snakewater_final1","folder":"tf","game":"Team Fortress","app_id":440,"player_count":0,"max_players":24,"Bots":0,"server_type":"Dedicated","server_os":"Linux","password":true,"vac":true,"version":"7961495","steam_id":85568392924742824,"keywords":["cp","nocrits","nodmgspread","uncletopia"],"game_id":440,"stv_port":27036,"stv_name":"Uncletopia | San Francisco | 3 | Stopwatch | STV","players":null},{"server_id":20,"name":"Uncletopia | San Francisco | 4 | Community","name_short":"sfo-4","host":"sfo-1.us.uncletopia.com","port":27045,"enabled":true,"region":"us-west","cc":"us","latitude":37.77397,"longitude":-122.4313,"reserved":0,"last_update":"0001-01-01T00:00:00Z","name_a2s":"Uncletopia | San Francisco | 4 | Community","protocol":17,"map":"pl_pier","folder":"tf","game":"Team Fortress","app_id":440,"player_count":0,"max_players":24,"Bots":0,"server_type":"Dedicated","server_os":"Linux","password":true,"vac":true,"version":"7961495","steam_id":85568392924742826,"keywords":["nocrits","nodmgspread","payload","uncletopia"],"game_id":440,"stv_port":27046,"stv_name":"Uncletopia | San Francisco | 4 | Community | STV","players":null},{"server_id":141,"name":"Uncletopia | Sydney | 1 | All Maps","name_short":"syd-1","host":"syd-1.au.uncletopia.com","port":27015,"enabled":true,"region":"au","cc":"au","latitude":-33.865143,"longitude":151.2099,"reserved":0,"last_update":"0001-01-01T00:00:00Z","name_a2s":"Uncletopia | Sydney | 1 | All Maps","protocol":17,"map":"koth_viaduct","folder":"tf","game":"Team Fortress","app_id":440,"player_count":0,"max_players":24,"Bots":0,"server_type":"Dedicated","server_os":"Linux","password":true,"vac":true,"version":"7961495","steam_id":85568392924470001,"keywords":["cp","nocrits","nodmgspread","uncletopia"],"game_id":440,"stv_port":27016,"stv_name":"Uncletopia | Sydney | 1 | All Maps | STV","players":null},{"server_id":123,"name":"Uncletopia | Sydney | 2 | All Maps","name_short":"syd-2","host":"syd-1.au.uncletopia.com","port":27025,"enabled":true,"region":"au","cc":"au","latitude":-33.865143,"longitude":151.2099,"reserved":0,"last_update":"0001-01-01T00:00:00Z","name_a2s":"Uncletopia | Sydney | 2 | All Maps","protocol":17,"map":"koth_lakeside_final","folder":"tf","game":"Team Fortress","app_id":440,"player_count":0,"max_players":24,"Bots":0,"server_type":"Dedicated","server_os":"Linux","password":true,"vac":true,"version":"7961495","steam_id":85568392924470002,"keywords":["cp","nocrits","nodmgspread","uncletopia"],"game_id":440,"stv_port":27026,"stv_name":"Uncletopia | Sydney | 2 | All Maps | STV","players":null},{"server_id":395,"name":"Uncletopia | Sydney | 3 | All Maps","name_short":"syd-3","host":"syd-1.au.uncletopia.com","port":27035,"enabled":true,"region":"au","cc":"au","latitude":-33.865143,"longitude":151.2099,"reserved":0,"last_update":"0001-01-01T00:00:00Z","name_a2s":"Uncletopia | Sydney | 3 | All Maps","protocol":17,"map":"pl_frontier_final","folder":"tf","game":"Team Fortress","app_id":440,"player_count":0,"max_players":24,"Bots":0,"server_type":"Dedicated","server_os":"Linux","password":true,"vac":true,"version":"7961495","steam_id":85568392925194467,"keywords":["nocrits","nodmgspread","payload","uncletopia"],"game_id":440,"stv_port":27036,"stv_name":"Uncletopia | Sydney | 3 | All Maps | STV","players":null},{"server_id":396,"name":"Uncletopia | Sydney | 4 | All Maps","name_short":"syd-4","host":"syd-1.au.uncletopia.com","port":27045,"enabled":true,"region":"au","cc":"au","latitude":-33.865143,"longitude":151.2099,"reserved":0,"last_update":"0001-01-01T00:00:00Z","name_a2s":"Uncletopia | Sydney | 4 | All Maps","protocol":17,"map":"koth_lakeside_final","folder":"tf","game":"Team Fortress","app_id":440,"player_count":0,"max_players":24,"Bots":0,"server_type":"Dedicated","server_os":"Linux","password":true,"vac":true,"version":"7961495","steam_id":85568392925397958,"keywords":["cp","nocrits","nodmgspread","uncletopia"],"game_id":440,"stv_port":27046,"stv_name":"Uncletopia | Sydney | 4 | All Maps | STV","players":null},{"server_id":58,"name":"Uncletopia | Sydney | 5 | Stopwatch","name_short":"syd-5","host":"syd-1.au.uncletopia.com","port":27055,"enabled":true,"region":"au","cc":"au","latitude":-33.865143,"longitude":151.2099,"reserved":0,"last_update":"0001-01-01T00:00:00Z","name_a2s":"Uncletopia | Sydney | 5 | Stopwatch","protocol":17,"map":"cp_snakewater_final1","folder":"tf","game":"Team Fortress","app_id":440,"player_count":0,"max_players":24,"Bots":0,"server_type":"Dedicated","server_os":"Linux","password":true,"vac":true,"version":"7961495","steam_id":85568392925397959,"keywords":["cp","nocrits","nodmgspread","uncletopia"],"game_id":440,"stv_port":27056,"stv_name":"Uncletopia | Sydney | 5 | Stopwatch | STV","players":null},{"server_id":59,"name":"Uncletopia | Sydney | 6 | Community","name_short":"syd-6","host":"syd-1.au.uncletopia.com","port":27065,"enabled":true,"region":"au","cc":"au","latitude":-33.865143,"longitude":151.2099,"reserved":0,"last_update":"0001-01-01T00:00:00Z","name_a2s":"Uncletopia | Sydney | 6 | Community","protocol":17,"map":"cp_sunshine","folder":"tf","game":"Team Fortress","app_id":440,"player_count":0,"max_players":24,"Bots":0,"server_type":"Dedicated","server_os":"Linux","password":true,"vac":true,"version":"7961495","steam_id":85568392925397960,"keywords":["cp","nocrits","nodmgspread","uncletopia"],"game_id":440,"stv_port":27066,"stv_name":"Uncletopia | Sydney | 6 | Community | STV","players":null},{"server_id":49,"name":"Uncletopia | Warsaw | 1 | One Thousand Uncles","name_short":"waw-1","host":"waw-1.pl.uncletopia.com","port":27015,"enabled":true,"region":"eu","cc":"pl","latitude":52.2297,"longitude":21.017532,"reserved":0,"last_update":"0001-01-01T00:00:00Z","name_a2s":"Uncletopia | Warsaw | 1 | One Thousand Uncles","protocol":17,"map":"pl_hoodoo_final","folder":"tf","game":"Team Fortress","app_id":440,"player_count":0,"max_players":32,"Bots":0,"server_type":"Dedicated","server_os":"Linux","password":true,"vac":true,"version":"7961495","steam_id":85568392925397850,"keywords":["alltalk","danepve","increased_maxplayers","nocrits","norespawntime","payload","uncletopia"],"game_id":440,"stv_port":0,"stv_name":"","players":null},{"server_id":50,"name":"Uncletopia | Warsaw | 2 | One Thousand Uncles","name_short":"waw-2","host":"waw-1.pl.uncletopia.com","port":27025,"enabled":true,"region":"eu","cc":"pl","latitude":52.2297,"longitude":21.017532,"reserved":0,"last_update":"0001-01-01T00:00:00Z","name_a2s":"Uncletopia | Warsaw | 2 | One Thousand Uncles","protocol":17,"map":"cp_dustbowl","folder":"tf","game":"Team Fortress","app_id":440,"player_count":0,"max_players":32,"Bots":0,"server_type":"Dedicated","server_os":"Linux","password":true,"vac":true,"version":"7961495","steam_id":85568392925397851,"keywords":["alltalk","cp","danepve","increased_maxplayers","nocrits","norespawntime","uncletopia"],"game_id":440,"stv_port":0,"stv_name":"","players":null},{"server_id":51,"name":"Uncletopia | Warsaw | 3 | All Maps","name_short":"waw-3","host":"waw-1.pl.uncletopia.com","port":27035,"enabled":true,"region":"eu","cc":"pl","latitude":52.2297,"longitude":21.017532,"reserved":0,"last_update":"0001-01-01T00:00:00Z","name_a2s":"Uncletopia | Warsaw | 3 | All Maps","protocol":17,"map":"koth_highpass","folder":"tf","game":"Team Fortress","app_id":440,"player_count":0,"max_players":24,"Bots":0,"server_type":"Dedicated","server_os":"Linux","password":true,"vac":true,"version":"7961495","steam_id":85568392925397852,"keywords":["cp","nocrits","nodmgspread","uncletopia"],"game_id":440,"stv_port":27036,"stv_name":"Uncletopia | Warsaw | 3 | All Maps | STV","players":null},{"server_id":52,"name":"Uncletopia | Warsaw | 4 | All Maps","name_short":"waw-4","host":"waw-1.pl.uncletopia.com","port":27045,"enabled":true,"region":"eu","cc":"pl","latitude":52.2297,"longitude":21.017532,"reserved":0,"last_update":"0001-01-01T00:00:00Z","name_a2s":"Uncletopia | Warsaw | 4 | All Maps","protocol":17,"map":"koth_highpass","folder":"tf","game":"Team Fortress","app_id":440,"player_count":0,"max_players":24,"Bots":0,"server_type":"Dedicated","server_os":"Linux","password":true,"vac":true,"version":"7961495","steam_id":85568392925397853,"keywords":["cp","nocrits","nodmgspread","uncletopia"],"game_id":440,"stv_port":27046,"stv_name":"Uncletopia | Warsaw | 4 | All Maps | STV","players":null},{"server_id":53,"name":"Uncletopia | Warsaw | 5 | Stopwatch","name_short":"waw-5","host":"waw-1.pl.uncletopia.com","port":27055,"enabled":true,"region":"eu","cc":"pl","latitude":52.2297,"longitude":21.017532,"reserved":0,"last_update":"0001-01-01T00:00:00Z","name_a2s":"Uncletopia | Warsaw | 5 | Stopwatch","protocol":17,"map":"pl_upward","folder":"tf","game":"Team Fortress","app_id":440,"player_count":0,"max_players":24,"Bots":0,"server_type":"Dedicated","server_os":"Linux","password":true,"vac":true,"version":"7961495","steam_id":85568392925397854,"keywords":["nocrits","nodmgspread","payload","uncletopia"],"game_id":440,"stv_port":27056,"stv_name":"Uncletopia | Warsaw | 5 | Stopwatch | STV","players":null},{"server_id":54,"name":"Uncletopia | Warsaw | 6 | Community","name_short":"waw-6","host":"waw-1.pl.uncletopia.com","port":27065,"enabled":true,"region":"eu","cc":"pl","latitude":52.2297,"longitude":21.017532,"reserved":0,"last_update":"0001-01-01T00:00:00Z","name_a2s":"Uncletopia | Warsaw | 6 | Community","protocol":17,"map":"workshop/cp_hazyfort_rc6.ugc1365963729","folder":"tf","game":"Team Fortress","app_id":440,"player_count":0,"max_players":24,"Bots":0,"server_type":"Dedicated","server_os":"Linux","password":true,"vac":true,"version":"7961495","steam_id":85568392925397856,"keywords":["cp","nocrits","nodmgspread","uncletopia"],"game_id":440,"stv_port":27066,"stv_name":"Uncletopia | Warsaw | 6 | Community | STV","players":null}]}