{"status":true,"message":"","result":[{"server_id":2,"name":"Uncletopia | Chicago | 1 | All Maps","name_short":"chi-1","host":"chi-1.us.uncletopia.com","port":27015,"enabled":true,"region":"us-central","cc":"us","latitude":41.881832,"longitude":-87.62318,"reserved":0,"last_update":"0001-01-01T00:00:00Z","name_a2s":"Uncletopia | Chicago | 1 | All Maps","protocol":17,"map":"pl_frontier_final","folder":"tf","game":"Team Fortress","app_id":440,"player_count":24,"max_players":24,"Bots":0,"server_type":"Dedicated","server_os":"Linux","password":true,"vac":true,"version":"7961495","steam_id":85568392924469984,"keywords":["nocrits","nodmgspread","payload","uncletopia"],"game_id":440,"stv_port":27016,"stv_name":"Uncletopia | Chicago | 1 | All Maps | STV","players":[{"user_id":553,"name":"Manako","steam_id":76561198074090893,"connected_time":1954000000000,"state":"active","ping":70},{"user_id":556,"name":"Rockguy21","steam_id":76561198121303359,"connected_time":1913000000000,"state":"active","ping":70},{"user_id":526,"name":"Ramin Jamin","steam_id":76561198086516541,"connected_time":2648000000000,"state":"active","ping":71},{"user_id":536,"name":"Kevin Y.","steam_id":76561198364331423,"connected_time":2415000000000,"state":"active","ping":84},{"user_id":570,"name":"Maverick","steam_id":76561198322829814,"connected_time":790000000000,"state":"active","ping":80},{"user_id":573,"name":"NikoOS (NO SOUND)","steam_id":76561198180020521,"connected_time":513000000000,"state":"active","ping":111},{"user_id":529,"name":"Digit","steam_id":76561198156589157,"connected_time":2572000000000,"state":"active","ping":64},{"user_id":575,"name":"pricklyporcupine","steam_id":76561198111669383,"connected_time":301000000000,"state":"active","ping":83},{"user_id":571,"name":"Hulkster","steam_id":76561198278156353,"connected_time":761000000000,"state":"active","ping":122},{"user_id":576,"name":"Potato","steam_id":76561198115677693,"connected_time":210000000000,"state":"active","ping":56},{"user_id":561,"name":"Swiftmend","steam_id":76561197995595692,"connected_time":1388000000000,"state":"active","ping":70},{"user_id":521,"name":"Wilhelmktx","steam_id":76561198158102295,"connected_time":2948000000000,"state":"active","ping":45},{"user_id":550,"name":"blob","steam_id":76561198122375328,"connected_time":2086000000000,"state":"active","ping":58},{"user_id":534,"name":"Grombulon","steam_id":76561198354955898,"connected_time":2445000000000,"state":"active","ping":81},{"user_id":525,"name":"Sagoogoo","steam_id":76561198176061614,"connected_time":2779000000000,"state":"active","ping":96},{"user_id":568,"name":"Spy Gaming","steam_id":76561198453295613,"connected_time":953000000000,"state":"active","ping":111},{"user_id":562,"name":"Ta5K","steam_id":76561198939558155,"connected_time":1376000000000,"state":"active","ping":43},{"user_id":566,"name":"Stapler","steam_id":76561198099295077,"connected_time":1109000000000,"state":"active","ping":101},{"user_id":558,"name":"Jerry Bondle","steam_id":76561198337512213,"connected_time":1626000000000,"state":"active","ping":67},{"user_id":572,"name":"aiden","steam_id":76561198449527009,"connected_time":757000000000,"state":"active","ping":104},{"user_id":567,"name":"lexi","steam_id":76561198176299759,"connected_time":1099000000000,"state":"active","ping":74},{"user_id":539,"name":"Queen Frau the Round","steam_id":76561197999942134,"connected_time":2388000000000,"state":"active","ping":46},{"user_id":569,"name":"Legend OF the Donut","steam_id":76561198055530464,"connected_time":835000000000,"state":"active","ping":57},{"user_id":549,"name":"jamn","steam_id":76561198260659940,"connected_time":2135000000000,"state":"active","ping":93}]},{"server_id":106,"name":"Uncletopia | Chicago | 2 | All Maps","name_short":"chi-2","host":"chi-1.us.uncletopia.com","port":27025,"enabled":true,"region":"us-central","cc":"us","latitude":41.881832,"longitude":-87.62318,"reserved":0,"last_update":"0001-01-01T00:00:00Z","name_a2s":"Uncletopia | Chicago | 2 | All Maps","protocol":17,"map":"pl_thundermountain","folder":"tf","game":"Team Fortress","app_id":440,"player_count":24,"max_players":24,"Bots":0,"server_type":"Dedicated","server_os":"Linux","password":true,"vac":true,"version":"7961495","steam_id":85568392924469985,"keywords":["nocrits","nodmgspread","payload","uncletopia"],"game_id":440,"stv_port":27026,"stv_name":"Uncletopia | Chicago | 2 | All Maps | STV","players":[{"user_id":302,"name":"Tix Man","steam_id":76561198957021894,"connected_time":2000000000,"state":"spawning","ping":49},{"user_id":300,"name":"Banook","steam_id":76561198050852823,"connected_time":232000000000,"state":"active","ping":55},{"user_id":274,"name":"Soupman_Official","steam_id":76561198314308732,"connected_time":2934000000000,"state":"active","ping":38},{"user_id":292,"name":"mikey","steam_id":76561198095803763,"connected_time":676000000000,"state":"active","ping":86},{"user_id":299,"name":"Old Sport","steam_id":76561198135435875,"connected_time":266000000000,"state":"active","ping":93},{"user_id":288,"name":"Zoot","steam_id":76561198121944243,"connected_time":1055000000000,"state":"active","ping":76},{"user_id":278,"name":"roto","steam_id":76561198138735860,"connected_time":2564000000000,"state":"active","ping":72},{"user_id":291,"name":"MI6zombieguy92","steam_id":76561198008532694,"connected_time":707000000000,"state":"active","ping":44},{"user_id":279,"name":"Shalom","steam_id":76561198410005222,"connected_time":2452000000000,"state":"active","ping":63},{"user_id":280,"name":"Mavrick","steam_id":76561198039678150,"connected_time":2406000000000,"state":"active","ping":59},{"user_id":212,"name":"mog60_09","steam_id":76561199365852751,"connected_time":8640000000000,"state":"active","ping":58},{"user_id":281,"name":"Fish","steam_id":76561198077873566,"connected_time":2149000000000,"state":"active","ping":74},{"user_id":219,"name":"hej","steam_id":76561197996366940,"connected_time":7872000000000,"state":"active","ping":60},{"user_id":271,"name":"blood-thirsty pitbull","steam_id":76561198106690989,"connected_time":3130000000000,"state":"active","ping":75},{"user_id":261,"name":".JIFF","steam_id":76561198045181760,"connected_time":3858000000000,"state":"active","ping":61},{"user_id":254,"name":"Baconator","steam_id":76561198941700660,"connected_time":4369000000000,"state":"active","ping":88},{"user_id":272,"name":"ash","steam_id":76561198127890645,"connected_time":3090000000000,"state":"active","ping":87},{"user_id":287,"name":"Swash","steam_id":76561197969421355,"connected_time":1075000000000,"state":"active","ping":75},{"user_id":290,"name":"Christmas Ham","steam_id":76561198119601623,"connected_time":718000000000,"state":"active","ping":148},{"user_id":301,"name":"huh","steam_id":76561198272057200,"connected_time":207000000000,"state":"active","ping":105},{"user_id":289,"name":"Filthy Acts at Reasonable Price","steam_id":76561198354615890,"connected_time":731000000000,"state":"active","ping":60},{"user_id":294,"name":"KBoneski ♡","steam_id":76561198307409065,"connected_time":667000000000,"state":"active","ping":112},{"user_id":296,"name":"President Atticus","steam_id":76561198157557477,"connected_time":638000000000,"state":"active","ping":71},{"user_id":248,"name":"Lia_Rein TTV","steam_id":76561198151569597,"connected_time":4935000000000,"state":"active","ping":143}]},{"server_id":402,"name":"Uncletopia | Chicago | 3 | All Maps","name_short":"chi-3","host":"chi-1.us.uncletopia.com","port":27035,"enabled":true,"region":"us-central","cc":"us","latitude":41.881832,"longitude":-87.62318,"reserved":0,"last_update":"0001-01-01T00:00:00Z","name_a2s":"Uncletopia | Chicago | 3 | All Maps","protocol":17,"map":"pl_borneo","folder":"tf","game":"Team Fortress","app_id":440,"player_count":24,"max_players":24,"Bots":0,"server_type":"Dedicated","server_os":"Linux","password":true,"vac":true,"version":"7961495","steam_id":85568392924515191,"keywords":["nocrits","nodmgspread","payload","uncletopia"],"game_id":440,"stv_port":27036,"stv_name":"Uncletopia | Chicago | 3 | All Maps | STV","players":[{"user_id":303,"name":"Psychosis","steam_id":76561198078659070,"connected_time":1062000000000,"state":"active","ping":76},{"user_id":318,"name":"gatorbelt","steam_id":76561198145784505,"connected_time":347000000000,"state":"active","ping":97},{"user_id":319,"name":"OKAY","steam_id":76561198091980659,"connected_time":231000000000,"state":"active","ping":79},{"user_id":308,"name":"Miner2495","steam_id":76561198445904523,"connected_time":996000000000,"state":"active","ping":73},{"user_id":321,"name":"eat Pant","steam_id":76561197974965536,"connected_time":143000000000,"state":"active","ping":57},{"user_id":304,"name":"Architect","steam_id":76561198015242016,"connected_time":1047000000000,"state":"active","ping":50},{"user_id":309,"name":"bakkhertz","steam_id":76561198046745579,"connected_time":989000000000,"state":"active","ping":89},{"user_id":284,"name":"McDumDum","steam_id":76561198040738807,"connected_time":2352000000000,"state":"active","ping":83},{"user_id":310,"name":"bladees realest, saddest verse","steam_id":76561198098099826,"connected_time":967000000000,"state":"active","ping":94},{"user_id":311,"name":"Fish","steam_id":76561198872926297,"connected_time":907000000000,"state":"active","ping":85},{"user_id":320,"name":"Demonica","steam_id":76561198841858340,"connected_time":152000000000,"state":"active","ping":71},{"user_id":315,"name":"DogsRNice","steam_id":76561198211490864,"connected_time":677000000000,"state":"active","ping":74},{"user_id":316,"name":"thecal","steam_id":76561198307893384,"connected_time":669000000000,"state":"active","ping":48},{"user_id":139,"name":"Neophyte","steam_id":76561198027183394,"connected_time":9472000000000,"state":"active","ping":133},{"user_id":296,"name":"xiPoison","steam_id":76561198064961659,"connected_time":1458000000000,"state":"active","ping":66},{"user_id":286,"name":"MILKY","steam_id":76561198073114061,"connected_time":2346000000000,"state":"active","ping":72},{"user_id":297,"name":"Leviathan","steam_id":76561198042678399,"connected_time":1440000000000,"state":"active","ping":64},{"user_id":261,"name":"DeadErebus","steam_id":76561198286117045,"connected_time":3086000000000,"state":"active","ping":32},{"user_id":313,"name":"cycoone","steam_id":76561198059745285,"connected_time":880000000000,"state":"active","ping":60},{"user_id":314,"name":"4 life","steam_id":76561198175961598,"connected_time":822000000000,"state":"active","ping":108},{"user_id":277,"name":"Vegerot","steam_id":76561197997843710,"connected_time":2522000000000,"state":"active","ping":60},{"user_id":187,"name":"RexCreeper456","steam_id":76561199319578396,"connected_time":6755000000000,"state":"active","ping":64},{"user_id":294,"name":"Pork and Beans but twice","steam_id":76561198843209969,"connected_time":1635000000000,"state":"active","ping":51},{"user_id":322,"name":"Slimeboy Enthusiast","steam_id":76561199200969139,"connected_time":137000000000,"state":"active","ping":108}]},{"server_id":403,"name":"Uncletopia | Chicago | 4 | All Maps","name_short":"chi-4","host":"chi-1.us.uncletopia.com","port":27045,"enabled":true,"region":"us-central","cc":"us","latitude":41.881832,"longitude":-87.62318,"reserved":0,"last_update":"0001-01-01T00:00:00Z","name_a2s":"Uncletopia | Chicago | 4 | All Maps","protocol":17,"map":"pl_pier","folder":"tf","game":"Team Fortress","app_id":440,"player_count":24,"max_players":24,"Bots":0,"server_type":"Dedicated","server_os":"Linux","password":true,"vac":true,"version":"7961495","steam_id":85568392924515193,"keywords":["nocrits","nodmgspread","payload","uncletopia"],"game_id":440,"stv_port":27046,"stv_name":"Uncletopia | Chicago | 4 | All Maps | STV","players":[{"user_id":120,"name":"Tommy Pickles (Very Cool)","steam_id":76561198391261463,"connected_time":2053000000000,"state":"active","ping":66},{"user_id":131,"name":"ṽ⧉ cookie","steam_id":76561197998884823,"connected_time":612000000000,"state":"active","ping":57},{"user_id":124,"name":"Cretin32","steam_id":76561198986265728,"connected_time":1681000000000,"state":"active","ping":118},{"user_id":107,"name":"sansa musa","steam_id":76561198163723555,"connected_time":2622000000000,"state":"active","ping":68},{"user_id":137,"name":"NOT Foobert","steam_id":76561199229577594,"connected_time":173000000000,"state":"active","ping":105},{"user_id":119,"name":"strawberry donut","steam_id":76561198354284591,"connected_time":2074000000000,"state":"active","ping":52},{"user_id":132,"name":"raduski","steam_id":76561198795699119,"connected_time":561000000000,"state":"active","ping":84},{"user_id":52,"name":"Intro Bonito","steam_id":76561198119478838,"connected_time":6038000000000,"state":"active","ping":75},{"user_id":127,"name":"Chin, Bruce Lee's Relative","steam_id":76561198240105522,"connected_time":1518000000000,"state":"active","ping":85},{"user_id":86,"name":"GRONT","steam_id":76561198040464533,"connected_time":3858000000000,"state":"active","ping":69},{"user_id":36,"name":"Lucon","steam_id":76561198067147724,"connected_time":6507000000000,"state":"active","ping":56},{"user_id":130,"name":"Nobody","steam_id":76561198085808754,"connected_time":665000000000,"state":"active","ping":89},{"user_id":113,"name":"Punished Kong","steam_id":76561198973620882,"connected_time":2152000000000,"state":"active","ping":82},{"user_id":116,"name":"StormRage","steam_id":76561199435079308,"connected_time":2114000000000,"state":"active","ping":158},{"user_id":117,"name":"Probably P3","steam_id":76561198000127035,"connected_time":2092000000000,"state":"active","ping":98},{"user_id":118,"name":"Shadoe","steam_id":76561198218577281,"connected_time":2085000000000,"state":"active","ping":45},{"user_id":136,"name":"Heartgold","steam_id":76561199062592062,"connected_time":425000000000,"state":"active","ping":77},{"user_id":97,"name":"ark","steam_id":76561198041066271,"connected_time":3554000000000,"state":"active","ping":81},{"user_id":62,"name":"daniel washingburger","steam_id":76561198003593070,"connected_time":5578000000000,"state":"active","ping":61},{"user_id":128,"name":"Albino Jellyfish","steam_id":76561198208561097,"connected_time":682000000000,"state":"active","ping":69},{"user_id":133,"name":"Fujiwara no Mokou","steam_id":76561198063315650,"connected_time":521000000000,"state":"active","ping":77},{"user_id":134,"name":"jozthebob","steam_id":76561199476198856,"connected_time":520000000000,"state":"active","ping":80},{"user_id":99,"name":"the lizard that monitors","steam_id":76561198092135570,"connected_time":3542000000000,"state":"active","ping":60},{"user_id":92,"name":"DafuQ","steam_id":76561198010166265,"connected_time":3721000000000,"state":"active","ping":82}]},{"server_id":36,"name":"Uncletopia | Chicago | 5 | All Maps","name_short":"chi-5","host":"chi-2.us.uncletopia.com","port":27015,"enabled":true,"region":"us-central","cc":"us","latitude":41.881832,"longitude":-87.62318,"reserved":0,"last_update":"0001-01-01T00:00:00Z","name_a2s":"Uncletopia | Chicago | 5 | All Maps","protocol":17,"map":"pl_swiftwater_final1","folder":"tf","game":"Team Fortress","app_id":440,"player_count":24,"max_players":24,"Bots":0,"server_type":"Dedicated","server_os":"Linux","password":true,"vac":true,"version":"7961495","steam_id":85568392924866362,"keywords":["nocrits","nodmgspread","payload","uncletopia"],"game_id":440,"stv_port":27016,"stv_name":"Uncletopia | Chicago | 5 | All Maps | STV","players":[{"user_id":275,"name":"Something","steam_id":76561198881562709,"connected_time":337000000000,"state":"active","ping":68},{"user_id":251,"name":"Loaf E²r","steam_id":76561198174967027,"connected_time":1448000000000,"state":"active","ping":60},{"user_id":270,"name":"ohhhl0rd","steam_id":76561199066793578,"connected_time":630000000000,"state":"active","ping":72},{"user_id":252,"name":"yeyoi","steam_id":76561198069821885,"connected_time":1406000000000,"state":"active","ping":74},{"user_id":225,"name":"Frog","steam_id":76561198170199881,"connected_time":3029000000000,"state":"active","ping":64},{"user_id":227,"name":"dbradenwait","steam_id":76561198218410309,"connected_time":2998000000000,"state":"active","ping":84},{"user_id":276,"name":"rat eggs","steam_id":76561198146872603,"connected_time":125000000000,"state":"active","ping":78},{"user_id":249,"name":"helen keller","steam_id":76561197979870540,"connected_time":1459000000000,"state":"active","ping":46},{"user_id":274,"name":"triangleman","steam_id":76561198972733542,"connected_time":447000000000,"state":"active","ping":61},{"user_id":264,"name":"gIBBY","steam_id":76561198080099598,"connected_time":1043000000000,"state":"active","ping":53},{"user_id":265,"name":"Voodo133","steam_id":76561198042670351,"connected_time":1042000000000,"state":"active","ping":84},{"user_id":238,"name":"Vergil","steam_id":76561198314684879,"connected_time":2587000000000,"state":"active","ping":86},{"user_id":272,"name":"froge","steam_id":76561198304959766,"connected_time":606000000000,"state":"active","ping":173},{"user_id":266,"name":"Nucleus","steam_id":76561199128610906,"connected_time":783000000000,"state":"active","ping":93},{"user_id":277,"name":"breathing meat donut","steam_id":76561198123566649,"connected_time":97000000000,"state":"active","ping":99},{"user_id":267,"name":"Naffty","steam_id":76561198119734981,"connected_time":734000000000,"state":"active","ping":108},{"user_id":268,"name":"Joe Family guy","steam_id":76561198065327106,"connected_time":718000000000,"state":"active","ping":61},{"user_id":269,"name":"Okinawan Purple Sweet Potato","steam_id":76561198087857617,"connected_time":717000000000,"state":"active","ping":60},{"user_id":247,"name":"Pattar","steam_id":76561198146276146,"connected_time":1744000000000,"state":"active","ping":60},{"user_id":230,"name":"F2P nob","steam_id":76561198224841384,"connected_time":2861000000000,"state":"active","ping":78},{"user_id":273,"name":"Synergy","steam_id":76561198098630198,"connected_time":556000000000,"state":"active","ping":93},{"user_id":261,"name":"Skulgan","steam_id":76561198150261397,"connected_time":1143000000000,"state":"active","ping":77},{"user_id":241,"name":"Your Alcoholic Dad","steam_id":76561198214494745,"connected_time":2469000000000,"state":"active","ping":59},{"user_id":237,"name":"Dante","steam_id":76561198193452065,"connected_time":2646000000000,"state":"active","ping":79}]},{"server_id":37,"name":"Uncletopia | Chicago | 6 | All Maps","name_short":"chi-6","host":"chi-2.us.uncletopia.com","port":27025,"enabled":true,"region":"us-central","cc":"us","latitude":41.881832,"longitude":-87.62318,"reserved":0,"last_update":"0001-01-01T00:00:00Z","name_a2s":"Uncletopia | Chicago | 6 | All Maps","protocol":17,"map":"pl_snowycoast","folder":"tf","game":"Team Fortress","app_id":440,"player_count":25,"max_players":24,"Bots":0,"server_type":"Dedicated","server_os":"Linux","password":true,"vac":true,"version":"7961495","steam_id":85568392924866363,"keywords":["nocrits","nodmgspread","payload","uncletopia"],"game_id":440,"stv_port":27026,"stv_name":"Uncletopia | Chicago | 6 | All Maps | STV","players":[{"user_id":43,"name":"Elora","steam_id":76561198040510572,"connected_time":1997000000000,"state":"active","ping":130},{"user_id":75,"name":"farfalle","steam_id":76561198882758067,"connected_time":681000000000,"state":"active","ping":41},{"user_id":78,"name":"ebbaxter13","steam_id":76561198839647688,"connected_time":631000000000,"state":"active","ping":87},{"user_id":77,"name":"NeonBean","steam_id":76561198088335827,"connected_time":639000000000,"state":"active","ping":92},{"user_id":33,"name":"SkeleBoi","steam_id":76561198260856774,"connected_time":2277000000000,"state":"active","ping":128},{"user_id":81,"name":"i_boop_ur_nose","steam_id":76561198312459560,"connected_time":553000000000,"state":"active","ping":82},{"user_id":82,"name":"raspy","steam_id":76561198027298961,"connected_time":553000000000,"state":"active","ping":59},{"user_id":36,"name":"weewa","steam_id":76561198064876090,"connected_time":2150000000000,"state":"active","ping":70},{"user_id":37,"name":"Captain Bug","steam_id":76561198137763878,"connected_time":2144000000000,"state":"active","ping":83},{"user_id":89,"name":"BobbyLord_II","steam_id":76561198062356650,"connected_time":222000000000,"state":"active","ping":82},{"user_id":83,"name":"Buddy_boi_man","steam_id":76561199158344783,"connected_time":546000000000,"state":"active","ping":66},{"user_id":84,"name":"TG_16","steam_id":76561199109196768,"connected_time":495000000000,"state":"active","ping":59},{"user_id":85,"name":"Monkey D. Management","steam_id":76561198400603422,"connected_time":490000000000,"state":"active","ping":69},{"user_id":44,"name":"OneManEnsemble","steam_id":76561198200890163,"connected_time":1992000000000,"state":"active","ping":83},{"user_id":66,"name":"NEWJEANS enthusiast","steam_id":76561198166666746,"connected_time":1125000000000,"state":"active","ping":77},{"user_id":86,"name":"❤[S'more]❤","steam_id":76561198817361963,"connected_time":480000000000,"state":"active","ping":106},{"user_id":60,"name":"Endporter","steam_id":76561199088183364,"connected_time":1272000000000,"state":"active","ping":81},{"user_id":87,"name":"Cooldude_15","steam_id":76561198346713382,"connected_time":421000000000,"state":"active","ping":45},{"user_id":61,"name":"Error-403","steam_id":76561199116357427,"connected_time":1245000000000,"state":"active","ping":101},{"user_id":67,"name":"h","steam_id":76561198202416617,"connected_time":1122000000000,"state":"active","ping":97},{"user_id":88,"name":"19 INCH TGIRL SCHLONG","steam_id":76561198122059018,"connected_time":416000000000,"state":"active","ping":54},{"user_id":70,"name":"wenshengqiu","steam_id":76561199048682062,"connected_time":1068000000000,"state":"active","ping":81},{"user_id":90,"name":"Dr. Professor PJ, Ph.D","steam_id":76561198004429398,"connected_time":192000000000,"state":"active","ping":49},{"user_id":55,"name":"Classysaurus","steam_id":76561198065992731,"connected_time":1778000000000,"state":"active","ping":56},{"user_id":63,"name":"IanFishooks","steam_id":76561199403427527,"connected_time":1234000000000,"state":"active","ping":79}]},{"server_id":38,"name":"Uncletopia | Chicago | 7 | Stopwatch Beta","name_short":"chi-7","host":"chi-2.us.uncletopia.com","port":27035,"enabled":true,"region":"us-central","cc":"us","latitude":41.881832,"longitude":-87.62318,"reserved":0,"last_update":"0001-01-01T00:00:00Z","name_a2s":"Uncletopia | Chicago | 7 | Stopwatch Beta","protocol":17,"map":"koth_lakeside_final","folder":"tf","game":"Team Fortress","app_id":440,"player_count":2,"max_players":24,"Bots":0,"server_type":"Dedicated","server_os":"Linux","password":true,"vac":true,"version":"7961495","steam_id":85568392924866364,"keywords":["cp","nocrits","nodmgspread","uncletopia"],"game_id":440,"stv_port":27036,"stv_name":"Uncletopia | Chicago | 7 | Stopwatch Beta | STV","players":[{"user_id":8,"name":"Dragoon","steam_id":76561198211973253,"connected_time":1615000000000,"state":"active","ping":91},{"user_id":9,"name":"legopirate10","steam_id":76561198178827241,"connected_time":1589000000000,"state":"active","ping":30}]},{"server_id":39,"name":"Uncletopia | Chicago | 8 | Community","name_short":"chi-8","host":"chi-2.us.uncletopia.com","port":27045,"enabled":true,"region":"us-central","cc":"us","latitude":41.881832,"longitude":-87.62318,"reserved":0,"last_update":"0001-01-01T00:00:00Z","name_a2s":"Uncletopia | Chicago | 8 | Community","protocol":17,"map":"workshop/cp_sulfur_rc2.ugc619869471","folder":"tf","game":"Team Fortress","app_id":440,"player_count":0,"max_players":24,"Bots":0,"server_type":"Dedicated","server_os":"Linux","password":true,"vac":true,"version":"7961495","steam_id":85568392924866365,"keywords":["cp","nocrits","nodmgspread","uncletopia"],"game_id":440,"stv_port":27046,"stv_name":"Uncletopia | Chicago | 8 | Community | STV","players":null},{"server_id":8,"name":"Uncletopia | Dallas | 1 | All Maps","name_short":"dal-1","host":"dal-1.us.uncletopia.com","port":27015,"enabled":true,"region":"us-central","cc":"us","latitude":32.779167,"longitude":-96.80889,"reserved":0,"last_update":"0001-01-01T00:00:00Z","name_a2s":"Uncletopia | Dallas | 1 | All Maps","protocol":17,"map":"pl_frontier_final","folder":"tf","game":"Team Fortress","app_id":440,"player_count":24,"max_players":24,"Bots":0,"server_type":"Dedicated","server_os":"Linux","password":true,"vac":true,"version":"7961495","steam_id":85568392924469986,"keywords":["nocrits","nodmgspread","payload","uncletopia"],"game_id":440,"stv_port":27016,"stv_name":"Uncletopia | Dallas | 1 | All Maps | STV","players":[{"user_id":196,"name":"eepy kitty","steam_id":76561198106313563,"connected_time":1538000000000,"state":"active","ping":85},{"user_id":206,"name":"Kenku","steam_id":76561199086762926,"connected_time":840000000000,"state":"active","ping":64},{"user_id":202,"name":"Streetcleaner","steam_id":76561199160439080,"connected_time":1176000000000,"state":"active","ping":69},{"user_id":219,"name":"pete_the_cat_2014","steam_id":76561198199266047,"connected_time":106000000000,"state":"active","ping":77},{"user_id":107,"name":"Jey Sus","steam_id":76561198129254533,"connected_time":10364000000000,"state":"active","ping":96},{"user_id":199,"name":"Newt","steam_id":76561198842909288,"connected_time":1218000000000,"state":"active","ping":87},{"user_id":167,"name":"Insizhen","steam_id":76561198051352605,"connected_time":4033000000000,"state":"active","ping":60},{"user_id":205,"name":"CrispyChris","steam_id":76561198320704343,"connected_time":930000000000,"state":"active","ping":70},{"user_id":198,"name":"Bogey","steam_id":76561198096227944,"connected_time":1348000000000,"state":"active","ping":44},{"user_id":218,"name":"BudTuggly","steam_id":76561198026873580,"connected_time":394000000000,"state":"active","ping":73},{"user_id":204,"name":"GreySweaterCat","steam_id":76561198351860293,"connected_time":1105000000000,"state":"active","ping":70},{"user_id":216,"name":"Monolift","steam_id":76561198191431427,"connected_time":563000000000,"state":"active","ping":60},{"user_id":210,"name":"Jerphf","steam_id":76561198328825964,"connected_time":717000000000,"state":"active","ping":61},{"user_id":197,"name":"Kobicha","steam_id":76561198144970720,"connected_time":1471000000000,"state":"active","ping":80},{"user_id":180,"name":"Plague Doctor Moose","steam_id":76561199027129554,"connected_time":2822000000000,"state":"active","ping":91},{"user_id":191,"name":"leesh","steam_id":76561198079603938,"connected_time":2004000000000,"state":"active","ping":61},{"user_id":209,"name":"Proofessor","steam_id":76561198185282501,"connected_time":770000000000,"state":"active","ping":56},{"user_id":128,"name":"FI LO","steam_id":76561198976530881,"connected_time":8598000000000,"state":"active","ping":72},{"user_id":211,"name":"e doctor","steam_id":76561198081851446,"connected_time":703000000000,"state":"active","ping":73},{"user_id":171,"name":"Bean Marrow","steam_id":76561198116650223,"connected_time":3567000000000,"state":"active","ping":71},{"user_id":215,"name":"Real Azure #SaveTF2","steam_id":76561198095912284,"connected_time":605000000000,"state":"active","ping":83},{"user_id":184,"name":"jadenrivers570","steam_id":76561199491223944,"connected_time":2696000000000,"state":"active","ping":73},{"user_id":213,"name":"eish","steam_id":76561198089463603,"connected_time":685000000000,"state":"active","ping":134},{"user_id":187,"name":"Ryzema","steam_id":76561198165594229,"connected_time":2322000000000,"state":"active","ping":95}]},{"server_id":108,"name":"Uncletopia | Dallas | 2 | All Maps","name_short":"dal-2","host":"dal-1.us.uncletopia.com","port":27025,"enabled":true,"region":"us-central","cc":"us","latitude":32.779167,"longitude":-96.80889,"reserved":0,"last_update":"0001-01-01T00:00:00Z","name_a2s":"Uncletopia | Dallas | 2 | All Maps","protocol":17,"map":"pl_pier","folder":"tf","game":"Team Fortress","app_id":440,"player_count":24,"max_players":24,"Bots":0,"server_type":"Dedicated","server_os":"Linux","password":true,"vac":true,"version":"7961495","steam_id":85568392924469988,"keywords":["nocrits","nodmgspread","payload","uncletopia"],"game_id":440,"stv_port":27026,"stv_name":"Uncletopia | Dallas | 2 | All Maps | STV","players":[{"user_id":308,"name":"Skinny pete","steam_id":76561198801608576,"connected_time":1754000000000,"state":"active","ping":51},{"user_id":326,"name":"jubanya","steam_id":76561198830921046,"connected_time":972000000000,"state":"active","ping":84},{"user_id":335,"name":"Kerbal01","steam_id":76561198080296298,"connected_time":377000000000,"state":"active","ping":108},{"user_id":307,"name":"oh the treachery","steam_id":76561198127851014,"connected_time":1787000000000,"state":"active","ping":48},{"user_id":309,"name":"Root","steam_id":76561198051749255,"connected_time":1752000000000,"state":"active","ping":75},{"user_id":336,"name":"Legally Braindead","steam_id":76561198377574031,"connected_time":356000000000,"state":"active","ping":95},{"user_id":332,"name":"Caliburn","steam_id":76561198205194977,"connected_time":592000000000,"state":"active","ping":82},{"user_id":341,"name":"Crazy Insane Proboscis Monkey","steam_id":76561198061011176,"connected_time":56000000000,"state":"active","ping":98},{"user_id":313,"name":"Aeris","steam_id":76561198287271028,"connected_time":1652000000000,"state":"active","ping":81},{"user_id":314,"name":"Mr. Klauk","steam_id":76561199085666301,"connected_time":1650000000000,"state":"active","ping":71},{"user_id":273,"name":"Phosu","steam_id":76561198180162801,"connected_time":4856000000000,"state":"active","ping":61},{"user_id":310,"name":"Phillip Jeffries","steam_id":76561198064052174,"connected_time":1748000000000,"state":"active","ping":89},{"user_id":327,"name":"luscaPUTO","steam_id":76561199037598902,"connected_time":937000000000,"state":"active","ping":149},{"user_id":331,"name":"Slabz","steam_id":76561199072777158,"connected_time":801000000000,"state":"active","ping":73},{"user_id":320,"name":"stompsalot","steam_id":76561198939803306,"connected_time":1274000000000,"state":"active","ping":75},{"user_id":317,"name":"DjBallBag","steam_id":76561198118551080,"connected_time":1547000000000,"state":"active","ping":71},{"user_id":339,"name":"orneps489","steam_id":76561199124755916,"connected_time":273000000000,"state":"active","ping":102},{"user_id":280,"name":"Underscorn","steam_id":76561198374209415,"connected_time":4029000000000,"state":"active","ping":58},{"user_id":334,"name":"uncletopia dallas 2 player","steam_id":76561198412786186,"connected_time":498000000000,"state":"active","ping":60},{"user_id":329,"name":"Marvelzombie","steam_id":76561198129951058,"connected_time":850000000000,"state":"active","ping":107},{"user_id":337,"name":"Unwavering Flavor","steam_id":76561198053306065,"connected_time":339000000000,"state":"active","ping":54},{"user_id":300,"name":"Flubby","steam_id":76561198069171252,"connected_time":2729000000000,"state":"active","ping":60},{"user_id":338,"name":"emily","steam_id":76561198051872256,"connected_time":320000000000,"state":"active","ping":87},{"user_id":333,"name":"Funny Man","steam_id":76561199380182367,"connected_time":523000000000,"state":"active","ping":68}]},{"server_id":5,"name":"Uncletopia | Frankfurt | 1 | All Maps","name_short":"frk-1","host":"frk-1.de.uncletopia.com","port":27015,"enabled":true,"region":"eu","cc":"de","latitude":50.110924,"longitude":8.682127,"reserved":0,"last_update":"0001-01-01T00:00:00Z","name_a2s":"Uncletopia | Frankfurt | 1 | All Maps","protocol":17,"map":"pl_borneo","folder":"tf","game":"Team Fortress","app_id":440,"player_count":22,"max_players":24,"Bots":0,"server_type":"Dedicated","server_os":"Linux","password":true,"vac":true,"version":"7961495","steam_id":85568392924469989,"keywords":["nocrits","nodmgspread","payload","uncletopia"],"game_id":440,"stv_port":27016,"stv_name":"Uncletopia | Frankfurt | 1 | All Maps | STV","players":[{"user_id":637,"name":"Dolcelatte","steam_id":76561198038501770,"connected_time":585000000000,"state":"active","ping":54},{"user_id":603,"name":"Spectral Sloth","steam_id":76561198170083139,"connected_time":2210000000000,"state":"active","ping":82},{"user_id":615,"name":"Puro ♥","steam_id":76561198039016765,"connected_time":1856000000000,"state":"active","ping":85},{"user_id":620,"name":"lulu","steam_id":76561199147764133,"connected_time":1670000000000,"state":"active","ping":76},{"user_id":607,"name":"ninja fortnajt","steam_id":76561198442437488,"connected_time":2137000000000,"state":"active","ping":59},{"user_id":645,"name":"Milk","steam_id":76561198125876588,"connected_time":5000000000,"state":"spawning","ping":45},{"user_id":644,"name":"uma","steam_id":76561198147976939,"connected_time":76000000000,"state":"active","ping":47},{"user_id":628,"name":"Professional facestab","steam_id":76561198258721056,"connected_time":757000000000,"state":"active","ping":52},{"user_id":640,"name":"rat exterminator","steam_id":76561199278252995,"connected_time":132000000000,"state":"active","ping":66},{"user_id":642,"name":"Skyfox","steam_id":76561198036647535,"connected_time":90000000000,"state":"active","ping":51},{"user_id":632,"name":"s a i","steam_id":76561197970379754,"connected_time":719000000000,"state":"active","ping":49},{"user_id":606,"name":"nevim","steam_id":76561199120843402,"connected_time":2154000000000,"state":"active","ping":59},{"user_id":624,"name":"Star box","steam_id":76561199019679632,"connected_time":838000000000,"state":"active","ping":65},{"user_id":638,"name":"my walls are oozing green slinm","steam_id":76561199050072230,"connected_time":426000000000,"state":"active","ping":72},{"user_id":639,"name":"MoistMomMauler","steam_id":76561198069359049,"connected_time":216000000000,"state":"active","ping":76},{"user_id":536,"name":"modavak","steam_id":76561198946290908,"connected_time":5909000000000,"state":"active","ping":117},{"user_id":618,"name":"[taurine]","steam_id":76561199181821779,"connected_time":1696000000000,"state":"active","ping":76},{"user_id":596,"name":"monitor kernel access (REAL)","steam_id":76561198883869325,"connected_time":2732000000000,"state":"active","ping":78},{"user_id":622,"name":"mohemmedmokhter2005","steam_id":76561199197650506,"connected_time":1203000000000,"state":"active","ping":112},{"user_id":623,"name":"Piox","steam_id":76561198125689157,"connected_time":1074000000000,"state":"active","ping":80},{"user_id":634,"name":"Chambersite","steam_id":76561198197022399,"connected_time":705000000000,"state":"active","ping":67},{"user_id":643,"name":"widelczyk","steam_id":76561198162548251,"connected_time":90000000000,"state":"active","ping":77}]},{"server_id":110,"name":"Uncletopia | Frankfurt | 2 | All Maps","name_short":"frk-2","host":"frk-1.de.uncletopia.com","port":27025,"enabled":true,"region":"eu","cc":"de","latitude":50.110924,"longitude":8.682127,"reserved":0,"last_update":"0001-01-01T00:00:00Z","name_a2s":"Uncletopia | Frankfurt | 2 | All Maps","protocol":17,"map":"cp_process_final","folder":"tf","game":"Team Fortress","app_id":440,"player_count":24,"max_players":24,"Bots":0,"server_type":"Dedicated","server_os":"Linux","password":true,"vac":true,"version":"7961495","steam_id":85568392924469990,"keywords":["cp","nocrits","nodmgspread","uncletopia"],"game_id":440,"stv_port":27026,"stv_name":"Uncletopia | Frankfurt | 2 | All Maps | STV","players":[{"user_id":493,"name":"void","steam_id":76561198035831433,"connected_time":637000000000,"state":"active","ping":77},{"user_id":504,"name":"superdex8794","steam_id":76561199016242789,"connected_time":215000000000,"state":"active","ping":177},{"user_id":421,"name":"Will - no sound","steam_id":76561198173329977,"connected_time":5458000000000,"state":"active","ping":69},{"user_id":490,"name":"Fr1Zer","steam_id":76561198357086270,"connected_time":664000000000,"state":"active","ping":93},{"user_id":491,"name":"KERMIS","steam_id":76561199248361184,"connected_time":651000000000,"state":"active","ping":99},{"user_id":508,"name":"2spooky4me","steam_id":76561198043211244,"connected_time":79000000000,"state":"active","ping":59},{"user_id":505,"name":"manKe","steam_id":76561198008564860,"connected_time":211000000000,"state":"active","ping":60},{"user_id":457,"name":"wal","steam_id":76561198066043883,"connected_time":2813000000000,"state":"active","ping":66},{"user_id":494,"name":"Ječmen","steam_id":76561198051617968,"connected_time":635000000000,"state":"active","ping":72},{"user_id":483,"name":"isaku","steam_id":76561198092648865,"connected_time":1282000000000,"state":"active","ping":63},{"user_id":495,"name":"Lessoz","steam_id":76561199211572036,"connected_time":628000000000,"state":"active","ping":94},{"user_id":509,"name":"breeze rock tribute computer","steam_id":76561198979579915,"connected_time":50000000000,"state":"active","ping":70},{"user_id":484,"name":"Zeppelin","steam_id":76561198154867991,"connected_time":818000000000,"state":"active","ping":48},{"user_id":496,"name":"Mingo","steam_id":76561199191245650,"connected_time":545000000000,"state":"active","ping":97},{"user_id":472,"name":"Cöffee","steam_id":76561198115131952,"connected_time":2139000000000,"state":"active","ping":100},{"user_id":458,"name":"Begone","steam_id":76561199093369711,"connected_time":2664000000000,"state":"active","ping":90},{"user_id":462,"name":"Naix","steam_id":76561198053893077,"connected_time":2593000000000,"state":"active","ping":57},{"user_id":502,"name":"AC/DC=A/D","steam_id":76561198101114695,"connected_time":368000000000,"state":"active","ping":90},{"user_id":510,"name":"spaghettls","steam_id":76561198107404000,"connected_time":24000000000,"state":"active","ping":50},{"user_id":498,"name":"Mr.Schnittlauch","steam_id":76561198295868113,"connected_time":468000000000,"state":"active","ping":59},{"user_id":499,"name":"kat","steam_id":76561198879664338,"connected_time":460000000000,"state":"active","ping":66},{"user_id":476,"name":"Buddy","steam_id":76561198050185582,"connected_time":1654000000000,"state":"active","ping":69},{"user_id":506,"name":"Criminal retard","steam_id":76561198103904286,"connected_time":210000000000,"state":"active","ping":68},{"user_id":460,"name":"Alyosha","steam_id":76561198032771167,"connected_time":2649000000000,"state":"active","ping":83}]},{"server_id":308,"name":"Uncletopia | Frankfurt | 3 | All Maps","name_short":"frk-3","host":"frk-1.de.uncletopia.com","port":27035,"enabled":true,"region":"eu","cc":"de","latitude":50.110924,"longitude":8.682127,"reserved":0,"last_update":"0001-01-01T00:00:00Z","name_a2s":"Uncletopia | Frankfurt | 3 | All Maps","protocol":17,"map":"cp_dustbowl","folder":"tf","game":"Team Fortress","app_id":440,"player_count":24,"max_players":24,"Bots":0,"server_type":"Dedicated","server_os":"Linux","password":true,"vac":true,"version":"7961495","steam_id":85568392924504274,"keywords":["cp","nocrits","nodmgspread","uncletopia"],"game_id":440,"stv_port":27036,"stv_name":"Uncletopia | Frankfurt | 3 | All Maps | STV","players":[{"user_id":460,"name":"sunshine","steam_id":76561198084597975,"connected_time":1660000000000,"state":"active","ping":49},{"user_id":462,"name":"emkoç","steam_id":76561198846782346,"connected_time":1644000000000,"state":"active","ping":102},{"user_id":463,"name":"Curlew","steam_id":76561198075884540,"connected_time":1616000000000,"state":"active","ping":81},{"user_id":481,"name":"Hulio Sanchez","steam_id":76561198831413561,"connected_time":753000000000,"state":"active","ping":71},{"user_id":441,"name":"Doom Slayer","steam_id":76561198265074563,"connected_time":2876000000000,"state":"active","ping":107},{"user_id":388,"name":"PanPatrik","steam_id":76561198293331527,"connected_time":7084000000000,"state":"active","ping":58},{"user_id":484,"name":"Dawidowski","steam_id":76561199137466824,"connected_time":187000000000,"state":"active","ping":65},{"user_id":464,"name":"Oreo456","steam_id":76561199120695703,"connected_time":1565000000000,"state":"active","ping":38},{"user_id":438,"name":"cock 24/7","steam_id":76561198044293799,"connected_time":3059000000000,"state":"active","ping":64},{"user_id":408,"name":"NEONPRIME.AXL","steam_id":76561198043791421,"connected_time":5147000000000,"state":"active","ping":66},{"user_id":415,"name":"Veile","steam_id":76561199007201531,"connected_time":4496000000000,"state":"active","ping":97},{"user_id":450,"name":"testiculartorsiontom","steam_id":76561199401705232,"connected_time":2675000000000,"state":"active","ping":74},{"user_id":465,"name":"Andebil","steam_id":76561198131829815,"connected_time":1562000000000,"state":"active","ping":67},{"user_id":444,"name":"bapab","steam_id":76561198307556377,"connected_time":2820000000000,"state":"active","ping":61},{"user_id":431,"name":"Bottom Son","steam_id":76561198037237664,"connected_time":3554000000000,"state":"active","ping":65},{"user_id":410,"name":"Gugu","steam_id":76561198161822358,"connected_time":4906000000000,"state":"active","ping":54},{"user_id":400,"name":"Rillegin","steam_id":76561198000376638,"connected_time":5950000000000,"state":"active","ping":67},{"user_id":454,"name":"Amoru","steam_id":76561198798161817,"connected_time":2088000000000,"state":"active","ping":81},{"user_id":466,"name":"hai","steam_id":76561198074743037,"connected_time":1550000000000,"state":"active","ping":54},{"user_id":467,"name":"SʟɪᴘEɴOʀ","steam_id":76561197967931911,"connected_time":1538000000000,"state":"active","ping":104},{"user_id":482,"name":"PelikaanEi","steam_id":76561198129780959,"connected_time":735000000000,"state":"active","ping":57},{"user_id":433,"name":"cat","steam_id":76561198832231975,"connected_time":3365000000000,"state":"active","ping":83},{"user_id":449,"name":"cargo_conductor_754","steam_id":76561198165604007,"connected_time":2763000000000,"state":"active","ping":63},{"user_id":455,"name":"Hey, I´m Andy!","steam_id":76561198060337777,"connected_time":1937000000000,"state":"active","ping":74}]},{"server_id":309,"name":"Uncletopia | Frankfurt | 4 | All Maps","name_short":"frk-4","host":"frk-1.de.uncletopia.com","port":27045,"enabled":true,"region":"eu","cc":"de","latitude":50.110924,"longitude":8.682127,"reserved":0,"last_update":"0001-01-01T00:00:00Z","name_a2s":"Uncletopia | Frankfurt | 4 | All Maps","protocol":17,"map":"pl_snowycoast","folder":"tf","game":"Team Fortress","app_id":440,"player_count":23,"max_players":24,"Bots":0,"server_type":"Dedicated","server_os":"Linux","password":true,"vac":true,"version":"7961495","steam_id":85568392924504275,"keywords":["nocrits","nodmgspread","payload","uncletopia"],"game_id":440,"stv_port":27046,"stv_name":"Uncletopia | Frankfurt | 4 | All Maps | STV","players":[{"user_id":231,"name":"Epickario","steam_id":76561199068338969,"connected_time":5306000000000,"state":"active","ping":60},{"user_id":298,"name":"X-tis","steam_id":76561198043837480,"connected_time":1738000000000,"state":"active","ping":75},{"user_id":302,"name":"silicon based life form","steam_id":76561199127121346,"connected_time":1190000000000,"state":"active","ping":69},{"user_id":306,"name":"Tegnerud","steam_id":76561198214185612,"connected_time":349000000000,"state":"active","ping":74},{"user_id":292,"name":"simeswipe","steam_id":76561198188471097,"connected_time":1938000000000,"state":"active","ping":77},{"user_id":291,"name":"TJ1212","steam_id":76561199013575313,"connected_time":1993000000000,"state":"active","ping":63},{"user_id":308,"name":"kallerannar","steam_id":76561199095701143,"connected_time":239000000000,"state":"active","ping":81},{"user_id":274,"name":"fuck you specifically","steam_id":76561198873663460,"connected_time":2959000000000,"state":"active","ping":86},{"user_id":303,"name":"Fat Pigeon","steam_id":76561198817940142,"connected_time":1030000000000,"state":"active","ping":54},{"user_id":310,"name":"Valheim","steam_id":76561198044199912,"connected_time":125000000000,"state":"active","ping":85},{"user_id":256,"name":"Elsuedi","steam_id":76561198074722832,"connected_time":4609000000000,"state":"active","ping":53},{"user_id":283,"name":"Happy Cat","steam_id":76561198405359788,"connected_time":2682000000000,"state":"active","ping":97},{"user_id":258,"name":"FoOzTV","steam_id":76561197998636728,"connected_time":4116000000000,"state":"active","ping":74},{"user_id":301,"name":"soggäh","steam_id":76561198046694824,"connected_time":1312000000000,"state":"active","ping":48},{"user_id":191,"name":"gaming time","steam_id":76561197971182017,"connected_time":8064000000000,"state":"active","ping":75},{"user_id":257,"name":"gEyfrogsE","steam_id":76561199385772902,"connected_time":4553000000000,"state":"active","ping":80},{"user_id":300,"name":"Magiccomplex","steam_id":76561199203555188,"connected_time":1360000000000,"state":"active","ping":46},{"user_id":305,"name":"wouris","steam_id":76561198876188003,"connected_time":810000000000,"state":"active","ping":57},{"user_id":286,"name":"Gustavio on controller","steam_id":76561199165539324,"connected_time":2435000000000,"state":"active","ping":60},{"user_id":288,"name":"no weed","steam_id":76561199024279010,"connected_time":2369000000000,"state":"active","ping":84},{"user_id":199,"name":"Penis Contortionist","steam_id":76561198073663784,"connected_time":7870000000000,"state":"active","ping":53},{"user_id":307,"name":"ʲᶠᵍ ✫","steam_id":76561199062437546,"connected_time":345000000000,"state":"active","ping":54},{"user_id":227,"name":"TheEventGuy","steam_id":76561197972797744,"connected_time":6325000000000,"state":"active","ping":68}]},{"server_id":310,"name":"Uncletopia | Frankfurt | 5 | All Maps","name_short":"frk-5","host":"frk-1.de.uncletopia.com","port":27055,"enabled":true,"region":"eu","cc":"de","latitude":50.110924,"longitude":8.682127,"reserved":0,"last_update":"0001-01-01T00:00:00Z","name_a2s":"Uncletopia | Frankfurt | 5 | All Maps","protocol":17,"map":"cp_mossrock","folder":"tf","game":"Team Fortress","app_id":440,"player_count":24,"max_players":24,"Bots":0,"server_type":"Dedicated","server_os":"Linux","password":true,"vac":true,"version":"7961495","steam_id":85568392924504277,"keywords":["cp","nocrits","nodmgspread","uncletopia"],"game_id":440,"stv_port":27056,"stv_name":"Uncletopia | Frankfurt | 5 | All Maps | STV","players":[{"user_id":365,"name":"Soulman25 (FIN)","steam_id":76561198103611974,"connected_time":1222000000000,"state":"active","ping":98},{"user_id":339,"name":"Daddy-O","steam_id":76561198120101147,"connected_time":3012000000000,"state":"active","ping":96},{"user_id":367,"name":"garymg","steam_id":76561198028368190,"connected_time":1015000000000,"state":"active","ping":92},{"user_id":375,"name":"Jannisxxl","steam_id":76561198048377916,"connected_time":265000000000,"state":"active","ping":74},{"user_id":344,"name":"smaller columbo","steam_id":76561198065516212,"connected_time":2901000000000,"state":"active","ping":78},{"user_id":376,"name":"Lucstardeluxe","steam_id":76561198056530288,"connected_time":141000000000,"state":"active","ping":68},{"user_id":307,"name":"willem dafoe fan","steam_id":76561198795590054,"connected_time":4901000000000,"state":"active","ping":85},{"user_id":342,"name":"EGirl | Klarra","steam_id":76561198077745407,"connected_time":2925000000000,"state":"active","ping":60},{"user_id":370,"name":"grrokr","steam_id":76561199003462804,"connected_time":894000000000,"state":"active","ping":83},{"user_id":343,"name":"Eaglet01","steam_id":76561198405491601,"connected_time":2905000000000,"state":"active","ping":85},{"user_id":362,"name":"Ottetal","steam_id":76561198018528609,"connected_time":1680000000000,"state":"active","ping":64},{"user_id":372,"name":"ImABush","steam_id":76561198304471896,"connected_time":866000000000,"state":"active","ping":49},{"user_id":377,"name":"mkwii","steam_id":76561198062507768,"connected_time":128000000000,"state":"active","ping":49},{"user_id":369,"name":"Bullet magnet (FIN)","steam_id":76561197975715220,"connected_time":1009000000000,"state":"active","ping":84},{"user_id":346,"name":"Emma","steam_id":76561198076724979,"connected_time":2867000000000,"state":"active","ping":59},{"user_id":352,"name":"Jessica","steam_id":76561198137106459,"connected_time":2476000000000,"state":"active","ping":67},{"user_id":374,"name":"Yossef⭐","steam_id":76561198009985558,"connected_time":497000000000,"state":"active","ping":109},{"user_id":305,"name":"Anri Okita's Massive Milkers","steam_id":76561199186352720,"connected_time":4983000000000,"state":"active","ping":77},{"user_id":378,"name":"Dr.Pleague_Bear","steam_id":76561198377451605,"connected_time":93000000000,"state":"active","ping":213},{"user_id":347,"name":"Apollo","steam_id":76561198067219228,"connected_time":2841000000000,"state":"active","ping":92},{"user_id":349,"name":"fat cսnt","steam_id":76561198845550388,"connected_time":2822000000000,"state":"active","ping":118},{"user_id":359,"name":"你喜欢它?","steam_id":76561198201424726,"connected_time":2001000000000,"state":"active","ping":161},{"user_id":351,"name":"hhhhhh","steam_id":76561198031982574,"connected_time":2816000000000,"state":"active","ping":43},{"user_id":306,"name":"cuzimlatin2704","steam_id":76561199094752899,"connected_time":4983000000000,"state":"active","ping":156}]},{"server_id":311,"name":"Uncletopia | Frankfurt | 6 | All Maps","name_short":"frk-6","host":"frk-1.de.uncletopia.com","port":27065,"enabled":true,"region":"eu","cc":"de","latitude":50.110924,"longitude":8.682127,"reserved":0,"last_update":"0001-01-01T00:00:00Z","name_a2s":"Uncletopia | Frankfurt | 6 | All Maps","protocol":17,"map":"pl_frontier_final","folder":"tf","game":"Team Fortress","app_id":440,"player_count":24,"max_players":24,"Bots":0,"server_type":"Dedicated","server_os":"Linux","password":true,"vac":true,"version":"7961495","steam_id":85568392924504278,"keywords":["nocrits","nodmgspread","payload","uncletopia"],"game_id":440,"stv_port":27066,"stv_name":"Uncletopia | Frankfurt | 6 | All Maps | STV","players":[{"user_id":485,"name":"svepitos","steam_id":76561198287351235,"connected_time":1015000000000,"state":"active","ping":70},{"user_id":454,"name":"Naeso","steam_id":76561198068602498,"connected_time":3395000000000,"state":"active","ping":46},{"user_id":500,"name":"Poopoo_Undies","steam_id":76561198880635604,"connected_time":276000000000,"state":"active","ping":67},{"user_id":429,"name":"Qwerty","steam_id":76561198023525894,"connected_time":4256000000000,"state":"active","ping":83},{"user_id":443,"name":"Kreos","steam_id":76561198094772516,"connected_time":3678000000000,"state":"active","ping":57},{"user_id":487,"name":"muZ","steam_id":76561198060145190,"connected_time":1003000000000,"state":"active","ping":59},{"user_id":403,"name":"Joejee","steam_id":76561199122423976,"connected_time":5548000000000,"state":"active","ping":72},{"user_id":435,"name":"ArtaKir","steam_id":76561198291746440,"connected_time":4109000000000,"state":"active","ping":76},{"user_id":470,"name":"Mr. Enjoy da money","steam_id":76561198152681460,"connected_time":2278000000000,"state":"active","ping":71},{"user_id":496,"name":"pond","steam_id":76561198214849363,"connected_time":426000000000,"state":"active","ping":79},{"user_id":502,"name":"EZN","steam_id":76561198339412521,"connected_time":4000000000,"state":"spawning","ping":113},{"user_id":471,"name":"RebirthInFire","steam_id":76561198200555755,"connected_time":2271000000000,"state":"active","ping":59},{"user_id":476,"name":"antlionguard","steam_id":76561198072747143,"connected_time":1982000000000,"state":"active","ping":88},{"user_id":497,"name":"Jasperatus","steam_id":76561198196733750,"connected_time":409000000000,"state":"active","ping":70},{"user_id":498,"name":"Gosman","steam_id":76561198062956955,"connected_time":350000000000,"state":"active","ping":72},{"user_id":488,"name":"Da bodi do","steam_id":76561198131055184,"connected_time":940000000000,"state":"active","ping":55},{"user_id":501,"name":"Syd","steam_id":76561198020515027,"connected_time":179000000000,"state":"active","ping":65},{"user_id":481,"name":"Max Power","steam_id":76561198019269089,"connected_time":1430000000000,"state":"active","ping":47},{"user_id":475,"name":"BŁäck..","steam_id":76561198300644952,"connected_time":2120000000000,"state":"active","ping":72},{"user_id":466,"name":"finbar","steam_id":76561198056812396,"connected_time":2671000000000,"state":"active","ping":78},{"user_id":467,"name":"roblan11","steam_id":76561198066839258,"connected_time":2637000000000,"state":"active","ping":47},{"user_id":489,"name":"Monkey","steam_id":76561199008411791,"connected_time":935000000000,"state":"active","ping":54},{"user_id":417,"name":"Ewelinka Zniszczenia","steam_id":76561198307374456,"connected_time":5153000000000,"state":"active","ping":69},{"user_id":419,"name":"Kaishakunin","steam_id":76561198028123874,"connected_time":5111000000000,"state":"active","ping":95}]},{"server_id":23,"name":"Uncletopia | Frankfurt | 7 | Stopwatch Beta","name_short":"frk-7","host":"frk-1.de.uncletopia.com","port":27075,"enabled":true,"region":"eu","cc":"de","latitude":50.110924,"longitude":8.682127,"reserved":0,"last_update":"0001-01-01T00:00:00Z","name_a2s":"Uncletopia | Frankfurt | 7 | Stopwatch Beta","protocol":17,"map":"workshop/koth_ashville_final.ugc2130459942","folder":"tf","game":"Team Fortress","app_id":440,"player_count":0,"max_players":24,"Bots":0,"server_type":"Dedicated","server_os":"Linux","password":true,"vac":true,"version":"7961495","steam_id":85568392924742827,"keywords":["cp","nocrits","nodmgspread","uncletopia"],"game_id":440,"stv_port":27076,"stv_name":"Uncletopia | Frankfurt | 7 | Stopwatch Beta | STV","players":null},{"server_id":24,"name":"Uncletopia | Frankfurt | 8 | Community","name_short":"frk-8","host":"frk-1.de.uncletopia.com","port":27085,"enabled":true,"region":"eu","cc":"de","latitude":50.110924,"longitude":8.682127,"reserved":0,"last_update":"0001-01-01T00:00:00Z","name_a2s":"Uncletopia | Frankfurt | 8 | Community","protocol":17,"map":"workshop/koth_bagel_rc6.ugc2514036946","folder":"tf","game":"Team Fortress","app_id":440,"player_count":7,"max_players":24,"Bots":0,"server_type":"Dedicated","server_os":"Linux","password":true,"vac":true,"version":"7961495","steam_id":85568392924742828,"keywords":["cp","nocrits","nodmgspread","uncletopia"],"game_id":440,"stv_port":27086,"stv_name":"Uncletopia | Frankfurt | 8 | Community | STV","players":[{"user_id":82,"name":"Chicken pot pie","steam_id":76561198084997090,"connected_time":219000000000,"state":"active","ping":56},{"user_id":80,"name":"Amon Gus","steam_id":76561199094540960,"connected_time":825000000000,"state":"active","ping":55},{"user_id":81,"name":"certified roast beaf maniac","steam_id":76561198081766547,"connected_time":657000000000,"state":"active","ping":70},{"user_id":21,"name":"TSx* Osa__PL","steam_id":76561198027016799,"connected_time":5096000000000,"state":"active","ping":67},{"user_id":22,"name":"TSx* Dante","steam_id":76561198139309331,"connected_time":5090000000000,"state":"active","ping":58},{"user_id":28,"name":"TSx* Naxer","steam_id":76561198011986779,"connected_time":4710000000000,"state":"active","ping":61},{"user_id":36,"name":"TSx* EmperoT","steam_id":76561198018656942,"connected_time":4008000000000,"state":"active","ping":83}]},{"server_id":202,"name":"Uncletopia | Hong Kong | 1 | All Maps","name_short":"hgk-1","host":"hgk-1.hk.uncletopia.com","port":27015,"enabled":true,"region":"asia","cc":"hk","latitude":22.302711,"longitude":114.177216,"reserved":0,"last_update":"0001-01-01T00:00:00Z","name_a2s":"Uncletopia | Hong Kong | 1 | All Maps","protocol":17,"map":"cp_mountainlab","folder":"tf","game":"Team Fortress","app_id":440,"player_count":0,"max_players":24,"Bots":0,"server_type":"Dedicated","server_os":"Linux","password":true,"vac":true,"version":"7961495","steam_id":85568392924494504,"keywords":["cp","nocrits","nodmgspread","uncletopia"],"game_id":440,"stv_port":27016,"stv_name":"Uncletopia | Hong Kong | 1 | All Maps | STV","players":null},{"server_id":1,"name":"Uncletopia | Los Angeles | 1 | All Maps","name_short":"lax-1","host":"lax-1.us.uncletopia.com","port":27015,"enabled":true,"region":"us-west","cc":"us","latitude":33.94279,"longitude":-118.41004,"reserved":0,"last_update":"0001-01-01T00:00:00Z","name_a2s":"Uncletopia | Los Angeles | 1 | All Maps","protocol":17,"map":"pl_frontier_final","folder":"tf","game":"Team Fortress","app_id":440,"player_count":24,"max_players":24,"Bots":0,"server_type":"Dedicated","server_os":"Linux","password":true,"vac":true,"version":"7961495","steam_id":85568392924469991,"keywords":["nocrits","nodmgspread","payload","uncletopia"],"game_id":440,"stv_port":27016,"stv_name":"Uncletopia | Los Angeles | 1 | All Maps | STV","players":[{"user_id":152,"name":"Kylar","steam_id":76561198196979431,"connected_time":776000000000,"state":"active","ping":59},{"user_id":124,"name":"1st year at kindergarden","steam_id":76561199100342013,"connected_time":2567000000000,"state":"active","ping":46},{"user_id":106,"name":"Chirp","steam_id":76561198240780230,"connected_time":3185000000000,"state":"active","ping":45},{"user_id":159,"name":"Karl Gerat2015","steam_id":76561199061625972,"connected_time":91000000000,"state":"spawning","ping":72},{"user_id":139,"name":"Mr. Blubber","steam_id":76561198338906916,"connected_time":1664000000000,"state":"active","ping":47},{"user_id":20,"name":"Mark","steam_id":76561199092079229,"connected_time":6964000000000,"state":"active","ping":69},{"user_id":142,"name":"eggplantgirl♥","steam_id":76561198811515692,"connected_time":1619000000000,"state":"active","ping":45},{"user_id":140,"name":"jordanfer111","steam_id":76561198044993097,"connected_time":1644000000000,"state":"active","ping":82},{"user_id":155,"name":"puffer","steam_id":76561199049164456,"connected_time":408000000000,"state":"active","ping":66},{"user_id":151,"name":"John Wesley Harding (1967)","steam_id":76561199127590316,"connected_time":1001000000000,"state":"active","ping":61},{"user_id":125,"name":"I am just a fish","steam_id":76561198062459671,"connected_time":2500000000000,"state":"active","ping":50},{"user_id":153,"name":"Maid 'n' China","steam_id":76561198423392976,"connected_time":775000000000,"state":"active","ping":47},{"user_id":135,"name":"TurnipTheBee ♀","steam_id":76561198867426986,"connected_time":1780000000000,"state":"active","ping":99},{"user_id":103,"name":"noceof","steam_id":76561198043656816,"connected_time":3647000000000,"state":"active","ping":171},{"user_id":58,"name":"don't get mad","steam_id":76561198064662875,"connected_time":5775000000000,"state":"active","ping":51},{"user_id":130,"name":"Board","steam_id":76561198134326473,"connected_time":2173000000000,"state":"active","ping":78},{"user_id":146,"name":"drevott74","steam_id":76561199262592779,"connected_time":1355000000000,"state":"active","ping":88},{"user_id":137,"name":"2Fort Cactus","steam_id":76561199273395913,"connected_time":1690000000000,"state":"active","ping":89},{"user_id":105,"name":"MintyFreshMentos","steam_id":76561198839944799,"connected_time":3314000000000,"state":"active","ping":58},{"user_id":149,"name":"Droidder","steam_id":76561198119484250,"connected_time":1223000000000,"state":"active","ping":65},{"user_id":157,"name":"momus","steam_id":76561198966979196,"connected_time":288000000000,"state":"active","ping":51},{"user_id":122,"name":"NewGuy","steam_id":76561198968058652,"connected_time":2673000000000,"state":"active","ping":72},{"user_id":128,"name":"aintnowaiyboi","steam_id":76561198301372369,"connected_time":2250000000000,"state":"active","ping":62},{"user_id":158,"name":"Cheff cook","steam_id":76561198451203268,"connected_time":287000000000,"state":"active","ping":66}]},{"server_id":112,"name":"Uncletopia | Los Angeles | 2 | All Maps","name_short":"lax-2","host":"lax-1.us.uncletopia.com","port":27025,"enabled":true,"region":"us-west","cc":"us","latitude":33.94279,"longitude":-118.41004,"reserved":0,"last_update":"0001-01-01T00:00:00Z","name_a2s":"Uncletopia | Los Angeles | 2 | All Maps","protocol":17,"map":"ctf_landfall","folder":"tf","game":"Team Fortress","app_id":440,"player_count":23,"max_players":24,"Bots":0,"server_type":"Dedicated","server_os":"Linux","password":true,"vac":true,"version":"7961495","steam_id":85568392924469992,"keywords":["ctf","nocrits","nodmgspread","uncletopia"],"game_id":440,"stv_port":27026,"stv_name":"Uncletopia | Los Angeles | 2 | All Maps | STV","players":[{"user_id":90,"name":"sunny","steam_id":76561198069380992,"connected_time":0,"state":"spawning","ping":22},{"user_id":70,"name":"YEET BOY THE GREAT","steam_id":76561198197991343,"connected_time":1323000000000,"state":"active","ping":118},{"user_id":59,"name":"A UsedNom","steam_id":76561198402832756,"connected_time":1928000000000,"state":"active","ping":44},{"user_id":14,"name":"MapleSyrup","steam_id":76561199222442855,"connected_time":4376000000000,"state":"active","ping":109},{"user_id":63,"name":"Hound_","steam_id":76561199389781834,"connected_time":1822000000000,"state":"active","ping":59},{"user_id":82,"name":"Petrivus","steam_id":76561198202152453,"connected_time":738000000000,"state":"active","ping":69},{"user_id":50,"name":"Frank Accardi","steam_id":76561198017275707,"connected_time":2544000000000,"state":"active","ping":68},{"user_id":46,"name":"thesmilingman654","steam_id":76561199196497254,"connected_time":2623000000000,"state":"active","ping":60},{"user_id":89,"name":"AT✪MIC","steam_id":76561198100385184,"connected_time":60000000000,"state":"active","ping":54},{"user_id":87,"name":"Lucile","steam_id":76561198041889138,"connected_time":371000000000,"state":"active","ping":44},{"user_id":71,"name":"MutatedOnion","steam_id":76561198239096480,"connected_time":1318000000000,"state":"active","ping":116},{"user_id":66,"name":"Vriska","steam_id":76561198942104681,"connected_time":1759000000000,"state":"active","ping":79},{"user_id":73,"name":"Teddy Roosebelt","steam_id":76561198045493149,"connected_time":1206000000000,"state":"active","ping":64},{"user_id":57,"name":"Moon Sugar Dealer","steam_id":76561198095634877,"connected_time":2183000000000,"state":"active","ping":81},{"user_id":48,"name":"TüCold","steam_id":76561198111278197,"connected_time":2567000000000,"state":"active","ping":65},{"user_id":85,"name":"ilun","steam_id":76561198042913843,"connected_time":389000000000,"state":"active","ping":90},{"user_id":86,"name":"💀King Diamond💀","steam_id":76561198012101598,"connected_time":382000000000,"state":"active","ping":45},{"user_id":31,"name":"Starkiller","steam_id":76561198101643120,"connected_time":3622000000000,"state":"active","ping":86},{"user_id":78,"name":"a cat plushie","steam_id":76561198080046542,"connected_time":890000000000,"state":"active","ping":68},{"user_id":88,"name":"elyina","steam_id":76561198035310295,"connected_time":282000000000,"state":"active","ping":45},{"user_id":83,"name":"AstronautPug","steam_id":76561198162372709,"connected_time":724000000000,"state":"active","ping":115},{"user_id":80,"name":"fart with reverb","steam_id":76561198861823583,"connected_time":794000000000,"state":"active","ping":109},{"user_id":81,"name":"Anti-Clown","steam_id":76561199041966659,"connected_time":785000000000,"state":"active","ping":104}]},{"server_id":324,"name":"Uncletopia | Los Angeles | 3 | All Maps","name_short":"lax-3","host":"lax-1.us.uncletopia.com","port":27035,"enabled":true,"region":"us-west","cc":"us","latitude":33.94279,"longitude":-118.41004,"reserved":0,"last_update":"0001-01-01T00:00:00Z","name_a2s":"Uncletopia | Los Angeles | 3 | All Maps","protocol":17,"map":"cp_process_final","folder":"tf","game":"Team Fortress","app_id":440,"player_count":0,"max_players":24,"Bots":0,"server_type":"Dedicated","server_os":"Linux","password":true,"vac":true,"version":"7961495","steam_id":85568392924510198,"keywords":["cp","nocrits","nodmgspread","uncletopia"],"game_id":440,"stv_port":27036,"stv_name":"Uncletopia | Los Angeles | 3 | All Maps | STV","players":null},{"server_id":25,"name":"Uncletopia | Los Angeles | 4 | Stopwatch Beta","name_short":"lax-4","host":"lax-1.us.uncletopia.com","port":27045,"enabled":true,"region":"us-west","cc":"us","latitude":33.94279,"longitude":-118.41004,"reserved":0,"last_update":"0001-01-01T00:00:00Z","name_a2s":"Uncletopia | Los Angeles | 4 | Stopwatch Beta","protocol":17,"map":"pl_frontier_final","folder":"tf","game":"Team Fortress","app_id":440,"player_count":0,"max_players":24,"Bots":0,"server_type":"Dedicated","server_os":"Linux","password":true,"vac":true,"version":"7961495","steam_id":85568392924510199,"keywords":["nocrits","nodmgspread","payload","uncletopia"],"game_id":440,"stv_port":27046,"stv_name":"Uncletopia | Los Angeles | 4 | Stopwatch Beta | STV","players":null},{"server_id":11,"name":"Uncletopia | London | 1 | All Maps","name_short":"lon-1","host":"lon-1.uk.uncletopia.com","port":27015,"enabled":true,"region":"eu","cc":"gb","latitude":51.509865,"longitude":-0.118092,"reserved":0,"last_update":"0001-01-01T00:00:00Z","name_a2s":"Uncletopia | London | 1 | All Maps","protocol":17,"map":"cp_snakewater_final1","folder":"tf","game":"Team Fortress","app_id":440,"player_count":23,"max_players":24,"Bots":0,"server_type":"Dedicated","server_os":"Linux","password":true,"vac":true,"version":"7961495","steam_id":85568392924367362,"keywords":["cp","nocrits","nodmgspread","uncletopia"],"game_id":440,"stv_port":27016,"stv_name":"Uncletopia | London | 1 | All Maps | STV","players":[{"user_id":686,"name":"Voidbane","steam_id":76561198060591741,"connected_time":67000000000,"state":"connecting","ping":178},{"user_id":685,"name":"Grey Clay","steam_id":76561198025646032,"connected_time":153000000000,"state":"connecting","ping":143},{"user_id":677,"name":"Adam","steam_id":76561199103777436,"connected_time":704000000000,"state":"connecting","ping":115},{"user_id":672,"name":"bigpro21god","steam_id":76561198047359132,"connected_time":886000000000,"state":"connecting","ping":98},{"user_id":641,"name":"Badrock 1","steam_id":76561198368513115,"connected_time":3158000000000,"state":"connecting","ping":160},{"user_id":652,"name":"Petight","steam_id":76561197999438798,"connected_time":1703000000000,"state":"spawning","ping":47},{"user_id":680,"name":"Joseph Stalin","steam_id":76561198033199746,"connected_time":500000000000,"state":"spawning","ping":79},{"user_id":666,"name":"KLAMA  ❤","steam_id":76561198351549661,"connected_time":1114000000000,"state":"connecting","ping":101},{"user_id":676,"name":"alan","steam_id":76561198306947435,"connected_time":836000000000,"state":"connecting","ping":73},{"user_id":688,"name":"fence_","steam_id":76561198150386379,"connected_time":25000000000,"state":"connecting","ping":34},{"user_id":689,"name":"Yukshi | LFT","steam_id":76561197994000142,"connected_time":20000000000,"state":"connecting","ping":103},{"user_id":654,"name":"mt","steam_id":76561197961319303,"connected_time":1664000000000,"state":"connecting","ping":75},{"user_id":646,"name":"Aaron","steam_id":76561197990046953,"connected_time":2395000000000,"state":"connecting","ping":70},{"user_id":675,"name":"Niko","steam_id":76561198436817109,"connected_time":840000000000,"state":"connecting","ping":62},{"user_id":670,"name":"ROX","steam_id":76561198272289320,"connected_time":924000000000,"state":"spawning","ping":66},{"user_id":673,"name":"DoctorTopLeL","steam_id":76561198088533595,"connected_time":885000000000,"state":"connecting","ping":114},{"user_id":681,"name":"Diktoulong","steam_id":76561198170613135,"connected_time":358000000000,"state":"connecting","ping":223},{"user_id":657,"name":"S.T. Inckee","steam_id":76561197973053298,"connected_time":1650000000000,"state":"connecting","ping":67},{"user_id":627,"name":"exRage","steam_id":76561198449953655,"connected_time":3679000000000,"state":"connecting","ping":73},{"user_id":682,"name":"dec","steam_id":76561198009660168,"connected_time":258000000000,"state":"connecting","ping":69},{"user_id":674,"name":"bebeda blacked out","steam_id":76561198277943630,"connected_time":880000000000,"state":"connecting","ping":89},{"user_id":679,"name":"Iountzul","steam_id":76561198956308470,"connected_time":607000000000,"state":"connecting","ping":112}]},{"server_id":114,"name":"Uncletopia | London | 2 | All Maps","name_short":"lon-2","host":"lon-1.uk.uncletopia.com","port":27025,"enabled":true,"region":"eu","cc":"gb","latitude":51.509865,"longitude":-0.118092,"reserved":0,"last_update":"0001-01-01T00:00:00Z","name_a2s":"Uncletopia | London | 2 | All Maps","protocol":17,"map":"pl_badwater","folder":"tf","game":"Team Fortress","app_id":440,"player_count":23,"max_players":24,"Bots":0,"server_type":"Dedicated","server_os":"Linux","password":true,"vac":true,"version":"7961495","steam_id":85568392924470941,"keywords":["nocrits","nodmgspread","payload","uncletopia"],"game_id":440,"stv_port":27026,"stv_name":"Uncletopia | London | 2 | All Maps | STV","players":[{"user_id":738,"name":"Soup","steam_id":76561199081651572,"connected_time":999000000000,"state":"active","ping":60},{"user_id":756,"name":"LivEssense","steam_id":76561198052476979,"connected_time":290000000000,"state":"active","ping":78},{"user_id":743,"name":":-/","steam_id":76561198068081430,"connected_time":588000000000,"state":"active","ping":43},{"user_id":744,"name":"TheScottishGamer","steam_id":76561199405414169,"connected_time":557000000000,"state":"active","ping":345},{"user_id":727,"name":"Mr.O #deletesniper","steam_id":76561198039567498,"connected_time":1414000000000,"state":"active","ping":59},{"user_id":757,"name":"GammaFishy","steam_id":76561198813693298,"connected_time":261000000000,"state":"active","ping":59},{"user_id":745,"name":"MC Stompin","steam_id":76561198061527217,"connected_time":532000000000,"state":"active","ping":56},{"user_id":748,"name":"AFairFew","steam_id":76561198194484645,"connected_time":443000000000,"state":"active","ping":57},{"user_id":749,"name":"PaulMcg365","steam_id":76561199121251870,"connected_time":400000000000,"state":"active","ping":71},{"user_id":746,"name":"Dispenser(Dispenser)","steam_id":76561199211831658,"connected_time":509000000000,"state":"active","ping":54},{"user_id":706,"name":"REN","steam_id":76561198000596385,"connected_time":2130000000000,"state":"active","ping":92},{"user_id":747,"name":"Begel #StraightPride","steam_id":76561198880844362,"connected_time":507000000000,"state":"active","ping":69},{"user_id":750,"name":"Star in a pond","steam_id":76561198205501279,"connected_time":394000000000,"state":"active","ping":104},{"user_id":731,"name":"BobbyWRLD999","steam_id":76561198960971824,"connected_time":1273000000000,"state":"active","ping":62},{"user_id":751,"name":"Spotmonkey","steam_id":76561198003994092,"connected_time":373000000000,"state":"active","ping":57},{"user_id":732,"name":"GlaruZツ","steam_id":76561198989121968,"connected_time":1254000000000,"state":"active","ping":77},{"user_id":625,"name":"Sch","steam_id":76561198071341689,"connected_time":4287000000000,"state":"active","ping":60},{"user_id":752,"name":"Aleyway","steam_id":76561198799137475,"connected_time":366000000000,"state":"active","ping":60},{"user_id":735,"name":"Golden Boy","steam_id":76561198049072159,"connected_time":1210000000000,"state":"active","ping":60},{"user_id":753,"name":"PingouinPoilu","steam_id":76561198025089253,"connected_time":357000000000,"state":"active","ping":82},{"user_id":737,"name":"Kahvi","steam_id":76561198723244199,"connected_time":1026000000000,"state":"active","ping":75},{"user_id":754,"name":"Bobo","steam_id":76561198052308399,"connected_time":355000000000,"state":"active","ping":71},{"user_id":723,"name":"screenshot2020-25-09","steam_id":76561198255275650,"connected_time":1608000000000,"state":"active","ping":59}]},{"server_id":320,"name":"Uncletopia | London | 3 | All Maps","name_short":"lon-3","host":"lon-1.uk.uncletopia.com","port":27035,"enabled":true,"region":"eu","cc":"gb","latitude":51.509865,"longitude":-0.118092,"reserved":0,"last_update":"0001-01-01T00:00:00Z","name_a2s":"Uncletopia | London | 3 | All Maps","protocol":17,"map":"cp_snakewater_final1","folder":"tf","game":"Team Fortress","app_id":440,"player_count":24,"max_players":24,"Bots":0,"server_type":"Dedicated","server_os":"Linux","password":true,"vac":true,"version":"7961495","steam_id":85568392924510192,"keywords":["cp","nocrits","nodmgspread","uncletopia"],"game_id":440,"stv_port":27036,"stv_name":"Uncletopia | London | 3 | All Maps | STV","players":[{"user_id":559,"name":"SilentSol","steam_id":76561198000798212,"connected_time":659000000000,"state":"active","ping":56},{"user_id":562,"name":"TeaAndPancakes","steam_id":76561199039103507,"connected_time":527000000000,"state":"active","ping":83},{"user_id":464,"name":"Ven_0","steam_id":76561199142511202,"connected_time":7752000000000,"state":"active","ping":55},{"user_id":569,"name":"limão","steam_id":76561198033695429,"connected_time":235000000000,"state":"active","ping":40},{"user_id":509,"name":"Comical Bird","steam_id":76561198023534657,"connected_time":3585000000000,"state":"active","ping":54},{"user_id":572,"name":"Kaotic-Chip","steam_id":76561198999984710,"connected_time":133000000000,"state":"active","ping":76},{"user_id":554,"name":"BenteBent","steam_id":76561198297920637,"connected_time":801000000000,"state":"active","ping":33},{"user_id":512,"name":"OOO joshy OOO","steam_id":76561198973133884,"connected_time":3426000000000,"state":"active","ping":53},{"user_id":564,"name":"dopamine enjoyer","steam_id":76561198140591983,"connected_time":432000000000,"state":"active","ping":84},{"user_id":542,"name":"Alolan Bob","steam_id":76561198073731504,"connected_time":1017000000000,"state":"active","ping":83},{"user_id":560,"name":"Aroo","steam_id":76561198132601368,"connected_time":612000000000,"state":"active","ping":80},{"user_id":556,"name":"Axord","steam_id":76561199289652176,"connected_time":716000000000,"state":"active","ping":64},{"user_id":558,"name":"Cuthbert","steam_id":76561198204649481,"connected_time":685000000000,"state":"active","ping":103},{"user_id":561,"name":"NucoDocx","steam_id":76561198106037637,"connected_time":609000000000,"state":"active","ping":55},{"user_id":536,"name":"Plep","steam_id":76561198840259819,"connected_time":1645000000000,"state":"active","ping":58},{"user_id":571,"name":"Lightboom","steam_id":76561198104645103,"connected_time":183000000000,"state":"active","ping":93},{"user_id":565,"name":"Tailandietis85","steam_id":76561198173205551,"connected_time":405000000000,"state":"active","ping":75},{"user_id":566,"name":"mink","steam_id":76561198199117446,"connected_time":370000000000,"state":"active","ping":59},{"user_id":567,"name":"IKilledMyWifeAndChildren","steam_id":76561199094465962,"connected_time":333000000000,"state":"active","ping":45},{"user_id":568,"name":"flamingosaurus","steam_id":76561198051455397,"connected_time":315000000000,"state":"active","ping":41},{"user_id":573,"name":"Silver","steam_id":76561198175238807,"connected_time":117000000000,"state":"active","ping":46},{"user_id":574,"name":"Glenn Quagmire","steam_id":76561199348527880,"connected_time":106000000000,"state":"active","ping":95},{"user_id":406,"name":"Gaxkang","steam_id":76561198125768571,"connected_time":12006000000000,"state":"active","ping":55},{"user_id":575,"name":"etc","steam_id":76561197998394797,"connected_time":64000000000,"state":"active","ping":55}]},{"server_id":321,"name":"Uncletopia | London | 4 | All Maps","name_short":"lon-4","host":"lon-1.uk.uncletopia.com","port":27045,"enabled":true,"region":"eu","cc":"gb","latitude":51.509865,"longitude":-0.118092,"reserved":0,"last_update":"0001-01-01T00:00:00Z","name_a2s":"Uncletopia | London | 4 | All Maps","protocol":17,"map":"ctf_well","folder":"tf","game":"Team Fortress","app_id":440,"player_count":16,"max_players":24,"Bots":0,"server_type":"Dedicated","server_os":"Linux","password":true,"vac":true,"version":"7961495","steam_id":85568392924510193,"keywords":["ctf","nocrits","nodmgspread","uncletopia"],"game_id":440,"stv_port":27046,"stv_name":"Uncletopia | London | 4 | All Maps | STV","players":[{"user_id":203,"name":"Eidolon","steam_id":76561198043919565,"connected_time":6050000000000,"state":"active","ping":57},{"user_id":296,"name":"Burgoo_King","steam_id":76561198133572225,"connected_time":203000000000,"state":"active","ping":75},{"user_id":294,"name":"korben","steam_id":76561199121918383,"connected_time":357000000000,"state":"active","ping":58},{"user_id":297,"name":"DragonFruit","steam_id":76561198099526623,"connected_time":113000000000,"state":"active","ping":92},{"user_id":299,"name":"A Succulent Chinese Meal","steam_id":76561198069472440,"connected_time":57000000000,"state":"active","ping":85},{"user_id":256,"name":"soup","steam_id":76561198386933065,"connected_time":2750000000000,"state":"active","ping":74},{"user_id":287,"name":"StingyLettuce","steam_id":76561199010337406,"connected_time":802000000000,"state":"active","ping":111},{"user_id":300,"name":"Gardvord","steam_id":76561198120715753,"connected_time":9000000000,"state":"spawning","ping":200},{"user_id":271,"name":"foolproof","steam_id":76561198115801132,"connected_time":1980000000000,"state":"active","ping":54},{"user_id":38,"name":":3","steam_id":76561198169471853,"connected_time":19234000000000,"state":"active","ping":40},{"user_id":228,"name":"Mobster Tortoise","steam_id":76561199036837091,"connected_time":4622000000000,"state":"active","ping":89},{"user_id":266,"name":"NotChloe","steam_id":76561198080658092,"connected_time":2148000000000,"state":"active","ping":62},{"user_id":278,"name":"SupMan","steam_id":76561199044123799,"connected_time":1460000000000,"state":"active","ping":91},{"user_id":268,"name":"Samwell","steam_id":76561198182340393,"connected_time":2058000000000,"state":"active","ping":53},{"user_id":293,"name":"Sexx Co.","steam_id":76561198881000162,"connected_time":469000000000,"state":"active","ping":149},{"user_id":292,"name":"pablo","steam_id":76561198089285014,"connected_time":588000000000,"state":"active","ping":57}]},{"server_id":21,"name":"Uncletopia | London | 5 | All Maps","name_short":"lon-5","host":"lon-1.uk.uncletopia.com","port":27055,"enabled":true,"region":"eu","cc":"gb","latitude":51.509865,"longitude":-0.118092,"reserved":0,"last_update":"0001-01-01T00:00:00Z","name_a2s":"Uncletopia | London | 5 | All Maps","protocol":17,"map":"pl_enclosure_final","folder":"tf","game":"Team Fortress","app_id":440,"player_count":16,"max_players":24,"Bots":0,"server_type":"Dedicated","server_os":"Linux","password":true,"vac":true,"version":"7961495","steam_id":85568392924742829,"keywords":["nocrits","nodmgspread","payload","uncletopia"],"game_id":440,"stv_port":27056,"stv_name":"Uncletopia | London | 5 | All Maps | STV","players":[{"user_id":449,"name":"Puss in Boots","steam_id":76561198211599767,"connected_time":164000000000,"state":"active","ping":47},{"user_id":286,"name":"Milca_11 Bow user","steam_id":76561198848650365,"connected_time":10169000000000,"state":"active","ping":80},{"user_id":450,"name":"Eddy Merckx 2","steam_id":76561198150009727,"connected_time":127000000000,"state":"active","ping":61},{"user_id":413,"name":"GetCremeEgged","steam_id":76561199123415870,"connected_time":1720000000000,"state":"active","ping":55},{"user_id":452,"name":"fregaropa","steam_id":76561198150806166,"connected_time":51000000000,"state":"spawning","ping":66},{"user_id":448,"name":"Kekster","steam_id":76561198302448192,"connected_time":202000000000,"state":"active","ping":30},{"user_id":451,"name":"Nonok","steam_id":76561199480685498,"connected_time":125000000000,"state":"active","ping":69},{"user_id":442,"name":"cinny","steam_id":76561198832112629,"connected_time":720000000000,"state":"active","ping":124},{"user_id":430,"name":"gothmoth","steam_id":76561198386910896,"connected_time":1184000000000,"state":"active","ping":66},{"user_id":424,"name":"Hydrone","steam_id":76561198046485365,"connected_time":1459000000000,"state":"active","ping":41},{"user_id":437,"name":"Osqq :s","steam_id":76561198075465106,"connected_time":826000000000,"state":"active","ping":85},{"user_id":425,"name":"N","steam_id":76561198257342972,"connected_time":1415000000000,"state":"active","ping":60},{"user_id":427,"name":"7oid","steam_id":76561198142074232,"connected_time":1330000000000,"state":"active","ping":97},{"user_id":428,"name":"Personano","steam_id":76561198994355577,"connected_time":1292000000000,"state":"active","ping":48},{"user_id":330,"name":"Ixsus\u003c3","steam_id":76561198094756869,"connected_time":7757000000000,"state":"active","ping":74},{"user_id":440,"name":"Krabs","steam_id":76561198161679477,"connected_time":795000000000,"state":"active","ping":44}]},{"server_id":22,"name":"Uncletopia | London | 6 | All Maps","name_short":"lon-6","host":"lon-1.uk.uncletopia.com","port":27065,"enabled":true,"region":"eu","cc":"gb","latitude":51.509865,"longitude":-0.118092,"reserved":0,"last_update":"0001-01-01T00:00:00Z","name_a2s":"Uncletopia | London | 6 | All Maps","protocol":17,"map":"koth_cascade","folder":"tf","game":"Team Fortress","app_id":440,"player_count":0,"max_players":24,"Bots":0,"server_type":"Dedicated","server_os":"Linux","password":true,"vac":true,"version":"7961495","steam_id":85568392924742830,"keywords":["cp","nocrits","nodmgspread","uncletopia"],"game_id":440,"stv_port":27066,"stv_name":"Uncletopia | London | 6 | All Maps | STV","players":null},{"server_id":40,"name":"Uncletopia | London | 7 | No Payload","name_short":"lon-7","host":"lon-1.uk.uncletopia.com","port":27075,"enabled":true,"region":"eu","cc":"gb","latitude":51.509865,"longitude":-0.118092,"reserved":0,"last_update":"0001-01-01T00:00:00Z","name_a2s":"Uncletopia | London | 7 | No Payload","protocol":17,"map":"koth_nucleus","folder":"tf","game":"Team Fortress","app_id":440,"player_count":20,"max_players":24,"Bots":0,"server_type":"Dedicated","server_os":"Linux","password":true,"vac":true,"version":"7961495","steam_id":85568392924964314,"keywords":["cp","nocrits","nodmgspread","uncletopia"],"game_id":440,"stv_port":27076,"stv_name":"Uncletopia | London | 7 | No Payload | STV","players":[{"user_id":153,"name":"Berdly","steam_id":76561199029872533,"connected_time":2156000000000,"state":"active","ping":47},{"user_id":133,"name":"Mauzio","steam_id":76561198973582994,"connected_time":3357000000000,"state":"active","ping":70},{"user_id":166,"name":"Yachooo","steam_id":76561198085972300,"connected_time":1031000000000,"state":"active","ping":58},{"user_id":124,"name":"Blad","steam_id":76561198866832210,"connected_time":4207000000000,"state":"active","ping":69},{"user_id":144,"name":"Nornia","steam_id":76561198040509712,"connected_time":2811000000000,"state":"active","ping":59},{"user_id":173,"name":"Idiot.","steam_id":76561198991571626,"connected_time":332000000000,"state":"active","ping":43},{"user_id":174,"name":"TSM mande","steam_id":76561198261795972,"connected_time":302000000000,"state":"active","ping":59},{"user_id":137,"name":"kluri","steam_id":76561198084518962,"connected_time":3308000000000,"state":"active","ping":71},{"user_id":175,"name":"timvs5","steam_id":76561198136646312,"connected_time":283000000000,"state":"active","ping":60},{"user_id":178,"name":"old dumpster","steam_id":76561198251951544,"connected_time":202000000000,"state":"active","ping":121},{"user_id":122,"name":"dash.","steam_id":76561198084796149,"connected_time":4528000000000,"state":"active","ping":46},{"user_id":162,"name":"The☆Cops","steam_id":76561198146358073,"connected_time":1494000000000,"state":"active","ping":100},{"user_id":136,"name":"INFINITE WISDOM","steam_id":76561198329621152,"connected_time":3335000000000,"state":"active","ping":59},{"user_id":135,"name":"m909","steam_id":76561198279621400,"connected_time":3356000000000,"state":"active","ping":94},{"user_id":163,"name":"i can't see","steam_id":76561198056798578,"connected_time":1325000000000,"state":"active","ping":55},{"user_id":169,"name":"Noob_with_source","steam_id":76561198870362103,"connected_time":804000000000,"state":"active","ping":59},{"user_id":138,"name":"collin","steam_id":76561198067030681,"connected_time":3299000000000,"state":"active","ping":45},{"user_id":177,"name":"tiru","steam_id":76561197977037763,"connected_time":238000000000,"state":"active","ping":70},{"user_id":171,"name":"Hans","steam_id":76561198030061999,"connected_time":736000000000,"state":"active","ping":83},{"user_id":172,"name":"THE Grosser","steam_id":76561197995530666,"connected_time":641000000000,"state":"active","ping":60}]},{"server_id":41,"name":"Uncletopia | London | 8 | Community","name_short":"lon-8","host":"lon-1.uk.uncletopia.com","port":27085,"enabled":true,"region":"eu","cc":"gb","latitude":51.509865,"longitude":-0.118092,"reserved":0,"last_update":"0001-01-01T00:00:00Z","name_a2s":"Uncletopia | London | 8 | Community","protocol":17,"map":"workshop/koth_ramjam_rc1.ugc459778887","folder":"tf","game":"Team Fortress","app_id":440,"player_count":0,"max_players":24,"Bots":0,"server_type":"Dedicated","server_os":"Linux","password":true,"vac":true,"version":"7961495","steam_id":85568392924964315,"keywords":["cp","nocrits","nodmgspread","uncletopia"],"game_id":440,"stv_port":27086,"stv_name":"Uncletopia | London | 8 | Community | STV","players":null},{"server_id":300,"name":"Uncletopia | Montréal | 1 | All Maps","name_short":"mtl-1","host":"mtl-1.ca.uncletopia.com","port":27015,"enabled":true,"region":"us-east","cc":"ca","latitude":45.50889,"longitude":-73.56167,"reserved":0,"last_update":"0001-01-01T00:00:00Z","name_a2s":"Uncletopia | Montréal | 1 | All Maps","protocol":17,"map":"koth_cascade","folder":"tf","game":"Team Fortress","app_id":440,"player_count":2,"max_players":24,"Bots":0,"server_type":"Dedicated","server_os":"Linux","password":true,"vac":true,"version":"7961495","steam_id":85568392924500087,"keywords":["cp","nocrits","nodmgspread","uncletopia"],"game_id":440,"stv_port":27016,"stv_name":"Uncletopia | Montréal | 1 | All Maps | STV","players":[{"user_id":7,"name":"No Life 'Til Leather","steam_id":76561199153776236,"connected_time":866000000000,"state":"active","ping":85},{"user_id":8,"name":"fcjmfjlaj1015","steam_id":76561199138556496,"connected_time":843000000000,"state":"active","ping":81}]},{"server_id":301,"name":"Uncletopia | Montréal | 2 | All Maps","name_short":"mtl-2","host":"mtl-1.ca.uncletopia.com","port":27025,"enabled":true,"region":"us-east","cc":"ca","latitude":45.50889,"longitude":-73.56167,"reserved":0,"last_update":"0001-01-01T00:00:00Z","name_a2s":"Uncletopia | Montréal | 2 | All Maps","protocol":17,"map":"koth_cascade","folder":"tf","game":"Team Fortress","app_id":440,"player_count":0,"max_players":24,"Bots":0,"server_type":"Dedicated","server_os":"Linux","password":true,"vac":true,"version":"7961495","steam_id":85568392924500088,"keywords":["cp","nocrits","nodmgspread","uncletopia"],"game_id":440,"stv_port":27026,"stv_name":"Uncletopia | Montréal | 2 | All Maps | STV","players":null},{"server_id":302,"name":"Uncletopia | Montréal | 3 | All Maps","name_short":"mtl-3","host":"mtl-1.ca.uncletopia.com","port":27035,"enabled":true,"region":"us-east","cc":"ca","latitude":45.50889,"longitude":-73.56167,"reserved":0,"last_update":"0001-01-01T00:00:00Z","name_a2s":"Uncletopia | Montréal | 3 | All Maps","protocol":17,"map":"pl_swiftwater_final1","folder":"tf","game":"Team Fortress","app_id":440,"player_count":0,"max_players":24,"Bots":0,"server_type":"Dedicated","server_os":"Linux","password":true,"vac":true,"version":"7961495","steam_id":85568392924500089,"keywords":["nocrits","nodmgspread","payload","uncletopia"],"game_id":440,"stv_port":27036,"stv_name":"Uncletopia | Montréal | 3 | All Maps | STV","players":null},{"server_id":303,"name":"Uncletopia | Montréal | 4 | No Payload","name_short":"mtl-4","host":"mtl-1.ca.uncletopia.com","port":27045,"enabled":true,"region":"us-east","cc":"ca","latitude":45.50889,"longitude":-73.56167,"reserved":0,"last_update":"0001-01-01T00:00:00Z","name_a2s":"Uncletopia | Montréal | 4 | No Payload","protocol":17,"map":"plr_pipeline","folder":"tf","game":"Team Fortress","app_id":440,"player_count":0,"max_players":24,"Bots":0,"server_type":"Dedicated","server_os":"Linux","password":true,"vac":true,"version":"7961495","steam_id":85568392924500090,"keywords":["nocrits","nodmgspread","payload","uncletopia"],"game_id":440,"stv_port":27046,"stv_name":"Uncletopia | Montréal | 4 | No Payload | STV","players":null},{"server_id":13,"name":"Uncletopia | New York City | 1 | All Maps","name_short":"nyc-1","host":"nyc-1.us.uncletopia.com","port":27015,"enabled":true,"region":"us-east","cc":"us","latitude":40.73061,"longitude":-73.93524,"reserved":0,"last_update":"0001-01-01T00:00:00Z","name_a2s":"Uncletopia | New York City | 1 | All Maps","protocol":17,"map":"koth_harvest_final","folder":"tf","game":"Team Fortress","app_id":440,"player_count":24,"max_players":24,"Bots":0,"server_type":"Dedicated","server_os":"Linux","password":true,"vac":true,"version":"7961495","steam_id":85568392924469993,"keywords":["cp","nocrits","nodmgspread","uncletopia"],"game_id":440,"stv_port":27016,"stv_name":"Uncletopia | New York City | 1 | All Maps | STV","players":[{"user_id":398,"name":"vadim_kotler","steam_id":76561199016634369,"connected_time":431000000000,"state":"active","ping":173},{"user_id":371,"name":"SentiuntReus","steam_id":76561198208788677,"connected_time":1023000000000,"state":"active","ping":54},{"user_id":394,"name":"FrogInShorts","steam_id":76561198081903213,"connected_time":609000000000,"state":"active","ping":76},{"user_id":367,"name":"Monsieur l'INGENIEUR","steam_id":76561198090504334,"connected_time":1049000000000,"state":"active","ping":60},{"user_id":353,"name":"workin for snapple","steam_id":76561198013732450,"connected_time":1511000000000,"state":"active","ping":75},{"user_id":385,"name":"dr peppah chug!","steam_id":76561198068835693,"connected_time":735000000000,"state":"active","ping":80},{"user_id":355,"name":"Dracona","steam_id":76561199013458156,"connected_time":1489000000000,"state":"active","ping":86},{"user_id":384,"name":"NoihBuns","steam_id":76561198371441486,"connected_time":740000000000,"state":"active","ping":148},{"user_id":386,"name":"accordionkitten","steam_id":76561198392485109,"connected_time":729000000000,"state":"active","ping":68},{"user_id":376,"name":"HighIntensity","steam_id":76561198847475285,"connected_time":885000000000,"state":"active","ping":68},{"user_id":387,"name":"defect player","steam_id":76561198055855534,"connected_time":709000000000,"state":"active","ping":44},{"user_id":363,"name":"ck_rene","steam_id":76561199079260488,"connected_time":1275000000000,"state":"active","ping":46},{"user_id":370,"name":"Umbrella","steam_id":76561198211128411,"connected_time":1033000000000,"state":"active","ping":54},{"user_id":378,"name":"john01k","steam_id":76561198059731548,"connected_time":873000000000,"state":"active","ping":90},{"user_id":399,"name":"Tibalt Nyahuma","steam_id":76561198034779431,"connected_time":385000000000,"state":"active","ping":80},{"user_id":369,"name":"totally nuts","steam_id":76561198072856511,"connected_time":1048000000000,"state":"active","ping":66},{"user_id":400,"name":"freedom staff","steam_id":76561199123218315,"connected_time":384000000000,"state":"active","ping":105},{"user_id":328,"name":"space mann","steam_id":76561198174447043,"connected_time":3099000000000,"state":"active","ping":39},{"user_id":337,"name":"eWVra2Vy","steam_id":76561198453565942,"connected_time":2604000000000,"state":"active","ping":71},{"user_id":392,"name":"I'mWalkerHere","steam_id":76561199310055450,"connected_time":622000000000,"state":"active","ping":71},{"user_id":397,"name":"Satan's Salad","steam_id":76561198043965827,"connected_time":529000000000,"state":"active","ping":76},{"user_id":393,"name":"SPRAYON9G","steam_id":76561199051975650,"connected_time":618000000000,"state":"active","ping":54},{"user_id":401,"name":"LittleFieryOne","steam_id":76561198107463724,"connected_time":287000000000,"state":"active","ping":75},{"user_id":366,"name":"Bee","steam_id":76561198074681324,"connected_time":1147000000000,"state":"active","ping":46}]},{"server_id":14,"name":"Uncletopia | New York City | 2 | All Maps","name_short":"nyc-2","host":"nyc-1.us.uncletopia.com","port":27025,"enabled":true,"region":"us-east","cc":"us","latitude":40.73061,"longitude":-73.93524,"reserved":0,"last_update":"0001-01-01T00:00:00Z","name_a2s":"Uncletopia | New York City | 2 | All Maps","protocol":17,"map":"pl_barnblitz","folder":"tf","game":"Team Fortress","app_id":440,"player_count":24,"max_players":24,"Bots":0,"server_type":"Dedicated","server_os":"Linux","password":true,"vac":true,"version":"7961495","steam_id":85568392924469994,"keywords":["nocrits","nodmgspread","payload","uncletopia"],"game_id":440,"stv_port":27026,"stv_name":"Uncletopia | New York City | 2 | All Maps | STV","players":[{"user_id":237,"name":"Necronoxide","steam_id":76561197997856321,"connected_time":5538000000000,"state":"active","ping":91},{"user_id":287,"name":"capeeKo","steam_id":76561197970346623,"connected_time":562000000000,"state":"active","ping":57},{"user_id":239,"name":"RyInc","steam_id":76561198874261643,"connected_time":5405000000000,"state":"active","ping":57},{"user_id":274,"name":"Arjen PSN 23","steam_id":76561198963682232,"connected_time":1777000000000,"state":"active","ping":45},{"user_id":294,"name":"ThePacBruno","steam_id":76561198046084545,"connected_time":16000000000,"state":"spawning","ping":217},{"user_id":281,"name":"CF-TF2","steam_id":76561198145893044,"connected_time":1279000000000,"state":"active","ping":68},{"user_id":288,"name":"Mr. ICEE","steam_id":76561198004377171,"connected_time":460000000000,"state":"active","ping":118},{"user_id":273,"name":"Hugful :D","steam_id":76561198249609772,"connected_time":1908000000000,"state":"active","ping":78},{"user_id":99,"name":"ArtoMeister","steam_id":76561198374963088,"connected_time":15101000000000,"state":"active","ping":97},{"user_id":279,"name":"Red Hot Fish Princess [Dexgod]","steam_id":76561198017130786,"connected_time":1470000000000,"state":"active","ping":70},{"user_id":219,"name":"Bee_Pirate","steam_id":76561199000599111,"connected_time":6964000000000,"state":"active","ping":71},{"user_id":291,"name":"MetalNavigator","steam_id":76561198974231439,"connected_time":334000000000,"state":"active","ping":95},{"user_id":254,"name":"InchMan","steam_id":76561198272658825,"connected_time":3495000000000,"state":"active","ping":103},{"user_id":272,"name":"Bob \"Hell Rider\" White","steam_id":76561198979277948,"connected_time":1979000000000,"state":"active","ping":99},{"user_id":269,"name":"biggietgaming101","steam_id":76561199466309068,"connected_time":2123000000000,"state":"active","ping":32},{"user_id":240,"name":"Virtual Zorua","steam_id":76561198196180302,"connected_time":5251000000000,"state":"active","ping":92},{"user_id":292,"name":"saib","steam_id":76561198966980576,"connected_time":280000000000,"state":"active","ping":51},{"user_id":280,"name":"The Sinister Potion","steam_id":76561198131280715,"connected_time":1374000000000,"state":"active","ping":57},{"user_id":233,"name":"Mr. Durian","steam_id":76561198093813212,"connected_time":5667000000000,"state":"active","ping":48},{"user_id":285,"name":"PeopleOrderOurPatties","steam_id":76561198323144922,"connected_time":748000000000,"state":"active","ping":73},{"user_id":271,"name":"CollegeBabes","steam_id":76561198346710167,"connected_time":2058000000000,"state":"active","ping":63},{"user_id":277,"name":"Fig Issac Newton","steam_id":76561198202149924,"connected_time":1659000000000,"state":"active","ping":67},{"user_id":293,"name":"Crazy Ivan","steam_id":76561197993072059,"connected_time":84000000000,"state":"active","ping":60},{"user_id":229,"name":"HeavyMettleDick","steam_id":76561198001925087,"connected_time":6189000000000,"state":"active","ping":83}]},{"server_id":15,"name":"Uncletopia | New York City | 3 | Stopwatch Beta","name_short":"nyc-3","host":"nyc-1.us.uncletopia.com","port":27035,"enabled":true,"region":"us-east","cc":"us","latitude":40.73061,"longitude":-73.93524,"reserved":0,"last_update":"0001-01-01T00:00:00Z","name_a2s":"Uncletopia | New York City | 3 | Stopwatch Beta","protocol":17,"map":"cp_snakewater_final1","folder":"tf","game":"Team Fortress","app_id":440,"player_count":22,"max_players":24,"Bots":0,"server_type":"Dedicated","server_os":"Linux","password":true,"vac":true,"version":"7961495","steam_id":85568392924742820,"keywords":["cp","nocrits","nodmgspread","uncletopia"],"game_id":440,"stv_port":27036,"stv_name":"Uncletopia | New York City | 3 | Stopwatch Beta | STV","players":[{"user_id":156,"name":"Athoth","steam_id":76561199003843824,"connected_time":227000000000,"state":"active","ping":49},{"user_id":144,"name":"Post nut clarity","steam_id":76561198060246831,"connected_time":812000000000,"state":"active","ping":71},{"user_id":158,"name":"Corpokev","steam_id":76561198180884222,"connected_time":189000000000,"state":"active","ping":54},{"user_id":69,"name":"Cookie","steam_id":76561198047736899,"connected_time":8247000000000,"state":"active","ping":39},{"user_id":155,"name":"lost in spaaaaace","steam_id":76561199085974120,"connected_time":333000000000,"state":"active","ping":57},{"user_id":59,"name":"Fresh Lychee","steam_id":76561198045399559,"connected_time":8861000000000,"state":"active","ping":63},{"user_id":151,"name":"potato pat","steam_id":76561198025489194,"connected_time":512000000000,"state":"active","ping":90},{"user_id":149,"name":"Antoni","steam_id":76561198090577320,"connected_time":572000000000,"state":"active","ping":45},{"user_id":35,"name":"The World's Softest Sandwich","steam_id":76561198015577707,"connected_time":9912000000000,"state":"active","ping":98},{"user_id":101,"name":"DualiTea","steam_id":76561198081733870,"connected_time":5047000000000,"state":"active","ping":60},{"user_id":162,"name":"cheeeeet","steam_id":76561198224614084,"connected_time":54000000000,"state":"active","ping":69},{"user_id":159,"name":"Dreysidel","steam_id":76561198056496183,"connected_time":187000000000,"state":"active","ping":65},{"user_id":94,"name":"toastman","steam_id":76561198207073088,"connected_time":5473000000000,"state":"active","ping":85},{"user_id":106,"name":"Infinity","steam_id":76561199134919099,"connected_time":4973000000000,"state":"active","ping":55},{"user_id":43,"name":"Sebi D","steam_id":76561198017057758,"connected_time":9373000000000,"state":"active","ping":64},{"user_id":44,"name":"TheGlitch","steam_id":76561198996535082,"connected_time":9366000000000,"state":"active","ping":60},{"user_id":160,"name":"Raizen","steam_id":76561199092445367,"connected_time":130000000000,"state":"active","ping":44},{"user_id":161,"name":"Scrumlet","steam_id":76561198339806643,"connected_time":116000000000,"state":"active","ping":89},{"user_id":153,"name":"Baleaf","steam_id":76561199193980999,"connected_time":447000000000,"state":"active","ping":77},{"user_id":139,"name":"Fredrick","steam_id":76561197981419964,"connected_time":1788000000000,"state":"active","ping":49},{"user_id":154,"name":"vandeer","steam_id":76561198120124007,"connected_time":446000000000,"state":"active","ping":85},{"user_id":140,"name":"MY LOVE DRIPS IN RED","steam_id":76561198072179483,"connected_time":1723000000000,"state":"active","ping":89}]},{"server_id":16,"name":"Uncletopia | New York City | 4 | Community","name_short":"nyc-4","host":"nyc-1.us.uncletopia.com","port":27045,"enabled":true,"region":"us-east","cc":"us","latitude":40.73061,"longitude":-73.93524,"reserved":0,"last_update":"0001-01-01T00:00:00Z","name_a2s":"Uncletopia | New York City | 4 | Community","protocol":17,"map":"workshop/koth_slaughter_rc1.ugc1712845210","folder":"tf","game":"Team Fortress","app_id":440,"player_count":0,"max_players":24,"Bots":0,"server_type":"Dedicated","server_os":"Linux","password":true,"vac":true,"version":"7961495","steam_id":85568392924742821,"keywords":["cp","nocrits","nodmgspread","uncletopia"],"game_id":440,"stv_port":27046,"stv_name":"Uncletopia | New York City | 4 | Community | STV","players":null},{"server_id":142,"name":"Uncletopia | São Paulo | 1 | All Maps","name_short":"sao-1","host":"sao-1.br.uncletopia.com","port":27015,"enabled":true,"region":"sa","cc":"br","latitude":-23.533773,"longitude":-46.62529,"reserved":0,"last_update":"0001-01-01T00:00:00Z","name_a2s":"Uncletopia | São Paulo | 1 | All Maps","protocol":17,"map":"koth_highpass","folder":"tf","game":"Team Fortress","app_id":440,"player_count":0,"max_players":24,"Bots":0,"server_type":"Dedicated","server_os":"Linux","password":true,"vac":true,"version":"7961495","steam_id":85568392924469996,"keywords":["cp","nocrits","nodmgspread","uncletopia"],"game_id":440,"stv_port":27016,"stv_name":"Uncletopia | São Paulo | 1 | All Maps | STV","players":null},{"server_id":143,"name":"Uncletopia | São Paulo | 2 | All Maps","name_short":"sao-2","host":"sao-2.br.uncletopia.com","port":27015,"enabled":true,"region":"sa","cc":"br","latitude":-23.533773,"longitude":-46.62529,"reserved":0,"last_update":"0001-01-01T00:00:00Z","name_a2s":"Uncletopia | São Paulo | 2 | All Maps","protocol":17,"map":"pl_pier","folder":"tf","game":"Team Fortress","app_id":440,"player_count":24,"max_players":24,"Bots":0,"server_type":"Dedicated","server_os":"Linux","password":true,"vac":true,"version":"7961495","steam_id":85568392924485349,"keywords":["nocrits","nodmgspread","payload","uncletopia"],"game_id":440,"stv_port":27016,"stv_name":"Uncletopia | São Paulo | 2 | All Maps | STV","players":[{"user_id":17,"name":"Tj","steam_id":76561199144268605,"connected_time":3314000000000,"state":"active","ping":67},{"user_id":40,"name":"cezar","steam_id":76561198426484905,"connected_time":1720000000000,"state":"active","ping":58},{"user_id":60,"name":"festive BD","steam_id":76561198057862181,"connected_time":39000000000,"state":"active","ping":188},{"user_id":47,"name":"tecoletto","steam_id":76561199115657287,"connected_time":1141000000000,"state":"active","ping":96},{"user_id":22,"name":"goofy gupp buttercup","steam_id":76561198391399039,"connected_time":3072000000000,"state":"active","ping":69},{"user_id":48,"name":"TsukoLover","steam_id":76561199066360306,"connected_time":1139000000000,"state":"active","ping":75},{"user_id":46,"name":"Miti","steam_id":76561198169084647,"connected_time":1346000000000,"state":"active","ping":64},{"user_id":26,"name":"Heavy's sandwicheria","steam_id":76561199434489438,"connected_time":2717000000000,"state":"active","ping":101},{"user_id":44,"name":"Shadéchet","steam_id":76561198290546763,"connected_time":1548000000000,"state":"active","ping":78},{"user_id":28,"name":"K. Montozo","steam_id":76561198892462260,"connected_time":2420000000000,"state":"active","ping":76},{"user_id":29,"name":"Blob","steam_id":76561198403876902,"connected_time":2326000000000,"state":"active","ping":116},{"user_id":37,"name":"portuga","steam_id":76561198876309936,"connected_time":1922000000000,"state":"active","ping":54},{"user_id":45,"name":"Grite para Ubercharge","steam_id":76561198381380154,"connected_time":1525000000000,"state":"active","ping":58},{"user_id":55,"name":"Leokadio, o pistoleiro galátic","steam_id":76561198048884985,"connected_time":333000000000,"state":"active","ping":76},{"user_id":43,"name":"matheus whatsapp","steam_id":76561199359501901,"connected_time":1652000000000,"state":"active","ping":43},{"user_id":34,"name":"mrdanilo671","steam_id":76561199267088479,"connected_time":2170000000000,"state":"active","ping":56},{"user_id":54,"name":"Gogoyle50","steam_id":76561198148524228,"connected_time":763000000000,"state":"active","ping":50},{"user_id":50,"name":"Frans","steam_id":76561198207928860,"connected_time":1084000000000,"state":"active","ping":35},{"user_id":52,"name":"lezv","steam_id":76561199083829484,"connected_time":911000000000,"state":"active","ping":46},{"user_id":53,"name":"Luki 1331","steam_id":76561198810332241,"connected_time":910000000000,"state":"active","ping":56},{"user_id":56,"name":"エリク","steam_id":76561198076802227,"connected_time":324000000000,"state":"active","ping":58},{"user_id":57,"name":"Rafael","steam_id":76561198943074772,"connected_time":318000000000,"state":"active","ping":65},{"user_id":58,"name":"Wellington","steam_id":76561198083048102,"connected_time":309000000000,"state":"active","ping":63},{"user_id":59,"name":"Will","steam_id":76561198811436132,"connected_time":298000000000,"state":"active","ping":53}]},{"server_id":7,"name":"Uncletopia | Seattle | 1 | All Maps","name_short":"sea-1","host":"sea-1.us.uncletopia.com","port":27015,"enabled":true,"region":"us-west","cc":"us","latitude":47.608013,"longitude":-122.33517,"reserved":0,"last_update":"0001-01-01T00:00:00Z","name_a2s":"Uncletopia | Seattle | 1 | All Maps","protocol":17,"map":"pl_snowycoast","folder":"tf","game":"Team Fortress","app_id":440,"player_count":24,"max_players":24,"Bots":0,"server_type":"Dedicated","server_os":"Linux","password":true,"vac":true,"version":"7961495","steam_id":85568392924469997,"keywords":["nocrits","nodmgspread","payload","uncletopia"],"game_id":440,"stv_port":27016,"stv_name":"Uncletopia | Seattle | 1 | All Maps | STV","players":[{"user_id":79,"name":"Golddick Lewisson","steam_id":76561198054719949,"connected_time":4865000000000,"state":"active","ping":62},{"user_id":112,"name":"FireQuiz","steam_id":76561198107357249,"connected_time":2773000000000,"state":"active","ping":68},{"user_id":129,"name":"human (real)","steam_id":76561199001855562,"connected_time":1106000000000,"state":"active","ping":50},{"user_id":124,"name":"forest (minecraft npc)","steam_id":76561198157960257,"connected_time":1591000000000,"state":"active","ping":32},{"user_id":134,"name":"It's a Doggydog World","steam_id":76561198018232414,"connected_time":463000000000,"state":"active","ping":106},{"user_id":110,"name":"Brigadier Brownie","steam_id":76561198040852898,"connected_time":2809000000000,"state":"active","ping":82},{"user_id":138,"name":"Dimple #TF2Center","steam_id":76561198980324190,"connected_time":180000000000,"state":"active","ping":55},{"user_id":125,"name":"Zee✞","steam_id":76561198274550638,"connected_time":1425000000000,"state":"active","ping":105},{"user_id":102,"name":"rad killl raccoon","steam_id":76561198980975595,"connected_time":3874000000000,"state":"active","ping":69},{"user_id":126,"name":"lynks disease no sound","steam_id":76561198043465434,"connected_time":1403000000000,"state":"active","ping":73},{"user_id":106,"name":"Daz","steam_id":76561198041431938,"connected_time":2833000000000,"state":"active","ping":53},{"user_id":116,"name":"HaphazardHazel","steam_id":76561198316812693,"connected_time":2483000000000,"state":"active","ping":141},{"user_id":136,"name":"pizzalover_2014","steam_id":76561198870649125,"connected_time":335000000000,"state":"active","ping":80},{"user_id":127,"name":"jayeskae","steam_id":76561198144220801,"connected_time":1141000000000,"state":"active","ping":47},{"user_id":109,"name":"IsThatAJoJoReference","steam_id":76561198835513424,"connected_time":2827000000000,"state":"active","ping":87},{"user_id":59,"name":"ORANGE","steam_id":76561198000401769,"connected_time":6585000000000,"state":"active","ping":45},{"user_id":95,"name":"ejschild745","steam_id":76561199013388867,"connected_time":4197000000000,"state":"active","ping":74},{"user_id":137,"name":"Big Floppa","steam_id":76561199152552589,"connected_time":291000000000,"state":"active","ping":63},{"user_id":117,"name":"Afro Samurai","steam_id":76561198141835647,"connected_time":2464000000000,"state":"active","ping":61},{"user_id":132,"name":"Sovereign","steam_id":76561198018841787,"connected_time":1029000000000,"state":"active","ping":42},{"user_id":70,"name":"Ira","steam_id":76561198855586261,"connected_time":5943000000000,"state":"active","ping":80},{"user_id":99,"name":"Whyamidoingthisaaaa","steam_id":76561199168837342,"connected_time":4104000000000,"state":"active","ping":121},{"user_id":133,"name":"[Bandit]","steam_id":76561197986919852,"connected_time":834000000000,"state":"active","ping":47},{"user_id":73,"name":"Gohan Beast","steam_id":76561198271939793,"connected_time":5555000000000,"state":"active","ping":53}]},{"server_id":119,"name":"Uncletopia | Seattle | 2 | All Maps","name_short":"sea-2","host":"sea-1.us.uncletopia.com","port":27025,"enabled":true,"region":"us-west","cc":"us","latitude":47.608013,"longitude":-122.33517,"reserved":0,"last_update":"0001-01-01T00:00:00Z","name_a2s":"Uncletopia | Seattle | 2 | All Maps","protocol":17,"map":"pl_borneo","folder":"tf","game":"Team Fortress","app_id":440,"player_count":24,"max_players":24,"Bots":0,"server_type":"Dedicated","server_os":"Linux","password":true,"vac":true,"version":"7961495","steam_id":85568392924469998,"keywords":["nocrits","nodmgspread","payload","uncletopia"],"game_id":440,"stv_port":27026,"stv_name":"Uncletopia | Seattle | 2 | All Maps | STV","players":[{"user_id":124,"name":"SesataPomang","steam_id":76561198145133059,"connected_time":500000000000,"state":"active","ping":87},{"user_id":121,"name":"O","steam_id":76561198450073779,"connected_time":594000000000,"state":"active","ping":53},{"user_id":95,"name":"Pneumo.","steam_id":76561197987911883,"connected_time":2370000000000,"state":"active","ping":73},{"user_id":102,"name":"rosable ☆","steam_id":76561199164371592,"connected_time":1542000000000,"state":"active","ping":123},{"user_id":122,"name":"Malevo","steam_id":76561198148606522,"connected_time":578000000000,"state":"active","ping":108},{"user_id":61,"name":"cubibluer","steam_id":76561198197405295,"connected_time":3528000000000,"state":"active","ping":50},{"user_id":104,"name":"Croxsbow","steam_id":76561198893327481,"connected_time":1411000000000,"state":"active","ping":47},{"user_id":114,"name":"Regular player #SaveTF2","steam_id":76561198036806850,"connected_time":1193000000000,"state":"active","ping":66},{"user_id":125,"name":"taksss","steam_id":76561198995422051,"connected_time":433000000000,"state":"active","ping":82},{"user_id":48,"name":"Esteban Delsin","steam_id":76561198433519639,"connected_time":4867000000000,"state":"active","ping":144},{"user_id":118,"name":"Vicpop","steam_id":76561197970531290,"connected_time":1146000000000,"state":"active","ping":70},{"user_id":28,"name":"CasemanTheBlondeBear","steam_id":76561198144862404,"connected_time":5319000000000,"state":"active","ping":78},{"user_id":108,"name":"Hbadger","steam_id":76561198010204346,"connected_time":1269000000000,"state":"active","ping":116},{"user_id":98,"name":"LederBoy","steam_id":76561198051822369,"connected_time":2152000000000,"state":"active","ping":69},{"user_id":110,"name":"SneakyPeon","steam_id":76561198010280432,"connected_time":1241000000000,"state":"active","ping":88},{"user_id":120,"name":"Fozzy","steam_id":76561198258458765,"connected_time":975000000000,"state":"active","ping":50},{"user_id":92,"name":"Dunkle","steam_id":76561198041903573,"connected_time":2782000000000,"state":"active","ping":44},{"user_id":116,"name":"thebeast","steam_id":76561198255963049,"connected_time":1176000000000,"state":"active","ping":67},{"user_id":54,"name":"Clit Yeastwood","steam_id":76561199042672094,"connected_time":4605000000000,"state":"active","ping":65},{"user_id":117,"name":"Elfy","steam_id":76561199166448617,"connected_time":1156000000000,"state":"active","ping":61},{"user_id":126,"name":"【Crime】","steam_id":76561198319631200,"connected_time":392000000000,"state":"active","ping":71},{"user_id":57,"name":"Florescentia","steam_id":76561198316535999,"connected_time":4298000000000,"state":"active","ping":112},{"user_id":127,"name":"taxman","steam_id":76561198249211638,"connected_time":122000000000,"state":"active","ping":45},{"user_id":101,"name":"VascoLeder","steam_id":76561198035813854,"connected_time":1780000000000,"state":"active","ping":75}]},{"server_id":406,"name":"Uncletopia | Seattle | 3 | Stopwatch Beta","name_short":"sea-3","host":"sea-1.us.uncletopia.com","port":27035,"enabled":true,"region":"us-west","cc":"us","latitude":47.608013,"longitude":-122.33517,"reserved":0,"last_update":"0001-01-01T00:00:00Z","name_a2s":"Uncletopia | Seattle | 3 | Stopwatch Beta","protocol":17,"map":"cp_mountainlab","folder":"tf","game":"Team Fortress","app_id":440,"player_count":0,"max_players":24,"Bots":0,"server_type":"Dedicated","server_os":"Linux","password":true,"vac":true,"version":"7961495","steam_id":85568392924515217,"keywords":["cp","nocrits","nodmgspread","uncletopia"],"game_id":440,"stv_port":27036,"stv_name":"Uncletopia | Seattle | 3 | Stopwatch Beta | STV","players":null},{"server_id":17,"name":"Uncletopia | San Francisco | 1 | All Maps","name_short":"sfo-1","host":"sfo-1.us.uncletopia.com","port":27015,"enabled":true,"region":"us-west","cc":"us","latitude":37.77397,"longitude":-122.4313,"reserved":0,"last_update":"0001-01-01T00:00:00Z","name_a2s":"Uncletopia | San Francisco | 1 | All Maps","protocol":17,"map":"pl_frontier_final","folder":"tf","game":"Team Fortress","app_id":440,"player_count":0,"max_players":24,"Bots":0,"server_type":"Dedicated","server_os":"Linux","password":true,"vac":true,"version":"7932396","steam_id":85568392924469999,"keywords":["nocrits","nodmgspread","payload","uncletopia"],"game_id":440,"stv_port":27016,"stv_name":"Uncletopia | San Francisco | 1 | All Maps | STV","players":null},{"server_id":18,"name":"Uncletopia | San Francisco | 2 | All Maps","name_short":"sfo-2","host":"sfo-1.us.uncletopia.com","port":27025,"enabled":true,"region":"us-west","cc":"us","latitude":37.77397,"longitude":-122.4313,"reserved":0,"last_update":"0001-01-01T00:00:00Z","name_a2s":"Uncletopia | San Francisco | 2 | All Maps","protocol":17,"map":"cp_snakewater_final1","folder":"tf","game":"Team Fortress","app_id":440,"player_count":0,"max_players":24,"Bots":0,"server_type":"Dedicated","server_os":"Linux","password":true,"vac":true,"version":"7932396","steam_id":85568392924470000,"keywords":["cp","nocrits","nodmgspread","uncletopia"],"game_id":440,"stv_port":27026,"stv_name":"Uncletopia | San Francisco | 2 | All Maps | STV","players":null},{"server_id":19,"name":"Uncletopia | San Francisco | 3 | Stopwatch Beta","name_short":"sfo-3","host":"sfo-1.us.uncletopia.com","port":27035,"enabled":true,"region":"us-west","cc":"us","latitude":37.77397,"longitude":-122.4313,"reserved":0,"last_update":"0001-01-01T00:00:00Z","name_a2s":"Uncletopia | San Francisco | 3 | Stopwatch Beta","protocol":17,"map":"koth_lakeside_final","folder":"tf","game":"Team Fortress","app_id":440,"player_count":0,"max_players":24,"Bots":0,"server_type":"Dedicated","server_os":"Linux","password":true,"vac":true,"version":"7932396","steam_id":85568392924742824,"keywords":["cp","nocrits","nodmgspread","uncletopia"],"game_id":440,"stv_port":27036,"stv_name":"Uncletopia | San Francisco | 3 | Stopwatch Beta | STV","players":null},{"server_id":20,"name":"Uncletopia | San Francisco | 4 | Community","name_short":"sfo-4","host":"sfo-1.us.uncletopia.com","port":27045,"enabled":true,"region":"us-west","cc":"us","latitude":37.77397,"longitude":-122.4313,"reserved":0,"last_update":"0001-01-01T00:00:00Z","name_a2s":"Uncletopia | San Francisco | 4 | Community","protocol":17,"map":"pl_borneo","folder":"tf","game":"Team Fortress","app_id":440,"player_count":0,"max_players":24,"Bots":0,"server_type":"Dedicated","server_os":"Linux","password":true,"vac":true,"version":"7932396","steam_id":85568392924742826,"keywords":["nocrits","nodmgspread","payload","uncletopia"],"game_id":440,"stv_port":27046,"stv_name":"Uncletopia | San Francisco | 4 | Community | STV","players":null},{"server_id":141,"name":"Uncletopia | Sydney | 1 | All Maps","name_short":"syd-1","host":"syd-1.au.uncletopia.com","port":27015,"enabled":true,"region":"au","cc":"au","latitude":-33.865143,"longitude":151.2099,"reserved":0,"last_update":"0001-01-01T00:00:00Z","name_a2s":"Uncletopia | Sydney | 1 | All Maps","protocol":17,"map":"cp_mountainlab","folder":"tf","game":"Team Fortress","app_id":440,"player_count":0,"max_players":24,"Bots":0,"server_type":"Dedicated","server_os":"Linux","password":true,"vac":true,"version":"7961495","steam_id":85568392924470001,"keywords":["cp","nocrits","nodmgspread","uncletopia"],"game_id":440,"stv_port":27016,"stv_name":"Uncletopia | Sydney | 1 | All Maps | STV","players":null},{"server_id":123,"name":"Uncletopia | Sydney | 2 | All Maps","name_short":"syd-2","host":"syd-1.au.uncletopia.com","port":27025,"enabled":true,"region":"au","cc":"au","latitude":-33.865143,"longitude":151.2099,"reserved":0,"last_update":"0001-01-01T00:00:00Z","name_a2s":"Uncletopia | Sydney | 2 | All Maps","protocol":17,"map":"cp_mountainlab","folder":"tf","game":"Team Fortress","app_id":440,"player_count":0,"max_players":24,"Bots":0,"server_type":"Dedicated","server_os":"Linux","password":true,"vac":true,"version":"7961495","steam_id":85568392924470002,"keywords":["cp","nocrits","nodmgspread","uncletopia"],"game_id":440,"stv_port":27026,"stv_name":"Uncletopia | Sydney | 2 | All Maps | STV","players":null},{"server_id":395,"name":"Uncletopia | Sydney | 3 | All Maps","name_short":"syd-3","host":"syd-1.au.uncletopia.com","port":27035,"enabled":true,"region":"au","cc":"au","latitude":-33.865143,"longitude":151.2099,"reserved":0,"last_update":"0001-01-01T00:00:00Z","name_a2s":"Uncletopia | Sydney | 3 | All Maps","protocol":17,"map":"koth_harvest_final","folder":"tf","game":"Team Fortress","app_id":440,"player_count":0,"max_players":24,"Bots":0,"server_type":"Dedicated","server_os":"Linux","password":true,"vac":true,"version":"7961495","steam_id":85568392925194467,"keywords":["cp","nocrits","nodmgspread","uncletopia"],"game_id":440,"stv_port":27036,"stv_name":"Uncletopia | Sydney | 3 | All Maps | STV","players":null},{"server_id":396,"name":"Uncletopia | Sydney | 4 | All Maps","name_short":"syd-4","host":"syd-1.au.uncletopia.com","port":27045,"enabled":true,"region":"au","cc":"au","latitude":-33.865143,"longitude":151.2099,"reserved":0,"last_update":"0001-01-01T00:00:00Z","name_a2s":"Uncletopia | Sydney | 4 | All Maps","protocol":17,"map":"koth_cascade","folder":"tf","game":"Team Fortress","app_id":440,"player_count":0,"max_players":24,"Bots":0,"server_type":"Dedicated","server_os":"Linux","password":true,"vac":true,"version":"7961495","steam_id":85568392925397958,"keywords":["cp","nocrits","nodmgspread","uncletopia"],"game_id":440,"stv_port":27046,"stv_name":"Uncletopia | Sydney | 4 | All Maps | STV","players":null},{"server_id":58,"name":"Uncletopia | Sydney | 5 | Stopwatch Beta","name_short":"syd-5","host":"syd-1.au.uncletopia.com","port":27055,"enabled":true,"region":"au","cc":"au","latitude":-33.865143,"longitude":151.2099,"reserved":0,"last_update":"0001-01-01T00:00:00Z","name_a2s":"Uncletopia | Sydney | 5 | Stopwatch Beta","protocol":17,"map":"koth_viaduct","folder":"tf","game":"Team Fortress","app_id":440,"player_count":0,"max_players":24,"Bots":0,"server_type":"Dedicated","server_os":"Linux","password":true,"vac":true,"version":"7961495","steam_id":85568392925397959,"keywords":["cp","nocrits","nodmgspread","uncletopia"],"game_id":440,"stv_port":27056,"stv_name":"Uncletopia | Sydney | 5 | Stopwatch Beta | STV","players":null},{"server_id":59,"name":"Uncletopia | Sydney | 6 | Community","name_short":"syd-6","host":"syd-1.au.uncletopia.com","port":27065,"enabled":true,"region":"au","cc":"au","latitude":-33.865143,"longitude":151.2099,"reserved":0,"last_update":"0001-01-01T00:00:00Z","name_a2s":"Uncletopia | Sydney | 6 | Community","protocol":17,"map":"workshop/koth_ramjam_rc1.ugc459778887","folder":"tf","game":"Team Fortress","app_id":440,"player_count":0,"max_players":24,"Bots":0,"server_type":"Dedicated","server_os":"Linux","password":true,"vac":true,"version":"7961495","steam_id":85568392925397960,"keywords":["cp","nocrits","nodmgspread","uncletopia"],"game_id":440,"stv_port":27066,"stv_name":"Uncletopia | Sydney | 6 | Community | STV","players":null},{"server_id":49,"name":"Uncletopia | Warsaw | 1 | All Maps","name_short":"waw-1","host":"waw-1.pl.uncletopia.com","port":27015,"enabled":true,"region":"eu","cc":"pl","latitude":52.2297,"longitude":21.017532,"reserved":0,"last_update":"0001-01-01T00:00:00Z","name_a2s":"","protocol":0,"map":"","folder":"","game":"","app_id":0,"player_count":0,"max_players":0,"Bots":0,"server_type":"","server_os":"","password":false,"vac":false,"version":"","steam_id":0,"keywords":null,"game_id":0,"stv_port":0,"stv_name":"","players":null},{"server_id":50,"name":"Uncletopia | Warsaw | 2 | All Maps","name_short":"waw-2","host":"waw-1.pl.uncletopia.com","port":27025,"enabled":true,"region":"eu","cc":"pl","latitude":52.2297,"longitude":21.017532,"reserved":0,"last_update":"0001-01-01T00:00:00Z","name_a2s":"Uncletopia | Warsaw | 2 | All Maps","protocol":17,"map":"koth_cascade","folder":"tf","game":"Team Fortress","app_id":440,"player_count":0,"max_players":24,"Bots":0,"server_type":"Dedicated","server_os":"Linux","password":true,"vac":true,"version":"7961495","steam_id":85568392925397851,"keywords":["cp","nocrits","nodmgspread","uncletopia"],"game_id":440,"stv_port":27026,"stv_name":"Uncletopia | Warsaw | 2 | All Maps | STV","players":null},{"server_id":51,"name":"Uncletopia | Warsaw | 3 | All Maps","name_short":"waw-3","host":"waw-1.pl.uncletopia.com","port":27035,"enabled":true,"region":"eu","cc":"pl","latitude":52.2297,"longitude":21.017532,"reserved":0,"last_update":"0001-01-01T00:00:00Z","name_a2s":"Uncletopia | Warsaw | 3 | All Maps","protocol":17,"map":"koth_cascade","folder":"tf","game":"Team Fortress","app_id":440,"player_count":10,"max_players":24,"Bots":0,"server_type":"Dedicated","server_os":"Linux","password":true,"vac":true,"version":"7961495","steam_id":85568392925397852,"keywords":["cp","nocrits","nodmgspread","uncletopia"],"game_id":440,"stv_port":27036,"stv_name":"Uncletopia | Warsaw | 3 | All Maps | STV","players":[{"user_id":115,"name":"Lorelord","steam_id":76561199443152879,"connected_time":882000000000,"state":"active","ping":191},{"user_id":117,"name":"WOW i'm dead","steam_id":76561199082267619,"connected_time":499000000000,"state":"active","ping":85},{"user_id":119,"name":"Ekon","steam_id":76561199145447699,"connected_time":249000000000,"state":"active","ping":107},{"user_id":83,"name":"stefanbejenari","steam_id":76561199466718294,"connected_time":3324000000000,"state":"active","ping":80},{"user_id":120,"name":"♥HuHi♥","steam_id":76561198286149089,"connected_time":233000000000,"state":"active","ping":87},{"user_id":121,"name":"betrayal","steam_id":76561198416233980,"connected_time":3000000000,"state":"spawning","ping":425},{"user_id":82,"name":"maslak","steam_id":76561198803969176,"connected_time":3852000000000,"state":"active","ping":63},{"user_id":88,"name":"Warpzel65","steam_id":76561198799303596,"connected_time":2578000000000,"state":"active","ping":83},{"user_id":101,"name":"♥ Cirno ♥","steam_id":76561198834982738,"connected_time":2036000000000,"state":"active","ping":68},{"user_id":97,"name":"FireRainV","steam_id":76561198255206643,"connected_time":2137000000000,"state":"active","ping":112}]},{"server_id":52,"name":"Uncletopia | Warsaw | 4 | All Maps","name_short":"waw-4","host":"waw-1.pl.uncletopia.com","port":27045,"enabled":true,"region":"eu","cc":"pl","latitude":52.2297,"longitude":21.017532,"reserved":0,"last_update":"0001-01-01T00:00:00Z","name_a2s":"Uncletopia | Warsaw | 4 | All Maps","protocol":17,"map":"cp_dustbowl","folder":"tf","game":"Team Fortress","app_id":440,"player_count":2,"max_players":24,"Bots":0,"server_type":"Dedicated","server_os":"Linux","password":true,"vac":true,"version":"7961495","steam_id":85568392925397853,"keywords":["cp","nocrits","nodmgspread","uncletopia"],"game_id":440,"stv_port":27046,"stv_name":"Uncletopia | Warsaw | 4 | All Maps | STV","players":[{"user_id":4,"name":"The Sewer r4t","steam_id":76561199028541854,"connected_time":1930000000000,"state":"active","ping":76},{"user_id":5,"name":"yoo (︶ω︶)","steam_id":76561199162486253,"connected_time":1787000000000,"state":"active","ping":116}]},{"server_id":53,"name":"Uncletopia | Warsaw | 5 | Stopwatch Beta","name_short":"waw-5","host":"waw-1.pl.uncletopia.com","port":27055,"enabled":true,"region":"eu","cc":"pl","latitude":52.2297,"longitude":21.017532,"reserved":0,"last_update":"0001-01-01T00:00:00Z","name_a2s":"Uncletopia | Warsaw | 5 | Stopwatch Beta","protocol":17,"map":"pl_snowycoast","folder":"tf","game":"Team Fortress","app_id":440,"player_count":0,"max_players":24,"Bots":0,"server_type":"Dedicated","server_os":"Linux","password":true,"vac":true,"version":"7961495","steam_id":85568392925397854,"keywords":["nocrits","nodmgspread","payload","uncletopia"],"game_id":440,"stv_port":27056,"stv_name":"Uncletopia | Warsaw | 5 | Stopwatch Beta | STV","players":null},{"server_id":54,"name":"Uncletopia | Warsaw | 6 | Community","name_short":"waw-6","host":"waw-1.pl.uncletopia.com","port":27065,"enabled":true,"region":"eu","cc":"pl","latitude":52.2297,"longitude":21.017532,"reserved":0,"last_update":"0001-01-01T00:00:00Z","name_a2s":"Uncletopia | Warsaw | 6 | Community","protocol":17,"map":"workshop/cp_propaganda_b18.ugc1603743849","folder":"tf","game":"Team Fortress","app_id":440,"player_count":0,"max_players":24,"Bots":0,"server_type":"Dedicated","server_os":"Linux","password":true,"vac":true,"version":"7961495","steam_id":85568392925397856,"keywords":["cp","nocrits","nodmgspread","uncletopia"],"game_id":440,"stv_port":27066,"stv_name":"Uncletopia | Warsaw | 6 | Community | STV","players":null}]}